     3.00           OBSERVATION DATA    M: Mixed            RINEX VERSION / TYPE
CONVBIN 2.4.3                           20240416 194442 UTC PGM / RUN BY / DATE 
format: u-blox UBX                                          COMMENT             
log: /home/regis/git/gnsspwv/obsdata/VERT00CHL/2024-04-16/VECOMMENT             
{self.marker}                                               MARKER NAME         
                                                            MARKER NUMBER       
GEODETIC                                                    MARKER TYPE         
{self.observer}     {self.institution}                      OBSERVER / AGENCY   
UNKNOWN             UBLOX-ZED-F9P                           REC # / TYPE / VERS 
UNKNOWN             TWIVSP6037L                             ANT # / TYPE        
  1713381.0000 -5047934.0000 -3490983.0000                  APPROX POSITION XYZ 
        0.0000        0.0000        0.0000                  ANTENNA: DELTA H/E/N
G    8 C1C L1C D1C S1C C2L L2L D2L S2L                      SYS / # / OBS TYPES 
R    8 C1C L1C D1C S1C C2C L2C D2C S2C                      SYS / # / OBS TYPES 
E    8 C1C L1C D1C S1C C7Q L7Q D7Q S7Q                      SYS / # / OBS TYPES 
S    4 C1C L1C D1C S1C                                      SYS / # / OBS TYPES 
  2024    04    16    19    30   00.0030000     GPS         TIME OF FIRST OBS   
  2024    04    16    19    44   30.0030000     GPS         TIME OF LAST OBS    
                                                            END OF HEADER       
> 2024 04 16 19 30 00.0030000  0 22                     
G13  22821608.335   119928429.1021       1369.471          49.000                                                                  
G07  23882795.623   125505014.3871      -3788.530          44.000    23882800.070    97796166.4541      -2952.167          42.000  
G09  25084751.393   131821055.9501      -3488.216          42.000    25084766.647   102717667.8871      -2718.207          42.000  
R05  21274589.402   113725117.0941       1970.207          52.000    21274592.444    88452752.5161       1532.410          50.000  
R16  23764909.352   126947884.6011       2903.502          47.000    23764930.156    98737426.2441       2258.205          44.000  
R04  20264760.017   108517023.7541      -1505.027          52.000    20264758.897    84402122.1051      -1170.669          49.000  
R14  21197791.823   112996264.0151      -3592.441          53.000    21197796.514    87886181.9731      -2794.168          50.000  
E08  25335688.259   133140076.5391        707.808          45.000    25335694.783   102016482.8851        542.375          52.000  
S31  39672982.675   208482852.6801       -815.098          43.000  
S33  40623943.539   213480155.3231       -815.553          43.000  
G20  22170665.301   116507655.8121      -2582.280          47.000                                                                  
E03  24718354.229   129895883.8561      -1292.060          47.000    24718360.797    99530664.5001       -990.062          49.000  
R15  20270243.966   108318409.4191        199.330          52.000    20270246.651    84247508.0561        155.089          48.000  
R03  23382437.857   125167895.1671      -4240.540          50.000    23382450.172    97352791.1491      -3298.220          49.000  
E05  26669983.729   140151501.6161      -2792.817          45.000    26670001.642   107388779.5931      -2140.083          47.000  
G05  22405532.201   117741843.6341         45.841          48.000    22405534.812    91746952.1971         35.942          45.000  
G30  21904931.965   115111400.4961      -2404.469          48.000    21904936.363    89697316.2101      -1873.753          47.000  
E30  28002130.725   147152304.9421       2198.911          42.000    28002155.932   112753240.6271       1684.892          45.000  
G14  21173249.937   111266392.7991       -221.572          48.000    21173251.596    86701246.7431       -172.615          48.000  
E02  24615518.301   129355639.1301        635.785          48.000    24615525.568    99116833.8681        487.188          52.000  
G22  22177063.305   116541551.0371       1790.100          49.000                                                                  
E25  25450835.002   133745277.6101      -2109.436          47.000    25450841.429   102480278.4001      -1616.283          50.000  
> 2024 04 16 19 30 30.0030000  0 23                     
G13  22813795.699   119887373.902        1367.600          49.000                                                                  
G07  23904425.962   125618679.462       -3789.087          46.000    23904429.613    97884736.499       -2952.616          41.000  
G09  25104680.063   131925779.272       -3493.413          43.000    25104694.701   102799270.097       -2722.082          43.000  
R05  21263562.098   113666168.310        1959.822          52.000    21263564.830    88406903.524        1524.243          49.000  
R16  23748627.909   126860917.158        2894.291          46.000    23748648.865    98669785.839        2251.421          41.000  
R04  20273247.978   108562476.876       -1525.153          52.000    20273246.923    84437474.475       -1186.111          49.000  
R14  21218044.651   113104223.466       -3604.926          53.000    21218049.639    87970150.408       -2803.759          51.000  
E08  25331653.657   133118872.301         705.782          46.000    25331659.483   102000235.522         540.804          51.000  
S31  39677634.831   208507300.199        -814.523          42.000  
S33  40628596.672   213504607.645        -814.607          43.000  
G20  22185451.094   116585356.375       -2597.513          46.000                                                                  
E03  24725747.618   129934736.232       -1297.854          47.000    24725754.447    99560434.465        -994.473          49.000  
R15  20269185.161   108312750.875         177.968          51.000    20269188.689    84243107.040         138.479          48.000  
R03  23406235.112   125295270.147       -4251.081          51.000    23406245.152    97451860.020       -3306.359          48.000  
E05  26685938.976   140235347.153       -2796.751          44.000    26685956.897   107453024.565       -2142.797          46.000  
G05  22405323.566   117740743.453          27.526          48.000    22405326.322    91746094.904          21.407          46.000  
G30  21918676.698   115183625.971       -2410.540          48.000    21918680.085    89753595.777       -1878.323          46.000  
E30  27989582.845   147086370.867        2196.752          41.000    27989608.409   112702720.379        1683.187          45.000  
G14  21174569.660   111273327.303        -240.665          47.000    21174570.322    86706650.293        -187.556          47.000  
E02  24611921.423   129336738.484         624.192          48.000    24611928.715    99102351.651         478.339          52.000  
G22  22166882.590   116488049.528        1776.644          49.000                                                                  
E25  25462908.953   133808730.405       -2120.677          46.000    25462916.285   102528898.025       -1624.994          50.000  
G15                                                                  25644164.189                1       1651.698          26.000  
> 2024 04 16 19 31 00.0030000  0 23                     
G13  22805996.025   119846387.530        1364.909          49.000                                                                  
G15  25632036.575   134697251.6981       2121.442          30.000    25632051.753                3       1653.150          25.000  
G07  23926061.509   125732373.009       -3790.453          46.000    23926064.732    97973328.709       -2953.769          40.000  
G09  25124641.539   132030675.667       -3499.688          43.000    25124656.488   102881007.155       -2726.865          43.000  
R05  21252596.281   113607551.515        1948.197          52.000    21252599.607    88361312.759        1515.244          50.000  
R16  23732402.558   126774243.463        2884.105          48.000    23732422.030    98602373.861        2242.865          41.000  
R04  20281851.303   108608549.866       -1546.173          51.000    20281850.473    84473308.971       -1202.626          49.000  
R14  21238371.494   113212573.343       -3618.313          52.000    21238376.070    88054422.469       -2814.080          50.000  
E08  25327633.223   133097744.852         702.688          46.000    25327639.097   101984047.003         538.508          51.000  
S31  39682286.262   208531744.063        -815.057          43.000  
S33  40633249.023   213529056.041        -814.968          42.000  
G20  22200327.761   116663529.555       -2613.801          46.000                                                                  
E03  24733177.520   129973779.429       -1304.678          48.000    24733184.247    99590350.642        -999.672          49.000  
R15  20268249.171   108307750.243         155.538          51.000    20268252.724    84239217.747         121.001          49.000  
R03  23430091.272   125422975.605       -4262.462          50.000    23430100.895    97551185.956       -3315.205          46.000  
E05  26701917.354   140319321.716       -2801.320          43.000    26701936.772   107517368.430       -2146.495          46.000  
G05  22405222.797   117740210.819           8.110          49.000    22405225.324    91745679.850           6.250          46.000  
G30  21932457.930   115256047.309       -2417.615          49.000    21932460.985    89810027.978       -1883.777          45.000  
E30  27977050.757   147020517.334        2193.547          40.000    27977076.160   112652261.883        1680.959          46.000  
G14  21176001.467   111280854.273        -260.816          46.000    21176003.037    86712515.543        -203.335          48.000  
E02  24608393.236   129318201.020         611.748          48.000    24608400.920    99088147.721         468.804          52.000  
G22  22156779.998   116434963.017        1762.475          48.000                                                                  
E25  25475049.501   133872532.019       -2132.640          45.000    25475057.431   102577784.949       -1634.098          50.000  
> 2024 04 16 19 31 30.0030000  0 23                     
G13  22798211.065   119805476.286        1362.482          49.000                                                                  
G15  25619923.365                3       2123.225          26.000                                                                  
G07  23947702.769   125846098.545       -3791.426          46.000    23947706.108    98061945.868       -2954.284          41.000  
G09  25144636.123   132135749.415       -3505.347          42.000    25144651.126   102962882.423       -2731.465          42.000  
R05  21241694.915   113549275.234        1936.866          51.000    21241697.674    88315986.811        1506.383          50.000  
R16  23716231.920   126687870.665        2874.056          48.000    23716251.485    98535195.804        2235.473          40.000  
R04  20290571.652   108655248.342       -1567.009          51.000    20290570.634    84509629.946       -1218.697          49.000  
R14  21258771.446   113321315.176       -3631.275          53.000    21258775.598    88138999.362       -2824.236          50.000  
E08  25323628.498   133076699.899         700.095          46.000    25323634.128   101967921.693         536.306          51.000  
S31  39686938.140   208556189.918        -814.750          43.000  
S33  40637901.507   213553505.738        -814.999          42.000  
G20  22215293.945   116742177.758       -2629.752          47.000                                                                  
E03  24740644.116   130013018.891       -1311.236          48.000    24740651.170    99620417.205       -1004.706          49.000  
R15  20267437.402   108303412.234         133.537          52.000    20267440.781    84235843.831         103.874          49.000  
R03  23454009.497   125551014.069       -4273.513          49.000    23454021.520    97650770.840       -3323.791          48.000  
E05  26717923.701   140403430.078       -2805.743          44.000    26717942.513   107581814.812       -2149.953          46.000  
G05  22405229.301   117740251.667         -10.911          49.000    22405233.017    91745711.654          -8.478          46.000  
G30  21946277.107   115328667.951       -2424.018          48.000    21946279.900    89866615.448       -1888.858          45.000  
E30  27964533.938   146954750.589        2190.832          40.000    27964560.357   112601869.961        1678.648          46.000  
G14  21177546.793   111288978.792        -280.710          47.000    21177549.649    86718846.380        -218.761          49.000  
E02  24604936.776   129300032.200         599.477          49.000    24604943.643    99074226.254         459.354          52.000  
G22  22146757.502   116382298.516        1748.381          47.000                                                                  
E25  25487256.842   133936685.857       -2144.423          45.000    25487265.694   102626941.765       -1643.044          50.000  
> 2024 04 16 19 32 00.0030000  0 22                     
G13  22790440.704   119764643.982        1359.314          49.000                                                                  
G07  23969350.606   125959857.534       -3792.724          44.000    23969355.047    98150589.040       -2955.280          42.000  
G09  25164664.545   132241002.698       -3511.670          41.000    25164680.578   103044897.580       -2736.326          42.000  
R05  21230857.256   113491345.352        1924.898          51.000    21230860.697    88270930.280        1497.177          50.000  
R16  23700118.889   126601803.578        2863.684          48.000    23700140.133    98468255.623        2227.106          41.000  
R04  20299409.885   108702575.970       -1588.333          51.000    20299408.616    84546440.266       -1235.280          49.000  
R14  21279244.021   113430447.748       -3644.399          53.000    21279248.353    88223880.198       -2834.528          49.000  
E08  25319639.458   133055741.052         696.975          46.000    25319645.814   101951862.359         534.017          52.000  
S31  39691590.834   208580638.303        -815.268          44.000  
S33  40642555.095   213577959.835        -815.279          43.000  
G20  22230351.330   116821301.378       -2645.315          48.000                                                                  
E03  24748148.759   130052457.948       -1318.111          47.000    24748155.982    99650636.709       -1009.884          49.000  
R15  20266749.617   108299739.139         111.178          51.000    20266752.711    84232987.055          86.223          48.000  
R03  23477991.321   125679386.690       -4284.853          49.000    23478003.812    97750615.566       -3332.653          50.000  
E05  26733955.835   140487674.909       -2810.515          44.000    26733974.377   107646365.739       -2153.641          46.000  
G05  22405347.157   117740869.428         -30.503          48.000    22405350.502    91746193.002         -23.829          46.000  
G30  21960134.411   115401489.165       -2430.775          48.000    21960137.525    89923359.179       -1894.155          44.000  
E30  27952036.776   146889074.848        2187.719          41.000    27952062.262   112551547.732        1676.167          47.000  
G14  21179207.820   111297703.795        -300.973          47.000    21179209.141    86725645.123        -234.691          48.000  
E02  24601550.543   129282235.388         586.870          49.000    24601557.092    99060589.829         449.582          53.000  
G22  22136816.735   116330061.329        1733.792          48.000                                                                  
E25  25499533.382   134001193.245       -2156.389          47.000    25499541.199   102676369.508       -1652.268          50.000  
> 2024 04 16 19 32 30.0030000  0 23                     
G13  22782686.100   119723895.679        1356.506          49.000                                                                  
G07  23991004.454   126073652.557       -3793.899          46.000    23991009.215    98239260.301       -2956.178          41.000  
G09  25184729.610   132346438.902       -3517.822          44.000    25184744.849   103127055.288       -2741.216          42.000  
R05  21220087.165   113433769.564        1913.112          52.000    21220089.627    88226149.171        1488.004          50.000  
R16  23684064.687   126516048.500        2853.069          47.000    23684085.102    98401558.120        2219.262          41.000  
R04  20308365.940   108750537.355       -1609.416          51.000    20308366.061    84583743.519       -1251.696          49.000  
R14  21299789.655   113539970.826       -3657.412          52.000    21299795.177    88309064.742       -2844.582          50.000  
E08  25315669.291   133034873.124         693.933          46.000    25315674.719   101935872.693         531.740          51.000  
S31  39696244.361   208605094.865        -815.487          44.000  
S33  40647209.587   213602420.477        -815.492          42.000  
G20  22245498.611   116900901.886       -2661.290          46.000                                                                  
E03  24755694.095   130092101.158       -1324.829          48.000    24755699.856    99681012.636       -1015.228          49.000  
R15  20266187.904   108296734.796          88.881          51.000    20266190.047    84230650.387          69.190          48.000  
R03  23502035.596   125808095.189       -4295.984          50.000    23502048.202    97850721.570       -3341.225          49.000  
E05  26750013.574   140572060.021       -2815.237          42.000    26750032.385   107711024.164       -2157.125          46.000  
G05  22405575.775   117742069.088         -49.828          48.000    22405578.430    91747127.797         -38.734          46.000  
G30  21974030.498   115474513.322       -2437.542          48.000    21974033.505    89980261.095       -1899.412          45.000  
E30  27939556.899   146823495.410        2184.373          41.000    27939581.999   112501299.273        1673.663          47.000  
G14  21180982.962   111307033.279        -321.146          47.000    21180984.796    86732914.903        -250.334          49.000  
E02  24598235.426   129264815.133         574.235          49.000    24598242.157    99047241.944         440.056          53.000  
G22  22126959.147   116278257.209        1719.335          48.000                                                                  
E25  25511876.914   134066056.685       -2168.075          47.000    25511884.365   102726070.028       -1661.232          51.000  
G15                                                                  25595680.978                3       1655.535          23.000  
> 2024 04 16 19 33 00.0030000  0 23                     
G13  22774948.193   119683233.196        1353.637          49.000                                                                  
G07  24012665.855   126187483.404       -3795.325          46.000    24012670.623    98327959.499       -2957.378          42.000  
G09  25204828.654   132452057.867       -3524.042          42.000    25204843.186   103209355.424       -2745.960          41.000  
R05  21209383.640   113376552.067        1901.061          51.000    21209385.790    88181646.723        1478.624          50.000  
R16  23668070.444   126430608.146        2842.598          49.000    23668088.333    98335105.354        2211.023          41.000  
R04  20317441.606   108799133.651       -1630.737          52.000    20317440.037    84621540.591       -1268.198          48.000  
R14  21320409.715   113649881.389       -3670.375          53.000    21320415.076    88394550.668       -2854.744          51.000  
E08  25311715.654   133014097.578         690.665          46.000    25311721.426   101919953.810         529.293          52.000  
S31  39700899.840   208629559.515        -815.735          43.000  
S33  40651866.270   213626889.837        -816.239          42.000  
G20  22260736.666   116980977.799       -2677.491          46.000                                                                  
E03  24763276.696   130131949.699       -1331.913          48.000    24763282.925    99711545.868       -1020.525          49.000  
R15  20265749.551   108294399.224          66.372          49.000    20265752.892    84228833.900          51.700          47.000  
R03  23526141.973   125937138.376       -4307.285          49.000    23526155.441    97951087.869       -3349.991          50.000  
E05  26766098.439   140656585.801       -2820.259          43.000    26766117.433   107775790.375       -2160.845          47.000  
G05  22405915.224   117743851.575         -69.442          49.000    22405917.298    91748516.733         -54.124          45.000  
G30  21987964.199   115547739.576       -2444.534          48.000    21987968.289    90037320.487       -1904.878          46.000  
E30  27927095.334   146758014.358        2180.653          40.000    27927120.690   112451126.225        1670.867          47.000  
G14  21182873.086   111316968.003        -341.470          46.000    21182874.608    86740656.332        -266.167          48.000  
E02  24594992.352   129247772.645         561.533          49.000    24594999.021    99034183.504         430.256          53.000  
G22  22117183.692   116226888.690        1704.678          49.000                                                                  
E25  25524287.692   134131275.297       -2180.150          48.000    25524294.936   102776042.727       -1670.530          50.000  
G15                                                                  25583532.305                        1657.314          26.000  
> 2024 04 16 19 33 30.0030000  0 23                     
G13  22767225.829   119642651.269        1351.467          49.000                                                                  
G07  24034332.242   126301341.853       -3795.451          45.000    24034337.281    98416680.259       -2957.501          42.000  
G09  25224961.712   132557853.126       -3529.138          42.000    25224976.227   103291792.895       -2750.033          41.000  
R05  21198745.909   113319690.347        1889.729          51.000    21198748.256    88137420.995        1469.844          50.000  
R16  23652133.285   126345478.516        2832.775          47.000    23652152.129    98268894.249        2203.378          43.000  
R04  20326634.208   108848359.345       -1651.101          51.000    20326632.346    84659827.177       -1284.277          48.000  
R14  21341099.274   113760169.567       -3682.336          53.000    21341104.023    88480330.306       -2864.031          49.000  
E08  25307778.398   132993409.217         688.423          46.000    25307784.197   101904101.722         527.452          51.000  
S31  39705555.784   208654025.092        -815.210          42.000  
S33  40656522.907   213651361.469        -815.503          42.000  
G20  22276063.587   117061520.698       -2692.232          47.000                                                                  
E03  24770897.388   130171998.044       -1338.040          48.000    24770903.126    99742232.227       -1025.191          48.000  
R15  20265437.270   108292725.326          45.003          50.000    20265439.662    84227532.068          34.998          48.000  
R03  23550310.220   126066507.556       -4317.431          50.000    23550322.298    98051707.743       -3357.984          48.000  
E05  26782209.226   140741246.158       -2823.961          42.000    26782227.667   107840659.673       -2163.909          46.000  
G05  22406364.067   117746211.527         -88.186          48.000    22406366.074    91750355.627         -68.545          45.000  
G30  22001936.251   115621160.365       -2450.404          48.000    22001940.272    90094531.448       -1909.537          47.000  
E30  27914652.196   146692626.899        2178.205          40.000    27914677.171   112401024.907        1669.100          47.000  
G14  21184877.686   111327502.005        -360.893          47.000    21184878.644    86748864.685        -281.207          48.000  
E02  24591819.572   129231102.386         549.575          48.000    24591826.781    99021410.281         421.183          53.000  
G22  22107491.389   116175952.364        1690.836          49.000                                                                  
E25  25536764.437   134196841.567       -2191.116          47.000    25536772.018   102826281.789       -1678.871          51.000  
G15                                                                  25571362.923                3       1659.259          24.000  
> 2024 04 16 19 34 00.0030000  0 23                     
G13  22759518.445   119602149.050        1348.425          48.000                                                                  
G07  24056003.814   126415225.371       -3796.641          43.000    24056008.629    98505420.490       -2958.633          42.000  
G09  25245127.357   132663821.951       -3535.603          41.000    25245141.757   103374365.629       -2754.806          41.000  
R05  21188175.390   113263185.305        1877.282          51.000    21188177.967    88093472.676        1460.075          50.000  
R16  23636253.658   126260659.627        2821.826          47.000    23636272.702    98202924.852        2194.609          45.000  
R04  20335943.757   108898213.212       -1672.462          51.000    20335942.746    84698602.330       -1300.757          48.000  
R14  21361858.940   113870829.585       -3695.137          53.000    21361862.958    88566399.190       -2873.975          50.000  
E08  25303857.760   132972807.033         685.016          46.000    25303863.721   101888315.659         524.824          51.000  
S31  39710211.556   208678491.030        -815.808          42.000  
S33  40661179.436   213675832.300        -815.896          43.000  
G20  22291479.276   117142526.141       -2708.102          48.000                                                                  
E03  24778556.500   130212244.930       -1345.111          48.000    24778562.226    99773070.707       -1030.676          48.000  
R15  20265246.543   108291710.884          22.536          49.000    20265250.034    84226743.136          17.635          49.000  
R03  23574538.540   126196199.131       -4328.702          51.000    23574549.623    98152578.323       -3366.789          48.000  
E05  26798344.486   140826039.074       -2828.766          42.000    26798364.140   107905630.510       -2167.701          47.000  
G05  22406923.278   117749147.917        -107.865          49.000    22406924.600    91752643.715         -83.949          45.000  
G30  22015944.567   115694772.336       -2457.243          48.000    22015948.332    90151891.356       -1914.778          46.000  
E30  27902226.931   146627332.527        2174.700          41.000    27902251.721   112350994.892        1666.195          48.000  
G14  21186996.042   111338633.407        -381.320          46.000    21186996.692    86757538.548        -297.184          48.000  
E02  24588717.347   129214803.025         536.764          48.000    24588724.880    99008921.251         411.353          53.000  
G22  22097880.282   116125448.739        1675.842          48.000                                                                  
E25  25549306.722   134262752.091       -2202.970          47.000    25549314.276   102876784.629       -1688.078          50.000  
G15                                                                  25559229.948                        1660.206          26.000  
> 2024 04 16 19 34 30.0030000  0 23                     
G13  22751828.546   119561737.743        1345.695          49.000                                                                  
G07  24077682.141   126529142.382       -3797.481          42.000    24077686.528    98594186.797       -2959.173          41.000  
G09  25265326.893   132769973.693       -3541.412          41.000    25265341.598   103457080.896       -2759.249          40.000  
R05  21177674.691   113207051.157        1865.092          52.000    21177677.066    88049812.856        1450.603          50.000  
R16  23620435.962   126176163.955        2811.391          48.000    23620454.532    98137206.871        2186.412          46.000  
R04  20345372.953   108948705.767       -1693.555          51.000    20345372.520    84737874.250       -1317.225          49.000  
R14  21382688.824   113981867.715       -3707.319          53.000    21382694.140    88652762.117       -2883.497          49.000  
E08  25299955.127   132952301.789         682.058          45.000    25299961.714   101872603.898         522.625          51.000  
S31  39714869.038   208702966.805        -815.933          42.000  
S33  40665837.959   213700312.696        -815.996          43.000  
G20  22306983.815   117224001.633       -2723.444          48.000                                                                  
E03  24786254.966   130252700.872       -1351.799          48.000    24786260.805    99804069.360       -1035.734          48.000  
R15  20265181.878   108291365.475           0.471          50.000    20265185.518    84226474.539           0.553          48.000  
R03  23598828.937   126326220.906       -4339.321          50.000    23598840.583    98253705.730       -3375.070          48.000  
E05  26814507.605   140910974.226       -2833.304          43.000    26814526.974   107970710.377       -2170.879          47.000  
G05  22407593.546   117752671.949        -127.147          48.000    22407595.677    91755389.686         -99.115          46.000  
G30  22029989.877   115768583.859       -2463.446          46.000    22029994.039    90209406.796       -1919.633          46.000  
E30  27889820.901   146562142.515        2171.718          42.000    27889845.428   112301044.819        1663.931          47.000  
G14  21189229.524   111350372.216        -401.192          46.000    21189231.256    86766685.724        -312.654          49.000  
E02  24585688.730   129198885.046         524.485          48.000    24585695.846    98996724.458         401.853          53.000  
G22  22088354.397   116075389.505        1661.434          48.000                                                                  
E25  25561916.493   134329015.339       -2214.461          47.000    25561923.688   102927557.732       -1696.743          50.000  
G15                                                                  25547066.397                        1660.022          26.000  
> 2024 04 16 19 35 00.0030000  0 23                     
G13  22744154.104   119521408.490        1342.641          48.000                                                                  
G15  25534883.862   134186696.1553       2132.334          30.000    25534891.226                3       1670.303          23.000  
G07  24099363.216   126643081.840       -3798.452          42.000    24099367.574    98682970.627       -2959.890          39.000  
G09  25285560.066   132876297.950       -3547.217          41.000    25285574.462   103539930.596       -2763.848          40.000  
R05  21167241.332   113151281.345        1852.763          52.000    21167243.962    88006436.376        1440.982          50.000  
R16  23604677.326   126091983.504        2800.569          46.000    23604695.157    98071733.974        2178.118          45.000  
R04  20354920.010   108999827.701       -1714.699          52.000    20354919.482    84777635.678       -1333.572          48.000  
R14  21403588.294   114093269.883       -3719.648          53.000    21403593.564    88739408.198       -2893.160          50.000  
E08  25296069.676   132931884.565         679.007          45.000    25296076.437   101856959.571         520.221          51.000  
S31  39719526.336   208727441.031        -816.164          41.000  
S33  40670496.077   213724792.472        -816.130          43.000  
G20  22322575.664   117305934.817       -2738.925          48.000                                                                  
E03  24793992.015   130293356.565       -1358.598          49.000    24793997.691    99835221.089       -1040.996          48.000  
R15  20265240.983   108291678.520         -21.565          50.000    20265243.775    84226718.125         -16.771          48.000  
R03  23623176.641   126456560.852       -4350.234          50.000    23623190.082    98355080.631       -3383.377          49.000  
E05  26830695.606   140996041.727       -2837.866          42.000    26830714.935   108035891.677       -2174.568          46.000  
G05  22408374.150   117756773.427        -146.511          48.000    22408376.110    91758585.610        -114.037          45.000  
G30  22044072.070   115842583.727       -2469.979          47.000    22044075.551    90267068.962       -1924.650          46.000  
E30  27877434.485   146497048.382        2168.211          41.000    27877458.151   112251168.169        1661.210          47.000  
G14  21191577.079   111362708.561        -421.335          47.000    21191579.250    86776298.496        -328.273          50.000  
E02  24582729.779   129183339.193         511.912          48.000    24582737.333    98984812.798         392.214          53.000  
G22  22078911.338   116025767.092        1646.697          48.000                                                                  
E25  25574590.690   134395620.008       -2226.011          48.000    25574598.136   102978592.442       -1705.566          50.000  
> 2024 04 16 19 35 30.0030000  0 23                     
G13  22736497.329   119481173.006        1339.604          48.000                                                                  
G15  25522712.661                        2133.195          29.000    25522714.736                        1661.106          27.000  
G07  24121052.134   126757052.759       -3799.796          43.000    24121056.488    98771778.974       -2960.730          40.000  
G09  25305826.936   132982804.399       -3552.905          41.000    25305843.654   103622922.275       -2768.813          41.000  
R05  21156879.103   113095889.574        1840.089          52.000    21156881.639    87963353.950        1431.258          49.000  
R16  23588979.636   126008130.871        2789.645          47.000    23588997.112    98006516.058        2169.599          46.000  
R04  20364586.736   109051589.915       -1736.104          52.000    20364585.534    84817895.124       -1350.199          48.000  
R14  21424557.433   114205042.954       -3731.891          53.000    21424562.164    88826342.749       -2902.631          51.000  
E08  25292203.003   132911566.650         675.531          45.000    25292209.850   101841391.317         517.629          51.000  
S31  39724185.663   208751926.183        -816.518          42.000  
S33  40675156.531   213749282.235        -816.348          43.000  
G20  22338255.141   117388333.737       -2754.427          47.000                                                                  
E03  24801769.023   130334223.019       -1365.775          49.000    24801774.867    99866534.303       -1046.493          49.000  
R15  20265424.502   108292659.418         -43.909          51.000    20265426.883    84227481.095         -34.095          49.000  
R03  23647585.445   126587227.643       -4360.980          48.000    23647600.591    98456709.702       -3391.749          48.000  
E05  26846911.089   141081251.842       -2842.720          43.000    26846930.563   108101182.199       -2178.149          46.000  
G05  22409266.835   117761463.221        -166.161          48.000    22409268.238    91762239.999        -129.557          45.000  
G30  22058191.694   115916780.759       -2476.556          48.000    22058195.552    90324884.797       -1929.677          46.000  
E30  27865068.253   146432061.972        2164.325          41.000    27865090.968   112201374.006        1658.283          47.000  
G14  21194040.717   111375652.898        -441.732          47.000    21194042.604    86786385.049        -344.115          50.000  
E02  24579844.156   129168176.357         498.938          48.000    24579851.745    98973194.599         382.351          53.000  
G22  22069554.040   115976594.145        1631.590          48.000                                                                  
E25  25587332.023   134462574.961       -2237.556          48.000    25587338.835   103029895.586       -1714.593          50.000  
> 2024 04 16 19 36 00.0030000  0 23                     
G13  22728857.783   119441025.549        1336.925          48.000                                                                  
G15  25510522.215                3       2133.753          30.000    25510522.467                1       1663.176          27.000  
G07  24142744.801   126871047.230       -3799.962          42.000    24142749.351    98860605.645       -2961.258          40.000  
G09  25326128.779   133089485.584       -3559.065          40.000    25326144.372   103706050.061       -2773.149          39.000  
R05  21146587.378   113040872.466        1827.764          52.000    21146589.678    87920562.908        1421.532          50.000  
R16  23573341.660   125924601.178        2779.055          46.000    23573359.291    97941549.313        2161.434          47.000  
R04  20374370.985   109103985.865       -1757.077          52.000    20374369.799    84858647.446       -1366.459          47.000  
R14  21445592.588   114317175.919       -3743.646          52.000    21445597.696    88913557.205       -2911.768          49.000  
E08  25288354.629   132891341.968         672.596          45.000    25288361.635   101825894.505         515.501          52.000  
S31  39728845.365   208776413.310        -816.500          43.000  
S33  40679817.267   213773774.465        -816.507          42.000  
G20  22354021.974   117471189.342       -2769.253          47.000                                                                  
E03  24809584.000   130375293.878       -1372.342          48.000    24809590.466    99898004.136       -1051.428          50.000  
R15  20265732.029   108294301.011         -65.682          51.000    20265734.755    84228757.992         -51.054          48.000  
R03  23672055.926   126718211.647       -4371.227          50.000    23672069.770    98558585.551       -3399.982          47.000  
E05  26863152.720   141166597.416       -2847.041          43.000    26863171.168   108166576.554       -2181.432          46.000  
G05  22410270.100   117766735.590        -185.321          49.000    22410272.355    91766348.333        -144.618          45.000  
G30  22072346.436   115991166.694       -2482.573          47.000    22072350.566    90382847.850       -1934.493          47.000  
E30  27852720.526   146367177.802        2161.470          41.000    27852743.320   112151658.200        1655.945          47.000  
G14  21196617.361   111389198.230        -461.421          46.000    21196619.862    86796939.888        -359.441          50.000  
E02  24577030.143   129153390.159         486.731          47.000    24577038.370    98961865.025         372.926          53.000  
G22  22060280.996   115927865.444        1616.980          48.000                                                                  
E25  25600138.618   134529871.849       -2248.836          49.000    25600145.346   103081460.702       -1723.052          49.000  
> 2024 04 16 19 36 30.0030000  0 23                     
G13  22721232.664   119400958.047        1333.841          48.000                                                                  
G15  25498334.148   133994618.2951       2136.056          30.000    25498333.792                1       1664.728          26.000  
G07  24164440.003   126985054.976       -3800.802          40.000    24164445.060    98949442.686       -2961.485          40.000  
G09  25346460.889   133196331.716       -3564.751          40.000    25346476.937   103789306.401       -2777.653          41.000  
R05  21136364.115   112986224.447        1815.041          52.000    21136366.069    87878058.923        1411.764          49.000  
R16  23557763.111   125841387.273        2768.105          48.000    23557780.603    97876828.116        2152.908          47.000  
R04  20384271.327   109157006.818       -1778.134          52.000    20384271.975    84899885.909       -1382.901          48.000  
R14  21466694.634   114429656.168       -3755.385          53.000    21466699.314    89001041.783       -2920.814          51.000  
E08  25284523.344   132871202.481         669.545          46.000    25284529.381   101810462.975         513.038          52.000  
S31  39733503.822   208800893.887        -816.189          44.000  
S33  40684476.516   213798259.786        -816.467          43.000  
G20  22369874.593   117554489.644       -2784.489          48.000                                                                  
E03  24817436.950   130416560.697       -1379.168          48.000    24817443.326    99929624.129       -1056.859          50.000  
R15  20266161.383   108296593.382         -87.584          51.000    20266163.348    84230541.023         -68.173          49.000  
R03  23696583.244   126849501.786       -4381.723          51.000    23696597.143    98660699.496       -3408.144          48.000  
E05  26879417.210   141252069.342       -2851.525          42.000    26879435.987   108232067.729       -2185.017          46.000  
G05  22411382.074   117772582.236        -204.838          49.000    22411384.537    91770904.160        -159.595          46.000  
G30  22086535.535   116065731.063       -2488.834          47.000    22086539.510    90440949.880       -1939.368          46.000  
E30  27840391.659   146302388.257        2157.812          42.000    27840414.033   112102014.944        1653.201          47.000  
G14  21199308.288   111403335.492        -481.443          47.000    21199309.871    86807955.974        -375.219          49.000  
E02  24574287.493   129138972.112         474.072          48.000    24574294.534    98950817.503         363.227          53.000  
G22  22051091.676   115879574.402        1602.117          48.000                                                                  
E25  25613008.140   134597500.081       -2260.149          49.000    25613014.819   103133279.710       -1731.871          50.000  
> 2024 04 16 19 37 00.0030000  0 23                     
G13  22713625.086   119360980.595        1331.151          47.000                                                                  
G15  25486134.436   133930514.396        2137.040          33.000    25486133.124                        1665.895          27.000  
G07  24186139.315   127099083.607       -3801.186          38.000    24186142.985    99038295.971       -2961.821          39.000  
G09  25366825.194   133303351.088       -3570.023          37.000    25366843.110   103872697.788       -2782.101          42.000  
R05  21126212.209   112931957.885        1802.470          52.000    21126213.911    87835851.656        1401.945          49.000  
R16  23542245.759   125758500.134        2757.513          47.000    23542264.272    97812361.045        2144.754          47.000  
R04  20394291.395   109210662.306       -1799.016          52.000    20394292.295    84941617.874       -1399.131          48.000  
R14  21487861.111   114542488.582       -3766.840          54.000    21487866.360    89088800.256       -2929.755          51.000  
E08  25280708.810   132851157.994         666.497          46.000    25280714.795   101795104.248         510.771          52.000  
S31  39738162.425   208825377.300        -815.971          42.000  
S33  40689136.411   213822748.819        -816.408          43.000  
G20  22385811.883   117638241.053       -2799.105          48.000                                                                  
E03  24825328.629   130458032.939       -1385.774          48.000    24825335.555    99961401.501       -1061.811          50.000  
R15  20266713.215   108299544.671        -109.361          51.000    20266715.807    84232836.558         -84.906          49.000  
R03  23721167.131   126981105.064       -4391.866          50.000    23721181.360    98763056.962       -3415.927          47.000  
E05  26895708.324   141337676.372       -2855.562          44.000    26895726.937   108297662.413       -2188.121          46.000  
G05  22412605.739   117779012.170        -224.093          49.000    22412608.205    91775914.470        -174.558          46.000  
G30  22100759.477   116140481.229       -2494.826          46.000    22100763.221    90499196.743       -1944.038          46.000  
E30  27828080.504   146237703.599        2154.645          41.000    27828104.052   112052452.062        1650.768          47.000  
G14  21202112.475   111418073.420        -501.147          46.000    21202114.487    86819440.131        -390.579          50.000  
E02  24571615.022   129124931.557         461.803          48.000    24571622.544    98940059.258         353.792          53.000  
G22  22041987.682   115831732.153        1587.219          49.000                                                                  
E25  25625941.975   134665467.095       -2271.136          49.000    25625948.528   103185358.305       -1740.196          50.000  
> 2024 04 16 19 37 30.0030000  0 23                     
G13  22706032.823   119321082.970        1328.416          47.000                                                                  
G07  24207839.878   127213120.742       -3801.631          41.000    24207843.484    99127155.855       -2962.042          37.000  
G09  25387221.858   133410531.675       -3575.328          41.000    25387239.540   103956214.659       -2786.339          41.000  
R05  21116130.120   112878065.053        1789.986          52.000    21116132.248    87793935.068        1392.054          49.000  
R16  23526787.705   125675930.313        2746.915          48.000    23526805.504    97748140.856        2136.336          46.000  
R04  20404427.788   109264940.777       -1819.852          52.000    20404428.724    84983834.386       -1415.521          49.000  
R14  21509091.518   114655657.828       -3778.084          52.000    21509096.353    89176820.701       -2938.472          50.000  
E08  25276910.229   132831197.945         663.817          46.000    25276916.514   101779810.215         508.436          51.000  
S31  39742819.893   208849851.229        -815.769          44.000  
S33  40693794.731   213847227.394        -815.924          44.000  
G20  22401832.006   117722429.832       -2813.617          47.000                                                                  
E03  24833257.752   130499699.715       -1392.281          48.000    24833264.346    99993327.974       -1066.901          50.000  
R15  20267386.066   108303142.337        -130.795          50.000    20267389.246    84235634.880        -101.621          49.000  
R03  23745808.475   127113007.909       -4401.983          49.000    23745822.961    98865647.385       -3423.603          48.000  
E05  26912022.031   141423406.879       -2859.925          43.000    26912041.328   108363351.671       -2191.426          46.000  
G05  22413938.834   117786014.762        -243.173          50.000    22413941.043    91781371.017        -189.524          46.000  
G30  22115017.238   116215404.370       -2500.647          47.000    22115021.495    90557578.397       -1948.561          46.000  
E30  27815790.091   146173113.544        2151.285          42.000    27815812.064   112002961.564        1648.407          47.000  
G14  21205029.641   111433400.553        -520.891          47.000    21205031.644    86831383.403        -405.894          50.000  
E02  24569013.519   129111257.583         449.491          48.000    24569020.447    98929581.896         344.431          53.000  
G22  22032966.955   115784329.309        1572.558          48.000                                                                  
E25  25638936.797   134733759.874       -2281.955          49.000    25638944.308   103237686.531       -1748.552          49.000  
G15                                                                  25473922.508                1       1666.442          26.000  
> 2024 04 16 19 38 00.0030000  0 23                     
G13  22698456.041   119281267.824        1325.639          47.000                                                                  
G07  24229540.769   127327166.829       -3801.635          41.000    24229547.125    99216022.779       -2962.618          40.000  
G09  25407648.731   133517874.266       -3580.997          38.000    25407666.179   104039857.901       -2790.514          41.000  
R05  21106118.929   112824550.726        1777.315          52.000    21106121.160    87752312.844        1382.377          49.000  
R16  23511390.006   125593681.540        2736.127          47.000    23511407.611    97684170.270        2128.250          44.000  
R04  20414680.309   109319844.705       -1840.664          53.000    20414680.754    85026537.357       -1431.586          48.000  
R14  21530384.431   114769161.826       -3789.058          52.000    21530389.167    89265101.524       -2947.065          50.000  
E08  25273128.774   132811324.884         660.806          46.000    25273134.702   101764582.864         506.360          52.000  
S31  39747475.772   208874317.509        -815.539          43.000  
S33  40698451.643   213871699.298        -815.580          42.000  
G20  22417935.653   117807055.304       -2828.087          47.000                                                                  
E03  24841223.981   130541563.319       -1398.889          47.000    24841230.778   100025405.229       -1071.872          50.000  
R15  20268181.108   108307387.188        -152.374          52.000    20268182.578    84238936.513        -118.481          48.000  
R03  23770505.118   127245209.195       -4411.706          47.000    23770519.461    98968469.947       -3431.452          48.000  
E05  26928360.492   141509262.302       -2863.984          42.000    26928380.145   108429136.713       -2194.389          47.000  
G05  22415380.825   117793591.737        -262.350          50.000    22415383.137    91787275.138        -204.302          46.000  
G30  22129307.430   116290500.762       -2506.062          46.000    22129311.853    90616095.028       -1952.978          46.000  
E30  27803516.528   146108621.292        2147.743          42.000    27803539.317   111953545.951        1645.817          47.000  
G14  21208059.307   111449318.344        -540.538          48.000    21208060.848    86843786.943        -421.150          50.000  
E02  24566481.654   129097952.305         437.262          48.000    24566488.033    98919387.021         335.003          52.000  
G22  22024031.016   115737369.541        1557.787          48.000                                                                  
E25  25651994.175   134802378.576       -2292.836          49.000    25652001.440   103290264.442       -1756.794          48.000  
G15                                                                  25461712.298                        1667.839          28.000  
> 2024 04 16 19 38 30.0030000  0 23                     
G13  22690894.562   119241532.885        1322.849          48.000                                                                  
G15  25449484.824                1       2140.969          30.000    25449491.397                        1668.813          31.000  
G07  24251244.080   127441216.683       -3802.033          38.000    24251250.009    99304892.687       -2962.823          39.000  
G09  25428106.556   133625374.579       -3586.736          39.000    25428122.298   104123623.995       -2794.465          41.000  
R05  21096178.841   112771414.839        1764.461          52.000    21096180.199    87710984.995        1372.361          49.000  
R16  23496051.830   125511751.915        2725.430          49.000    23496069.546    97620447.952        2119.664          45.000  
R04  20425049.950   109375370.306       -1861.599          52.000    20425050.146    85069723.868       -1447.977          49.000  
R14  21551739.191   114882992.952       -3800.161          53.000    21551744.268    89353636.752       -2955.672          51.000  
E08  25269363.335   132791536.025         657.948          46.000    25269368.921   101749420.004         504.077          52.000  
S31  39752129.439   208898772.000        -815.255          41.000  
S33  40703105.826   213896159.378        -815.813          43.000  
G20  22434121.457   117892111.245       -2842.772          47.000                                                                  
E03  24849226.317   130583620.490       -1405.418          47.000    24849233.833   100057630.827       -1076.948          50.000  
R15  20269095.558   108312274.875        -174.016          51.000    20269097.645    84242738.147        -135.370          49.000  
R03  23795257.480   127377703.382       -4421.811          50.000    23795270.744    99071520.283       -3439.154          46.000  
E05  26944720.611   141595238.790       -2868.104          42.000    26944741.059   108495014.468       -2197.827          48.000  
G05  22416931.123   117801739.942        -281.578          50.000    22416933.334    91793624.376        -219.414          46.000  
G30  22143629.649   116365765.150       -2511.945          47.000    22143634.947    90674742.590       -1957.458          47.000  
E30  27791261.406   146044224.467        2144.635          41.000    27791284.504   111904203.452        1643.332          47.000  
G14  21211199.850   111465822.926        -560.344          48.000    21211201.510    86856647.690        -436.632          51.000  
E02  24564018.447   129085012.423         424.787          47.000    24564025.590    98909472.122         325.511          52.000  
G22  22015178.191   115690851.148        1542.855          49.000                                                                  
E25  25665113.884   134871317.933       -2303.600          50.000    25665120.080   103343088.078       -1765.119          48.000  
> 2024 04 16 19 39 00.0030000  0 23                     
G13  22683350.182   119201887.887        1319.840          47.000                                                                  
G15  25437248.916                1       2143.016          32.000    25437255.241                1       1669.891          31.000  
G07  24272951.153   127555277.438       -3802.358          38.000    24272955.334    99393770.989       -2962.795          39.000  
G09  25448594.284   133733040.500       -3591.953          41.000    25448611.469   104207519.169       -2798.880          41.000  
R05  21086311.114   112718669.534        1751.486          52.000    21086313.537    87669960.910        1362.369          49.000  
R16  23480776.182   125430152.202        2714.381          49.000    23480793.525    97556982.243        2111.299          45.000  
R04  20435536.163   109431526.789       -1882.528          52.000    20435536.016    85113401.037       -1464.144          48.000  
R14  21573155.320   114997156.069       -3811.064          52.000    21573160.758    89442430.188       -2964.190          51.000  
E08  25265615.851   132771840.932         654.676          46.000    25265620.730   101734329.001         501.672          51.000  
S31  39756782.154   208923223.388        -815.077          43.000  
S33  40707760.079   213920616.086        -815.208          42.000  
G20  22450389.605   117977603.342       -2857.177          47.000                                                                  
E03  24857268.724   130625880.491       -1412.339          47.000    24857275.982   100090011.800       -1082.133          50.000  
R15  20270131.529   108317813.205        -195.576          51.000    20270133.670    84247045.823        -152.077          49.000  
R03  23820065.510   127510497.049       -4431.615          50.000    23820077.556    99174803.599       -3446.511          46.000  
E05  26961106.884   141681344.844       -2872.680          43.000    26961126.824   108560991.518       -2201.020          48.000  
G05  22418592.474   117810468.516        -300.797          49.000    22418594.089    91800425.856        -234.526          45.000  
G30  22157986.152   116441204.809       -2517.744          48.000    22157990.207    90733526.676       -1961.774          47.000  
E30  27779026.933   145979933.120        2141.128          42.000    27779049.626   111854941.828        1640.403          47.000  
G14  21214453.782   111482922.682        -580.114          48.000    21214455.199    86869972.227        -451.989          50.000  
E02  24561627.227   129072446.999         412.458          47.000    24561634.141    98899844.151         316.050          52.000  
G22  22006411.808   115644784.352        1527.852          48.000                                                                  
E25  25678294.541   134940585.035       -2314.531          49.000    25678301.058   103396162.835       -1773.557          48.000  
> 2024 04 16 19 39 30.0030000  0 23                     
G13  22675825.991   119162347.212        1316.284          47.000                                                                  
G15  25425016.547   133609349.6651       2143.444          34.000    25425021.324                        1669.800          29.000  
G07  24294660.667   127669361.911       -3803.961          37.000    24294664.796    99482667.790       -2963.469          38.000  
G09  25469117.241   133840884.604       -3597.941          43.000    25469133.487   104291553.108       -2803.485          41.000  
R05  21076520.561   112666331.693        1737.688          52.000    21076522.803    87629253.756        1351.600          49.000  
R16  23465564.961   125348897.880        2702.638          50.000    23465580.987    97493785.143        2101.982          43.000  
R04  20446144.006   109488327.669       -1904.177          52.000    20446143.870    85157579.441       -1481.072          48.000  
R14  21594636.452   115111660.648       -3822.546          54.000    21594641.544    89531489.232       -2973.090          51.000  
E08  25261888.497   132752253.689         651.051          46.000    25261893.497   101719320.656         498.839          51.000  
S31  39761436.885   208947684.701        -815.600          44.000  
S33  40712416.124   213945082.724        -815.976          42.000  
G20  22466743.736   118063542.044       -2872.090          48.000                                                                  
E03  24865351.894   130668356.965       -1419.633          47.000    24865358.961   100122558.674       -1087.773          50.000  
R15  20271291.285   108324014.445        -217.767          50.000    20271294.641    84251869.127        -169.503          49.000  
R03  23844930.841   127643601.345       -4441.998          51.000    23844943.944    99278328.451       -3454.803          46.000  
E05  26977518.718   141767593.369       -2877.140          41.000    26977538.819   108627077.768       -2204.800          46.000  
G05  22420365.987   117819790.982        -320.759          49.000    22420367.865    91807690.105        -249.978          45.000  
G30  22172377.748   116516831.460       -2524.110          48.000    22172381.003    90792456.491       -1966.917          46.000  
E30  27766815.482   145915761.816        2137.041          43.000    27766837.659   111805772.170        1637.386          47.000  
G14  21217823.073   111500630.624        -600.564          48.000    21217824.633    86883770.689        -467.903          50.000  
E02  24559309.910   129060269.661         399.457          47.000    24559316.892    98890513.549         306.021          52.000  
G22  21997734.454   115599185.123        1512.078          47.000                                                                  
E25  25691539.929   135010191.481       -2325.847          49.000    25691546.810   103449497.642       -1782.126          48.000  
> 2024 04 16 19 40 00.0030000  0 24                     
G13  22668321.935   119122911.794        1312.858          47.000                                                                  
G15  25412778.831   133545016.0461       2144.396          34.000    25412782.903                        1671.126          28.000  
G07  24316374.932   127783468.555       -3804.074          36.000    24316379.193    99571582.029       -2963.464          38.000  
G09  25489673.484   133948905.846       -3603.250          42.000    25489689.521   104375725.208       -2807.997          41.000  
R05  21066806.773   112614404.859        1724.087          52.000    21066808.907    87588866.286        1340.987          50.000  
R16  23450418.204   125267990.989        2691.066          49.000    23450434.640    97430858.241        2093.088          43.000  
R04  20456871.657   109545773.405       -1925.496          53.000    20456871.750    85202259.397       -1497.636          48.000  
R14  21616180.672   115226502.844       -3833.667          52.000    21616185.961    89620810.889       -2981.622          51.000  
E08  25258182.024   132732775.088         647.603          47.000    25258186.581   101704395.554         496.222          51.000  
S31  39766093.939   208972155.889        -815.603          42.000  
S33  40717073.853   213969559.132        -816.087          43.000  
G20  22483182.233   118149924.991       -2886.666          47.000                                                                  
E03  24873476.875   130711050.366       -1426.586          48.000    24873483.248   100155271.785       -1093.266          50.000  
R15  20272575.880   108330877.836        -239.767          51.000    20272578.626    84257207.377        -186.406          49.000  
R03  23869853.988   127777013.609       -4452.061          49.000    23869867.007    99382092.893       -3462.606          46.000  
E05  26993958.429   141853984.084       -2881.921          41.000    26993979.170   108693272.908       -2208.192          48.000  
G05  22422252.931   117829707.707        -340.332          48.000    22422255.079    91815417.406        -265.333          45.000  
G30  22186804.553   116592643.530       -2530.002          48.000    22186807.906    90851530.801       -1971.492          47.000  
E30  27754626.811   145851711.763        2132.925          42.000    27754649.068   111756695.463        1634.356          47.000  
G14  21221308.234   111518946.341        -620.661          47.000    21221310.313    86898042.724        -483.582          51.000  
E02  24557066.591   129048480.692         386.562          46.000    24557073.241    98881480.514         296.211          52.000  
G22  21989146.250   115554055.295        1496.596          48.000                                                                  
G17  25820111.092                3       2058.519          27.000                                                                  
E25  25704849.240   135080135.609       -2337.014          48.000    25704856.487   103503091.159       -1790.760          47.000  
> 2024 04 16 19 40 30.0030000  0 24                     
G13  22660836.576   119083575.693        1309.067          47.000                                                                  
G15  25400535.400   133480713.1721       2145.553          35.000    25400539.644                        1671.336          27.000  
G07  24338090.237   127897588.722       -3804.277          36.000    24338095.229    99660506.663       -2964.537          37.000  
G09  25510261.196   134057096.215       -3609.295          42.000    25510278.107   104460028.934       -2812.466          41.000  
R05  21057169.192   112562884.874        1710.144          51.000    21057171.242    87548795.246        1330.129          50.000  
R16  23435335.227   125187425.516        2679.543          49.000    23435351.856    97368196.933        2083.898          46.000  
R04  20467718.403   109603856.021       -1946.930          52.000    20467718.209    85247434.675       -1514.255          47.000  
R14  21637786.239   115341671.080       -3844.714          53.000    21637791.114    89710386.114       -2990.222          51.000  
E08  25254494.245   132713398.527         643.818          47.000    25254499.204   101689548.643         493.351          51.000  
S31  39770750.733   208996628.748        -815.986          43.000  
S33  40721731.690   213994038.314        -816.263          42.000  
G20  22499702.824   118236742.468       -2901.544          48.000                                                                  
E03  24881641.562   130753953.719       -1433.998          48.000    24881647.258   100188145.730       -1098.697          50.000  
R15  20273982.029   108338394.400        -261.802          51.000    20273984.809    84263053.682        -203.613          49.000  
R03  23894832.719   127910724.433       -4462.227          48.000    23894846.865    99486089.509       -3470.729          48.000  
E05  27010424.443   141940509.197       -2886.658          42.000    27010444.631   108759571.075       -2211.896          47.000  
G05  22424251.382   117840211.656        -360.375          48.000    22424253.861    91823602.284        -280.686          45.000  
G30  22201264.222   116668632.207       -2536.287          47.000    22201268.031    90910742.669       -1976.262          46.000  
E30  27742459.378   145787776.652        2129.100          41.000    27742481.842   111707706.806        1631.217          47.000  
G14  21224908.113   111537862.014        -640.832          47.000    21224909.720    86912782.263        -499.326          50.000  
E02  24554896.240   129037072.947         373.570          47.000    24554902.751    98872739.603         286.151          53.000  
G22  21980646.935   115509389.393        1480.816          47.000                                                                  
E25  25718221.848   135150408.333       -2348.280          48.000    25718229.118   103556936.451       -1799.323          47.000  
G17                                                                  25808367.350                3       1605.650          23.000  
> 2024 04 16 19 41 00.0030000  0 24                     
G13  22653370.053   119044337.667        1306.373          48.000                                                                  
G15  25388286.809   133416341.422        2146.824          35.000    25388289.871                1       1672.901          29.000  
G07  24359806.324   128011719.076       -3803.865          30.000    24359814.010    99749439.195       -2964.238          39.000  
G09  25530881.108   134165452.624       -3614.389          40.000    25530897.573   104544462.150       -2816.350          40.000  
R05  21047607.966   112511772.819        1697.183          51.000    21047609.169    87509041.477        1320.010          49.000  
R16  23420316.756   125107201.524        2668.549          48.000    23420332.869    97305801.132        2075.782          46.000  
R04  20478682.754   109662573.871       -1967.586          52.000    20478683.573    85293104.064       -1530.471          48.000  
R14  21659451.363   115457159.849       -3854.688          53.000    21659455.521    89800210.602       -2998.163          50.000  
E08  25250825.889   132694122.861         640.869          47.000    25250831.547   101674779.033         491.155          52.000  
S31  39775408.060   209021101.246        -815.562          43.000  
S33  40726389.968   214018515.956        -815.854          44.000  
G20  22516305.980   118323989.033       -2915.261          48.000                                                                  
E03  24889844.741   130797065.439       -1440.485          48.000    24889851.421   100221179.354       -1103.687          50.000  
R15  20275510.911   108346561.035        -282.845          51.000    20275512.632    84269405.588        -219.975          49.000  
R03  23919866.253   128044728.995       -4471.432          48.000    23919880.080    99590314.513       -3477.831          48.000  
E05  27026914.644   142027166.490       -2890.908          41.000    27026934.993   108825970.524       -2214.912          46.000  
G05  22426361.925   117851300.826        -379.194          49.000    22426363.865    91832243.164        -295.526          45.000  
G30  22215757.378   116744793.898       -2541.210          49.000    22215761.441    90970089.442       -1980.304          46.000  
E30  27730313.999   145723955.833        2125.715          41.000    27730336.512   111658805.685        1628.875          46.000  
G14  21228621.191   111557375.241        -660.316          48.000    21228622.742    86927987.432        -514.471          51.000  
E02  24552797.236   129026044.739         361.497          46.000    24552803.984    98864289.489         277.013          53.000  
G22  21972235.060   115465186.929        1465.537          48.000                                                                  
E25  25731656.429   135221005.925       -2358.457          49.000    25731663.317   103611030.687       -1807.185          47.000  
G17                                                                  25796599.349                3       1612.271          16.000  
> 2024 04 16 19 41 30.0030000  0 24                     
G13  22645921.235   119005195.209        1302.761          48.000                                                                  
G15  25376031.306   133351938.923        2146.997          37.000    25376034.119                        1673.359          27.000  
G09  25551532.310   134273970.899       -3620.274          43.000    25551548.306   104629021.419       -2821.061          40.000  
R05  21038122.942   112461068.799        1682.949          52.000    21038124.297    87469605.111        1309.032          50.000  
R16  23405362.013   125027316.932        2656.860          49.000    23405378.423    97243669.343        2066.359          47.000  
R04  20489766.790   109721923.313       -1989.145          53.000    20489766.402    85339264.645       -1547.146          48.000  
R14  21681175.900   115572961.388       -3865.552          53.000    21681180.544    89890278.395       -3006.537          51.000  
E08  25247176.274   132674945.350         637.300          47.000    25247181.662   101660084.645         488.308          52.000  
S31  39780063.833   209045569.844        -815.876          44.000  
S33  40731046.784   214042989.894        -816.161          42.000  
G20  22532988.811   118411658.517       -2929.727          48.000                                                                  
E03  24898087.650   130840382.476       -1447.700          48.000    24898094.171   100254370.262       -1109.251          50.000  
R15  20277160.082   108355373.190        -304.834          52.000    20277162.398    84276259.577        -237.075          49.000  
R03  23944953.483   128179021.571       -4481.489          48.000    23944968.187    99694763.556       -3485.593          47.000  
E05  27043428.951   142113952.061       -2895.149          39.000    27043449.892   108892468.268       -2218.411          46.000  
G05  22428582.678   117862971.588        -399.097          48.000    22428584.954    91841337.229        -311.034          46.000  
G30  22230281.899   116821123.630       -2547.279          47.000    22230286.221    91029567.109       -1984.994          46.000  
E30  27718189.846   145660247.133        2121.286          41.000    27718213.087   111609990.517        1625.500          48.000  
G14  21232447.291   111577482.038        -680.305          47.000    21232448.597    86943655.125        -530.178          50.000  
E02  24550769.989   129015392.814         348.526          46.000    24550777.113    98856127.721         267.003          53.000  
G22  21963911.941   115421446.386        1449.824          48.000                                                                  
E25  25745151.287   135291923.224       -2369.561          48.000    25745158.630   103665369.885       -1815.621          47.000  
G07                                                                  24381533.802    99838375.976       -2965.032          35.000  
G17                                                                  25784788.398                3       1612.344          23.000  
> 2024 04 16 19 42 00.0030000  0 24                     
G13  22638492.498   118966157.846        1299.056          48.000                                                                  
G15  25363771.472   133287514.662        2147.170          33.000    25363771.346                1       1673.135          27.000  
G07  24403248.202                1      -3805.806          28.000    24403255.858    99927322.238       -2965.580          38.000  
G09  25572215.561   134382658.009       -3626.215          42.000    25572229.967   104713712.320       -2825.583          38.000  
R05  21028716.359   112410784.242        1668.846          51.000    21028717.082    87430494.966        1297.946          50.000  
R16  23390473.282   124947781.977        2645.007          49.000    23390488.489    97181809.497        2057.244          46.000  
R04  20500969.509   109781912.467       -2010.735          52.000    20500967.673    85385922.797       -1563.689          47.000  
R14  21702958.951   115689079.824       -3876.251          54.000    21702964.288    89980592.642       -3014.868          51.000  
E08  25243547.572   132655874.800         633.639          47.000    25243552.663   101645472.207         485.510          51.000  
S31  39784720.566   209070041.842        -816.084          44.000  
S33  40735704.951   214067467.539        -816.453          42.000  
G20  22549753.428   118499756.254       -2944.107          48.000                                                                  
E03  24906371.505   130883913.110       -1454.954          48.000    24906377.998   100287724.874       -1114.809          50.000  
R15  20278931.694   108364837.720        -326.657          52.000    20278933.599    84283620.974        -254.046          49.000  
R03  23970095.822   128313607.466       -4491.424          50.000    23970110.870    99799440.740       -3493.247          46.000  
E05  27059969.609   142200873.485       -2899.857          40.000    27059990.862   108959070.135       -2222.009          46.000  
G05  22430916.380   117875232.730        -418.931          49.000    22430918.265    91850891.331        -326.357          46.000  
G30  22244840.238   116897627.739       -2553.383          48.000    22244844.466    91089180.650       -1989.650          46.000  
E30  27706089.974   145596659.647        2117.331          42.000    27706111.948   111561268.241        1622.300          47.000  
G14  21236387.451   111598189.886        -700.676          47.000    21236389.524    86959791.173        -545.976          51.000  
E02  24548816.623   129005125.380         335.567          47.000    24548823.130    98848260.545         257.092          53.000  
G22  21955677.952   115378177.301        1434.009          48.000                                                                  
E25  25758708.968   135363166.403       -2380.525          49.000    25758715.868   103719958.795       -1823.924          47.000  
G17                                                                  25772972.374                        1614.175          28.000  
> 2024 04 16 19 42 30.0030000  0 24                     
G13  22631085.500   118927233.387        1295.639          48.000                                                                  
G15  25351507.079   133223077.028        2148.228          34.000    25351513.583                1       1673.919          30.000  
G07  24424971.197   128354078.3821      -3805.256          36.000    24424981.724   100016282.410       -2965.485          36.000  
G09  25592931.259   134491520.228       -3631.688          41.000    25592946.411   104798539.634       -2829.781          39.000  
R05  21019389.316   112360929.662        1654.595          50.000    21019391.193    87391719.259        1286.958          50.000  
R16  23375650.711   124868605.394        2633.457          49.000    23375664.686    97120228.313        2048.092          45.000  
R04  20512292.800   109842548.380       -2031.885          53.000    20512291.522    85433084.003       -1580.444          47.000  
R14  21724802.686   115805518.353       -3886.578          53.000    21724807.711    90071155.892       -3022.858          51.000  
E08  25239940.028   132636919.124         629.967          47.000    25239945.722   101630947.772         482.688          52.000  
S31  39789379.806   209094524.926        -816.235          44.000  
S33  40740365.271   214091956.562        -816.367          43.000  
G20  22566599.630   118588286.760       -2958.244          47.000                                                                  
E03  24914696.950   130927664.934       -1462.070          48.000    24914703.878   100321248.978       -1120.357          51.000  
R15  20280825.310   108374960.478        -348.423          52.000    20280828.306    84291494.294        -270.995          49.000  
R03  23995294.171   128448491.907       -4501.025          50.000    23995308.778    99904350.170       -3500.900          46.000  
E05  27076537.859   142287937.599       -2904.501          40.000    27076559.054   109025781.332       -2225.601          46.000  
G05  22433362.357   117888090.473        -438.384          48.000    22433364.744    91860910.336        -341.727          45.000  
G30  22259433.613   116974311.879       -2559.053          48.000    22259436.663    91148934.457       -1994.070          45.000  
E30  27694013.408   145533201.658        2112.995          42.000    27694035.378   111512645.184        1618.968          47.000  
G14  21240443.672   111619505.373        -720.693          47.000    21240445.435    86976400.700        -561.574          51.000  
E02  24546936.885   128995249.727         322.670          46.000    24546943.513    98840693.567         247.206          52.000  
G22  21947535.160   115335388.932        1418.255          48.000                                                                  
G17  25761117.436   135375572.0231       2073.534          34.000    25761141.233                1       1615.587          31.000  
E25  25772328.930   135434740.885       -2391.452          49.000    25772335.693   103774801.564       -1832.363          47.000  
> 2024 04 16 19 43 00.0030000  0 24                     
G13  22623699.613   118888419.956        1292.042          48.000                                                                  
G15  25339242.364   133158623.894        2148.666          34.000    25339248.391   103759979.9171       1675.022          32.000  
G07  24446702.289   128468257.887       -3806.006          36.000    24446708.424   100105253.309       -2965.539          33.000  
G09  25613679.151   134600553.540       -3637.613          39.000    25613696.018   104883500.384       -2834.482          39.000  
R05  21010143.276   112311505.563        1640.416          51.000    21010145.574    87353278.353        1275.846          50.000  
R16  23360894.317   124789785.827        2621.468          48.000    23360909.987    97058924.833        2038.962          47.000  
R04  20523736.681   109903827.937       -2053.177          53.000    20523734.315    85480745.873       -1596.934          45.000  
R14  21746704.946   115922269.952       -3896.777          54.000    21746709.988    90161962.618       -3030.902          51.000  
E08  25236354.680   132618076.061         626.298          47.000    25236360.136   101616509.637         479.931          52.000  
S31  39794039.707   209119014.402        -816.125          44.000  
S33  40745026.090   214116451.703        -816.484          43.000  
G20  22583528.633   118677243.990       -2972.242          48.000                                                                  
E03  24923064.850   130971635.202       -1469.145          48.000    24923071.198   100354940.442       -1125.749          51.000  
R15  20282842.015   108385737.240        -369.868          51.000    20282844.768    84299876.302        -287.746          49.000  
R03  24020547.990   128583669.317       -4510.578          50.000    24020561.700   100009487.442       -3508.385          46.000  
E05  27093131.490   142375140.820       -2908.843          39.000    27093154.293   109092599.138       -2228.978          46.000  
G05  22435922.482   117901542.680        -458.147          48.000    22435925.089    91871392.528        -357.136          45.000  
G30  22274060.008   117051171.472       -2564.753          48.000    22274062.770    91208824.990       -1998.405          46.000  
E30  27681961.112   145469871.176        2108.942          42.000    27681983.161   111464119.828        1616.073          46.000  
G14  21244615.313   111641424.851        -740.560          48.000    21244616.104    86993480.870        -576.991          50.000  
E02  24545130.970   128985762.960         310.021          46.000    24545138.235    98833424.585         237.490          53.000  
G22  21939483.461   115293079.882        1402.533          48.000                                                                  
G17  25749272.173   135313316.931        2076.984          39.000    25749293.253   105439057.0181       1618.828          36.000  
E25  25786011.425   135506641.821       -2401.914          49.000    25786018.289   103829894.456       -1840.431          47.000  
> 2024 04 16 19 43 30.0030000  0 24                     
G13  22616333.452   118849711.814        1288.275          47.000                                                                  
G15  25326973.258   133094148.901        2149.487          34.000    25326985.492                        1675.049          31.000  
G07  24468430.962   128582442.807       -3806.172          37.000    24468437.223   100194228.460       -2965.716          33.000  
G09  25634458.488   134709750.076       -3642.489          38.000    25634475.991   104968588.160       -2838.532          40.000  
R05  21000976.979   112262507.706        1625.990          50.000    21000980.169    87315168.995        1264.620          51.000  
R16  23346204.256   124711317.883        2609.646          47.000    23346218.868    96997894.823        2029.611          45.000  
R04  20535298.068   109965743.911       -2074.630          52.000    20535296.506    85528902.667       -1613.532          45.000  
R14  21768664.305   116039323.893       -3907.007          54.000    21768669.348    90253004.494       -3038.843          51.000  
E08  25232788.528   132599339.375         622.623          47.000    25232794.554   101602153.009         477.040          52.000  
S31  39798700.081   209143502.930        -816.544          44.000  
S33  40749687.386   214140946.869        -816.804          42.000  
G20  22600535.994   118766618.192       -2986.308          47.000                                                                  
E03  24931472.257   131015817.253       -1476.503          48.000    24931478.976   100388794.193       -1131.321          51.000  
R15  20284979.724   108397159.342        -391.782          52.000    20284981.998    84308760.242        -304.686          49.000  
R03  24045853.508   128719129.913       -4520.219          48.000    24045867.716   100114844.902       -3515.795          45.000  
E05  27109751.665   142462475.917       -2913.575          40.000    27109773.381   109159517.939       -2232.300          46.000  
G05  22438593.491   117915582.263        -477.950          48.000    22438597.237    91882332.430        -372.406          45.000  
G30  22288716.947   117128197.988       -2570.680          48.000    22288720.615    91268845.626       -2003.078          45.000  
E30  27669932.022   145406662.537        2104.698          41.000    27669954.364   111415687.797        1612.784          46.000  
G14  21248899.653   111663940.719        -760.636          47.000    21248900.906    87011025.745        -592.804          51.000  
E02  24543398.741   128976658.274         296.960          47.000    24543405.851    98826448.394         227.504          53.000  
G22  21931522.485   115251244.727        1386.246          47.000                                                                  
G17  25737409.533   135250978.284        2079.174          44.000    25737429.925   105390482.164        1619.824          40.000  
E25  25799754.720   135578860.491       -2412.729          49.000    25799761.445   103885230.824       -1848.775          48.000  
> 2024 04 16 19 44 00.0030000  0 24                     
G13  22608988.696   118811115.506        1284.454          48.000                                                                  
G15  25314701.046   133029658.859        2149.993          33.000    25314709.875   103659488.032        1675.548          32.000  
G07  24490160.512   128696637.487       -3806.671          36.000    24490168.708   100283211.100       -2966.458          34.000  
G09  25655270.661   134819114.300       -3648.595          40.000    25655287.324   105053806.670       -2843.066          38.000  
R05  20991891.302   112213945.200        1611.314          51.000    20991895.161    87277398.203        1253.177          50.000  
R16  23331580.520   124633208.810        2597.328          45.000    23331596.543    96937143.996        2020.236          45.000  
R04  20546981.671   110028301.525       -2096.043          53.000    20546978.294    85577558.528       -1630.603          44.000  
R14  21790680.713   116156681.484       -3917.169          54.000    21790685.928    90344282.537       -3046.649          51.000  
E08  25229244.649   132580715.292         618.650          47.000    25229250.539   101587882.651         474.040          52.000  
S31  39803361.267   209167997.754        -816.692          43.000  
S33  40754349.464   214165446.824        -817.035          43.000  
G20  22617622.386   118856411.699       -3000.338          46.000                                                                  
E03  24939920.059   131060216.878       -1483.858          47.000    24939928.023   100422814.642       -1137.085          51.000  
R15  20287238.364   108409231.275        -413.394          51.000    20287240.067    84318149.582        -321.610          48.000  
R03  24071212.079   128854877.055       -4529.744          50.000    24071226.759   100220425.312       -3523.016          46.000  
E05  27126396.567   142549947.801       -2918.035          39.000    27126418.739   109226541.580       -2236.039          45.000  
G05  22441378.239   117930214.485        -497.771          47.000    22441381.749    91893734.129        -387.920          46.000  
G30  22303407.379   117205395.308       -2576.366          48.000    22303410.866    91328999.320       -2007.410          45.000  
E30  27657928.881   145343582.222        2100.180          42.000    27657950.092   111367354.103        1609.324          46.000  
G14  21253298.822   111687057.829        -780.778          47.000    21253300.357    87029039.105        -608.384          51.000  
E02  24541740.401   128967941.246         283.916          47.000    24541747.247    98819769.213         217.518          53.000  
G22  21923652.836   115209891.064        1370.178          48.000                                                                  
G17  25725531.063   135188563.417        2081.565          46.000    25725551.909   105341847.886        1622.074          42.000  
E25  25813558.075   135651400.522       -2423.549          49.000    25813565.679   103940813.415       -1856.905          49.000  
> 2024 04 16 19 44 30.0030000  0 24                     
G13  22601665.434   118772633.279        1280.787          47.000                                                                  
G15  25302425.331   132965155.864        2149.817          34.000    25302432.921                        1675.929          30.000  
G07  24511895.058   128810841.711       -3806.831          33.000    24511902.332   100372201.445       -2966.351          34.000  
G09  25676114.582   134928646.555       -3653.962          40.000    25676130.119   105139156.022       -2847.284          38.000  
R05  20982889.151   112165822.544        1596.601          52.000    20982892.491    87239969.530        1241.849          50.000  
R16  23317026.170   124555461.842        2585.358          47.000    23317041.991    96876674.768        2011.026          44.000  
R04  20558783.321   110091501.951       -2117.482          53.000    20558779.977    85626714.339       -1646.873          45.000  
R14  21812753.165   116274340.370       -3927.032          54.000    21812758.167    90435794.934       -3054.266          51.000  
E08  25225722.590   132562205.954         614.891          46.000    25225728.268   101573700.201         471.213          51.000  
S31  39808023.686   209192498.690        -816.881          43.000  
S33  40759012.968   214189952.920        -816.979          42.000  
G20  22634788.920   118946623.152       -3014.196          46.000                                                                  
E03  24948410.903   131104835.755       -1491.134          48.000    24948418.792   100457003.098       -1142.476          51.000  
R15  20289618.212   108421952.781        -434.982          51.000    20289620.923    84328044.147        -338.373          48.000  
R03  24096624.167   128990909.342       -4539.274          48.000    24096639.377   100326227.417       -3530.501          45.000  
E05  27143069.287   142637557.326       -2922.656          40.000    27143090.049   109293670.699       -2239.414          45.000  
G05  22444275.651   117945440.752        -517.662          48.000    22444279.004    91905598.719        -403.379          45.000  
G30  22318129.732   117282763.320       -2581.854          48.000    22318133.183    91389286.057       -2012.089          44.000  
E30  27645948.781   145280632.692        2096.103          39.000    27645970.669   111319120.601        1605.980          46.000  
G14  21257812.155   111710776.774        -800.655          47.000    21257813.776    87047521.459        -623.978          51.000  
E02  24540155.499   128959613.271         271.047          47.000    24540162.493    98813388.150         207.672          53.000  
G22  21915875.911   115169021.743        1354.029          47.000                                                                  
G17  25713638.996   135126076.211        2083.916          43.000    25713659.799   105293157.289        1623.770          39.000  
E25  25827423.264   135724261.434       -2434.162          49.000    25827430.594   103996641.897       -1865.177          48.000  
