     3.00           OBSERVATION DATA    M: Mixed            RINEX VERSION / TYPE
CONVBIN 2.4.3                           20240416 005942 UTC PGM / RUN BY / DATE 
format: u-blox UBX                                          COMMENT             
log: /home/regis/git/gnsspwv/obsdata/VERT00CHL/2024-04-16/VECOMMENT             
{self.marker}                                               MARKER NAME         
                                                            MARKER NUMBER       
GEODETIC                                                    MARKER TYPE         
{self.observer}     {self.institution}                      OBSERVER / AGENCY   
UNKNOWN             UBLOX-ZED-F9P                           REC # / TYPE / VERS 
UNKNOWN             TWIVSP6037L                             ANT # / TYPE        
  1713381.0000 -5047934.0000 -3490983.0000                  APPROX POSITION XYZ 
        0.0000        0.0000        0.0000                  ANTENNA: DELTA H/E/N
G    8 C1C L1C D1C S1C C2L L2L D2L S2L                      SYS / # / OBS TYPES 
R    8 C1C L1C D1C S1C C2C L2C D2C S2C                      SYS / # / OBS TYPES 
E    8 C1C L1C D1C S1C C7Q L7Q D7Q S7Q                      SYS / # / OBS TYPES 
S    4 C1C L1C D1C S1C                                      SYS / # / OBS TYPES 
  2024    04    16    00    45   00.0000000     GPS         TIME OF FIRST OBS   
  2024    04    16    00    59   30.0010000     GPS         TIME OF LAST OBS    
                                                            END OF HEADER       
> 2024 04 16 00 45 00.0000000  0 26                     
G25  22158943.797   116446049.0111        700.331          47.000    22158945.917    90737192.4611        545.669          43.000  
E19  26229109.851   137834676.5071      -3631.658          40.000    26229131.640   105613540.8541      -2782.653          46.000  
G24  20624025.647   108379969.1111      -1333.098          48.000    20624027.235    84451912.4921      -1038.960          47.000  
G32  23622003.797   124134450.0681        717.224          44.000    23622006.410    96728122.4101        558.992          41.000  
R16  20340991.915   108657924.0581       -340.808          52.000    20340991.102    84511714.6231       -264.976          50.000  
R17  22035227.988   117914948.2391      -3528.236          52.000    22035223.034    91711611.2841      -2744.142          48.000  
R09  22439735.995   119826919.7781       1710.222          44.000    22439736.256    93198803.1661       1330.177          46.000  
R06  22446417.376   119778382.0191      -3469.893          38.000                                                                  
R15  22184868.108   118549164.2001      -2640.041          48.000    22184868.588    92204897.4091      -2053.374          41.000  
G29  23619688.271   124122301.8861       2644.198          44.000    23619702.119    96718728.6421       2060.373          36.000  
G19  24533278.778   128923338.7551      -4242.806          45.000                                                                  
S31  38919534.941   204523544.3641       -752.765          48.000  
S33  39872072.929   209529154.8403       -754.648          33.000  
G06  23334690.555   122624645.9451       -796.927          38.000    23334692.084    95551680.5251       -621.033          42.000  
G11  23149619.262   121652249.2491       1088.493          47.000    23149621.977    94794045.0941        847.885          47.000  
R07  22644107.937   121215727.9481       -522.984          47.000    22644107.225    94278866.6561       -406.617          45.000  
R18  20087815.724   107230160.5611        154.565          52.000    20087817.552    83401256.9421        120.121          51.000  
R19  21526406.234   115151932.9861       3062.138          41.000    21526413.856    89562752.0121       2381.713          47.000  
E04  24958223.098   131156307.5791      -1412.032          47.000    24958228.998   100496390.6601      -1081.964          51.000  
G12  21282850.047   111842134.6711       -672.065          47.000    21282847.727    87149707.8241       -523.784          45.000  
E31  26588986.804   139726108.4141        790.042          44.000    26588996.279   107062910.6841        605.219          49.000  
G15  24052558.490   126397015.7371      -3952.834          42.000    24052572.229    98491239.5011      -3079.679          35.000  
E13  26527273.583   139401768.4061       -660.999          43.000    26527276.690   106814362.9171       -506.616          45.000  
E26  25893495.316   136071474.8611       1538.549          46.000    25893504.826   104262719.3421       1178.935          50.000  
E21  25590090.299   134476808.6591      -2154.985          45.000    25590092.816   103040675.0961      -1651.242          51.000  
E09                                                                  27338876.974   110082354.2991        708.051          32.000  
> 2024 04 16 00 45 30.0000000  0 26                     
G25  22154953.733   116425085.670         697.210          47.000    22154956.301    90720857.443         542.775          41.000  
E19  26249853.321   137943675.860       -3635.236          40.000    26249874.677   105697058.675       -2785.154          46.000  
G24  20631682.542   108420206.311       -1349.355          48.000    20631684.013    84483266.057       -1051.355          47.000  
G32  23617960.136   124113198.174         699.239          45.000    23617962.680    96711562.418         544.945          40.000  
R16  20342922.821   108668236.084        -346.841          52.000    20342921.237    84519735.093        -269.647          49.000  
R17  22055063.111   118021097.022       -3548.623          51.000    22055060.075    91794171.381       -2759.970          48.000  
R09  22430126.313   119775603.222        1710.516          45.000    22430126.448    93158890.358        1330.697          45.000  
R06  22465964.756   119882697.6763      -3484.490          34.000                                                                  
R15  22199707.200   118628453.426       -2646.046          50.000    22199706.754    92266566.664       -2057.974          41.000  
G29  23604602.915                3       2634.369          42.000    23604628.196    96657001.211        2054.385          42.000  
G19  24557507.757   129050663.377       -4245.895          45.000                                                                  
S31  38923830.525   204546107.9871       -752.600          40.000  
S33  39876373.756   209551753.978        -753.618          32.000  
G06  23339292.164   122648831.764        -815.827          39.000    23339293.668    95570526.635        -635.489          40.000  
G11  23143443.375   121619791.488        1075.375          48.000    23143445.592    94768753.578         837.980          46.000  
R07  22647108.242   121231784.237        -547.674          48.000    22647106.923    94291354.760        -425.935          45.000  
R18  20087023.199   107225929.562         127.401          52.000    20087024.737    83397966.239          99.032          50.000  
R19  21509268.657   115060260.146        3049.173          42.000    21509274.933    89491451.613        2371.625          46.000  
E04  24966322.826   131198869.926       -1425.608          48.000    24966328.602   100529003.160       -1092.303          51.000  
G12  21286702.157   111862373.959        -677.273          49.000    21286699.663    87165478.680        -527.827          45.000  
E31  26584480.248   139702434.223         788.241          42.000    26584491.094   107044770.768         604.036          49.000  
G15  24075122.296   126515586.929       -3952.248          42.000    24075136.858    98583631.178       -3079.572          39.000  
E13  26531088.278   139421813.915        -675.411          42.000    26531091.020   106829722.476        -517.463          45.000  
E26  25884731.449   136025417.560        1531.703          46.000    25884740.483   104227429.046        1173.613          50.000  
E21  25602392.361   134541463.688       -2155.524          44.000    25602396.541   103090215.901       -1651.578          52.000  
E09                                                                  27333630.802   110061225.325         700.446          32.000  
> 2024 04 16 00 46 00.0000000  0 26                     
G25  22150983.087   116404218.577         693.884          47.000    22150984.933    90704597.382         540.510          42.000  
E19  26270614.162   138052769.580       -3638.198          40.000    26270635.398   105780648.827       -2787.807          45.000  
G24  20639430.315   108460919.678       -1365.088          48.000    20639431.936    84514990.705       -1063.758          48.000  
G32  23614016.794   124092474.259         681.841          45.000    23614019.017    96695413.816         531.385          40.000  
E09  27328476.200                1        902.027          27.000    27328462.887   110040353.358         691.227          33.000  
R16  20344885.946   108678725.113        -352.698          51.000    20344884.762    84527893.204        -274.360          50.000  
R17  22075011.852   118127849.616       -3568.521          50.000    22075009.521    91877201.204       -2775.561          49.000  
R09  22420514.439   119724276.239        1710.962          45.000    22420514.041    93118969.453        1330.677          43.000  
R06  22485591.046   119987422.0311      -3497.412          39.000                                                                  
R15  22214576.879   118707913.573       -2651.645          49.000    22214576.982    92328368.812       -2062.275          42.000  
G29  23589578.777   123964069.9153       2628.392          38.000    23589597.571    96595454.009        2048.458          30.000  
G19  24581751.562   129178067.877       -4248.245          44.000                                                                  
S31  38928125.880   204568677.8591       -752.656          45.000  
S33  39880673.998   209574347.796        -752.674          36.000  
G06  23343999.468   122673571.615        -834.056          42.000    23344001.809    95589804.505        -649.893          41.000  
G11  23137338.833   121587716.131        1062.614          47.000    23137342.367    94743760.036         828.150          47.000  
R07  22650245.413   121248578.735        -572.194          48.000    22650245.177    94304416.992        -445.079          46.000  
R18  20086381.196   107222507.525         100.444          51.000    20086382.725    83395304.717          78.104          50.000  
R19  21492202.607   114968973.216        3036.143          42.000    21492208.840    89420451.368        2361.594          45.000  
E04  24974500.660   131241835.910       -1439.070          48.000    24974504.998   100561924.933       -1102.647          51.000  
G12  21290582.000   111882762.234        -682.235          49.000    21290579.178    87181365.637        -531.429          46.000  
E31  26579983.512   139678807.016         786.624          41.000    26579994.887   107026666.880         602.776          49.000  
G15  24097683.923   126634144.571       -3951.787          44.000    24097699.906    98676012.437       -3079.299          40.000  
E13  26534982.125   139442282.386        -689.483          40.000    26534986.367   106845406.110        -528.253          46.000  
E26  25876005.804   135979565.642        1524.842          46.000    25876014.940   104192296.128        1168.383          50.000  
E21  25614698.816   134606129.482       -2156.080          44.000    25614701.943   103139764.969       -1651.877          51.000  
> 2024 04 16 00 46 30.5000000  0 26                     
G25  22146964.681   116383099.603         691.050          47.000    22146965.958    90688141.080         538.357          42.000  
E19  26291738.879   138163773.734       -3640.839          41.000    26291759.663   105865702.797       -2789.635          45.000  
G24  20647398.679   108502797.915       -1381.038          48.000    20647401.896    84547623.020       -1076.020          48.000  
G32  23610109.792   124071944.978         664.355          45.000    23610112.097    96679416.884         517.842          39.000  
E09  27323251.543                3        892.904          23.000    27323262.814                         683.233          27.000  
R16  20346915.866   108689569.061        -358.431          52.000    20346914.948    84536327.391        -278.711          49.000  
R17  22095408.590   118236994.466       -3588.445          51.000    22095404.882    91962091.649       -2790.993          49.000  
R09  22410739.735   119672080.699        1711.577          45.000    22410739.528    93078373.004        1331.181          43.000  
R06  22505622.301   120094303.292       -3511.375          39.000                                                                  
R15  22229726.958   118788870.975       -2657.075          48.000    22229728.010    92391335.550       -2066.691          43.000  
G29  23574342.141   123884004.1853       2621.564          45.000    23574355.299    96533051.5361       2042.914          44.000  
G19  24606414.416   129307672.640       -4250.616          44.000                                                                  
S31  38932491.625   204591622.7951       -752.200          45.000  
S33  39885044.918                1       -752.920          31.000  
G06  23348894.586   122699289.957        -852.331          43.000    23348896.214    95609844.814        -664.261          40.000  
G11  23131206.789   121555498.586        1049.862          46.000    23131211.236    94718655.704         817.978          47.000  
R07  22653575.724   121266406.748        -596.819          48.000    22653575.182    94318283.029        -464.154          45.000  
R18  20085885.782   107219856.934          73.247          52.000    20085886.292    83393243.228          56.926          50.000  
R19  21474927.294   114876562.135        3023.300          42.000    21474933.154    89348576.793        2351.416          46.000  
E04  24982890.334   131285928.559       -1452.413          48.000    24982895.610   100595710.006       -1112.860          50.000  
G12  21294554.684   111903640.585        -686.992          49.000    21294551.800    87197634.483        -535.435          45.000  
E31  26575422.410   139654831.273         785.351          42.000    26575432.353   107008295.947         601.695          48.000  
G15  24120618.221   126754659.550       -3950.914          44.000    24120634.182    98769919.504       -3078.441          38.000  
E13  26539023.890   139463523.517        -703.484          40.000    26539028.832   106861681.776        -539.040          46.000  
E26  25867173.650   135933159.807        1518.298          45.000    25867184.304   104156738.797        1163.183          51.000  
E21  25627209.698   134671881.610       -2155.995          43.000    25627214.452   103190146.421       -1651.868          51.000  
> 2024 04 16 00 47 00.5000000  0 26                     
G25  22143028.888   116362418.798         687.475          47.000    22143030.591    90672026.225         535.887          42.000  
E19  26312532.972   138273044.860       -3644.009          42.000    26312554.367   105949428.897       -2792.238          44.000  
G24  20655328.079   108544466.390       -1396.948          48.000    20655330.448    84580091.890       -1088.569          48.000  
G32  23606368.030   124052282.553         646.317          45.000    23606370.783    96664095.376         503.790          40.000  
R16  20348946.419   108700411.794        -364.590          52.000    20348944.826    84544760.606        -283.516          49.000  
R17  22115582.426   118344947.025       -3608.394          50.000    22115579.434    92046054.725       -2806.587          49.000  
R09  22401121.518   119620726.422        1711.791          44.000    22401122.309    93038430.873        1331.308          43.000  
R06  22525401.562   120199863.0571      -3524.712          41.000                                                                  
R15  22244658.884   118868670.463       -2662.992          48.000    22244660.472    92453401.693       -2071.382          40.000  
G29  23559398.391   123805472.469        2613.825          44.000    23559410.222    96471848.571        2036.399          39.000  
G19  24630686.558   129435223.718       -4253.039          43.000                                                                  
S31  38936783.597   204614177.6291       -752.681          37.000  
S33  39889341.732   209619906.2431       -752.836          42.000  
G06  23353815.115   122725142.014        -871.121          44.000    23353816.357    95629989.320        -678.747          40.000  
G11  23125250.525   121524195.775        1036.864          46.000    23125254.473    94694264.155         807.815          47.000  
R07  22656988.906   121284681.455        -621.531          48.000    22656987.876    94332496.509        -483.397          44.000  
R18  20085549.752   107218063.911          46.078          52.000    20085550.488    83391848.731          35.787          51.000  
R19  21458008.238   114786059.753        3009.940          42.000    21458015.125    89278186.747        2341.094          47.000  
E04  24991219.078   131329699.370       -1465.786          47.000    24991224.845   100629248.464       -1123.167          50.000  
G12  21298490.341   111924321.403        -691.948          49.000    21298487.769    87213749.397        -539.176          46.000  
E31  26570942.375   139631290.544         783.764          42.000    26570952.300   106990258.329         600.609          48.000  
G15  24143171.591   126873176.576       -3950.348          43.000    24143186.950    98862270.662       -3078.603          37.000  
E13  26543078.453   139484839.067        -717.938          38.000    26543085.373   106878014.493        -550.008          47.000  
E26  25858526.274   135887721.560        1510.767          44.000    25858537.115   104121922.843        1157.647          50.000  
E21  25639517.317   134736562.170       -2156.431          42.000    25639522.727   103239706.784       -1652.293          51.000  
E09                                                                  27318184.475                1        674.176          31.000  
> 2024 04 16 00 47 30.5000000  0 26                     
G25  22139110.782   116341829.385         684.548          47.000    22139112.999    90655982.574         533.388          43.000  
E19  26333343.666   138382400.242       -3646.865          41.000    26333365.115   106033219.539       -2794.222          44.000  
G24  20663347.988   108586608.711       -1412.690          48.000    20663350.231    84612930.006       -1100.732          48.000  
G32  23602726.829   124033147.690         628.848          45.000    23602730.134    96649184.987         490.425          42.000  
R16  20351009.489   108711431.119        -370.370          52.000    20351007.982    84553331.169        -288.088          50.000  
R17  22135864.864   118453488.685       -3627.918          49.000    22135862.449    92130476.009       -2821.673          51.000  
R09  22391502.402   119569359.308        1712.469          45.000    22391503.717    92998478.759        1331.997          45.000  
R06  22545255.703   120305798.551       -3537.770          36.000                                                                  
R15  22259623.798   118948638.544       -2668.414          47.000    22259627.145    92515598.945       -2075.232          40.000  
G29  23544499.299   123727191.8072       2606.192          47.000    23544510.154    96410835.6951       2030.965          42.000  
G19  24654972.340   129562843.503       -4255.030          43.000                                                                  
S31  38941074.558   204636728.6221       -751.332          39.000  
S33  39893636.949   209642477.780        -752.374          41.000  
G06  23358839.580   122751545.811        -889.445          43.000    23358841.664    95650563.782        -693.183          40.000  
G11  23119367.509   121493279.597        1023.966          46.000    23119370.398    94670173.828         797.911          47.000  
R07  22660538.356   121303688.614        -645.811          46.000    22660539.543    94347279.711        -502.287          45.000  
R18  20085364.844   107217080.011          19.196          52.000    20085366.856    83391083.530          14.931          52.000  
R19  21441162.652   114695951.981        2996.771          42.000    21441169.329    89208103.558        2330.966          47.000  
E04  24999624.478   131373867.588       -1479.011          48.000    24999630.141   100663091.412       -1133.345          50.000  
G12  21302453.370   111945146.271        -696.659          49.000    21302450.676    87229976.541        -542.788          45.000  
E31  26566471.718   139607791.546         782.433          43.000    26566480.481   106972252.658         599.575          48.000  
G15  24165719.789   126991669.037       -3949.546          43.000    24165734.944    98954603.306       -3077.404          37.000  
E13  26547216.337   139506574.512        -731.531          40.000    26547221.325   106894668.989        -560.600          47.000  
E26  25849919.292   135842490.920        1504.165          44.000    25849929.385   104087265.991        1152.521          50.000  
E21  25651826.282   134801249.466       -2156.377          42.000    25651832.214   103289272.319       -1652.321          51.000  
E09                                                                  27313194.708   109978923.6811        664.851          33.000  
> 2024 04 16 00 48 00.0010000  0 26                     
G25  22135274.052   116321665.229         682.064          47.000    22135276.462    90640270.274         531.505          43.000  
E19  26353820.989   138490010.945       -3649.142          40.000    26353843.611   106115673.388       -2796.035          44.000  
G24  20671320.507   108628506.461       -1427.987          47.000    20671323.528    84645577.535       -1112.752          48.000  
G32  23599242.804   124014840.582         611.658          45.000    23599245.899    96634919.624         476.574          41.000  
R16  20353069.231   108722434.308        -375.822          52.000    20353068.230    84561889.136        -292.365          50.000  
R17  22155915.309   118560789.371       -3646.621          47.000    22155913.355    92213932.127       -2836.325          50.000  
R09  22382039.440   119518827.784        1713.115          46.000    22382041.822    92959176.537        1332.423          45.000  
R06  22564850.150                       -3549.041          30.000                                                                  
R15  22274370.613   119027435.326       -2673.748          48.000    22274373.211    92576885.153       -2079.367          39.000  
G29  23529887.346   123650389.7333       2599.066          51.000    23529898.013    96351006.876        2024.998          44.000  
G19  24678865.042   129688399.210       -4257.029          44.000                                                                  
S31  38945290.574   204658882.1201       -750.737          48.000  
S33  39897858.616   209664659.048        -751.759          46.000  
G06  23363880.568   122778042.756        -907.261          43.000    23363882.166    95671210.757        -706.751          39.000  
G11  23113652.920   121463251.121        1011.421          46.000    23113655.356    94646775.222         788.208          46.000  
R07  22664162.560   121323087.075        -669.436          47.000    22664164.763    94362367.272        -520.552          46.000  
R18  20085330.946   107216896.707          -6.970          52.000    20085332.225    83390941.010          -5.479          51.000  
R19  21424669.468   114607726.853        2984.095          42.000    21424675.531    89139484.665        2320.773          46.000  
E04  25007962.022   131417681.779       -1491.623          47.000    25007967.862   100696663.080       -1142.891          50.000  
G12  21306375.303   111965758.172        -701.045          49.000    21306372.712    87246037.789        -546.456          45.000  
E31  26562080.266   139584717.478         781.515          43.000    26562089.920   106954572.613         598.784          48.000  
G15  24187885.737   127108157.381       -3948.199          42.000    24187901.442    99045374.914       -3076.404          37.000  
E13  26551360.736   139528352.107        -745.054          40.000    26551365.505   106911355.762        -570.950          48.000  
E26  25841493.450   135798211.055        1497.518          45.000    25841502.313   104053337.596        1147.424          49.000  
E21  25663933.409   134864861.308       -2156.288          43.000    25663937.322   103338013.777       -1652.243          51.000  
E09                                                                  27308348.582   109959405.670         657.149          35.000  
> 2024 04 16 00 48 30.0010000  0 26                     
G25  22131388.506   116301244.059         679.499          47.000    22131390.276    90624357.738         529.464          44.000  
E19  26374659.367   138599515.720       -3651.268          40.000    26374683.184   106199578.535       -2797.648          44.000  
G24  20679516.767   108671577.596       -1443.166          48.000    20679519.863    84679139.385       -1124.565          48.000  
G32  23595798.013   123996743.120         594.678          45.000    23595801.135    96620817.623         463.241          41.000  
E09  27303504.986                3        849.066          25.000    27303481.647   109939809.340         649.327          35.000  
R16  20355195.435   108733794.641        -381.452          53.000    20355195.077    84570724.928        -296.681          50.000  
R17  22176414.408   118670475.560       -3665.652          48.000    22176411.364    92299243.629       -2850.989          51.000  
R09  22372412.949   119467423.128        1713.997          47.000    22372414.634    92919195.208        1332.923          43.000  
R06  22584847.286   120517064.7151      -3563.120          35.000                                                                  
R15  22289395.920   119107727.354       -2678.986          47.000    22289398.787    92639334.348       -2083.544          40.000  
G19  24703172.966   129816135.861       -4258.601          44.000                                                                  
S31  38949575.898   204681400.226        -750.206          40.000  
S33  39902148.331   209687204.9621       -751.010          44.000  
G06  23369110.776   122805529.800        -925.356          44.000    23369114.504    95692629.286        -721.094          41.000  
G11  23107914.770   121433097.232         998.823          46.000    23107916.559    94623278.887         778.401          46.000  
R07  22667984.229   121343532.790        -693.478          49.000    22667985.136    94378269.349        -539.295          46.000  
R18  20085445.099   107217509.086         -33.707          52.000    20085446.707    83391417.356         -26.243          51.000  
R19  21407971.536   114518404.348        2970.838          43.000    21407978.421    89070012.241        2310.694          48.000  
E04  25016514.432   131462623.471       -1504.435          48.000    25016520.041   100731098.689       -1152.741          50.000  
G12  21310390.073   111986854.136        -705.251          49.000    21310386.811    87262476.193        -549.826          45.000  
E31  26557620.775   139561287.490         780.542          43.000    26557631.417   106936619.835         598.261          48.000  
G15  24210419.257   127226579.848       -3946.618          40.000    24210434.502    99137654.209       -3075.336          37.000  
E13  26555649.706   139550908.920        -758.695          38.000    26555657.519   106928639.575        -581.222          48.000  
E26  25832963.891   135753386.090        1490.757          45.000    25832971.971   104018991.533        1142.353          49.000  
E21  25676242.002   134929549.699       -2156.140          43.000    25676246.991   103387580.157       -1652.189          51.000  
G29                                                                  23515082.209                1       2019.516          38.000  
> 2024 04 16 00 49 00.0010000  0 25                     
G25  22127518.219   116280907.052         676.286          47.000    22127520.373    90608510.776         526.969          44.000  
E19  26395512.439   138709092.481       -3653.850          41.000    26395536.111   106283538.813       -2799.735          45.000  
G24  20687802.219   108715117.514       -1459.432          47.000    20687805.257    84713066.510       -1137.177          48.000  
G32  23592454.904   123979170.193         576.807          46.000    23592457.132    96607124.313         449.495          41.000  
E09  27298690.908                         835.241          28.000    27298677.485   109920467.758         640.214          35.000  
R16  20357354.852   108745328.477        -387.653          52.000    20357354.709    84579695.664        -301.490          51.000  
R17  22197019.469   118780732.901       -3684.938          48.000    22197014.746    92384999.356       -2866.060          50.000  
R09  22362783.276   119416000.227        1714.271          46.000    22362784.452    92879199.695        1333.302          42.000  
R06  22604909.711   120624127.488       -3575.350          36.000                                                                  
R15  22304451.908   119188183.512       -2684.942          46.000    22304450.241    92701911.202       -2088.130          36.000  
G29  23500296.815   123494896.082        2583.315          41.000    23500309.088    96229832.3551       2012.932          43.000  
G19  24727490.907   129943927.624       -4260.906          43.000                                                                  
S33  39906434.850   209709729.655        -751.432          41.000  
G06  23374445.521   122833563.470        -943.775          42.000    23374449.140    95714473.742        -735.545          40.000  
G11  23102250.500   121403331.402         985.391          45.000    23102251.754    94600084.973         767.870          45.000  
R07  22671938.934   121364702.267        -718.019          48.000    22671939.937    94394734.344        -558.351          46.000  
R18  20085710.759   107218927.721         -60.989          52.000    20085712.346    83392520.786         -47.496          51.000  
R19  21391348.614   114429484.099        2957.028          43.000    21391354.798    89000852.683        2299.887          48.000  
E04  25025140.522   131507953.765       -1517.741          48.000    25025146.278   100765832.063       -1162.938          50.000  
G12  21314430.723   112008085.914        -710.322          49.000    21314427.197    87279020.411        -553.327          45.000  
E31  26553169.424   139537891.394         779.079          44.000    26553179.518   106918693.054         596.938          49.000  
G15  24232944.541   127344962.863       -3945.624          38.000    24232960.022    99229903.322       -3074.561          37.000  
E13  26560022.669   139573880.022        -772.661          38.000    26560028.465   106946240.875        -592.280          47.000  
E26  25824474.403   135708768.467        1483.498          46.000    25824481.144   103984804.347        1136.638          49.000  
E21  25688551.776   134994238.432       -2156.585          43.000    25688556.919   103437146.795       -1652.441          51.000  
> 2024 04 16 00 49 30.0010000  0 26                     
G25  22123664.421   116260657.984         673.734          47.000    22123667.597    90592732.336         524.863          44.000  
E19  26416379.323   138818743.276       -3656.160          41.000    26416403.120   106367555.835       -2801.557          45.000  
G24  20696178.408   108759130.572       -1474.917          48.000    20696180.057    84747362.305       -1149.146          47.000  
G32  23589213.295   123962126.797         559.244          47.000    23589214.494    96593843.643         435.594          42.000  
E09  27293940.718                         824.730          29.000    27293938.198   109901384.795         631.855          35.000  
R16  20359546.801   108757041.074        -393.418          52.000    20359546.849    84588805.442        -305.964          51.000  
R17  22217729.632   118891562.021       -3703.680          47.000    22217726.205    92471199.747       -2880.830          50.000  
R09  22353149.583   119364563.619        1714.914          45.000    22353151.526    92839193.538        1333.869          43.000  
R06  22625051.323   120731607.6891      -3587.497          39.000                                                                  
R15  22319541.134   119268808.485       -2690.352          46.000    22319541.313    92764619.456       -2092.566          41.000  
G29  23485568.051   123417498.502        2576.150          46.000    23485581.994    96169529.2441       2007.558          42.000  
G19  24751819.347   130071776.034       -4262.600          44.000                                                                  
S31  38958138.690   204726388.228        -749.423          45.000  
S33  39910719.615   209732244.7663       -750.234          37.000  
G06  23379884.582   122862148.176        -962.188          43.000    23379887.379    95736747.551        -750.089          39.000  
G11  23096661.082   121373960.235         972.452          46.000    23096662.283    94577198.581         757.734          45.000  
R07  22676028.288   121386599.044        -741.960          46.000    22676028.887    94411765.044        -577.207          43.000  
R18  20086127.736   107221157.979         -87.841          52.000    20086129.957    83394255.487         -68.327          51.000  
R19  21374802.330   114340974.351        2943.340          43.000    21374807.869    88932012.384        2289.313          47.000  
E04  25033841.291   131553675.829       -1530.652          48.000    25033847.373   100800865.595       -1172.745          50.000  
G12  21318497.727   112029457.214        -714.619          50.000    21318494.411    87295673.377        -556.914          46.000  
E31  26548723.862   139514532.750         778.163          44.000    26548734.296   106900794.974         596.169          48.000  
G15  24255462.302   127463307.556       -3943.854          38.000    24255477.669    99322123.105       -3073.181          34.000  
E13  26564472.535   139597269.637        -786.717          37.000    26564478.832   106964162.811        -602.709          47.000  
E26  25816023.024   135664364.177        1476.619          45.000    25816031.266   103950780.630        1131.424          50.000  
E21  25700862.227   135058931.493       -2156.504          44.000    25700867.608   103486716.750       -1652.310          51.000  
> 2024 04 16 00 50 00.0010000  0 26                     
G25  22119827.232   116240495.616         670.323          47.000    22119830.367    90577021.449         522.377          44.000  
E19  26437259.391   138928465.101       -3658.708          41.000    26437283.803   106451627.284       -2803.585          44.000  
G24  20704643.405   108803616.287       -1491.053          47.000    20704644.744    84782026.413       -1161.731          46.000  
G32  23586070.475   123945612.978         541.463          46.000    23586072.425    96580975.610         421.781          42.000  
E09  27289259.912                         813.246          30.000    27289263.561   109882560.650         622.942          36.000  
R16  20361772.761   108768932.747        -399.634          52.000    20361772.655    84598054.518        -310.896          51.000  
R17  22238547.083   119002957.979       -3722.904          48.000    22238543.638    92557841.056       -2895.539          50.000  
R09  22343515.789   119313112.915        1714.865          44.000    22343516.039    92799176.447        1333.948          41.000  
R06  22645259.870   120839470.1073      -3600.865          42.000                                                                  
R15  22334662.234   119349602.012       -2696.213          47.000    22334658.944    92827458.727       -2097.116          37.000  
G29  23470885.370   123340329.6653       2567.912          44.000    23470897.850    96109407.257        2001.240          40.000  
G19  24776158.228   130199678.004       -4264.699          43.000                                                                  
S31  38962416.912   204748881.2111       -749.438          49.000  
S33  39915001.836   209754749.7201       -750.400          43.000  
G06  23385429.460   122891283.347        -980.571          42.000    23385432.399    95759450.318        -763.993          41.000  
G11  23091147.656   121344985.405         958.846          48.000    23091148.360    94554620.985         747.307          45.000  
R07  22680253.883   121409221.336        -766.330          46.000    22680253.854    94429360.038        -596.037          43.000  
R18  20086698.515   107224199.884        -115.242          53.000    20086700.130    83396621.436         -89.563          51.000  
R19  21358332.949   114252878.752        2929.230          42.000    21358338.921    88863494.194        2278.209          47.000  
E04  25042615.954   131599787.809       -1543.886          48.000    25042622.519   100836197.907       -1182.914          51.000  
G12  21322590.999   112050966.635        -719.447          50.000    21322587.957    87312433.947        -560.404          46.000  
E31  26544286.033   139491210.185         776.487          43.000    26544295.967   106882924.488         595.016          48.000  
G15  24277970.922   127581609.639       -3942.993          34.000    24277988.050    99414310.028       -3072.772          32.000  
E13  26569002.536   139621077.064        -800.646          35.000    26569009.742   106982404.877        -613.638          48.000  
E26  25807613.614   135620174.338        1469.059          46.000    25807622.060   103916921.254        1125.679          50.000  
E21  25713175.014   135123627.922       -2156.914          45.000    25713179.124   103536289.310       -1652.772          51.000  
> 2024 04 16 00 50 30.0010000  0 26                     
G25  22116009.469   116220429.745         667.095          48.000    22116011.576    90561385.748         519.783          44.000  
E19  26458155.317   139038265.863       -3661.525          42.000    26458178.916   106535759.210       -2805.456          43.000  
G24  20713200.372   108848585.110       -1507.340          47.000    20713202.062    84817066.964       -1174.625          46.000  
G32  23583029.718   123929639.870         523.256          45.000    23583033.442    96568528.920         407.618          43.000  
E09  27284651.922   143381821.6561        801.459          31.000    27284657.180   109864003.907         614.049          37.000  
R16  20364034.211   108781014.684        -406.129          52.000    20364034.565    84607451.582        -315.862          50.000  
R17  22259470.558   119114927.418       -3741.995          48.000    22259468.061    92644928.399       -2910.556          50.000  
R09  22333879.635   119261659.114        1714.781          42.000    22333880.859    92759156.892        1333.917          44.000  
R06  22665535.494   120947634.620       -3612.840          32.000                                                                  
R15  22349814.231   119430574.638       -2702.404          43.000    22349812.956    92890437.389       -2101.783          39.000  
G29  23456248.418   123263423.7631       2559.261          45.000    23456257.455    96049459.383        1993.865          33.000  
G19  24800508.552   130327641.269       -4266.527          43.000                                                                  
S31  38966693.898   204771350.938        -749.222          47.000  
S33  39919284.365   209777254.3443       -750.077          40.000  
G06  23391081.400   122920979.335        -999.308          43.000    23391081.779    95782590.123        -778.803          39.000  
G11  23085711.992   121316419.595         945.070          47.000    23085712.817    94532362.135         736.488          45.000  
R07  22684618.461   121432578.412        -791.003          48.000    22684618.886    94447526.513        -615.214          46.000  
R18  20087422.279   107228064.673        -142.803          53.000    20087424.571    83399627.454        -111.101          51.000  
R19  21341943.442   114165212.392        2915.068          42.000    21341949.163    88795309.834        2267.184          46.000  
E04  25051467.614   131646298.968       -1557.252          47.000    25051473.958   100871836.055       -1193.159          51.000  
G12  21326711.750   112072623.375        -724.652          50.000    21326709.352    87329309.339        -564.681          47.000  
E31  26539856.480   139467933.228         775.226          43.000    26539865.887   106865088.978         593.902          48.000  
G15  24300469.248   127699876.336       -3941.850          28.000    24300490.085                       -3073.071          30.000  
E13  26573617.685   139645312.490        -814.890          38.000    26573622.209   107000974.909        -624.552          48.000  
E26  25799247.979   135576211.075        1461.489          47.000    25799255.934   103883235.451        1119.847          50.000  
E21  25725489.151   135188337.785       -2157.221          46.000    25725493.434   103585872.172       -1653.076          52.000  
> 2024 04 16 00 51 00.0010000  0 27                     
G25  22112209.189   116200458.566         663.640          48.000    22112210.502    90545823.847         517.196          44.000  
E19  26479064.094   139148142.467       -3664.200          41.000    26479088.811   106619949.287       -2807.532          43.000  
G24  20721849.998   108894035.803       -1523.438          47.000    20721851.009    84852483.006       -1187.043          46.000  
G32  23580093.402   123914206.912         504.900          44.000    23580096.823    96556503.108         393.477          43.000  
E09  27280115.550   143357952.161         789.713          32.000    27280115.241   109845714.269         604.649          37.000  
R16  20366331.946   108793286.857        -412.675          52.000    20366331.434    84616996.604        -320.982          51.000  
R17  22280502.115   119227464.784       -3761.044          50.000    22280498.164    92732457.441       -2925.183          49.000  
R09  22324242.276   119210201.197        1714.913          41.000    22324244.601    92719134.105        1333.687          43.000  
R06  22685884.345   121056217.9841      -3627.427          34.000                                                                  
R15  22365000.211   119511725.866       -2708.399          43.000    22365000.801    92953554.852       -2106.515          43.000  
G29  23441656.477   123186759.303        2550.917          38.000    23441670.059    95989708.9301       1987.648          42.000  
G19  24824870.032   130455661.782       -4268.659          43.000                                                                  
S31  38970971.580   204793836.440        -749.450          42.000  
S33  39923564.680   209799755.1021       -750.072          37.000  
G06  23396838.774   122951234.873       -1018.154          43.000    23396838.345    95806165.935        -793.989          38.000  
G11  23080353.780   121288263.780         931.231          47.000    23080354.632    94510422.727         725.590          45.000  
R07  22689119.677   121456668.069        -815.522          49.000    22689119.418    94466262.782        -634.179          45.000  
R18  20088301.017   107232751.856        -170.405          53.000    20088301.975    83403273.132        -132.500          50.000  
R19  21325636.053   114077977.637        2900.229          43.000    21325640.865    88727461.159        2255.670          47.000  
E04  25060394.652   131693206.867       -1570.592          48.000    25060400.590   100907778.198       -1203.441          51.000  
G12  21330859.952   112094425.485        -729.545          49.000    21330857.515    87346297.996        -568.475          46.000  
E31  26535433.604   139444699.928         773.506          41.000    26535444.715   106847286.902         592.566          48.000  
E13  26578311.674   139669974.536        -829.625          39.000    26578315.045   107019871.847        -635.775          48.000  
E26  25790924.422   135532474.821        1453.722          46.000    25790932.936   103849723.605        1113.862          50.000  
E21  25737805.286   135253059.584       -2158.120          46.000    25737809.389   103635464.161       -1653.504          51.000  
E33                                                                  27918247.923                1       1681.001          25.000  
G15                                                                  24322986.304                3      -3073.312          23.000  
> 2024 04 16 00 51 30.0010000  0 27                     
G25  22108430.112   116180602.271         660.153          48.000    22108431.621    90530351.477         514.436          44.000  
E19  26499991.729   139258112.933       -3666.973          42.000    26500016.832   106704211.274       -2809.785          43.000  
G24  20730594.731   108939989.262       -1539.985          47.000    20730595.807    84888290.794       -1200.008          46.000  
G32  23577263.669   123899335.541         486.578          44.000    23577266.601    96544914.918         379.287          43.000  
E09  27275634.761                         777.479          30.000    27275642.343   109827708.257         595.889          37.000  
R16  20368668.692   108805771.037        -419.497          52.000    20368668.451    84626706.520        -326.176          50.000  
R17  22301641.433   119340587.296       -3780.260          50.000    22301638.220    92820441.655       -2940.196          49.000  
R09  22314610.866   119158760.272        1714.619          44.000    22314610.331    92679124.537        1333.605          43.000  
R06  22706307.229   121165190.1621      -3638.413          40.000                                                                  
R15  22380224.684   119593076.758       -2714.748          45.000    22380225.438    93016827.646       -2111.629          42.000  
G29  23427117.926   123110340.5941       2542.185          44.000    23427128.944    95930179.528        1981.110          44.000  
G19  24849245.868   130583757.623       -4270.820          42.000                                                                  
S31  38975251.847                3       -751.624          37.000  
S33  39927849.637   209822261.2381       -751.422          36.000  
G06  23402706.927   122982070.749       -1037.114          43.000    23402706.535    95830193.882        -808.398          40.000  
G11  23075077.645   121260540.979         917.121          47.000    23075078.988    94488820.767         714.633          46.000  
R07  22693760.550   121481510.108        -840.435          48.000    22693760.394    94485584.237        -653.693          45.000  
R18  20089336.948   107238283.242        -198.245          53.000    20089338.509    83407575.379        -154.126          50.000  
R19  21309412.587   113991199.877        2885.150          40.000    21309418.079    88659967.909        2244.005          47.000  
E04  25069399.718   131740531.022       -1584.234          47.000    25069406.090   100944039.298       -1213.902          50.000  
G12  21335040.014   112116393.002        -734.823          50.000    21335036.929    87363415.542        -572.531          46.000  
E31  26531025.523   139421530.248         771.639          41.000    26531035.667   106829533.579         591.137          48.000  
G15  24345461.952                3      -3939.542          23.000    24345469.779                3      -3070.039          29.000  
E13  26583090.259   139695083.861        -844.259          39.000    26583092.150   107039111.489        -646.736          46.000  
E26  25782648.326   135488988.033        1445.603          46.000    25782657.189   103816402.909        1107.674          50.000  
E21  25750126.930   135317813.733       -2158.630          45.000    25750131.626   103685080.967       -1654.153          51.000  
E33                                                                  27905722.069                        1683.967          31.000  
> 2024 04 16 00 52 00.0010000  0 27                     
G25  22104671.768   116160854.603         656.662          48.000    22104673.508    90514963.735         511.506          43.000  
E19  26520935.283   139368169.382       -3670.125          41.000    26520960.787   106788539.128       -2811.973          43.000  
G24  20739433.491   108986439.634       -1556.431          47.000    20739434.960    84924485.837       -1212.859          46.000  
G32  23574539.824   123885020.658         468.130          45.000    23574542.750    96533760.343         364.661          43.000  
E09  27271235.782                         765.015          25.000    27271239.705   109809982.125         586.370          36.000  
R16  20371044.710   108818462.308        -426.415          51.000    20371044.923    84636577.482        -331.589          50.000  
R17  22322887.902   119454284.652       -3799.355          50.000    22322885.789    92908872.917       -2954.983          48.000  
R09  22304979.957   119107330.888        1714.096          43.000    22304979.322    92639123.973        1333.378          45.000  
R06  22726800.110   121274562.0021      -3650.775          36.000                                                                  
R15  22395484.597   119674622.168       -2721.351          47.000    22395486.185    93080251.671       -2116.656          44.000  
G29  23412629.165   123034193.1581       2533.598          42.000    23412640.857    95870838.4921       1973.642          42.000  
G19  24873634.485   130711920.070       -4272.944          40.000                                                                  
S31  38979533.902   204838827.7821       -750.054          45.000  
S33  39932135.896   209844788.3073       -750.964          43.000  
G06  23408682.073   123013481.176       -1056.618          41.000    23408683.655    95854669.565        -823.138          40.000  
G11  23069882.501   121233247.703         902.668          46.000    23069886.417    94467553.506         703.304          47.000  
R07  22698539.173   121507097.333        -865.155          46.000    22698538.755    94505485.247        -672.987          43.000  
R18  20090530.359   107244653.453        -226.271          53.000    20090531.427    83412530.086        -175.979          50.000  
R19  21293274.954   113904877.425        2870.006          41.000    21293281.204    88592828.857        2232.132          47.000  
E04  25078482.747   131788264.544       -1597.776          46.000    25078489.131   100980614.054       -1224.350          50.000  
G12  21339251.334   112138518.971        -740.118          50.000    21339247.388    87380656.565        -576.782          45.000  
E33  27893162.846                1       2199.337          28.000    27893177.128                        1686.004          30.000  
E31  26526627.760   139398417.685         769.768          42.000    26526637.421   106811824.036         589.701          48.000  
E13  26587951.969   139720634.429        -859.051          39.000    26587954.173   107058689.271        -658.042          46.000  
E26  25774420.281   135445746.697        1437.327          46.000    25774428.125   103783270.261        1101.357          50.000  
E21  25762454.556   135382594.296       -2159.729          45.000    25762459.214   103734717.967       -1654.843          52.000  
G15                                                                  24367956.362                3      -3071.194          19.000  
> 2024 04 16 00 52 30.0010000  0 26                     
G25  22100933.524   116141210.157         653.101          48.000    22100935.776    90499656.427         508.880          44.000  
E19  26541894.536   139478304.883       -3672.597          42.000    26541919.576   106872927.577       -2814.042          43.000  
G24  20748366.607   109033382.200       -1573.037          47.000    20748367.358    84961064.364       -1225.864          45.000  
G32  23571920.960   123871258.076         449.352          45.000    23571923.688    96523036.126         350.240          43.000  
R16  20373459.072   108831356.736        -433.365          51.000    20373459.032    84646606.480        -337.067          51.000  
R17  22344240.000   119568548.002       -3818.377          49.000    22344238.578    92997744.441       -2969.792          48.000  
R09  22295349.598   119055908.378        1713.778          41.000    22295349.960    92599128.740        1332.833          45.000  
R06  22747361.238   121384268.2171      -3663.085          37.000                                                                  
R15  22410778.656   119756357.013       -2727.779          46.000    22410781.456    93143823.069       -2121.625          43.000  
G29  23398191.193   122958323.9931       2524.817          33.000    23398202.789    95811729.8511       1965.980          33.000  
G19  24898034.425   130840142.246       -4275.389          39.000                                                                  
S31  38983817.585   204861343.3763       -750.153          45.000  
S33  39936423.798   209867319.427        -751.119          44.000  
G06  23414768.009   123045461.198       -1075.722          42.000    23414769.003    95879589.101        -837.933          40.000  
G11  23064770.062   121206381.423         888.105          45.000    23064773.842    94446618.900         692.065          48.000  
R07  22703457.598   121533423.873        -889.977          46.000    22703456.070    94525961.323        -692.143          43.000  
R18  20091879.524   107251858.230        -254.195          52.000    20091880.708    83418133.874        -197.781          49.000  
R19  21277222.839   113819009.698        2854.523          42.000    21277227.750    88526043.370        2220.191          47.000  
E04  25087643.280   131836401.331       -1611.523          47.000    25087649.581   101017497.803       -1234.691          50.000  
G12  21343490.835   112160798.146        -745.508          51.000    21343487.205    87398016.948        -580.801          45.000  
E33  27880600.376   146513550.7341       2201.806          33.000    27880619.389   112263684.7491       1687.296          35.000  
E31  26522239.657   139375356.654         767.818          44.000    26522249.130   106794154.000         588.175          48.000  
E13  26592894.862   139746621.334        -873.239          38.000    26592899.621   107078601.401        -669.379          46.000  
E26  25766237.076   135402747.626        1429.285          45.000    25766245.341   103750323.271        1094.942          50.000  
E21  25774786.633   135447396.092       -2160.581          46.000    25774790.556   103784371.241       -1655.443          52.000  
E09                                                                  27266906.076   109792532.807         576.940          36.000  
> 2024 04 16 00 53 00.0010000  0 27                     
G25  22097214.260   116121662.665         649.983          49.000    22097216.130    90484424.660         506.580          44.000  
E19  26562866.435   139588511.111       -3674.858          41.000    26562892.007   106957370.230       -2815.688          43.000  
G24  20757392.449   109080811.183       -1589.236          48.000    20757393.406    84998021.946       -1238.455          46.000  
G32  23569407.231   123858042.646         431.400          46.000    23569409.313    96512738.270         336.012          44.000  
E09  27262647.923                3        740.030          25.000    27262640.275   109775356.497         567.909          36.000  
R16  20375910.227   108844449.322        -439.705          52.000    20375909.954    84656789.583        -341.987          51.000  
R17  22365696.666   119683367.242       -3836.552          50.000    22365694.126    93087048.372       -2983.901          45.000  
R09  22285719.850   119004487.495        1713.917          43.000    22285720.421    92559134.732        1333.086          44.000  
R06  22767993.147                3      -3675.494          32.000                                                                  
R15  22426108.194   119838275.968       -2733.688          46.000    22426110.479    93207537.711       -2126.117          43.000  
G29  23383800.867   122882698.220        2515.865          46.000    23383810.401    95752808.9541       1960.092          38.000  
G19  24922443.570   130968415.784       -4277.050          38.000                                                                  
S31  38988102.598   204883856.3002       -750.184          44.000  
S33  39940711.952   209889857.3981       -750.800          46.000  
G06  23420961.651   123078005.018       -1094.137          44.000    23420962.554    95904948.001        -852.657          42.000  
G11  23059737.712   121179938.523         874.322          44.000    23059741.678    94426014.249         681.359          48.000  
R07  22708511.616   121560481.993        -914.201          46.000    22708511.866    94547006.385        -711.076          43.000  
R18  20093384.386   107259891.980        -281.620          52.000    20093385.440    83424382.416        -218.921          49.000  
R19  21261255.616   113733594.665        2839.447          42.000    21261259.350    88459609.973        2208.515          47.000  
E04  25096879.169   131884934.421       -1624.307          47.000    25096885.501   101054685.212       -1244.581          50.000  
G12  21347757.880   112183224.134        -749.883          50.000    21347754.964    87415491.764        -584.329          46.000  
E33  27868023.506   146447446.373        2204.997          34.000    27868043.315   112213063.3911       1689.589          38.000  
E31  26517861.097   139352340.710         766.517          45.000    26517869.629   106776518.485         587.254          48.000  
G15  24412881.187                3      -3934.779          24.000                                                                  
E13  26597921.923   139773038.701        -887.791          38.000    26597926.441   107098843.336        -680.241          45.000  
E26  25758099.980   135359986.824        1421.379          46.000    25758108.122   103717558.834        1089.096          50.000  
E21  25787119.902   135512213.123       -2160.850          45.000    25787124.317   103834036.215       -1655.709          51.000  
> 2024 04 16 00 53 30.0010000  0 25                     
G25  22093513.350   116102211.230         646.738          49.000    22093515.122    90469267.749         503.870          44.000  
E19  26583851.393   139698785.384       -3676.777          41.000    26583877.297   107041865.028       -2817.247          42.000  
G24  20766510.789   109128726.185       -1605.077          49.000    20766511.660    85035358.219       -1250.646          46.000  
G32  23566996.886   123845374.575         413.263          46.000    23566999.116    96502866.920         321.990          44.000  
E09  27258448.792   143244080.1151        729.417          29.000    27258442.822   109758453.522         559.181          35.000  
R16  20378397.719   108857740.724        -446.282          51.000    20378397.634    84667127.305        -347.084          50.000  
R17  22387256.165   119798737.863       -3854.821          51.000    22387253.965    93176781.061       -2998.112          45.000  
R09  22276089.864   118953067.791        1714.133          42.000    22276090.635    92519141.677        1333.058          44.000  
R06  22788682.726   121604766.6641      -3686.254          34.000                                                                  
R15  22441474.193   119920378.981       -2739.825          48.000    22441475.979    93271395.450       -2130.942          44.000  
G29  23369461.360   122807340.860        2507.672          48.000    23369470.873    95694085.928        1954.076          41.000  
G19  24946862.250   131096737.559       -4278.022          36.000                                                                  
S33  39944999.478   209912383.425        -751.088          32.000  
G06  23427262.120   123111112.215       -1112.953          42.000    23427263.243    95930745.890        -867.069          43.000  
G11  23054787.405   121153920.866         860.172          46.000    23054789.796    94405740.925         670.325          47.000  
R07  22713703.561   121588270.405        -938.294          47.000    22713704.217    94568619.361        -729.660          45.000  
R18  20095045.457   107268755.172        -309.206          53.000    20095045.365    83431276.094        -240.474          48.000  
R19  21245373.238   113648636.136        2824.451          42.000    21245377.700    88393531.610        2196.710          48.000  
E04  25106190.166   131933862.207       -1637.463          47.000    25106196.584   101092175.040       -1254.637          50.000  
G12  21352053.114   112205795.941        -754.723          50.000    21352050.998    87433080.215        -588.201          46.000  
E33  27855429.458   146381257.108        2208.011          41.000    27855450.499   112162349.577        1691.816          43.000  
E31  26513489.274   139329368.701         765.025          45.000    26513498.197   106758916.643         586.169          48.000  
E13  26603030.491   139799885.920        -902.098          38.000    26603035.377   107119414.626        -691.093          45.000  
E26  25750008.187   135317465.649        1413.485          46.000    25750016.518   103684977.969        1083.006          50.000  
E21  25799458.676   135577044.788       -2161.170          46.000    25799461.667   103883712.386       -1655.939          52.000  
> 2024 04 16 00 54 00.0010000  0 26                     
G25  22089829.134   116082854.230         643.620          49.000    22089831.686    90454184.396         501.590          45.000  
E19  26604849.690   139809124.521       -3679.127          42.000    26604875.471   107126409.532       -2819.173          43.000  
G24  20775720.556   109177126.124       -1621.498          48.000    20775721.853    85073072.392       -1263.392          46.000  
G32  23564689.426   123833253.428         394.990          44.000    23564692.577    96493421.730         307.669          43.000  
E09  27254322.449                         717.767          30.000    27254313.236   109741823.713         550.128          36.000  
R16  20380922.725   108871230.837        -453.085          51.000    20380923.552    84677619.656        -352.337          49.000  
R17  22408917.611   119914654.468       -3872.977          51.000    22408915.909    93266938.508       -3012.233          45.000  
R09  22266462.158   118901648.592        1714.056          44.000    22266461.305    92479149.045        1332.976          45.000  
R06  22809446.388                3      -3698.356          29.000                                                                  
R15  22456873.357   120002665.406       -2746.020          49.000    22456875.824    93335395.856       -2135.713          43.000  
G29  23355168.527   122732233.2181       2498.253          42.000    23355181.103                        1946.739          32.000  
G19  24971288.712   131225103.948       -4279.553          35.000                                                                  
S31  38996667.809   204928873.1541       -750.868          39.000  
S33  39949286.991   209934912.159        -750.954          43.000  
G06  23433668.570   123144781.529       -1131.714          41.000    23433670.188    95956981.776        -882.025          43.000  
G11  23049917.762   121128329.617         845.828          47.000    23049919.742    94385799.863         659.054          47.000  
R07  22719030.797   121616786.075        -962.825          46.000    22719031.024    94590798.062        -748.689          44.000  
R18  20096860.845   107278446.885        -336.955          53.000    20096860.956    83438814.169        -262.076          49.000  
R19  21229576.572   113564137.213        2808.734          42.000    21229581.838    88327810.653        2184.644          48.000  
E04  25115575.017   131983182.385       -1650.568          46.000    25115582.070   101129965.518       -1264.677          50.000  
G12  21356375.760   112228511.526        -759.695          49.000    21356373.853    87450780.657        -591.844          46.000  
E33  27842819.299   146314981.137        2210.517          33.000    27842842.043   112111573.550        1694.029          42.000  
E31  26509125.088   139306438.831         763.682          45.000    26509134.453   106741347.074         585.075          48.000  
E13  26608222.535   139827161.730        -916.447          39.000    26608225.632   107140314.327        -702.114          45.000  
E26  25741962.616   135275184.719        1405.265          46.000    25741971.059   103652581.195        1076.762          51.000  
E21  25811796.816   135641889.760       -2161.887          45.000    25811801.190   103933398.753       -1656.461          52.000  
> 2024 04 16 00 54 30.0010000  0 26                     
G25  22086163.809   116063594.003         640.195          49.000    22086166.575    90439176.453         498.987          45.000  
E19  26625859.271   139919528.983       -3681.440          41.000    26625885.798   107211004.088       -2820.867          43.000  
G24  20785023.102   109226013.752       -1637.960          48.000    20785025.395    85111166.582       -1276.313          46.000  
G32  23562488.410   123821682.509         376.347          43.000    23562490.591    96484405.279         293.314          43.000  
E09  27250252.512   143201033.615         705.249          29.000    27250251.994   109725469.858         540.286          36.000  
R16  20383485.827   108884923.444        -459.970          51.000    20383486.597    84688269.449        -357.840          50.000  
R17  22430681.356   120031115.860       -3891.188          52.000    22430680.148    93357519.689       -3026.539          44.000  
R09  22256835.312   118850233.252        1713.564          43.000    22256833.078    92439159.375        1332.909          45.000  
R06  22830267.556   121826685.4031      -3708.560          39.000                                                                  
R15  22472307.055   120085137.990       -2752.373          47.000    22472307.578    93399541.080       -2140.780          39.000  
G29  23340929.408                1       2488.038          27.000    23340939.229                1       1939.967          35.000  
G19  24995723.928   131353515.251       -4280.895          34.000                                                                  
S31  39000949.112   204951370.0693       -750.391          37.000  
S33  39953573.443   209957444.3271       -751.248          45.000  
G06  23440182.063   123179015.568       -1150.809          42.000    23440184.179    95983657.731        -896.795          43.000  
G11  23045130.586   121103169.793         831.282          48.000    23045131.913    94366194.963         647.691          47.000  
R07  22724493.529   121646030.846        -987.251          44.000    22724493.861    94613543.881        -767.986          45.000  
R18  20098832.130   107288970.379        -364.831          53.000    20098833.118    83446999.208        -283.644          49.000  
R19  21213867.057   113480104.974        2793.189          42.000    21213873.390    88262452.692        2172.400          49.000  
E04  25125035.007   132032896.528       -1663.946          46.000    25125042.497   101168057.866       -1274.874          50.000  
G12  21360726.183   112251372.797        -764.691          49.000    21360723.909    87468594.637        -595.793          46.000  
E33  27830193.556   146248634.7081       2213.568          31.000    27830215.898   112060750.8881       1695.118          39.000  
E31  26504770.280   139283553.147         762.106          45.000    26504779.393   106723811.371         583.803          48.000  
E13  26613496.116   139854868.711        -930.940          41.000    26613498.114   107161544.412        -713.288          45.000  
E26  25733962.475   135233148.490        1396.968          45.000    25733971.526   103620371.933        1070.334          51.000  
E21  25824139.813   135706750.622       -2162.492          44.000    25824143.923   103983097.308       -1656.955          52.000  
> 2024 04 16 00 55 00.0010000  0 25                     
G25  22082516.465   116044425.680         637.310          49.000    22082518.886    90424240.132         496.630          45.000  
E19  26646879.807   140029992.073       -3683.177          41.000    26646907.281   107295643.572       -2822.217          43.000  
G24  20794418.867   109275384.610       -1653.914          49.000    20794420.680    85149637.283       -1288.783          46.000  
G32  23560389.523   123810657.921         358.318          43.000    23560392.234    96475814.588         279.127          42.000  
E09  27246256.689   143180047.090         693.611          31.000    27246258.925   109709389.154         531.473          36.000  
R16  20386087.419   108898814.959        -466.530          53.000    20386087.335    84699073.982        -362.879          51.000  
R17  22452546.155   120148113.423       -3908.840          52.000    22452543.595    93448517.808       -3040.281          43.000  
R09  22247203.879   118798817.938        1713.836          43.000    22247204.376    92399169.649        1332.850          45.000  
R06  22851151.560   121938128.7203      -3720.815          41.000                                                                  
R15  22487775.244   120167793.120       -2758.293          47.000    22487773.900    93463828.256       -2145.297          39.000  
G29  23326737.917   122582843.3381       2481.074          43.000    23326745.775    95519125.8971       1933.063          38.000  
G19  25020166.826   131481964.246       -4282.698          33.000                                                                  
S31  39005232.479   204973877.760        -749.762          36.000  
G06  23446804.380   123213809.925       -1169.370          41.000    23446805.086    96010770.238        -911.072          42.000  
G11  23040423.332   121078439.179         817.081          47.000    23040425.916    94346924.544         636.622          47.000  
R07  22730092.143   121675998.986       -1011.169          46.000    22730092.530    94636852.251        -786.453          45.000  
R18  20100958.498   107300321.587        -392.307          53.000    20100958.385    83455828.020        -305.098          48.000  
R19  21198244.911   113396539.055        2777.674          42.000    21198250.909    88197457.419        2160.352          49.000  
E04  25134569.587   132082999.018       -1676.771          46.000    25134576.639   101206447.785       -1284.729          49.000  
G12  21365103.339   112274374.726        -769.234          49.000    21365100.549    87486518.241        -599.297          45.000  
E33  27817550.460   146182208.8501       2216.275          39.000    27817577.976   112009839.080        1698.201          44.000  
E31  26500421.116   139260706.561         760.635          44.000    26500431.557   106706305.603         582.935          47.000  
E13  26618849.718   139883002.263        -945.177          42.000    26618851.939   107183101.333        -724.196          44.000  
E26  25726008.964   135191354.310        1388.989          45.000    25726017.832   103588348.154        1064.186          51.000  
E21  25836483.888   135771622.743       -2162.750          44.000    25836489.088   104032804.504       -1657.218          52.000  
> 2024 04 16 00 55 30.0010000  0 26                     
G25  22078886.132   116025345.436         634.359          49.000    22078888.086    90409372.427         494.503          45.000  
E19  26667911.595   140140508.334       -3684.857          41.000    26667938.702   107380323.779       -2823.370          43.000  
G24  20803904.901   109325235.341       -1669.827          49.000    20803907.494    85188481.909       -1301.113          47.000  
G32  23558394.050   123800176.952         340.132          43.000    23558397.047    96467647.501         265.114          41.000  
E09  27242341.867                         681.444          30.000    27242334.200   109693579.716         522.238          38.000  
R16  20388725.189   108912903.071        -472.858          53.000    20388724.534    84710031.401        -367.842          51.000  
R17  22474508.547   120265639.340       -3926.308          52.000    22474505.112    93539926.905       -3053.945          44.000  
R09  22237575.742   118747399.438        1713.881          45.000    22237575.063    92359177.489        1333.078          46.000  
R06  22872101.594   122049924.090       -3731.609          37.000                                                                  
R15  22503274.889   120250627.563       -2764.086          47.000    22503276.451    93528254.854       -2150.083          41.000  
G29  23312595.726   122508538.384        2472.222          37.000    23312598.419                3       1924.849          23.000  
G19  25044616.844   131610445.383       -4283.276          33.000                                                                  
S31  39009512.925   204996375.572        -749.762          46.000  
S33  39962143.881   210002480.5871       -750.172          39.000  
G06  23453530.135   123249160.954       -1187.742          42.000    23453531.883    96038316.574        -925.385          42.000  
G11  23035798.925   121054136.635         802.876          48.000    23035800.412    94327987.672         625.593          47.000  
R07  22735825.075   121706685.129       -1034.979          47.000    22735824.924    94660719.094        -804.968          45.000  
R18  20103238.386   107312497.372        -419.621          52.000    20103239.494    83465298.147        -326.414          49.000  
R19  21182710.430   113313440.155        2762.165          42.000    21182715.416    88132825.448        2148.285          48.000  
E04  25144176.910   132133485.236       -1689.317          46.000    25144184.282   101245131.743       -1294.427          50.000  
G12  21369506.570   112297513.419        -773.617          49.000    21369503.276    87504548.417        -602.761          45.000  
E33  27804896.052   146115702.325        2219.000          40.000    27804921.713   111958887.8331       1700.495          42.000  
E31  26496079.866   139237895.044         759.953          43.000    26496090.486   106688826.709         582.256          47.000  
E13  26624283.153   139911558.826        -958.924          41.000    26624286.528   107204982.377        -734.927          45.000  
E26  25718102.409   135149800.580        1381.180          47.000    25718109.949   103556508.586        1058.088          51.000  
E21  25848830.314   135836502.600       -2162.603          44.000    25848835.387   104082517.614       -1657.274          52.000  
> 2024 04 16 00 56 00.0010000  0 26                     
G25  22075271.372   116006350.494         631.586          49.000    22075273.233    90394571.208         492.207          45.000  
E19  26688953.171   140251073.029       -3686.443          42.000    26688979.573   107465041.146       -2824.617          43.000  
G24  20813482.956   109375563.493       -1685.867          49.000    20813484.410    85227698.565       -1313.581          47.000  
G32  23556502.892   123790237.722         322.024          43.000    23556505.384    96459902.512         251.057          41.000  
E09  27238478.957                         669.765          29.000    27238474.768   109678040.321         513.180          38.000  
R16  20391399.447   108927186.572        -479.623          53.000    20391397.851    84721140.795        -373.036          51.000  
R17  22496568.998   120383687.087       -3943.830          52.000    22496565.637    93631741.815       -3067.383          46.000  
R09  22227945.139   118695975.653        1713.970          46.000    22227945.386    92319181.248        1333.121          46.000  
R06  22893111.170   122162027.4923      -3742.727          39.000                                                                  
R15  22518809.427   120333639.223       -2770.103          46.000    22518811.427    93592819.308       -2154.391          41.000  
G29  23298502.599   122434491.979        2463.771          47.000    23298509.463    95403501.2611       1920.052          39.000  
G19  25069071.558   131738953.730       -4284.613          32.000                                                                  
S31  39013790.683   205018855.1381       -749.412          44.000  
S33  39966426.347   210024982.475        -748.900          36.000  
G06  23460363.233   123285066.186       -1206.231          41.000    23460363.373    96066294.733        -939.935          39.000  
G11  23031256.301   121030261.999         788.461          48.000    23031257.539    94309384.232         614.402          47.000  
R07  22741690.620   121738085.401       -1058.695          47.000    22741691.609    94685141.355        -823.513          46.000  
R18  20105674.205   107325495.634        -447.235          53.000    20105674.368    83475407.989        -347.851          48.000  
R19  21167264.368   113230810.161        2746.131          42.000    21167267.707    88068558.173        2135.999          48.000  
E04  25153858.227   132184351.604       -1702.009          47.000    25153864.520   101284106.963       -1304.132          50.000  
G12  21373934.928   112320785.821        -778.207          49.000    21373931.781    87522682.764        -606.353          45.000  
E33  27792223.517   146049089.615        2221.532          42.000    27792248.809   111907843.822        1702.505          42.000  
E31  26491746.502   139215115.536         758.657          45.000    26491755.870   106671372.345         581.321          47.000  
E13  26629796.833   139940535.833        -973.104          41.000    26629799.920   107227185.573        -745.652          43.000  
E26  25710239.491   135108486.664        1373.013          46.000    25710247.756   103524852.758        1051.975          51.000  
E21  25861177.032   135901387.655       -2163.321          44.000    25861182.266   104132234.720       -1657.413          51.000  
> 2024 04 16 00 56 30.0010000  0 26                     
G25  22071672.560   115987442.828         628.920          48.000    22071675.043    90379838.023         489.945          44.000  
E19  26710002.928   140361686.215       -3687.704          42.000    26710029.606   107549795.675       -2825.661          42.000  
G24  20823150.877   109426371.402       -1701.349          49.000    20823153.091    85267289.073       -1325.863          47.000  
G32  23554715.908   123780843.231         304.217          44.000    23554718.082    96452582.004         237.053          41.000  
E09  27234679.773                         658.479          26.000    27234682.737   109662773.432         504.378          38.000  
R16  20394110.093   108941668.596        -485.971          52.000    20394109.099    84732404.576        -377.907          50.000  
R17  22518726.134   120502254.969       -3960.717          52.000    22518723.532    93723961.345       -3080.635          47.000  
R09  22218314.182   118644549.773        1714.445          46.000    22218315.147    92279183.410        1333.478          47.000  
R06  22914175.567   122274427.4312      -3752.480          32.000                                                                  
R15  22534377.683   120416831.081       -2775.964          47.000    22534380.435    93657523.909       -2159.213          41.000  
G29  23284461.552   122360682.8081       2455.056          40.000    23284462.458                1       1912.866          42.000  
G19  25093531.582   131867489.273       -4284.660          32.000                                                                  
S31  39018066.372   205041316.9761       -748.526          47.000  
S33  39970707.284   210047481.4811       -749.254          42.000  
G06  23467300.931   123321527.758       -1224.450          39.000    23467301.780    96094706.422        -954.153          39.000  
G11  23026795.344   121006819.858         774.388          47.000    23026796.612    94291117.828         603.431          47.000  
R07  22747690.925   121770200.662       -1082.391          46.000    22747691.614    94710119.723        -841.879          46.000  
R18  20108263.550   107339319.060        -474.413          52.000    20108263.894    83486159.600        -368.986          49.000  
R19  21151905.320   113148655.279        2730.719          41.000    21151908.507    88004660.414        2123.785          47.000  
E04  25163610.085   132235599.267       -1714.387          47.000    25163616.968   101323374.356       -1313.700          50.000  
G12  21378389.922   112344194.179        -782.455          50.000    21378386.348    87540923.063        -609.553          45.000  
E33  27779534.496   145982395.485        2224.377          41.000    27779559.543   111856737.930        1704.697          45.000  
E31  26487418.776   139192369.822         757.645          45.000    26487427.583   106653943.877         580.656          47.000  
E13  26635391.716   139969935.483        -987.005          42.000    26635393.845   107249712.615        -756.374          42.000  
E26  25702423.917   135067416.677        1364.985          45.000    25702432.156   103493383.818        1045.974          51.000  
E21  25873526.726   135966280.162       -2163.031          44.000    25873530.733   104181957.517       -1657.428          51.000  
> 2024 04 16 00 57 00.0010000  0 26                     
G25  22068090.099   115968616.427         626.162          48.000    22068092.476    90365168.133         487.885          44.000  
E19  26731060.321   140472340.384       -3689.302          42.000    26731087.384   107634581.603       -2826.868          42.000  
G24  20832909.905   109477653.477       -1717.377          49.000    20832911.625    85307249.057       -1338.109          47.000  
G32  23553031.029   123771988.352         286.276          45.000    23553034.810    96445681.989         222.856          43.000  
E09  27230949.927                         646.293          27.000    27230956.844   109647775.441         495.354          37.000  
R16  20396857.847   108956345.165        -492.524          51.000    20396856.527    84743819.685        -383.087          51.000  
R17  22540978.321   120621333.261       -3977.723          51.000    22540976.123    93816577.832       -3093.838          47.000  
R09  22208683.097   118593116.536        1714.498          46.000    22208684.369    92239179.827        1333.490          48.000  
R06  22935296.781   122387156.195       -3762.865          33.000                                                                  
R15  22549979.966   120500197.537       -2781.830          48.000    22549980.987    93722364.291       -2163.459          43.000  
G29  23270468.394   122287137.3343       2446.160          38.000    23270470.416                        1903.777          23.000  
G19  25117995.957                       -4285.758          31.000                                                                  
S31  39022340.345   205063782.0053       -748.460          49.000  
S33  39974985.637   210069965.1091       -749.030          39.000  
G06  23474344.465   123358540.022       -1243.212          39.000    23474344.247    96123547.193        -968.451          38.000  
G11  23022415.287   120983806.894         759.917          46.000    23022416.901    94273185.843         592.007          47.000  
R07  22753821.581   121803024.106       -1105.979          45.000    22753822.796    94735648.892        -860.020          45.000  
R18  20111006.638   107353962.265        -501.826          52.000    20111008.016    83497548.816        -390.284          50.000  
R19  21136634.940   113066974.201        2714.881          41.000    21136638.510    87941131.149        2111.365          47.000  
E04  25173432.555   132287221.377       -1727.218          46.000    25173440.624   101362928.657       -1323.374          50.000  
G12  21382869.002   112367731.084        -786.822          50.000    21382865.499    87559263.527        -613.169          45.000  
E33  27766828.148   145915615.771        2227.347          42.000    27766854.196   111805566.646        1706.722          43.000  
E31  26483095.494   139169651.666         756.682          46.000    26483104.505   106636536.562         579.777          47.000  
E13  26641063.801   139999751.974       -1000.889          41.000    26641067.950   107272559.079        -767.094          41.000  
E26  25694654.310   135026586.817        1356.813          46.000    25694661.972   103462098.893        1039.657          50.000  
E21  25885874.782   136031174.405       -2163.125          44.000    25885879.565   104231681.668       -1657.640          51.000  
> 2024 04 16 00 57 30.0010000  0 26                     
G25  22064524.561   115949878.388         623.015          47.000    22064526.858    90350567.061         485.445          44.000  
E19  26752126.313   140583040.634       -3690.696          41.000    26752154.195   107719402.876       -2828.166          42.000  
G24  20842760.544   109529417.059       -1733.608          49.000    20842761.918    85347584.221       -1350.714          46.000  
G32  23551449.937   123763681.055         267.830          44.000    23551454.357    96439208.654         208.657          43.000  
E09  27227291.033                         634.601          28.000    27227300.194   109633052.687         485.826          37.000  
R16  20399641.791   108971224.401        -499.495          51.000    20399641.930    84755392.435        -388.435          50.000  
R17  22563326.423   120740925.299       -3995.036          50.000    22563324.892    93909593.844       -3107.193          48.000  
R09  22199051.650   118541683.929        1714.067          47.000    22199052.539    92199176.687        1333.277          48.000  
R06  22956480.790   122500179.9801      -3772.686          31.000                                                                  
R15  22565615.037   120583746.635       -2788.146          47.000    22565617.105    93787346.828       -2168.447          44.000  
G29  23256527.403   122213863.4851       2437.678          42.000    23256530.736    95231599.1971       1899.406          41.000  
G19  25142464.790                       -4286.347          30.000                                                                  
S31  39026613.183   205086234.2521       -748.501          31.000  
S33  39979261.988   210092436.397        -749.273          38.000  
G06  23481493.834   123396110.110       -1261.821          39.000    23481494.239    96152822.641        -983.050          39.000  
G11  23018119.231   120961232.691         745.078          46.000    23018120.519    94255595.724         580.502          47.000  
R07  22760085.969   121836561.422       -1129.932          45.000    22760088.030    94761733.309        -878.920          46.000  
R18  20113904.924   107369432.980        -529.536          52.000    20113906.395    83509581.669        -411.811          50.000  
R19  21121456.184   112985778.319        2698.340          41.000    21121459.941    87877979.203        2098.633          47.000  
E04  25183329.307   132339224.180       -1739.751          46.000    25183336.512   101402774.624       -1333.122          50.000  
G12  21387373.602   112391404.199        -791.521          49.000    21387370.181    87577710.139        -616.818          45.000  
E33  27754107.448   145848759.264        2229.691          37.000    27754133.888   111754336.848        1708.633          38.000  
E31  26478778.191   139146967.884         755.523          45.000    26478787.608   106619155.598         578.752          47.000  
E13  26646818.659   140029992.622       -1015.243          40.000    26646822.272   107295730.508        -777.994          41.000  
E26  25686931.839   134986006.311        1348.375          46.000    25686939.151   103431005.007        1033.154          50.000  
E21  25898226.645   136096077.748       -2163.773          44.000    25898230.374   104281412.742       -1657.878          51.000  
> 2024 04 16 00 58 00.0010000  0 26                     
G25  22060975.107   115931227.662         620.058          48.000    22060977.209    90336034.054         483.208          44.000  
E19  26773200.326   140693784.398       -3692.102          41.000    26773228.787   107804257.476       -2829.016          42.000  
G24  20852702.127   109581661.383       -1749.635          49.000    20852703.684    85388294.013       -1363.436          47.000  
G32  23549973.642   123755921.201         249.126          45.000    23549977.926    96433161.875         194.470          42.000  
E09  27223700.158                         621.966          30.000    27223712.672   109618605.259         477.008          38.000  
R16  20402465.431   108986307.140        -506.324          51.000    20402465.301    84767123.430        -393.793          50.000  
R17  22585770.582   120861026.066       -4012.051          50.000    22585767.080    94003005.606       -3120.471          48.000  
R09  22189419.140   118490252.284        1714.257          46.000    22189420.695    92159174.309        1333.178          47.000  
R06  22977719.642   122613510.8261      -3783.759          40.000                                                                  
R15  22581284.688   120667478.232       -2794.389          48.000    22581286.657    93852471.264       -2173.512          45.000  
G29  23242635.563   122140874.1021       2428.357          40.000    23242636.773                1       1890.782          31.000  
G19  25166934.675                1      -4286.958          27.000                                                                  
S31  39030884.115   205108673.425        -747.893          41.000  
S33  39983537.465   210114910.8823       -749.145          43.000  
G06  23488750.593   123434237.220       -1280.174          41.000    23488749.862    96182532.083        -997.708          38.000  
G11  23013906.604   120939098.810         730.353          46.000    23013908.564    94238348.751         568.914          48.000  
R07  22766484.865   121870810.481       -1153.646          44.000    22766486.816    94788371.284        -897.258          47.000  
R18  20116957.876   107385730.723        -557.218          52.000    20116957.801    83522257.773        -433.434          48.000  
R19  21106368.042   112905071.407        2681.873          41.000    21106373.144    87815207.588        2085.919          48.000  
E04  25193297.101   132391605.793       -1752.599          46.000    25193304.639   101442910.838       -1342.927          50.000  
G12  21391903.792   112415212.532        -796.034          49.000    21391901.003    87596262.111        -620.292          45.000  
E33  27741371.489   145781827.102        2232.178          42.000    27741399.365   111703049.125        1710.181          48.000  
E31  26474467.252   139124317.246         754.083          45.000    26474476.663   106601800.021         577.937          47.000  
E13  26652654.137   140060656.499       -1029.593          42.000    26652657.496   107319226.220        -788.702          40.000  
E26  25679256.907   134945676.269        1339.906          46.000    25679264.261   103400103.022        1026.639          49.000  
E21  25910579.882   136160989.369       -2164.094          45.000    25910582.884   104331150.196       -1658.216          51.000  
> 2024 04 16 00 58 30.0010000  0 25                     
G25  22057442.237   115912662.804         617.409          47.000    22057444.435    90321567.963         481.089          44.000  
E19  26794282.129   140804568.125       -3693.424          40.000    26794311.300   107889142.705       -2830.202          42.000  
G24  20862734.826   109634385.293       -1765.511          49.000    20862737.024    85429377.493       -1375.710          47.000  
G32  23548601.717   123748708.043         231.296          46.000    23548604.317    96427541.142         180.482          41.000  
E09  27220186.874   143043070.733         610.227          33.000    27220194.039   109604432.955         467.626          40.000  
R16  20405328.297   109001593.083        -512.917          53.000    20405326.609    84779012.499        -398.990          49.000  
R17  22608308.499   120981630.555       -4028.613          48.000    22608304.812    94096809.095       -3133.360          49.000  
R09  22179787.305   118438820.622        1714.462          46.000    22179788.580    92119171.907        1333.418          47.000  
R06  22999011.825   122727135.1183      -3791.673          33.000                                                                  
R15  22596988.220   120751391.372       -2800.180          49.000    22596988.315    93917736.885       -2177.893          44.000  
G29  23228797.496   122068147.792        2419.500          42.000    23228799.935    95118043.5581       1885.852          35.000  
S31  39035153.277   205131105.4211       -748.099          35.000  
S33  39987810.110   210137366.909        -748.492          37.000  
G06  23496111.130   123472919.871       -1298.571          41.000    23496111.498    96212674.472       -1011.880          39.000  
G11  23009778.591   120917406.231         715.750          47.000    23009780.480    94221445.659         557.666          48.000  
R07  22773015.382   121905768.163       -1177.019          46.000    22773016.972    94815560.394        -915.649          46.000  
R18  20120165.527   107402854.388        -584.583          52.000    20120165.426    83535576.250        -454.648          47.000  
R19  21091372.212   112824856.447        2665.509          41.000    21091376.905    87752818.605        2073.102          48.000  
E04  25203337.077   132444363.743       -1764.820          46.000    25203344.328   101483335.420       -1352.254          50.000  
G12  21396459.541   112439153.897        -800.384          49.000    21396457.059    87614917.728        -623.816          45.000  
E33  27728622.055   145714819.460        2234.952          43.000    27728650.301   111651703.495        1712.632          47.000  
E31  26470162.887   139101697.920         753.517          45.000    26470172.126   106584468.440         577.277          47.000  
E13  26658570.340   140091742.163       -1043.267          43.000    26658572.365   107343045.207        -799.495          38.000  
E26  25671630.908   134905597.221        1331.684          47.000    25671637.636   103369393.383        1020.417          50.000  
E21  25922931.594   136225908.069       -2164.268          42.000    25922936.645   104380893.059       -1658.270          51.000  
> 2024 04 16 00 59 00.0010000  0 25                     
G25  22053925.534   115894179.813         614.899          47.000    22053927.162    90307165.669         479.013          44.000  
E19  26815371.454   140915386.059       -3694.935          41.000    26815400.432   107974054.169       -2831.066          42.000  
G24  20872858.326   109687585.014       -1781.478          49.000    20872860.848    85470831.728       -1388.143          47.000  
G32  23547333.455   123742038.527         212.926          47.000    23547335.656    96422344.014         166.099          42.000  
E09  27216737.232   143024930.978         598.441          35.000    27216742.729   109590533.619         458.716          41.000  
R16  20408227.466   109017079.871        -519.698          51.000    20408226.275    84791057.787        -404.294          50.000  
R17  22630939.281   121102730.622       -4044.926          47.000    22630936.444    94190998.064       -3146.018          49.000  
R09  22170154.614   118387385.946        1714.224          46.000    22170155.926    92079167.156        1333.466          47.000  
R06  23020366.427   122841085.7383      -3802.459          41.000                                                                  
R15  22612724.766   120835483.181       -2806.116          48.000    22612724.631    93983141.489       -2182.679          43.000  
G29  23215009.270   121995691.144        2410.809          41.000    23215007.563    95061565.8151       1878.096          33.000  
S31  39039419.457   205153524.212        -747.019          47.000  
S33  39992080.128   210159805.5951       -748.147          49.000  
G06  23503576.973   123512154.224       -1317.176          40.000    23503576.866    96243246.796       -1026.403          36.000  
G11  23005734.483   120896153.549         700.972          46.000    23005736.513    94204885.328         546.111          48.000  
R07  22779678.288   121941429.291       -1200.569          47.000    22779678.188    94843296.674        -933.740          45.000  
R18  20123527.176   107420800.402        -612.011          51.000    20123526.839    83549534.329        -475.978          47.000  
R19  21076468.274   112745134.013        2649.042          41.000    21076472.683    87690812.727        2060.352          48.000  
E04  25213447.333   132497493.243       -1777.344          47.000    25213454.943   101524044.682       -1361.758          50.000  
G12  21401039.921   112463224.221        -804.571          49.000    21401037.045    87633673.822        -626.974          45.000  
E33  27715857.813   145647734.738        2237.359          41.000    27715886.128   111600299.150        1714.270          43.000  
E31  26465864.334   139079105.771         752.452          46.000    26465873.077   106567157.651         576.702          47.000  
E13  26664565.068   140123245.872       -1057.317          43.000    26664567.527   107367184.449        -809.974          39.000  
E26  25664050.867   134865767.466        1323.261          46.000    25664058.366   103338874.726        1013.916          51.000  
E21  25935286.087   136290830.126       -2164.331          42.000    25935290.938   104430638.511       -1658.341          51.000  
> 2024 04 16 00 59 30.0010000  0 25                     
G25  22050423.995   115875777.685         611.965          48.000    22050425.743    90292826.396         476.794          45.000  
E19  26836466.033   141026235.306       -3695.677          41.000    26836495.176   108058989.662       -2831.598          42.000  
G24  20883072.531   109741259.752       -1797.199          49.000    20883074.907    85512656.113       -1400.422          47.000  
G32  23546167.427   123735912.301         195.017          47.000    23546171.208    96417570.228         151.831          43.000  
E09  27213351.105   143007147.649         586.771          34.000    27213358.188   109576907.368         449.413          41.000  
R16  20411164.077   109032767.684        -526.448          51.000    20411163.481    84803259.434        -409.387          50.000  
R17  22653661.346   121224321.306       -4061.290          48.000    22653658.757    94285568.671       -3158.827          50.000  
R09  22160522.582   118335948.237        1714.527          47.000    22160523.481    92039160.120        1333.488          47.000  
R06  23041768.361   122955300.776       -3812.617          28.000                                                                  
R15  22628494.687   120919753.009       -2812.126          48.000    22628494.848    94048684.524       -2187.199          45.000  
G29  23201270.056   121923502.230        2401.646          38.000    23201272.626    95005335.353        1871.145          34.000  
S31  39043683.205   205175937.1381       -746.604          45.000  
S33  39996347.757   210182234.667        -747.697          46.000  
G06  23511147.701   123551939.343       -1335.737          39.000    23511147.890    96274248.243       -1041.153          37.000  
G11  23001774.016   120875342.230         686.214          47.000    23001775.176    94188668.915         534.633          47.000  
R07  22786472.814   121977791.541       -1223.870          48.000    22786471.566    94871578.254        -951.807          45.000  
R18  20127042.854   107439568.045        -639.389          51.000    20127043.275    83564131.474        -497.316          47.000  
R19  21061657.919   112665907.021        2632.410          42.000    21061662.137    87629192.173        2047.370          48.000  
E04  25223629.218   132550992.288       -1789.524          48.000    25223635.720   101565037.104       -1371.150          49.000  
G12  21405644.966   112487422.140        -808.958          49.000    21405641.583    87652529.332        -630.183          45.000  
E33  27703079.180   145580573.209        2239.960          39.000    27703107.628   111548835.442        1716.143          40.000  
E31  26461570.856   139056539.456         751.710          46.000    26461578.653   106549866.686         576.000          48.000  
E13  26670638.495   140155166.632       -1071.166          42.000    26670642.631   107391643.281        -820.838          40.000  
E26  25656517.999   134826187.995        1314.995          45.000    25656526.910   103308547.845        1007.532          51.000  
E21  25947640.657   136355754.817       -2164.492          42.000    25947645.861   104480385.971       -1658.404          51.000  
