     3.00           OBSERVATION DATA    M: Mixed            RINEX VERSION / TYPE
CONVBIN 2.4.3                           20240416 055942 UTC PGM / RUN BY / DATE 
format: u-blox UBX                                          COMMENT             
log: /home/regis/git/gnsspwv/obsdata/VERT00CHL/2024-04-16/VECOMMENT             
{self.marker}                                               MARKER NAME         
                                                            MARKER NUMBER       
GEODETIC                                                    MARKER TYPE         
{self.observer}     {self.institution}                      OBSERVER / AGENCY   
UNKNOWN             UBLOX-ZED-F9P                           REC # / TYPE / VERS 
UNKNOWN             TWIVSP6037L                             ANT # / TYPE        
  1713381.0000 -5047934.0000 -3490983.0000                  APPROX POSITION XYZ 
        0.0000        0.0000        0.0000                  ANTENNA: DELTA H/E/N
G    8 C1C L1C D1C S1C C2L L2L D2L S2L                      SYS / # / OBS TYPES 
R    8 C1C L1C D1C S1C C2C L2C D2C S2C                      SYS / # / OBS TYPES 
E    8 C1C L1C D1C S1C C7Q L7Q D7Q S7Q                      SYS / # / OBS TYPES 
S    4 C1C L1C D1C S1C                                      SYS / # / OBS TYPES 
  2024    04    16    05    45   00.0080000     GPS         TIME OF FIRST OBS   
  2024    04    16    05    59   30.0090000     GPS         TIME OF LAST OBS    
                                                            END OF HEADER       
> 2024 04 16 05 45 00.0080000  0 26                     
G25  26176962.717   137560858.9281      -4054.395          42.000    26176964.628   107190285.4001      -3159.259          37.000  
G18  23068019.532   121223301.9611      -1850.458          48.000    23068015.770    94459687.5711      -1441.962          49.000  
G26  23176563.374   121793683.3221        804.480          48.000    23176563.862    94904177.5051        626.758          46.000  
G23  24345198.987   127935067.9541       2085.054          48.000    24345198.062    99689669.9651       1624.780          47.000  
G16  25806347.044   135613280.1691       2507.309          42.000                                                                  
R05  25784698.027   137834029.9161       1367.826          36.000    25784695.859   107204298.0241       1063.686          39.000  
R11  22261453.185   118958561.1081        407.452          52.000    22261450.546    92523384.6471        316.900          50.000  
R09  26328681.961                3      -5100.203          19.000    26328716.395                3      -3954.211          22.000  
R10  22902348.663   122082437.1161      -3809.161          47.000                                                                  
R21  22610489.579   120993460.8821       -524.213          52.000    22610485.982    94106090.1421       -407.684          48.000  
R20  23924335.064   127934273.2301      -3310.155          39.000    23924336.097    99504502.3871      -2574.717          42.000  
G29  25294678.600   132924514.6931      -2488.591          47.000    25294675.657   103577592.5571      -1939.118          40.000  
S33  42259707.258   222076312.7741       -649.569          43.000  
S31  41305556.744   217062237.7961       -649.618          44.000  
G28  26291901.221   138164860.8581      -3648.614          39.000    26291904.649   107660898.8991      -2843.469          37.000  
E11  28118028.715   147761223.5081       1633.728          37.000    28118032.284   113219666.1331       1251.447          43.000  
R22  25263762.122   134859722.1741       1861.638          49.000    25263765.215   104890926.2341       1447.862          49.000  
E33  27438317.660   144189413.9971      -2723.128          46.000    27438317.430   110482851.2521      -2086.502          48.000  
E31  26151349.444   137426400.0731      -1812.085          47.000    26151353.609   105300820.3161      -1388.425          53.000  
G31  25090532.071   131851537.1031      -2500.208          46.000    25090531.219   102741591.0361      -1948.016          43.000  
E14  28767728.055   151175596.1691      -2883.935          47.000    28767728.948   115835822.2161      -2209.791          49.000  
G05  27217177.768   143027251.5791      -3155.148          44.000    27217173.336   111450064.7591      -2458.368          39.000  
E24  26781874.425   140739735.3101        814.712          46.000    26781876.331   107839557.9881        624.163          52.000  
E12  26220696.936   137790793.8021       -319.438          43.000    26220696.042   105580037.7351       -244.672          48.000  
E10  27104841.735   142437073.7971        794.671          47.000    27104844.764   109140287.6331        608.864          52.000  
G10                                                                  26651410.566   109133087.2891       2492.063          32.000  
> 2024 04 16 05 45 30.0080000  0 26                     
G25  26200126.816   137682584.215       -4060.907          43.000    26200128.146   107285136.185       -3164.502          38.000  
G18  23078620.701   121279015.790       -1864.003          48.000    23078617.109    94503100.949       -1452.492          49.000  
G26  23172016.566   121769788.968         788.275          48.000    23172016.896    94885558.504         614.325          46.000  
G23  24333329.024   127872693.359        2072.864          48.000    24333328.867    99641066.476        1615.244          48.000  
G16  25792046.157   135538127.922        2502.889          41.000                                                                  
R05  25777065.810   137793231.487        1351.783          38.000    25777061.802   107172565.948        1051.301          37.000  
R11  22259237.907   118946725.065         381.447          52.000    22259235.123    92514178.844         296.568          49.000  
R10  22923838.586   122196987.580       -3827.853          47.000                                                                  
R21  22613460.438   121009354.577        -535.630          53.000    22613456.121    94118451.939        -416.667          48.000  
R20  23942911.341   128033607.487       -3312.363          39.000    23942911.647    99581762.395       -2576.156          42.000  
G29  25308893.550   132999215.956       -2491.766          46.000    25308891.199   103635801.272       -1941.584          40.000  
S33  42263415.017   222095797.372        -649.402          43.000  
S31  41309264.299   217081721.184        -649.705          43.000  
G28  26312736.914   138274343.928       -3650.519          41.000    26312737.828   107746210.333       -2844.770          35.000  
G10  26633178.789                3       3199.242          26.000    26633149.457   109058301.118        2492.934          35.000  
E11  28108719.977   147712310.405        1627.311          38.000    28108724.475   113182187.312        1246.879          43.000  
R22  25253324.690   134804004.074        1852.582          50.000    25253327.343   104847590.040        1441.057          49.000  
E33  27453873.141   144271161.355       -2727.021          46.000    27453872.834   110545488.863       -2089.549          47.000  
E31  26161724.359   137480923.018       -1823.237          47.000    26161729.158   105342597.609       -1396.952          53.000  
G31  25104840.230   131926729.012       -2513.045          46.000    25104839.585   102800182.097       -1958.027          42.000  
E14  28784166.180   151261980.148       -2874.969          47.000    28784167.235   115902012.552       -2203.014          49.000  
G05  27235223.182   143122080.168       -3167.060          42.000    27235218.787   111523957.222       -2467.725          39.000  
E24  26777247.865   140715424.722         805.794          46.000    26777250.050   107820930.402         617.475          52.000  
E12  26222548.104   137800521.963        -329.339          43.000    26222546.958   105587491.811        -252.367          47.000  
E10  27100331.082   142413368.955         785.441          47.000    27100333.980   109122124.220         601.824          52.000  
R09                                                                  26357328.738                3      -3955.520          18.000  
> 2024 04 16 05 46 00.0080000  0 26                     
G25  26223325.912   137804501.483       -4067.114          42.000    26223328.467   107380136.519       -3169.305          38.000  
G18  23089298.420   121335128.805       -1877.057          48.000    23089295.173    94546825.374       -1462.671          48.000  
G26  23167560.637   121746371.969         772.461          48.000    23167561.125    94867311.492         601.752          47.000  
G23  24321528.286   127810681.041        2060.821          48.000    24321527.604    99592745.164        1605.849          47.000  
G16  25777769.222   135463102.728        2498.609          40.000                                                                  
R05  25769528.177   137752922.728        1335.342          40.000    25769519.888   107141214.567        1038.641          37.000  
R11  22257168.748   118935665.214         355.567          52.000    22257165.132    92505576.753         276.653          50.000  
R10  22945431.772   122312091.935       -3846.008          47.000                                                                  
R21  22616492.648   121025586.432        -546.730          52.000    22616489.970    94131076.691        -425.202          49.000  
R20  23961498.232   128132999.961       -3313.947          39.000    23961498.836    99659067.708       -2577.643          42.000  
G29  25323126.809   133074008.452       -2494.696          46.000    25323123.419   103694081.106       -1943.812          40.000  
S33  42267121.963   222115277.777        -649.323          43.000  
S31  41312970.618   217101198.833        -648.972          44.000  
G28  26333582.035   138383882.676       -3652.277          41.000    26333583.850   107831565.109       -2846.002          37.000  
G10  26614873.281   139862206.0051       3199.278          28.000    26614884.933   108983507.089        2493.579          35.000  
E11  28099448.026   147663584.851        1620.942          38.000    28099452.460   113144852.203        1242.024          44.000  
R22  25242935.786   134748550.098        1844.025          50.000    25242938.123   104804459.268        1434.171          48.000  
E33  27469450.908   144353023.216       -2730.683          46.000    27469450.643   110608214.207       -2092.396          47.000  
E31  26172162.249   137535778.142       -1834.101          46.000    26172167.708   105384629.455       -1405.363          52.000  
G31  25119221.190   132002302.220       -2525.533          47.000    25119220.843   102859070.297       -1967.896          43.000  
E14  28800552.570   151348092.546       -2865.981          47.000    28800553.910   115967994.781       -2195.976          49.000  
G05  27253335.563   143217263.144       -3178.555          42.000    27253330.801   111598125.838       -2476.843          37.000  
E24  26772671.190   140691376.226         797.193          46.000    26772673.728   107802503.650         610.867          52.000  
E12  26224455.166   137810546.469        -339.200          42.000    26224454.455   105595172.935        -259.881          47.000  
E10  27095871.383   142389937.751         776.466          47.000    27095875.204   109104170.494         594.874          52.000  
R09                                                                  26385943.110                3      -3961.546          15.000  
> 2024 04 16 05 46 30.0080000  0 26                     
G25  26246560.612   137926598.395       -4072.913          43.000    26246563.500   107475276.803       -3173.871          38.000  
G18  23100050.225   121391628.488       -1889.752          48.000    23100047.357    94590851.137       -1472.498          49.000  
G26  23163194.332   121723423.785         757.049          48.000    23163194.298    94849429.783         589.996          47.000  
G23  24309795.223   127749023.641        2049.282          48.000    24309795.067    99544700.411        1596.827          48.000  
G16  25763514.824   135388196.275        2494.999          40.000                                                                  
R05  25762076.833   137713096.134        1319.329          36.000    25762071.049   107110238.447        1026.326          41.000  
R11  22255242.569   118925372.459         330.297          52.000    22255238.907    92497571.276         256.960          50.000  
R09  26414533.660                3      -5088.117          16.000    26414573.002                3      -3966.374          16.000  
R10  22967125.822   122427736.128       -3863.858          46.000                                                                  
R21  22619586.949   121042143.784        -557.291          52.000    22619584.504    94143954.662        -433.525          49.000  
R20  23980093.774   128232437.951       -3315.535          40.000    23980093.740    99736408.348       -2578.405          41.000  
G29  25337374.059   133148881.679       -2497.112          46.000    25337372.160   103752423.837       -1945.987          40.000  
S33  42270825.582   222134740.631        -648.409          43.000  
S31  41316674.042   217120659.800        -648.389          43.000  
G28  26354434.911   138493463.419       -3653.204          42.000    26354435.311   107916952.650       -2847.137          36.000  
G10  26596609.771   139766202.513        3199.752          31.000    26596616.870   108908699.410        2493.744          35.000  
E11  28090210.652   147615036.879        1615.539          40.000    28090214.007   113107653.197        1237.577          44.000  
R22  25232595.380   134693349.545        1835.672          50.000    25232596.982   104761525.557        1427.941          48.000  
E33  27485047.931   144434987.619       -2733.805          46.000    27485048.236   110671018.128       -2094.724          47.000  
E31  26182661.824   137590954.870       -1844.604          46.000    26182667.651   105426907.725       -1413.327          53.000  
G31  25133673.679   132078243.361       -2537.434          48.000    25133673.060   102918245.151       -1977.379          43.000  
E14  28816885.423   151433922.711       -2856.244          47.000    28816886.711   116033760.749       -2188.469          49.000  
G05  27271513.339   143312788.765       -3189.935          41.000    27271508.028   111672561.404       -2485.829          37.000  
E24  26768143.319   140667580.837         788.938          46.000    26768145.658   107784270.819         604.559          52.000  
E12  26226417.149   137820856.017        -348.251          42.000    26226416.314   105603072.494        -266.887          48.000  
E10  27091463.381   142366769.615         767.982          47.000    27091466.487   109086418.332         588.448          52.000  
> 2024 04 16 05 47 00.0080000  0 26                     
G25  26269828.193   138048869.425       -4078.870          44.000    26269831.467   107570552.900       -3178.455          39.000  
G18  23110874.227   121448508.911       -1902.490          48.000    23110871.635    94635173.533       -1482.562          49.000  
G26  23158915.812   121700942.653         741.302          48.000    23158915.834    94831912.045         577.673          47.000  
G23  24298129.459   127687720.685        2037.156          48.000    24298129.501    99496931.942        1587.511          48.000  
G16  25749283.799   135313407.406        2490.583          40.000                                                                  
R05  25754715.608   137673751.939        1303.249          36.000    25754711.047   107079637.454        1013.430          41.000  
R11  22253459.255   118915845.263         304.550          51.000    22253456.337    92490161.231         236.792          50.000  
R09  26443178.840                3      -5117.278          12.000    26443217.999                3      -3971.595          16.000  
R10  22988919.873   122543912.810       -3881.647          46.000                                                                  
R21  22622741.447   121059021.571        -568.252          53.000    22622738.242    94157081.905        -441.994          49.000  
R20  23998696.344   128331915.531       -3316.602          40.000    23998697.057    99813779.863       -2579.681          43.000  
G29  25351637.571   133223832.156       -2499.943          46.000    25351634.107   103810826.752       -1947.876          40.000  
S33  42274525.191   222154183.594        -648.058          43.000  
S31  41320373.539   217140101.693        -648.134          44.000  
G28  26375294.165   138603079.420       -3654.834          43.000    26375294.215   108002367.651       -2847.595          37.000  
G10  26578341.289   139670180.362        3201.382          32.000    26578344.468   108833877.316        2494.263          35.000  
E11  28081005.858   147566663.226        1609.220          41.000    28081008.695   113070587.716        1233.110          45.000  
R22  25222301.267   134638398.582        1827.212          51.000    25222303.051   104718786.019        1421.089          48.000  
E33  27500664.164   144517049.260       -2737.308          46.000    27500663.745   110733896.548       -2097.260          47.000  
E31  26193222.696   137646449.277       -1855.461          47.000    26193227.880   105469429.434       -1421.607          54.000  
G31  25148193.469   132154545.861       -2549.675          48.000    25148193.020   102977701.599       -1986.641          42.000  
E14  28833164.329   151519466.755       -2847.035          47.000    28833165.187   116099307.491       -2181.484          49.000  
G05  27289755.252   143408650.508       -3201.223          41.000    27289749.267   111747258.883       -2494.688          36.000  
E24  26763663.710   140644036.238         780.371          47.000    26763665.224   107766230.153         597.922          52.000  
E12  26228432.045   137831446.100        -357.840          42.000    26228431.685   105611186.989        -274.179          48.000  
E10  27087104.630   142343860.697         758.983          48.000    27087106.820   109068864.786         581.624          51.000  
> 2024 04 16 05 47 30.0080000  0 25                     
G25  26293131.221   138171326.568       -4085.187          44.000    26293134.482   107665973.999       -3183.191          41.000  
G18  23121772.638   121505782.356       -1915.857          48.000    23121770.360    94679802.157       -1492.798          49.000  
G26  23154729.248   121678944.856         724.896          48.000    23154729.361    94814770.930         564.813          46.000  
G23  24286534.774   127626789.179        2024.504          48.000    24286534.504    99449452.826        1577.645          48.000  
G16  25735076.674   135238753.305        2486.295          40.000                                                                  
R05  25747447.115   137634908.723        1286.234          40.000    25747445.249   107049426.012        1000.457          41.000  
R11  22251822.713   118907099.834         278.216          52.000    22251819.230    92483359.243         216.400          49.000  
R10  23010816.749   122660632.406       -3899.848          47.000                                                                  
R21  22625957.319   121076232.020        -579.441          52.000    22625954.295    94170467.850        -450.605          49.000  
R20  24017309.304   128431445.643       -3318.774          41.000    24017309.328    99891192.210       -2581.372          43.000  
G29  25365917.826   133298874.260       -2503.303          46.000    25365913.935   103869301.107       -1950.752          40.000  
S33  42278224.093   222173621.314        -648.087          42.000  
S31  41324071.934   217159537.513        -648.124          43.000  
G28  26396161.875   138712741.920       -3656.303          43.000    26396161.994   108087818.961       -2849.577          37.000  
G10  26560067.288   139574157.275        3200.583          35.000    26560071.496   108759054.382        2493.867          36.000  
E11  28071837.070   147518478.653        1603.027          41.000    28071839.255   113033667.157        1228.235          45.000  
R22  25212055.927   134583711.871        1818.271          48.000    25212057.306   104676252.043        1414.150          46.000  
E33  27516301.291   144599220.954       -2741.012          46.000    27516300.460   110796859.318       -2100.281          47.000  
E31  26203845.925   137702275.461       -1866.587          47.000    26203851.366   105512205.352       -1430.254          54.000  
G31  25162784.057   132231221.193       -2562.370          47.000    25162783.542   103037448.598       -1996.523          42.000  
E14  28849391.260   151604738.922       -2838.134          47.000    28849391.944   116164645.906       -2174.695          49.000  
G05  27308063.494   143504859.688       -3213.115          40.000    27308057.422   111822227.045       -2503.470          36.000  
E24  26759234.211   140620758.200         771.220          47.000    26759235.588   107748393.737         590.939          52.000  
E12  26230503.433   137842330.234        -367.845          42.000    26230503.072   105619526.794        -281.840          48.000  
E10  27082796.428   142321225.202         749.750          48.000    27082798.994   109051520.757         574.397          51.000  
> 2024 04 16 05 48 00.0080000  0 25                     
G25  26316468.053   138293964.832       -4090.979          43.000    26316472.478   107761536.178       -3187.750          41.000  
G18  23132744.865   121563443.847       -1928.540          47.000    23132742.850    94724733.158       -1502.814          49.000  
G26  23150635.577   121657429.382         709.082          48.000    23150635.117    94798005.618         552.423          47.000  
G23  24275011.146   127566229.346        2012.391          49.000    24275009.627    99402263.327        1568.032          47.000  
G16  25720896.386   135164232.579        2482.130          41.000                                                                  
R05  25740272.752   137596567.039        1269.522          38.000    25740273.436   107019604.745         987.560          42.000  
R11  22250332.333   118899134.829         252.419          53.000    22250328.617    92477164.241         196.479          50.000  
R10  23032814.450   122777888.736       -3917.476          48.000                                                                  
R21  22629235.083   121093770.560        -590.053          52.000    22629231.627    94184108.985        -458.968          48.000  
R20  24035931.204   128531023.015       -3320.093          42.000    24035931.302    99968641.312       -2582.343          44.000  
G29  25380214.237   133374004.871       -2505.866          46.000    25380211.679   103927844.383       -1952.622          40.000  
S33  42281921.616   222193050.917        -647.290          43.000  
S31  41327769.137   217178964.699        -647.543          44.000  
G28  26417036.893   138822444.937       -3657.194          41.000    26417037.962   108173301.777       -2849.747          38.000  
G10  26541791.196   139478133.076        3200.899          37.000    26541797.981   108684230.568        2494.591          36.000  
E11  28062702.572   147470480.614        1597.078          41.000    28062705.386   112996889.517        1223.500          45.000  
R22  25201860.565   134529286.339        1809.857          49.000    25201861.550   104633921.227        1407.585          47.000  
E33  27531957.783   144681498.272       -2744.317          46.000    27531957.553   110859903.012       -2102.840          47.000  
E31  26214533.123   137758430.188       -1877.326          47.000    26214537.414   105555232.889       -1438.456          54.000  
G31  25177444.227   132308263.649       -2574.114          45.000    25177443.271   103097481.654       -2005.769          41.000  
E14  28865565.042   151689736.096       -2828.629          47.000    28865566.258   116229773.616       -2167.541          49.000  
G05  27326437.214   143601411.841       -3224.161          40.000    27326431.224   111897462.454       -2512.302          34.000  
E24  26754854.200   140597745.260         762.653          47.000    26754856.227   107730760.462         584.340          52.000  
E12  26232630.112   137853504.658        -377.273          43.000    26232629.864   105628088.997        -289.181          48.000  
E10  27078540.885   142298860.051         740.967          48.000    27078542.698   109034383.838         567.714          50.000  
> 2024 04 16 05 48 30.0080000  0 25                     
G25  26339839.015   138416781.665       -4097.040          42.000    26339843.918   107857237.591       -3192.322          40.000  
G18  23143791.156   121621490.550       -1941.394          48.000    23143788.941    94769964.395       -1512.885          49.000  
G26  23146632.821   121636397.239         692.834          48.000    23146633.000    94781616.957         539.935          47.000  
G23  24263558.079   127506043.319        1999.862          48.000    24263557.305    99355365.146        1558.335          47.000  
G16  25706741.136   135089846.850        2477.265          41.000                                                                  
R05  25733193.247   137558729.463        1252.881          40.000    25733193.332   106990175.727         974.472          39.000  
R11  22248988.631   118891951.045         226.295          53.000    22248984.439    92471576.868         175.970          50.000  
R10  23054911.058   122895677.305       -3935.372          47.000                                                                  
R21  22632573.252   121111634.617        -600.991          52.000    22632569.719    94198003.272        -467.459          48.000  
R20  24054561.511   128630644.734       -3321.569          42.000    24054561.198   100046124.888       -2583.479          43.000  
G29  25394528.212   133449224.239       -2509.052          47.000    25394524.056   103986456.880       -1955.106          39.000  
S33  42285616.569   222212470.216        -646.984          43.000  
S31  41331464.210   217198382.403        -647.156          44.000  
G28  26437920.115   138932184.664       -3658.777          40.000    26437920.703   108258813.185       -2850.880          40.000  
G10  26523518.339   139382109.960        3200.062          35.000    26523524.354   108609407.629        2493.870          36.000  
E11  28053604.623   147422668.679        1590.558          41.000    28053607.061   112960254.471        1218.539          45.000  
R22  25191713.562   134475121.113        1801.011          49.000    25191714.664   104591792.829        1400.790          47.000  
E33  27547633.715   144763878.784       -2747.772          45.000    27547634.652   110923025.769       -2105.509          48.000  
E31  26225281.145   137814912.657       -1888.333          47.000    26225285.572   105598511.594       -1446.955          53.000  
G31  25192173.943   132385669.764       -2586.524          45.000    25192172.728   103157798.030       -2015.164          41.000  
E14  28881686.952   151774457.378       -2819.601          47.000    28881688.085   116294689.906       -2160.424          49.000  
G05  27344875.789   143698303.922       -3235.427          40.000    27344869.336   111972962.759       -2521.016          33.000  
E24  26750525.899   140574997.996         753.703          47.000    26750527.691   107713330.735         577.493          52.000  
E12  26234811.815   137864967.750        -387.062          42.000    26234811.361   105636872.381        -296.552          49.000  
E10  27074336.116   142276764.278         731.930          48.000    27074338.126   109017453.350         560.753          50.000  
> 2024 04 16 05 49 00.0080000  0 25                     
G25  26363243.572   138539772.170       -4102.838          42.000    26363247.921   107953074.363       -3197.278          39.000  
G18  23154909.892   121679917.490       -1954.163          49.000    23154907.282    94815491.909       -1522.681          50.000  
G26  23142722.066   121615847.633         676.666          48.000    23142722.603    94765604.289         527.289          47.000  
G23  24252175.804   127446231.356        1987.270          48.000    24252175.084    99308758.430        1548.490          46.000  
G16  25692611.852   135015596.072        2472.465          42.000                                                                  
R05  25726210.548   137521397.188        1235.760          42.000    25726209.829   106961139.541         961.145          40.000  
R11  22247790.227   118885547.588         200.119          53.000    22247786.612    92466596.383         155.560          51.000  
R10  23077106.566   123013990.919       -3952.710          46.000                                                                  
R21  22635970.341   121129819.670        -611.775          52.000    22635967.281    94212147.254        -475.788          48.000  
R20  24073198.339   128730306.705       -3322.848          42.000    24073198.300   100123639.791       -2584.840          43.000  
G29  25408857.374   133524529.322       -2512.010          45.000    25408854.076   104045136.169       -1957.630          38.000  
S33  42289310.066   222231877.081        -647.117          43.000  
S31  41335156.882   217217787.999        -646.927          44.000  
G28  26458808.658   139041955.234       -3659.788          39.000    26458808.953   108344348.633       -2851.877          40.000  
G10  26505246.054   139286088.023        3200.641          34.000    26505251.966   108534585.654        2493.761          38.000  
E11  28044540.040   147375040.596        1583.949          40.000    28044543.899   112923760.316        1213.898          45.000  
R22  25181615.016   134421213.342        1792.403          50.000    25181615.020   104549864.629        1394.072          47.000  
E33  27563328.692   144846358.313       -2751.238          45.000    27563330.148   110986224.384       -2108.091          49.000  
E31  26236091.226   137871720.084       -1899.229          48.000    26236095.767   105642039.357       -1455.283          54.000  
G31  25206972.458   132463433.729       -2598.218          45.000    25206970.551   103218393.304       -2024.923          40.000  
E14  28897756.495   151858899.951       -2810.511          47.000    28897757.096   116359392.646       -2153.491          49.000  
G05  27363377.794   143795530.484       -3246.683          38.000    27363371.713   112048723.801       -2529.706          32.000  
E24  26746247.608   140552515.109         744.680          47.000    26746249.244   107696103.590         570.694          52.000  
E12  26237047.111   137876715.930        -396.525          42.000    26237046.916   105645874.252        -304.001          49.000  
E10  27070182.319   142254934.994         722.978          48.000    27070183.979   109000727.059         553.931          50.000  
> 2024 04 16 05 49 30.0080000  0 25                     
G25  26386680.911   138662938.232       -4108.796          41.000    26386685.564   108049047.862       -3201.691          40.000  
G18  23166100.571   121738726.470       -1966.693          48.000    23166097.484    94861317.027       -1532.544          49.000  
G26  23138904.667   121595786.553         660.327          48.000    23138904.769    94749972.275         514.624          47.000  
G23  24240866.960   127386800.670        1974.517          48.000    24240865.506    99262448.837        1538.494          47.000  
G16  25678509.013   134941486.495        2467.864          43.000                                                                  
R05  25719323.542   137484577.460        1218.470          42.000    25719321.576   106932502.086         947.868          38.000  
R11  22246738.878   118879930.152         174.005          53.000    22246734.991    92462227.251         135.295          50.000  
R10  23099400.902   123132830.814       -3970.227          47.000                                                                  
R21  22639429.503   121148327.961        -622.440          52.000    22639426.484    94226542.611        -484.071          48.000  
R20  24091843.543   128830010.997       -3324.555          41.000    24091842.637   100201187.571       -2585.470          42.000  
G29  25423204.908   133599924.096       -2514.956          46.000    25423201.501   104103885.252       -1959.251          38.000  
S33  42293001.279   222251275.989        -646.644          43.000  
S31  41338847.978   217237185.125        -646.746          44.000  
G28  26479703.097   139151757.729       -3660.680          37.000    26479703.564   108429908.951       -2852.401          41.000  
G10  26486976.300   139190074.458        3200.107          37.000    26486980.196   108459770.131        2493.550          37.000  
E11  28035513.188   147327600.797        1578.442          40.000    28035515.757   112887410.449        1209.160          45.000  
R22  25171564.681   134367567.125        1783.571          50.000    25171566.598   104508139.868        1387.255          49.000  
E33  27579043.376   144928939.377       -2754.538          45.000    27579044.673   111049500.813       -2110.596          49.000  
E31  26246964.413   137928856.266       -1910.146          49.000    26246968.626   105685819.057       -1463.557          55.000  
G31  25221839.005   132541557.018       -2610.286          45.000    25221836.390   103279268.535       -2034.076          39.000  
E14  28913772.970   151943067.706       -2801.103          47.000    28913773.690   116423884.810       -2146.234          49.000  
G05  27381942.513   143893093.407       -3257.597          37.000    27381939.195                       -2538.416          32.000  
E24  26742020.574   140530302.072         735.809          47.000    26742022.181   107679083.227         563.763          51.000  
E12  26239337.161   137888752.506        -406.217          42.000    26239337.062   105655097.094        -311.274          48.000  
E10  27066080.001   142233376.131         714.009          48.000    27066081.458   108984207.968         547.053          50.000  
> 2024 04 16 05 50 00.0090000  0 25                     
G25  26410152.558   138786282.289       -4114.020          41.000    26410157.507   108145159.911       -3205.682          41.000  
G18  23177363.955   121797918.168       -1979.310          47.000    23177361.612    94907440.425       -1542.292          49.000  
G26  23135180.550   121576215.675         644.232          48.000    23135180.453    94734722.263         501.922          46.000  
G23  24229630.420   127327752.774        1961.902          49.000    24229629.206    99216437.599        1528.698          47.000  
G16  25664433.756   134867518.623        2463.136          42.000                                                                  
R05  25712532.582   137448273.787        1201.456          44.000    25712528.628   106904265.843         934.573          37.000  
R11  22245835.248   118875100.480         147.885          53.000    22245831.152    92458470.833         115.176          49.000  
R10  23121794.592   123252197.285       -3987.354          48.000                                                                  
R21  22642948.677   121167158.957        -633.010          53.000    22642945.328    94241188.993        -492.284          48.000  
R20  24110497.137   128929758.954       -3325.492          42.000    24110495.638   100278769.355       -2586.498          42.000  
G29  25437570.162   133675412.167       -2517.630          45.000    25437567.158   104162707.102       -1961.788          39.000  
S33  42296691.387   222270668.041        -646.078          43.000  
S31  41342537.574   217256575.811        -646.082          44.000  
G28  26500604.328   139261593.252       -3661.224          37.000    26500605.433   108515495.051       -2852.905          42.000  
G10  26468706.270   139094069.397        3200.165          34.000    26468709.928   108384961.297        2493.457          36.000  
E11  28026521.524   147280348.758        1572.036          39.000    28026523.764   112851204.406        1204.497          44.000  
R22  25161563.299   134314181.058        1775.204          50.000    25161565.778   104466617.459        1380.747          50.000  
E33  27594777.145   145011623.793       -2757.655          45.000    27594778.985   111112856.432       -2113.024          49.000  
E31  26257900.170   137986323.167       -1920.889          47.000    26257904.014   105729852.091       -1471.895          53.000  
G31  25236773.119   132620039.488       -2621.777          45.000    25236771.323   103340423.659       -2043.116          40.000  
E14  28929737.733   152026963.930       -2791.908          47.000    28929738.513   116488168.922       -2139.176          49.000  
G05  27400571.981   143990994.296       -3268.881          36.000    27400569.029                       -2548.554          30.000  
E24  26737845.433   140508360.164         726.895          47.000    26737846.516   107662270.608         556.904          51.000  
E12  26241683.014   137901077.453        -415.332          43.000    26241682.091   105664540.924        -318.527          48.000  
E10  27062028.369   142212087.309         705.153          48.000    27062030.632   108967895.812         540.222          51.000  
> 2024 04 16 05 50 30.0090000  0 25                     
G25  26433658.284   138909801.854       -4120.233          41.000    26433662.546   108241408.772       -3210.492          40.000  
G18  23188701.169   121857493.845       -1992.219          48.000    23188698.530    94953863.059       -1552.363          49.000  
G26  23131551.164   121557145.556         627.318          48.000    23131551.285    94719862.458         488.891          46.000  
G23  24218469.418   127269101.571        1948.478          48.000    24218467.858    99170735.315        1518.422          46.000  
G16  25650387.881   134793707.222        2457.906          42.000                                                                  
R05  25705839.001   137412499.361        1183.532          43.000    25705836.241   106876441.326         920.800          38.000  
R11  22245080.424   118871068.365         121.077          53.000    22245076.699    92455334.757          94.246          50.000  
R10  23144284.785   123372086.375       -4004.981          47.000                                                                  
R21  22646529.940   121186316.968        -644.028          53.000    22646526.087    94256089.766        -500.918          49.000  
R20  24129158.772   129029550.513       -3326.864          42.000    24129157.797   100356385.042       -2587.532          42.000  
G29  25451953.492   133750995.801       -2521.060          45.000    25451950.265   104221603.399       -1964.594          38.000  
S33  42300381.482   222290059.041        -646.227          42.000  
S31  41346227.613   217275965.500        -646.412          44.000  
G28  26521511.175   139371458.901       -3662.799          38.000    26521512.665   108601104.607       -2853.979          43.000  
G10  26450441.175   138998089.718        3199.200          35.000    26450444.622   108310172.248        2492.603          35.000  
E11  28017568.320   147233295.370        1565.239          40.000    28017570.034   112815150.610        1199.318          45.000  
R22  25151612.654   134261066.210        1766.008          50.000    25151615.122   104425306.035        1373.483          50.000  
E33  27610531.612   145094411.993       -2761.375          45.000    27610532.920   111176291.557       -2115.760          49.000  
E31  26268898.587   138044124.379       -1932.195          47.000    26268903.191   105774141.309       -1480.524          53.000  
G31  25251776.132   132698880.494       -2634.006          45.000    25251774.148   103401858.122       -2052.669          40.000  
E14  28945651.585   152110590.329       -2783.036          47.000    28945652.302   116552246.284       -2132.481          49.000  
G05  27419264.016   144089231.632       -3280.638          33.000    27419263.753                       -2556.027          29.000  
E24  26733723.226   140486699.589         717.519          47.000    26733724.529   107645673.558         549.790          51.000  
E12  26244083.751   137913696.596        -425.582          43.000    26244083.572   105674210.140        -326.005          49.000  
E10  27058030.209   142191077.212         695.797          48.000    27058032.714   108951797.207         533.132          51.000  
> 2024 04 16 05 51 00.0090000  0 25                     
G25  26457198.020   139033500.361       -4126.599          42.000    26457201.542   108337797.082       -3215.515          40.000  
G18  23200111.665   121917454.742       -2005.304          48.000    23200108.971    95000585.830       -1562.611          50.000  
G26  23128018.206   121538578.927         610.223          48.000    23128018.071    94705394.977         475.500          46.000  
G23  24207384.119   127210850.003        1934.709          49.000    24207382.389    99125344.510        1507.582          47.000  
G16  25636371.685   134720053.755        2452.257          43.000                                                                  
R05  25699247.176   137377258.655        1165.533          44.000    25699244.193   106849031.953         906.793          38.000  
R11  22244475.268   118867836.398          94.257          53.000    22244472.363    92452821.008          73.246          51.000  
R10  23166873.664   123492499.849       -4022.804          47.000                                                                  
R21  22650171.091   121205802.212        -655.309          53.000    22650167.566    94271244.987        -509.622          48.000  
R20  24147828.484   129129388.269       -3328.792          41.000    24147827.296   100434036.671       -2589.216          42.000  
G29  25466355.073   133826679.104       -2524.720          45.000    25466351.950   104280577.347       -1967.136          38.000  
S33  42304071.573   222309449.883        -646.824          43.000  
S31  41349917.478   217295355.626        -646.822          44.000  
G28  26542424.635   139481356.844       -3664.136          40.000    26542425.946   108686739.330       -2854.993          43.000  
G10  26432182.864   138902136.841        3197.625          38.000    26432185.183   108235404.012        2491.638          37.000  
E11  28008651.866   147186440.948        1558.263          39.000    28008653.899   112779249.267        1193.943          45.000  
R22  25141714.402   134208222.233        1756.697          51.000    25141715.632   104384205.309        1366.344          50.000  
E33  27626305.687   145177306.657       -2765.197          45.000    27626307.198   111239808.283       -2118.758          49.000  
E31  26279962.313   138102263.030       -1943.898          47.000    26279966.382   105818689.069       -1489.456          52.000  
G31  25266847.831   132778081.621       -2646.356          45.000    25266845.666   103463573.239       -2062.167          39.000  
E14  28961514.172   152193951.111       -2774.546          47.000    28961515.469   116616120.128       -2126.046          49.000  
G05  27438022.964                       -3292.175          31.000    27438019.513                       -2564.600          27.000  
E24  26729655.094   140465322.649         707.605          47.000    26729656.519   107629293.831         542.169          51.000  
E12  26246541.318   137926610.869        -435.925          43.000    26246541.566   105684105.476        -333.885          48.000  
E10  27054084.836   142170346.449         686.129          48.000    27054087.904   108935912.646         525.730          52.000  
> 2024 04 16 05 51 30.0090000  0 26                     
G25  26480772.107   139157382.793       -4132.099          43.000    26480775.639   108434328.729       -3219.897          40.000  
G18  23211595.918   121977805.793       -2017.834          48.000    23211593.158    95047612.597       -1572.413          49.000  
G26  23124582.588   121520524.621         593.604          48.000    23124583.055    94691326.709         462.531          46.000  
G23  24196376.943   127153007.673        1921.592          48.000    24196375.304    99080272.481        1497.211          47.000  
G16  25622387.156   134646567.944        2446.967          43.000                                                                  
R05  25692757.696   137342561.645        1147.686          45.000    25692753.877   106822045.431         892.683          39.000  
R11  22244021.616   118865413.037          67.539          52.000    22244018.690    92450936.207          52.474          50.000  
R10  23189561.388   123613440.395       -4039.758          47.000                                                                  
R21  22653873.482   121225620.398        -665.788          52.000    22653870.545    94286659.136        -517.933          48.000  
R20  24166507.956   129229277.543       -3330.119          40.000    24166507.945   100511728.359       -2590.354          42.000  
G29  25480777.166   133902469.448       -2527.874          43.000    25480775.341   104339634.755       -1969.453          39.000  
S33  42307762.904   222328850.023        -646.695          44.000  
S31  41353608.757   217314754.032        -646.569          44.000  
G28  26563344.942   139591291.101       -3664.734          41.000    26563345.375   108772402.389       -2855.670          43.000  
G10  26413930.516   138806220.726        3196.985          39.000    26413932.970   108160664.441        2491.125          37.000  
E11  27999774.732   147139793.002        1551.518          39.000    27999777.359   112743506.129        1188.959          46.000  
R12  26067147.952   139246041.1073       3349.655          39.000    26067164.701   108302568.1373       2605.556          36.000  
R22  25131866.695   134155656.195        1747.944          50.000    25131868.267   104343320.737        1359.399          50.000  
E33  27642101.394   145260313.439       -2768.376          45.000    27642102.308   111303410.907       -2121.277          49.000  
E31  26291091.089   138160746.037       -1954.958          47.000    26291095.410   105863500.706       -1497.921          52.000  
G31  25281989.127   132857646.879       -2658.052          45.000    25281986.888   103525572.119       -2071.315          40.000  
E14  28977328.000   152277053.291       -2765.510          47.000    28977329.297   116679795.805       -2119.028          49.000  
G05  27456845.826                1      -3302.600          27.000    27456843.252                1      -2573.703          26.000  
E24  26725642.598   140444237.782         698.071          47.000    26725644.343   107613137.902         534.891          51.000  
E12  26249056.794   137939826.593        -445.315          43.000    26249056.344   105694231.810        -341.153          49.000  
E10  27050194.763   142149901.910         676.902          49.000    27050197.521   108920247.402         518.666          52.000  
> 2024 04 16 05 52 00.0090000  0 26                     
G25  26504379.609   139281439.485       -4138.104          44.000    26504382.525   108530996.125       -3224.481          39.000  
G18  23223153.318   122038537.328       -2030.720          48.000    23223149.927    95094935.844       -1582.324          49.000  
G26  23121243.360   121502976.838         576.390          48.000    23121243.686    94677653.143         449.237          46.000  
G23  24185446.805   127095570.325        1907.908          47.000    24185445.995    99035516.150        1486.765          47.000  
G16  25608434.206   134573244.004        2441.438          43.000                                                                  
R05  25686366.758   137308404.237        1129.444          44.000    25686366.304   106795478.584         878.613          42.000  
R11  22243718.444   118863792.435          40.660          53.000    22243716.088    92449675.752          31.570          51.000  
R10  23212345.999   123734897.207       -4057.073          46.000                                                                  
R21  22657637.625   121245761.619        -676.784          52.000    22657635.087    94302324.465        -526.282          49.000  
R20  24185195.743   129329208.833       -3331.542          41.000    24185195.611   100589452.700       -2591.320          42.000  
G29  25495218.292   133978358.816       -2531.344          44.000    25495215.946   104398769.289       -1972.333          37.000  
S33  42311454.883   222348250.941        -646.712          42.000  
S31  41357300.422   217334153.271        -646.813          44.000  
G28  26584268.778   139701251.072       -3665.887          41.000    26584269.001   108858085.443       -2856.415          42.000  
G10  26395684.143   138710336.775        3195.593          40.000    26395687.302   108085949.962        2489.880          39.000  
E11  27990936.638   147093344.201        1545.098          40.000    27990938.072   112707915.605        1183.918          46.000  
R12  26048359.576   139145679.971        3340.945          41.000    26048367.620   108224509.546        2598.749          35.000  
R22  25122069.311   134103360.200        1738.606          50.000    25122070.820   104302646.175        1352.364          49.000  
E33  27657916.607   145343423.194       -2772.036          44.000    27657917.508   111367092.406       -2123.989          49.000  
E31  26302284.288   138219565.510       -1966.240          48.000    26302288.382   105908570.207       -1506.627          53.000  
G31  25297196.417   132937565.856       -2669.780          44.000    25297194.919   103587846.603       -2080.580          40.000  
E14  28993091.356   152359889.161       -2756.812          47.000    28993092.503   116743267.441       -2112.299          49.000  
E24  26721684.520   140423438.733         688.496          47.000    26721686.514   107597200.968         527.606          52.000  
E12  26251627.345   137953335.232        -455.242          44.000    26251627.041   105704582.587        -348.849          49.000  
E10  27046357.665   142129735.750         667.558          49.000    27046360.091   108904795.444         511.551          52.000  
G05                                                                  27475720.317                3      -2580.892          24.000  
> 2024 04 16 05 52 30.0090000  0 26                     
G25  26528020.753   139405674.311       -4143.799          44.000    26528023.350   108627802.311       -3229.321          38.000  
G18  23234783.051   122099653.123       -2043.341          48.000    23234779.656    95142558.567       -1592.151          49.000  
G26  23118002.352   121485943.311         559.399          49.000    23118002.250    94664380.282         435.913          46.000  
G23  24174595.974   127038546.203        1894.099          48.000    24174595.420    98991081.578        1475.919          48.000  
G16  25594513.552   134500090.443        2435.926          42.000                                                                  
R05  25680077.027   137274796.257        1111.276          42.000    25680078.278   106769339.080         864.342          42.000  
R11  22243567.356   118862981.622          13.799          53.000    22243564.303    92449045.131          10.774          51.000  
R10  23235228.359   123856872.216       -4074.312          47.000                                                                  
R21  22661461.952   121266230.451        -687.482          52.000    22661459.946    94318244.710        -534.647          48.000  
R20  24203892.131   129429186.487       -3333.005          40.000    24203891.507   100667213.122       -2592.474          43.000  
G29  25509680.200   134054354.507       -2534.622          44.000    25509677.273   104457986.688       -1975.126          38.000  
S33  42315147.730   222367657.092        -646.850          43.000  
S31  41360993.339   217353558.631        -646.709          44.000  
G28  26605200.043   139811239.636       -3666.736          41.000    26605199.277   108943790.816       -2857.104          43.000  
G10  26377445.690   138614493.939        3194.324          40.000    26377448.936   108011267.452        2489.204          38.000  
E11  27982136.702   147047100.901        1537.990          40.000    27982138.214   112672482.511        1178.683          46.000  
R12  26029621.840   139045583.671        3332.505          40.000    26029623.106                        2591.964          28.000  
R22  25112323.667   134051340.207        1729.593          49.000    25112325.411   104262186.301        1345.225          48.000  
E33  27673753.063   145426640.334       -2775.450          45.000    27673752.916   111430856.213       -2126.705          49.000  
E31  26313542.140   138278726.994       -1977.577          47.000    26313546.649   105953901.749       -1515.283          53.000  
G31  25312473.396   133017841.381       -2681.518          45.000    25312470.349   103650398.876       -2089.480          38.000  
E14  29008805.088   152442464.600       -2748.000          47.000    29008806.028   116806539.529       -2105.680          49.000  
E24  26717782.864   140402932.845         678.754          47.000    26717784.458   107581488.674         520.154          52.000  
E12  26254254.276   137967141.753        -464.907          42.000    26254254.232   105715161.582        -356.233          48.000  
E10  27042574.280   142109853.673         658.186          49.000    27042576.904   108889561.168         504.313          52.000  
G05                                                                  27494689.992                3      -2590.805          25.000  
> 2024 04 16 05 53 00.0090000  0 27                     
G25  26551693.944   139530076.820       -4149.829          44.000    26551696.625   108724739.154       -3233.490          39.000  
G18  23246484.325   122161142.620       -2056.125          48.000    23246481.134    95190472.467       -1602.101          49.000  
G26  23114857.777   121469417.426         542.161          50.000    23114856.702    94651502.988         422.496          46.000  
G23  24163822.715   126981931.000        1880.137          48.000    24163822.163    98946966.033        1464.985          49.000  
G16  25580624.111   134427101.674        2430.024          44.000                                                                  
R05  25673892.846   137241732.482        1092.935          42.000    25673892.363   106743622.847         849.773          41.000  
R11  22243565.232   118862973.803         -13.245          52.000    22243562.967    92449039.044         -10.333          51.000  
R10  23258206.487   123979353.234       -4091.335          47.000                                                                  
R21  22665346.041   121287016.551        -698.319          52.000    22665343.460    94334411.700        -543.164          48.000  
R20  24222595.707   129529199.444       -3334.807          41.000    24222594.083   100745000.976       -2593.278          42.000  
G29  25524161.380   134130447.612       -2538.237          44.000    25524157.586   104517280.017       -1978.050          38.000  
S33  42318840.304   222387062.409        -647.189          42.000  
S31  41364685.537   217372961.927        -646.967          44.000  
G28  26626133.636   139921245.516       -3667.053          39.000    26626133.496   109029509.658       -2857.630          44.000  
G10  26359214.242   138518686.890        3192.824          40.000    26359216.626   107936612.803        2487.648          38.000  
E11  27973374.517   147001055.089        1531.213          41.000    27973375.949   112637200.762        1173.253          46.000  
R12  26010930.932   138945747.908        3323.375          39.000    26010906.277                1       2584.534          29.000  
R22  25102628.826   133999587.498        1720.452          49.000    25102630.152   104221934.332        1338.106          48.000  
G27  26938094.800                1       1676.747          27.000    26938099.155                1       1306.894          27.000  
E33  27689607.282   145509955.077       -2778.987          45.000    27689607.425   111494694.802       -2129.332          49.000  
E31  26324862.879   138338221.882       -1988.978          47.000    26324868.360   105999488.711       -1523.968          53.000  
G31  25327815.008   133098462.143       -2693.371          44.000    25327812.145   103713220.215       -2098.702          39.000  
E14  29024467.953   152524771.244       -2739.105          47.000    29024468.412   116869605.661       -2098.887          49.000  
G05  27513704.281                1      -3335.826          27.000    27513692.494                3      -2599.648          24.000  
E24  26713935.139   140382713.193         668.947          48.000    26713936.863   107565995.707         512.646          52.000  
E12  26256936.141   137981237.068        -474.667          43.000    26256936.346   105725961.902        -363.844          48.000  
E10  27038842.099   142090247.163         648.854          48.000    27038845.819   108874538.025         497.152          52.000  
> 2024 04 16 05 53 30.0090000  0 27                     
G25  26575399.151   139654646.022       -4155.279          45.000    26575401.821   108821805.931       -3238.092          40.000  
G18  23258255.507   122223004.665       -2068.428          48.000    23258253.345    95238676.697       -1611.812          50.000  
G26  23111810.064   121453401.861         525.213          49.000    23111809.026    94639023.360         409.166          45.000  
G23  24153127.667   126925727.176        1866.425          48.000    24153126.713    98903170.778        1454.355          47.000  
G16  25566766.766   134354280.819        2424.652          44.000                                                                  
R05  25667810.047   137209217.463        1074.639          42.000    25667810.378   106718333.509         835.772          42.000  
R11  22243714.553   118863771.062         -40.148          52.000    22243712.549    92449659.095         -31.155          51.000  
R10  23281278.362   124102337.315       -4107.942          46.000                                                                  
R21  22669291.239   121308118.846        -708.717          53.000    22669286.948    94350824.608        -551.222          48.000  
R20  24241304.729   129629247.769       -3335.876          41.000    24241303.977   100822816.387       -2594.423          42.000  
G29  25538659.846   134206639.014       -2541.548          43.000    25538657.325   104576649.843       -1980.320          38.000  
S33  42322532.913   222406465.853        -647.110          43.000  
S31  41368377.495   217392364.942        -647.075          44.000  
G28  26647070.069   140031266.572       -3667.847          39.000    26647069.196   109115240.332       -2858.044          43.000  
G10  26340990.011   138422919.534        3191.585          39.000    26340992.966   107861989.093        2486.891          39.000  
E11  27964649.474   146955208.081        1524.741          41.000    27964651.588   112602071.342        1168.327          46.000  
R12  25992289.438   138846177.306        3314.294          40.000    25992280.256                        2578.151          30.000  
R22  25092983.629   133948102.879        1711.622          49.000    25092985.093   104181890.891        1331.209          48.000  
G27  26928517.233   141510327.2991       1677.196          30.000    26928518.853                        1307.270          28.000  
E33  27705479.459   145593366.873       -2782.117          45.000    27705480.240   111558607.762       -2131.699          49.000  
E31  26336248.086   138398050.828       -2000.009          47.000    26336253.458   106045331.622       -1532.490          53.000  
G31  25343221.686   133179426.243       -2704.629          44.000    25343219.359   103776309.088       -2107.755          39.000  
E14  29040079.608   152606809.893       -2730.292          47.000    29040079.731   116932466.449       -2092.070          49.000  
G05  27532787.184                       -3347.494          25.000                                                                  
E24  26710142.242   140362782.097         659.399          48.000    26710144.145   107550723.839         505.283          52.000  
E12  26259673.223   137995621.247        -484.348          43.000    26259673.645   105736983.562        -371.120          48.000  
E10  27035163.380   142070916.893         639.583          47.000    27035167.437   108859726.530         490.126          52.000  
> 2024 04 16 05 54 00.0090000  0 26                     
G25  26599135.707   139779380.712       -4160.516          43.000    26599138.406   108919001.613       -3241.766          39.000  
G18  23270097.751   122285238.144       -2080.592          47.000    23270095.432    95287170.328       -1621.346          49.000  
G26  23108860.266   121437899.430         508.122          50.000    23108859.326    94626943.557         395.909          46.000  
G23  24142511.224   126869939.203        1852.583          47.000    24142510.031    98859699.506        1443.644          47.000  
G16  25552941.950   134281631.306        2418.696          44.000                                                                  
R05  25661832.839   137177255.694        1056.187          44.000    25661830.430   106693474.348         821.436          42.000  
R11  22244014.888   118865375.206         -66.987          53.000    22244011.932    92450906.746         -52.133          50.000  
R10  23304443.347   124225821.643       -4124.433          46.000                                                                  
R21  22673293.494   121329536.461        -719.188          53.000    22673289.498    94367482.775        -559.342          48.000  
R20  24260020.667   129729330.088       -3336.545          42.000    24260019.573   100900658.202       -2595.198          42.000  
G29  25553177.233   134282930.493       -2544.666          42.000    25553174.042   104636097.776       -1983.177          38.000  
S33  42326225.178   222425869.649        -646.540          43.000  
S31  41372069.654   217411766.624        -646.696          44.000  
G28  26668007.690   140141300.903       -3668.036          36.000    26668007.812   109200981.361       -2858.002          43.000  
G10  26322774.278   138327195.979        3189.823          39.000    26322777.974   107787399.564        2485.612          41.000  
E11  27955962.788   146909561.256        1518.400          40.000    27955964.850   112567095.285        1163.458          45.000  
R12  25973698.583   138746876.910        3305.724          37.000    25973693.719                        2571.229          32.000  
R22  25083389.046   133896887.216        1702.745          49.000    25083390.640   104142056.611        1324.258          48.000  
G27  26918939.734   141459977.806        1678.644          34.000    26918945.117   110228549.6441       1309.116          33.000  
E33  27721370.754   145676875.316       -2785.148          46.000    27721371.308   111622594.771       -2134.032          49.000  
E31  26347697.597   138458214.619       -2011.002          48.000    26347702.113   106091431.100       -1540.860          53.000  
G31  25358694.180   133260731.730       -2715.982          44.000    25358691.872   103839663.937       -2116.409          40.000  
E14  29055639.806   152688581.574       -2721.254          47.000    29055640.398   116995122.679       -2085.183          49.000  
E24  26706404.709   140343141.998         649.692          47.000    26706406.835   107535674.929         497.829          52.000  
E12  26262465.786   138010294.359        -494.039          43.000    26262465.887   105748226.652        -378.486          49.000  
E10  27031538.068   142051863.661         630.589          48.000    27031541.782   108845127.333         483.084          52.000  
> 2024 04 16 05 54 30.0090000  0 26                     
G25  26622902.599   139904276.386       -4166.248          43.000    26622905.090   109016322.814       -3246.344          38.000  
G18  23282010.350   122347838.086       -2092.965          48.000    23282007.533    95335949.493       -1630.910          50.000  
G26  23106007.311   121422909.108         490.816          49.000    23106006.875    94615262.802         382.442          46.000  
G23  24131973.864   126814567.913        1838.490          49.000    24131972.346    98816553.258        1432.540          48.000  
G16  25539149.738   134209153.175        2412.761          44.000                                                                  
R05  25655956.750   137145847.833        1037.367          43.000    25655955.013   106669046.064         806.914          43.000  
R11  22244465.559   118867785.071         -93.955          53.000    22244462.097    92452781.041         -73.079          49.000  
R10  23327701.093   124349799.438       -4141.011          47.000                                                                  
R21  22677353.692   121351265.367        -729.689          52.000    22677350.996    94384383.120        -567.522          49.000  
R20  24278741.592   129829442.099       -3337.678          41.000    24278741.011   100978523.156       -2596.246          42.000  
G29  25567713.026   134359319.249       -2548.409          42.000    25567710.716   104695621.402       -1985.830          36.000  
S33  42329917.062   222445270.578        -646.921          43.000  
S31  41375761.434   217431166.465        -646.903          44.000  
G28  26688948.581   140251342.867       -3668.411          39.000    26688948.667   109286728.317       -2858.416          43.000  
G10  26304566.628   138231516.539        3188.470          40.000    26304569.969   107712844.428        2484.682          40.000  
E11  27947313.512   146864112.266        1511.408          39.000    27947315.921   112532270.832        1158.062          45.000  
R12  25955161.421   138647848.057        3296.064          41.000    25955152.612                        2563.941          29.000  
R22  25073844.458   133845937.598        1693.606          50.000    25073845.576   104102429.220        1317.269          48.000  
G27  26909354.878   141409592.964        1679.725          40.000    26909352.385   110189288.795        1308.590          35.000  
E33  27737280.540   145760476.205       -2788.434          47.000    27737279.956   111686652.626       -2136.599          49.000  
E31  26359209.266   138518710.233       -2022.276          47.000    26359214.285   106137784.853       -1549.512          53.000  
G31  25374229.637   133342372.803       -2727.199          43.000    25374228.717   103903280.296       -2124.846          40.000  
E14  29071149.408   152770083.563       -2712.377          47.000    29071149.655   117057572.263       -2078.357          49.000  
E24  26702722.755   140323791.577         639.832          48.000    26702724.324   107520847.977         490.337          52.000  
E12  26265312.947   138025252.683        -503.674          43.000    26265312.594   105759688.180        -385.769          48.000  
E10  27027964.865   142033084.553         621.225          48.000    27027967.788   108830738.173         476.041          52.000  
> 2024 04 16 05 55 00.0090000  0 28                     
G25  26646700.681   140029333.728       -4171.338          42.000    26646702.180   109113770.031       -3250.263          36.000  
G18  23293992.927   122410805.300       -2105.051          48.000    23293989.925    95385014.821       -1640.285          50.000  
G26  23103253.319   121408435.627         473.752          49.000    23103252.338    94603984.773         369.224          45.000  
G23  24121517.166   126759617.977        1824.501          46.000    24121516.199    98773735.025        1421.614          46.000  
G16  25525391.632   134136851.816        2407.259          45.000                                                                  
R05  25650185.133   137114999.901        1018.862          41.000    25650183.226   106645053.249         792.556          42.000  
R11  22245067.761   118871004.919        -120.859          52.000    22245065.112    92455285.343         -93.997          50.000  
R10  23351051.646   124474269.962       -4157.142          47.000                                                                  
R21  22681472.813   121373306.321        -739.854          53.000    22681470.136    94401526.140        -575.438          49.000  
R20  24297469.807   129929585.537       -3338.485          42.000    24297468.575   101056412.562       -2596.843          42.000  
G29  25582268.359   134435808.191       -2551.256          42.000    25582265.367   104755223.159       -1988.235          35.000  
S33  42333608.778   222464671.224        -646.676          43.000  
S31  41379452.858   217450565.893        -646.592          44.000  
G28  26709889.649   140361392.438       -3668.844          39.000    26709890.800   109372481.209       -2858.568          43.000  
G10  26286369.766   138135887.296        3186.804          42.000    26286371.352   107638328.366        2483.153          40.000  
E11  27938702.759   146818864.400        1504.816          39.000    27938705.728   112497600.481        1152.944          44.000  
R12  25936676.247   138549097.655        3287.025          39.000    25936666.359   107760324.1821       2556.200          33.000  
R22  25064350.860   133795256.892        1684.732          51.000    25064351.641   104063011.003        1310.441          49.000  
G27  26899762.026   141359175.868        1681.071          42.000    26899761.451   110150002.733        1309.989          38.000  
E33  27753207.583   145844171.108       -2791.421          47.000    27753206.829   111750782.507       -2138.814          50.000  
E31  26370785.333   138579540.392       -2033.300          47.000    26370789.928   106184394.922       -1557.903          53.000  
G31  25389829.437   133424349.575       -2738.182          44.000    25389829.143   103967158.252       -2133.771          40.000  
E14  29086607.702   152851318.812       -2703.546          47.000    29086608.096   117119817.456       -2071.462          49.000  
G05  27590384.909                3      -3381.820          25.000    27590367.924                3      -2633.149          20.000  
E24  26699096.960   140304735.206         630.237          48.000    26699097.813   107506246.338         482.969          52.000  
E12  26268213.755   138040498.420        -512.875          43.000    26268213.791   105771369.981        -393.133          49.000  
E10  27024443.615   142014582.299         612.153          48.000    27024446.621   108816561.151         469.005          51.000  
R04                                                                  26705039.175                3      -1292.984          10.000  
> 2024 04 16 05 55 30.0090000  0 27                     
G25  26670526.933   140154544.691       -4176.318          44.000    26670529.214   109211336.920       -3254.657          38.000  
G18  23306043.749   122474131.891       -2116.988          48.000    23306041.126    95434360.168       -1649.575          50.000  
G26  23100596.274   121394474.825         456.423          49.000    23100595.799    94593106.251         356.043          45.000  
G23  24111140.312   126705087.390        1810.467          46.000    24111139.137    98731243.738        1410.840          46.000  
G16  25511666.357   134064723.725        2401.189          46.000                                                                  
R05  25644519.911   137084709.746        1000.102          41.000    25644516.410   106621494.235         777.772          42.000  
R11  22245821.132   118875030.049        -147.856          52.000    22245819.036    92458415.953        -114.824          50.000  
R10  23374492.046   124599223.431       -4173.417          47.000                                                                  
R21  22685647.601   121395651.602        -750.060          52.000    22685645.242    94418905.813        -583.380          49.000  
R20  24316201.181   130029752.006       -3339.323          42.000    24316200.348   101134319.818       -2597.187          42.000  
G29  25596842.267   134512391.906       -2554.560          42.000    25596837.989   104814898.766       -1990.635          36.000  
S33  42337299.913   222484065.679        -646.548          43.000  
S31  41383143.327   217469959.696        -646.497          44.000  
G28  26730831.376   140471440.815       -3668.184          40.000    26730832.098   109458233.180       -2858.148          43.000  
G10  26268181.272   138040305.509        3184.989          43.000    26268182.373   107563849.223        2482.166          41.000  
E11  27930128.417   146773812.180        1498.525          37.000    27930132.677   112463080.023        1148.190          45.000  
R12  25918241.149   138450623.859        3277.319          37.000    25918236.374   107683733.412        2549.353          33.000  
R22  25054906.135   133744839.035        1676.078          51.000    25054907.063   104023797.211        1303.647          49.000  
G27  26890160.666   141308720.585        1682.319          43.000    26890159.895   110110686.942        1310.977          39.000  
E33  27769150.059   145927952.659       -2794.240          47.000    27769150.102   111814978.805       -2141.131          50.000  
E31  26382423.299   138640698.891       -2044.160          47.000    26382427.877   106231256.595       -1566.329          53.000  
G31  25405491.467   133506653.260       -2749.142          44.000    25405490.508   104031290.982       -2142.158          40.000  
E14  29102013.403   152932281.428       -2694.226          46.000    29102014.581   117181853.741       -2064.400          49.000  
E24  26695525.244   140285968.418         620.636          47.000    26695526.457   107491866.590         475.655          51.000  
E12  26271168.445   138056024.856        -522.429          43.000    26271168.397   105783266.884        -400.206          50.000  
E10  27020974.629   141996350.829         603.123          48.000    27020977.231   108802591.629         462.110          51.000  
G05                                                                  27609686.031                3      -2638.760          18.000  
> 2024 04 16 05 56 00.0090000  0 28                     
G25  26694383.685   140279913.008       -4181.466          43.000    26694386.712   109309026.471       -3258.169          38.000  
G18  23318163.172   122537821.375       -2128.950          48.000    23318160.845    95483988.395       -1658.906          50.000  
G26  23098038.796   121381033.943         439.291          49.000    23098037.956    94582632.865         342.474          46.000  
G23  24100844.881   126650983.788        1796.517          48.000    24100844.094    98689085.028        1399.761          49.000  
G16  25497975.452   133992776.828        2395.350          47.000                                                                  
R05  25638959.004   137054986.314         981.564          38.000    25638956.094   106598376.075         763.371          42.000  
R11  22246726.755   118879867.045        -174.694          52.000    22246724.129    92462178.026        -135.850          50.000  
R10  23398023.619   124724661.452       -4189.331          47.000                                                                  
R21  22689881.686   121418305.268        -760.107          53.000    22689878.232    94436525.376        -591.281          49.000  
R20  24334938.375   130129945.824       -3340.116          41.000    24334936.376   101212248.354       -2597.921          41.000  
G29  25611435.803   134589076.480       -2557.630          44.000    25611430.631   104874652.948       -1993.016          36.000  
S33  42340990.355   222503460.721        -646.105          43.000  
S31  41386833.879   217489353.369        -646.421          44.000  
G28  26751773.419   140581490.668       -3668.611          41.000    26751774.008   109543986.294       -2858.463          43.000  
G10  26250002.573   137944779.667        3183.348          41.000    26250004.057   107489413.787        2480.457          40.000  
E11  27921594.401   146728961.542        1492.050          37.000    27921597.622   112428714.021        1143.090          45.000  
R12  25899860.428                        3268.277          31.000    25899858.948   107607365.304        2541.905          31.000  
R22  25045511.205   133694689.438        1667.317          50.000    25045512.306   103984792.096        1296.831          48.000  
R06  26579889.428                3       2866.359          15.000                                                                  
G27  26880551.841   141258232.667        1683.537          38.000    26880552.725   110071345.828        1311.646          38.000  
E33  27785110.786   146011825.112       -2797.027          47.000    27785110.389   111879244.732       -2143.158          51.000  
E31  26394124.794   138702191.017       -2055.110          47.000    26394129.196   106278373.910       -1574.707          53.000  
G31  25421215.543   133589286.542       -2759.904          43.000    25421215.799   104095680.495       -2150.514          40.000  
E14  29117369.504   153012976.999       -2685.263          46.000    29117370.555   117243685.390       -2057.490          49.000  
E24  26692010.910   140267498.188         610.907          47.000    26692011.607   107477714.082         468.099          51.000  
E12  26274177.056   138071836.511        -531.690          43.000    26274177.199   105795382.286        -407.423          49.000  
E10  27017558.342   141978395.459         594.061          49.000    27017560.206   108788833.671         455.170          51.000  
G05                                                                  27629064.321                3      -2648.092          19.000  
> 2024 04 16 05 56 30.0090000  0 27                     
G25  26718271.368   140405443.301       -4187.015          44.000    26718274.859   109406842.282       -3262.122          41.000  
G18  23330352.761   122601878.192       -2141.217          48.000    23330350.618    95533902.840       -1668.469          50.000  
G26  23095581.059   121368121.426         421.765          49.000    23095580.805    94572571.192         328.649          46.000  
G23  24090632.575   126597317.567        1781.672          48.000    24090631.794    98647267.351        1388.369          48.000  
G16  25484320.838   133921020.580        2388.849          47.000                                                                  
R05  25633504.899   137025839.778         962.411          36.000    25633503.897   106575706.605         747.951          43.000  
R11  22247785.669   118885523.779        -202.179          52.000    22247783.284    92466577.708        -157.314          50.000  
R10  23421646.400   124850587.053       -4205.469          46.000                                                                  
R21  22694173.002   121441272.169        -770.675          52.000    22694170.496    94454388.575        -599.498          49.000  
R20  24353681.664   130230172.178       -3341.628          42.000    24353679.104   101290202.168       -2598.850          41.000  
G29  25626049.382   134665868.788       -2561.402          44.000    25626045.223   104934491.130       -1995.564          37.000  
S33  42344682.066   222522861.935        -646.766          42.000  
S31  41390525.582   217508753.895        -646.750          44.000  
G28  26772715.810   140691545.758       -3668.511          40.000    26772716.762   109629743.508       -2858.438          42.000  
G10  26231836.524   137849319.694        3181.049          42.000    26231837.882   107415029.654        2478.636          39.000  
E11  27913098.891   146684319.563        1485.103          37.000    27913102.601   112394507.927        1137.671          45.000  
R12  25881532.512                        3258.490          32.000    25881530.554                        2534.002          26.000  
R22  25036167.504   133644814.780        1657.907          50.000    25036168.780   103946000.787        1289.605          49.000  
G27  26870939.109   141207718.934        1684.146          39.000    26870939.747   110031984.519        1312.040          37.000  
E33  27801089.855   146095793.732       -2800.432          47.000    27801089.111   111943584.340       -2145.810          51.000  
E31  26405891.695   138764023.247       -2066.630          48.000    26405895.295   106325751.870       -1583.509          53.000  
G31  25437004.075   133672253.169       -2770.897          44.000    25437002.845   104160329.777       -2159.203          39.000  
E14  29132675.980   153093412.277       -2676.690          46.000    29132676.973   117305317.602       -2050.966          49.000  
E24  26688553.703   140249332.667         600.590          46.000    26688554.763   107463795.060         460.166          51.000  
E12  26277241.619   138087939.325        -541.495          43.000    26277241.328   105807720.800        -414.921          49.000  
E10  27014195.186   141960722.661         584.456          48.000    27014197.080   108775292.246         447.804          51.000  
G05                                                                  27648499.927                3      -2663.072          20.000  
> 2024 04 16 05 57 00.0090000  0 28                     
G25  26742189.571   140531132.169       -4192.474          44.000    26742192.871   109504781.595       -3266.784          41.000  
G18  23342612.175   122666299.073       -2153.437          48.000    23342609.673    95584100.927       -1678.072          50.000  
G26  23093224.324   121355737.814         403.979          49.000    23093224.324    94562921.644         314.838          45.000  
G23  24080503.833   126544090.054        1766.965          49.000    24080503.027    98605791.519        1376.776          48.000  
G16  25470702.217   133849456.210        2382.187          46.000                                                                  
R05  25628158.852   136997272.351         942.578          39.000    25628160.442   106553487.559         733.042          44.000  
R11  22248996.957   118892000.296        -229.550          52.000    22248994.852    92471615.030        -178.580          50.000  
R10  23445360.707   124976994.691       -4221.576          47.000                                                                  
R21  22698523.669   121464549.340        -781.031          52.000    22698520.421    94472493.017        -607.503          49.000  
R20  24372429.141   130330428.068       -3342.232          40.000    24372426.894   101368179.021       -2599.883          39.000  
G29  25640681.910   134742767.659       -2565.192          43.000    25640679.715   104994412.248       -1998.499          37.000  
S33  42348375.199   222542268.483        -646.865          43.000  
S31  41394218.368   217528159.127        -646.943          44.000  
G28  26793659.316   140801602.094       -3668.528          41.000    26793660.755   109715501.654       -2858.322          42.000  
G10  26213684.740   137753927.616        3178.645          43.000    26213685.376   107340698.372        2476.819          39.000  
E11  27904643.728   146639885.518        1477.100          36.000    27904647.064   112360461.129        1132.231          45.000  
R12  25863263.383   138156955.490        3247.969          34.000    25863258.187                3       2529.672          24.000  
R22  25026874.828   133595213.718        1648.804          49.000    25026876.594   103907422.305        1282.267          49.000  
G27  26861321.867   141157178.268        1685.134          40.000    26861321.944   109992602.247        1312.641          38.000  
E33  27817086.815   146179856.033       -2803.589          47.000    27817085.823   112007995.730       -2148.298          51.000  
E31  26417721.442   138826194.038       -2077.942          48.000    26417725.719   106373389.282       -1592.226          53.000  
G31  25452855.212   133755549.222       -2782.028          44.000    25452853.280   104225235.753       -2167.993          39.000  
E14  29147932.141   153173586.186       -2668.176          46.000    29147933.612   117366749.545       -2044.341          49.000  
E24  26685153.635   140231472.121         590.219          46.000    26685156.214   107450109.723         452.275          51.000  
E12  26280361.356   138104331.330        -551.173          44.000    26280360.621   105820280.905        -422.412          49.000  
E10  27010885.929   141943331.069         575.018          49.000    27010887.521   108761966.275         440.596          51.000  
R06                                                                  26544901.598                3       1792.843          11.000  
G05                                                                  27668000.229                3      -2659.477          16.000  
> 2024 04 16 05 57 30.0090000  0 26                     
G25  26766136.215   140656974.739       -4197.020          43.000    26766140.100   109602840.762       -3270.461          41.000  
G18  23354939.434   122731078.859       -2165.156          49.000    23354936.459    95634578.678       -1687.147          50.000  
G26  23090968.020   121343881.763         386.429          49.000    23090968.179    94553683.182         301.140          45.000  
G23  24070458.532   126491300.628        1752.318          48.000    24070457.184    98564656.807        1365.543          47.000  
G16  25457119.943   133778083.534        2375.956          46.000                                                                  
R05  25622926.922   136969284.227         923.297          44.000    25622924.392   106531719.056         718.142          44.000  
R11  22250361.978   118899294.389        -256.687          52.000    22250359.253    92477288.192        -199.655          50.000  
R10  23469164.212   125103877.470       -4237.390          46.000                                                                  
R21  22702930.589   121488132.087        -791.108          52.000    22702927.120    94490835.182        -615.243          49.000  
R20  24391181.438   130430709.207       -3343.073          41.000    24391180.725   101446175.498       -2600.075          41.000  
G29  25655334.734   134819769.975       -2568.263          43.000    25655332.313   105054414.037       -2001.527          36.000  
S33  42352068.610   222561677.830        -647.057          43.000  
S31  41397911.769   217547567.442        -646.853          44.000  
G28  26814600.669   140911653.704       -3668.287          40.000    26814601.955   109801256.200       -2858.338          41.000  
G10  26195544.848   137658603.443        3176.483          44.000    26195546.426   107266420.005        2475.133          40.000  
E11  27896226.741   146595656.555        1470.800          35.000    27896230.688   112326571.512        1127.200          44.000  
R12  25845050.539   138059666.192        3238.146          37.000    25845072.216                1       2517.998          30.000  
R22  25017634.512   133545882.968        1639.860          50.000    25017634.909   103869054.088        1275.479          48.000  
G27  26851698.330   141106607.664        1686.160          41.000    26851699.136   109953196.655        1314.123          38.000  
E33  27833100.135   146264007.574       -2806.497          47.000    27833099.351   112072475.493       -2150.491          51.000  
E31  26429615.954   138888700.067       -2089.010          48.000    26429620.146   106421283.568       -1600.669          54.000  
G31  25468767.813   133839168.606       -2792.668          42.000    25468764.541   104290393.610       -2175.814          38.000  
E14  29163138.362   153253495.735       -2659.131          46.000    29163139.860   117427978.949       -2037.615          49.000  
E24  26681812.921   140213914.970         580.362          46.000    26681815.266   107436656.843         444.620          51.000  
E12  26283534.804   138121008.534        -560.635          43.000    26283534.127   105833059.540        -429.577          49.000  
E10  27007628.617   141926217.430         565.991          48.000    27007630.892   108748853.274         433.624          51.000  
> 2024 04 16 05 58 00.0090000  0 26                     
G25  26790110.840   140782964.237       -4202.085          43.000    26790115.466   109701014.434       -3274.288          43.000  
G18  23367333.888   122796210.697       -2176.698          49.000    23367330.289    95685330.760       -1696.094          50.000  
G26  23088811.941   121332550.198         368.992          48.000    23088811.820    94544853.379         287.776          45.000  
G23  24060495.803   126438948.126        1737.971          48.000    24060494.565    98523862.726        1354.340          48.000  
G16  25443574.310   133706900.022        2369.767          46.000                                                                  
R05  25617797.381   136941873.716         904.123          40.000    25617796.237   106510399.793         703.268          43.000  
R11  22251879.590   118907402.303        -283.859          52.000    22251875.545    92483594.337        -220.609          49.000  
R10  23493054.995   125231227.792       -4252.527          46.000                                                                  
R21  22707392.969   121512013.773        -800.807          51.000    22707390.495    94509409.815        -622.778          49.000  
R20  24409938.586   130531008.831       -3343.329          41.000    24409937.345   101524186.325       -2600.311          42.000  
G29  25670007.406   134896872.124       -2571.497          44.000    25670003.857   105114493.571       -2003.809          36.000  
S33  42355761.684   222581084.184        -646.911          43.000  
S31  41401604.543   217566973.092        -646.245          44.000  
G28  26835540.640   141021693.044       -3667.428          41.000    26835541.043   109887001.144       -2857.918          39.000  
G10  26177417.104   137563345.574        3174.531          43.000    26177419.840   107192193.331        2473.480          41.000  
E11  27887848.706   146551628.393        1464.763          34.000    27887852.668   112292835.781        1122.313          45.000  
R12  25826895.246   137962677.230        3228.266          37.000    25826902.628                3       2510.962          25.000  
R22  25008441.497   133496817.525        1631.266          48.000    25008442.888   103830892.216        1268.825          48.000  
G27  26842068.939   141056002.527        1687.790          40.000    26842069.651   109913764.168        1315.408          40.000  
E33  27849128.474   146348242.244       -2808.868          46.000    27849128.314   112137018.948       -2152.337          51.000  
E31  26441573.125   138951536.191       -2099.758          47.000    26441577.646   106469430.728       -1608.911          53.000  
G31  25484738.645   133923103.476       -2802.817          41.000    25484737.419   104355797.357       -2183.827          38.000  
E14  29178293.324   153333136.242       -2649.875          46.000    29178294.997   117489002.183       -2030.390          49.000  
E24  26678529.702   140196657.835         570.504          46.000    26678531.224   107423433.846         437.182          51.000  
E12  26286760.892   138137965.365        -569.640          43.000    26286760.807   105846052.459        -436.446          48.000  
E10  27004424.533   141909376.780         557.019          48.000    27004426.185   108735949.429         426.887          51.000  
> 2024 04 16 05 58 30.0090000  0 26                     
G25  26814113.673   140909099.599       -4206.366          42.000    26814118.664   109799301.744       -3277.568          41.000  
G18  23379794.335   122861693.657       -2188.244          48.000    23379791.270    95736356.432       -1705.145          50.000  
G26  23086755.474   121321745.937         351.711          49.000    23086755.856    94536434.489         274.197          45.000  
G23  24050616.980   126387036.417        1723.503          47.000    24050616.524    98483412.234        1342.984          47.000  
G16  25430065.443   133635909.481        2363.378          46.000                                                                  
R05  25612778.293   136915045.466         885.238          42.000    25612775.719   106489533.400         688.152          41.000  
R11  22253549.169   118916326.263        -310.742          52.000    22253545.320    92490535.187        -241.685          49.000  
R10  23517031.911   125359041.703       -4267.828          45.000                                                                  
R21  22711911.361   121536193.790        -810.543          52.000    22711909.296    94528216.467        -630.462          49.000  
R20  24428699.083   130631327.206       -3343.855          43.000    24428697.066   101602211.755       -2600.667          42.000  
G29  25684699.366   134974075.271       -2574.823          45.000    25684694.882   105174651.816       -2006.348          38.000  
S33  42359453.932   222600489.771        -646.446          43.000  
S31  41405296.909   217586377.407        -646.310          44.000  
G28  26856479.262   141131718.426       -3666.856          42.000    26856478.914   109972735.210       -2857.447          38.000  
G10  26159302.866   137468158.367        3172.152          43.000    26159305.295   107118021.702        2471.946          40.000  
E11  27879508.209   146507802.661        1457.907          34.000    27879512.923   112259255.129        1117.091          44.000  
R12  25808795.839   137865993.685        3217.887          37.000    25808782.457                3       2507.697          18.000  
R22  24999300.318   133448018.360        1622.524          49.000    24999301.500   103792937.454        1261.976          48.000  
G27  26832433.214   141005364.066        1688.802          42.000    26832433.337   109874305.721        1315.565          39.000  
E33  27865174.125   146432559.920       -2811.586          47.000    27865173.686   112201626.010       -2154.294          51.000  
E31  26453593.200   139014703.280       -2110.599          47.000    26453598.358   106517831.441       -1617.315          53.000  
G31  25500770.641   134007352.290       -2813.431          40.000    25500770.129   104421445.705       -2192.042          38.000  
E14  29193398.335   153412508.976       -2640.968          46.000    29193399.006   117549820.229       -2023.576          48.000  
E24  26675302.861   140179703.346         560.537          46.000    26675304.764   107410442.772         429.391          51.000  
E12  26290040.504   138155202.116        -578.972          43.000    26290040.430   105859259.881        -443.445          48.000  
E10  27001271.174   141892810.045         548.002          48.000    27001273.725   108723255.483         419.909          51.000  
> 2024 04 16 05 59 00.0090000  0 26                     
G25  26838143.544   141035376.174       -4211.637          42.000    26838148.323   109897699.062       -3281.646          41.000  
G18  23392320.805   122927523.017       -2199.805          48.000    23392318.334    95787652.049       -1714.148          50.000  
G26  23084800.168   121311467.961         334.062          49.000    23084800.190    94528425.662         260.307          45.000  
G23  24040822.576   126335565.290        1708.588          47.000    24040821.687    98443304.931        1331.211          48.000  
G16  25416593.623   133565111.930        2356.886          47.000                                                                  
R05  25607870.872   136888800.121         865.358          42.000    25607866.692   106469120.447         672.958          42.000  
R11  22255371.562   118926064.087        -337.888          52.000    22255367.811    92498109.054        -262.974          49.000  
R10  23541094.907   125487313.173       -4283.221          45.000                                                                  
R21  22716485.169   121560667.664        -820.425          52.000    22716482.781    94547251.702        -638.131          49.000  
R20  24447462.114   130731659.639       -3344.586          42.000    24447460.675   101680248.090       -2601.228          42.000  
G29  25699410.214   135051376.516       -2577.990          44.000    25699404.982   105234886.485       -2008.712          37.000  
S33  42363146.306   222619891.364        -646.482          43.000  
S31  41408989.061   217605778.828        -646.287          44.000  
G28  26877413.155   141241724.336       -3666.197          42.000    26877411.941   110058454.046       -2857.021          39.000  
G10  26141202.213   137373042.322        3169.530          43.000    26141204.391   107043905.490        2469.590          40.000  
E11  27871206.921   146464176.983        1450.939          33.000    27871210.946   112225827.705        1111.831          43.000  
R12  25790755.895   137769617.278        3207.339          38.000    25790769.668                3       2493.679          19.000  
R22  24990208.775   133399482.650        1613.706          49.000    24990209.240   103755187.573        1255.107          48.000  
G27  26822789.770   140954689.697        1690.094          42.000    26822790.001   109834819.293        1316.829          38.000  
E33  27881233.716   146516956.485       -2814.181          47.000    27881233.854   112266293.540       -2156.365          51.000  
E31  26465676.378   139078198.381       -2121.792          48.000    26465681.279   106566483.433       -1625.710          54.000  
G31  25516861.781   134091909.232       -2823.233          41.000    25516859.941   104487334.197       -2199.885          38.000  
E14  29208450.644   153491611.346       -2632.011          46.000    29208451.572   117610431.126       -2016.748          48.000  
E24  26672134.446   140163050.278         550.373          47.000    26672135.660   107397682.636         421.702          52.000  
E12  26293373.088   138172715.154        -587.966          43.000    26293373.115   105872678.984        -450.626          48.000  
E10  26998169.332   141876514.310         538.841          47.000    26998172.767   108710769.180         412.923          51.000  
> 2024 04 16 05 59 30.0090000  0 26                     
G25  26862198.836   141161786.354       -4215.654          44.000    26862203.574   109996200.499       -3284.928          43.000  
G18  23404912.404   122993691.062       -2211.279          48.000    23404909.029    95839211.570       -1723.047          49.000  
G26  23082943.401   121301712.345         316.524          48.000    23082943.509    94520823.893         246.652          45.000  
G23  24031112.425   126284532.102        1693.654          46.000    24031110.343    98403538.782        1319.767          46.000  
G16  25403157.004   133494504.443        2350.486          47.000                                                                  
R05  25603071.387   136863135.429         845.882          44.000    25603066.327   106449159.048         657.576          42.000  
R11  22257345.131   118936611.329        -365.043          52.000    22257341.931    92506312.491        -284.059          49.000  
R10  23565242.540   125616032.091       -4297.852          46.000                                                                  
R21  22721112.773   121585428.062        -830.145          52.000    22721109.905    94566509.737        -645.704          49.000  
R20  24466225.037   130831998.396       -3344.654          41.000    24466224.181   101758289.394       -2601.440          42.000  
G29  25714137.008   135128770.981       -2581.373          45.000    25714132.625   105295193.843       -2011.390          38.000  
S33  42366836.422   222639284.058        -646.638          43.000  
S31  41412679.116   217625170.274        -646.036          44.000  
G28  26898341.280   141351702.408       -3665.381          40.000    26898340.492   110144151.199       -2856.438          39.000  
G10  26123115.413   137277995.134        3166.836          44.000    26123117.465   106969842.917        2467.685          41.000  
E11  27862943.320                1       1444.665          31.000    27862945.951   112192549.589        1106.685          42.000  
R12  25772769.537   137673546.354        3197.175          37.000    25772809.704                1       2486.262          29.000  
R22  24981164.789   133351204.476        1604.957          50.000    24981164.924   103717637.958        1248.322          48.000  
G27  26813137.797   140903974.037        1691.190          41.000    26813139.047   109795300.682        1317.821          37.000  
E33  27897307.437   146601425.167       -2816.788          47.000    27897307.410   112331016.309       -2158.287          51.000  
E31  26477820.820   139142015.602       -2132.596          48.000    26477825.284   106615382.260       -1634.077          53.000  
G31  25533009.527   134176765.790       -2833.500          38.000    25533006.421   104553456.114       -2207.746          37.000  
E14  29223450.785   153570437.978       -2622.945          46.000    29223452.062   117670830.761       -2009.810          48.000  
E24  26669022.565   140146694.481         540.147          47.000    26669023.338   107385150.287         414.004          52.000  
E12  26296757.740   138190498.088        -597.210          44.000    26296757.189   105886304.874        -457.740          49.000  
E10  26995119.110   141860483.817         529.935          48.000    26995122.323   108698486.122         406.045          51.000  
