     3.00           OBSERVATION DATA    M: Mixed            RINEX VERSION / TYPE
CONVBIN 2.4.3                           20240416 212942 UTC PGM / RUN BY / DATE 
format: u-blox UBX                                          COMMENT             
log: /home/regis/git/gnsspwv/obsdata/VERT00CHL/2024-04-16/VECOMMENT             
{self.marker}                                               MARKER NAME         
                                                            MARKER NUMBER       
GEODETIC                                                    MARKER TYPE         
{self.observer}     {self.institution}                      OBSERVER / AGENCY   
UNKNOWN             UBLOX-ZED-F9P                           REC # / TYPE / VERS 
UNKNOWN             TWIVSP6037L                             ANT # / TYPE        
  1713381.0000 -5047934.0000 -3490983.0000                  APPROX POSITION XYZ 
        0.0000        0.0000        0.0000                  ANTENNA: DELTA H/E/N
G    8 C1C L1C D1C S1C C2L L2L D2L S2L                      SYS / # / OBS TYPES 
R    8 C1C L1C D1C S1C C2C L2C D2C S2C                      SYS / # / OBS TYPES 
E    8 C1C L1C D1C S1C C7Q L7Q D7Q S7Q                      SYS / # / OBS TYPES 
S    4 C1C L1C D1C S1C                                      SYS / # / OBS TYPES 
  2024    04    16    21    15   00.0060000     GPS         TIME OF FIRST OBS   
  2024    04    16    21    29   30.0070000     GPS         TIME OF LAST OBS    
                                                            END OF HEADER       
> 2024 04 16 21 15 00.0060000  0 26                     
G13  21941791.929   115304999.6561       -342.243          46.000                                                                  
G15  23345740.639   122682737.2251       1270.718          47.000    23345741.319    95596980.7951        990.034          44.000  
G19  24253499.251   127453336.0801       1697.601          46.000                                                                  
G24  25629105.077   134681928.2151       1307.501          44.000    25629111.724   104947034.8451       1018.781          44.000  
R05  21252667.881   113607937.0031      -2459.897          52.000    21252670.995    88361613.0241      -1913.272          51.000  
R16  21998716.490   117513312.2881        -45.011          52.000    21998718.020    91399623.9471        -34.900          50.000  
R04  24423349.667   130785855.3331      -5084.542          48.000    24423365.024   101722264.2511      -3954.648          47.000  
R06  23081229.197   123165939.5421       2293.247          37.000                                                                  
E08  25157106.915   132201639.6821       -699.934          47.000    25157110.528   101297426.3151       -536.327          52.000  
S31  40647689.323   213604982.8601       -805.143          44.000  
S33  41599112.383   218604721.1261       -805.823          42.000  
G20  26481604.144   139161382.3291      -3895.290          32.000                                                                  
E03  27230144.567   143095365.6801      -2943.901          46.000    27230155.804   109644536.4571      -2255.789          49.000  
R15  22316326.543   119252069.9031      -3079.005          52.000    22316329.165    92751470.3111      -2394.783          50.000  
R17  25895622.907   138572702.4261       2031.614          46.000    25895631.821   107778832.1611       1580.130          45.000  
E07  27479913.080   144408027.8921       1494.269          46.000    27479922.607   110650336.9071       1144.982          47.000  
G05  24641581.158   129492235.4671      -3391.746          45.000    24641588.258   100903072.6231      -2642.929          43.000  
G30  25327577.791   133097465.3061      -3138.600          42.000    25327585.477   103712417.3151      -2445.495          43.000  
E30  26103047.421   137172824.4941        722.226          46.000    26103056.484   105106696.7121        553.349          51.000  
G14  23687212.161   124477355.5771      -3532.370          49.000    23687213.013    96995504.0751      -2752.521          46.000  
E02  25426514.462   133617494.2581      -1867.552          47.000    25426519.828   102382421.5881      -1431.065          52.000  
G22  22211922.747   116724801.0431      -1936.396          47.000                                                                  
G17  23901652.847   125604326.3171        850.364          46.000    23901656.852    97873686.3491        662.803          44.000  
E25  29013292.589   152466084.9581      -3436.667          40.000    29013304.046   116824782.3751      -2633.260          45.000  
E18  21877948.155   114969732.2121       -438.070          45.000                                                                  
R14                                                                  26140407.409                3      -3214.883          26.000  
> 2024 04 16 21 15 30.0060000  0 26                     
G13  21943783.947   115315468.664        -355.936          46.000                                                                  
G15  23338517.223   122644777.796        1259.969          47.000    23338517.861    95567402.087         981.766          45.000  
G19  24243835.277   127402552.988        1687.889          46.000                                                                  
G24  25621639.428   134642697.106        1307.965          44.000    25621645.905   104916465.424        1019.305          43.000  
R05  21266540.452   113682095.721       -2484.110          51.000    21266544.450    88419291.945       -1932.076          51.000  
R16  21999004.781   117514858.367         -58.172          51.000    21999007.992    91400826.574         -45.251          50.000  
R04  24451855.642   130938501.250       -5091.803          48.000    24451871.343   101840987.800       -3960.314          46.000  
R06  23068380.474   123097380.375        2277.221          38.000                                                                  
E08  25161130.769   132222788.538        -709.944          47.000    25161134.952   101313631.301        -543.985          52.000  
S31  40652282.253   213629121.652        -804.439          44.000  
S33  41603709.729   218628880.250        -805.040          42.000  
G20  26503826.894                1      -3890.599          26.000                                                                  
E03  27246971.910   143183794.039       -2951.189          46.000    27246983.314   109712293.102       -2261.242          50.000  
R15  22333628.812   119344525.060       -3084.816          52.000    22333630.673    92823379.836       -2399.319          51.000  
R17  25884251.534   138511857.220        2024.748          45.000    25884261.191   107731508.408        1574.700          46.000  
E07  27471391.396   144363249.197        1491.087          45.000    27471401.272   110616026.073        1142.445          47.000  
G05  24660965.743   129594109.502       -3399.743          43.000    24660975.648   100982454.663       -2649.357          44.000  
G30  25345498.121   133191641.554       -3139.875          42.000    25345507.390   103785801.338       -2446.565          42.000  
E30  26098950.327   137151294.348         713.111          47.000    26098959.335   105090199.738         546.417          51.000  
G14  23707399.943   124583444.292       -3540.040          49.000    23707401.024    97078170.575       -2758.411          45.000  
E02  25437200.700   133673648.459       -1875.993          47.000    25437205.487   102425448.858       -1437.440          52.000  
G22  22223022.549   116783128.562       -1952.256          47.000                                                                  
G17  23896843.411   125579046.349         834.944          49.000    23896846.026    97853987.849         650.491          44.000  
E25  29032912.849   152569186.039       -3436.642          39.000    29032923.591   116903781.891       -2633.420          46.000  
E18  21880538.992   114983349.551        -469.717          45.000                                                                  
R09                                                                  25054349.610                3       1454.448          15.000  
> 2024 04 16 21 16 00.0060000  0 26                     
G13  21945855.887   115326360.941        -370.037          46.000                                                                  
G15  23331356.039   122607147.966        1248.763          46.000    23331357.165    95538080.205         973.196          45.000  
G19  24234226.807   127352062.774        1678.084          46.000                                                                  
G24  25614171.006   134603453.983        1308.215          43.000    25614178.441   104885886.660        1019.507          44.000  
R05  21280550.431   113756983.198       -2508.386          52.000    21280553.713    88477537.673       -1950.990          51.000  
R16  21999368.156   117516802.137         -71.414          51.000    21999371.914    91402338.517         -55.557          50.000  
R04  24480403.990   131091367.058       -5099.205          47.000    24480418.582   101959882.325       -3965.926          45.000  
R06  23055622.480   123029300.969        2261.306          38.000                                                                  
E08  25165214.173   132244245.182        -720.283          46.000    25165217.993   101330072.115        -551.947          52.000  
S31  40656872.764   213653243.901        -803.859          44.000  
S33  41608303.931   218653024.050        -804.360          42.000  
G20  26526028.270                       -3886.517          26.000                                                                  
E03  27263841.469   143272439.355       -2958.460          46.000    27263851.868   109780215.989       -2266.876          49.000  
R15  22350963.775   119437158.964       -3090.668          52.000    22350966.105    92895428.409       -2403.882          50.000  
R17  25872920.060   138451226.039        2017.462          43.000    25872929.749   107684351.120        1569.202          45.000  
E07  27462888.971   144318572.350        1487.535          45.000    27462899.201   110581793.278        1139.873          47.000  
G05  24680398.902   129696227.995       -3407.933          44.000    24680408.818   101062027.139       -2655.643          45.000  
G30  25363428.077   133285862.339       -3141.585          42.000    25363434.763   103859220.099       -2447.537          41.000  
E30  26094906.387   137130041.609         703.810          47.000    26094914.446   105073915.323         539.220          51.000  
G14  23727632.201   124689764.233       -3547.843          50.000    23727632.587    97161017.315       -2764.642          44.000  
E02  25447935.512   133730059.172       -1884.508          47.000    25447939.813   102468672.694       -1444.019          52.000  
G22  22234211.835   116841932.590       -1968.037          47.000                                                                  
G17  23892121.530   125554235.845         819.116          47.000    23892125.152    97834655.161         638.452          44.000  
E25  29052535.227   152672298.637       -3437.296          39.000    29052545.406   116982790.235       -2633.687          47.000  
E18  21883312.274   114997920.774        -501.711          45.000                                                                  
R09                                                                  25040331.574                3       1447.998          13.000  
> 2024 04 16 21 16 30.0060000  0 26                     
G13  21948009.409   115337676.950        -384.686          46.000                                                                  
G15  23324258.180   122569848.280        1237.405          47.000    23324259.021    95509015.569         964.189          44.000  
G19  24224674.506   127301867.155        1667.758          47.000                                                                  
G24  25606700.040   134564197.334        1308.221          43.000    25606707.817   104855297.349        1019.525          44.000  
R05  21294695.626   113832596.372       -2533.042          52.000    21294698.250    88536347.860       -1970.002          50.000  
R16  21999806.191   117519140.824         -84.897          52.000    21999809.315    91404157.614         -66.105          49.000  
R04  24508990.507   131244447.688       -5106.735          45.000    24509005.835   102078943.918       -3971.905          46.000  
R06  23042955.242   122961703.925        2245.330          38.000                                                                  
E08  25169355.706   132266008.925        -731.019          47.000    25169359.427   101346748.247        -560.101          52.000  
S31  40661459.842   213677348.762        -804.020          44.000  
S33  41612894.815   218677149.916        -804.255          42.000  
G20  26548202.085                3      -3882.728          25.000                                                                  
E03  27280750.017   143361299.485       -2966.044          46.000    27280761.564   109848303.481       -2272.617          49.000  
R15  22368332.203   119529967.278       -3096.963          53.000    22368333.625    92967612.647       -2408.743          50.000  
R17  25861631.351   138390811.645        2009.711          45.000    25861637.578   107637362.508        1563.183          42.000  
E07  27454406.255   144273997.343        1483.499          45.000    27454416.596   110547638.511        1136.905          47.000  
G05  24699877.962   129798586.598       -3416.308          45.000    24699887.998   101141786.742       -2662.076          45.000  
G30  25381366.655   133380126.060       -3143.233          43.000    25381373.381   103932672.279       -2449.257          41.000  
E30  26090914.635   137109064.907         694.202          47.000    26090922.559   105057842.437         531.923          50.000  
G14  23747907.496   124796311.425       -3555.788          50.000    23747907.664    97244041.099       -2770.848          44.000  
E02  25458719.067   133786723.524       -1893.522          47.000    25458722.912   102512090.856       -1450.792          52.000  
G22  22245491.504   116901209.572       -1984.213          46.000                                                                  
G17  23887489.011   125529896.118         802.932          47.000    23887492.889    97815689.346         625.692          44.000  
E25  29072156.678   152775419.894       -3437.765          38.000    29072168.523   117061805.262       -2634.303          47.000  
E18  21886264.867   115013445.361        -533.789          44.000                                                                  
R14                                                                  26210047.429                3      -3202.723          25.000  
> 2024 04 16 21 17 00.0060000  0 25                     
G13  21950245.497   115349425.851        -398.966          46.000                                                                  
G15  23317224.781   122532889.009        1226.249          47.000    23317225.482    95480216.210         955.651          44.000  
G19  24215179.717   127251977.299        1657.918          45.000                                                                  
G24  25599228.785   134524935.166        1308.691          42.000    25599236.234   104824703.737        1019.598          44.000  
R05  21308977.710   113908942.174       -2556.954          52.000    21308980.377    88595727.874       -1988.812          50.000  
R16  22000319.590   117521880.969         -98.094          52.000    22000321.962    91406288.950         -76.222          50.000  
R04  24537619.718   131397747.776       -5113.539          46.000    24537634.467   102198176.152       -3977.226          46.000  
R06  23030380.048   122894601.154        2228.406          38.000                                                                  
E08  25173556.386   132288088.545        -741.155          46.000    25173560.976   101363666.420        -567.914          51.000  
S31  40666044.924   213701443.611        -802.991          44.000  
S33  41617483.992   218701265.244        -803.682          42.000  
E03  27297702.067   143450381.790       -2973.094          46.000    27297713.665   109916561.203       -2278.060          49.000  
R15  22385733.976   119622955.866       -3102.546          53.000    22385734.384    93039937.104       -2413.111          49.000  
R17  25850384.344   138330626.311        2002.332          46.000    25850390.401   107590552.027        1557.435          44.000  
E07  27445945.936   144229533.597        1480.306          45.000    27445955.466   110513569.008        1134.293          47.000  
G05  24719402.944   129901190.101       -3424.139          45.000    24719413.048   101221737.152       -2668.247          45.000  
G30  25399314.302   133474440.609       -3144.537          43.000    25399320.649   104006164.053       -2450.244          41.000  
E30  26086976.980   137088372.351         685.098          47.000    26086984.608   105041987.247         524.929          50.000  
G14  23768227.108   124903091.330       -3563.169          50.000    23768227.799    97327246.185       -2776.467          45.000  
E02  25469550.905   133843648.055       -1901.774          47.000    25469555.303   102555708.398       -1457.231          52.000  
G22  22256862.892   116960965.257       -1999.867          47.000                                                                  
G17  23882949.182   125506037.035         787.296          48.000    23882951.676    97797098.012         613.409          44.000  
E25  29091782.161   152878556.475       -3438.317          36.000    29091794.434   117140832.013       -2634.398          46.000  
E18  21889402.102   115029932.312        -565.650          45.000                                                                  
R14                                                                  26233207.250                1      -3198.397          28.000  
> 2024 04 16 21 17 30.0060000  0 25                     
G13  21952565.246   115361613.668        -414.076          46.000                                                                  
G15  23310258.212   122496277.100        1214.197          47.000    23310258.665    95451687.509         946.021          45.000  
G19  24205745.474   127202400.776        1646.850          45.000                                                                  
G24  25591757.690   134485671.985        1308.472          43.000    25591764.227   104794109.311        1019.501          44.000  
R05  21323396.798   113986023.419       -2581.988          52.000    21323399.179    88655679.886       -2008.363          50.000  
R16  22000908.511   117525026.050        -111.980          52.000    22000911.190    91408735.251         -87.084          50.000  
R04  24566290.032   131551268.111       -5121.599          48.000    24566304.529   102317579.682       -3983.442          46.000  
R06  23017899.737   122828001.346        2211.177          39.000                                                                  
E08  25177818.785   132310489.495        -752.504          46.000    25177823.546   101380830.789        -576.592          51.000  
S31  40670629.130   213725533.948        -803.354          44.000  
S33  41622071.967   218725376.688        -804.167          42.000  
E03  27314697.816   143539690.292       -2981.237          47.000    27314708.728   109984992.235       -2284.265          49.000  
R15  22403168.528   119716126.661       -3109.118          52.000    22403169.599    93112403.275       -2418.133          49.000  
R17  25839181.481   138270679.414        1993.816          47.000    25839188.746   107543926.931        1550.715          43.000  
E07  27437507.709   144185187.182        1475.929          45.000    27437516.140   110479589.400        1130.814          47.000  
G05  24738974.097   130004039.664       -3432.762          44.000    24738984.738   101301879.310       -2674.979          44.000  
G30  25417272.497   133568810.470       -3147.089          43.000    25417278.589   104079698.951       -2452.017          41.000  
E30  26083093.363   137067968.676         674.806          46.000    26083101.897   105026353.420         517.063          51.000  
G14  23788591.462   125010106.018       -3571.414          50.000    23788592.499    97410634.219       -2782.943          45.000  
E02  25480432.238   133900835.969       -1911.046          47.000    25480437.449   102599527.739       -1464.290          52.000  
G22  22268325.747   117021203.147       -2016.518          46.000                                                                  
G17  23878502.389   125482665.767         770.426          49.000    23878504.237    97778886.782         600.422          43.000  
E25  29111411.326   152981711.674       -3439.552          34.000    29111423.877   117219873.008       -2635.288          45.000  
E18  21892721.870   115047387.051        -598.411          43.000                                                                  
R14                                                                  26256337.965                3      -3194.752          25.000  
> 2024 04 16 21 18 00.0060000  0 24                     
G13  21954969.794   115374247.988        -428.488          47.000                                                                  
G15  23303358.890   122460020.477        1202.816          47.000    23303359.387    95423435.699         936.906          45.000  
G19  24196372.619   127153146.661        1636.372          46.000                                                                  
G24  25584287.497   134446413.459        1308.624          43.000    25584293.125   104763518.524        1019.714          44.000  
R05  21337954.700   114063843.937       -2606.290          52.000    21337957.010    88716206.889       -2027.138          50.000  
R16  22001573.630   117528580.797        -125.310          52.000    22001576.687    91411500.147         -97.466          50.000  
R04  24595001.747   131705011.390       -5128.363          48.000    24595016.749   102437156.538       -3988.753          47.000  
R06  23005514.819   122761914.203        2194.609          39.000                                                                  
E08  25182144.369   132333218.201        -763.015          47.000    25182148.906   101398246.312        -584.691          51.000  
S31  40675213.263   213749624.264        -802.742          44.000  
S33  41626660.241   218749487.899        -803.870          42.000  
E03  27331737.367   143629229.965       -2988.478          47.000    27331747.369   110053600.404       -2289.931          49.000  
R15  22420639.087   119809483.066       -3114.907          52.000    22420640.798    93185013.826       -2422.738          50.000  
R17  25828023.612   138210981.035        1985.781          46.000    25828031.697   107497495.168        1544.542          45.000  
E07  27429093.316   144140965.273        1471.960          45.000    27429100.655   110445705.180        1127.914          47.000  
G05  24758592.994   130107137.981       -3440.817          43.000    24758604.309   101382215.309       -2680.869          44.000  
G30  25435242.250   133663241.289       -3148.597          42.000    25435247.953   104153281.332       -2453.615          40.000  
E30  26079266.951   137047859.656         665.399          46.000    26079275.455   105010945.379         509.810          51.000  
G14  23809000.949   125117358.707       -3579.030          50.000    23809002.034    97494207.742       -2788.730          45.000  
E02  25491366.282   133958291.565       -1919.594          47.000    25491370.859   102643552.191       -1470.931          52.000  
G22  22279881.057   117081926.898       -2032.235          46.000                                                                  
G17  23874149.509   125459790.473         754.346          48.000    23874151.454    97761062.065         587.655          43.000  
E25  29131044.568   153084889.781       -3439.762          33.000    29131057.843   117298931.603       -2635.529          45.000  
E18  21896228.687   115065816.146        -630.558          43.000                                                                  
> 2024 04 16 21 18 30.0060000  0 24                     
G13  21957457.369   115387318.122        -443.251          47.000                                                                  
G15  23296525.046   122424109.258        1190.842          48.000    23296525.249    95395453.008         927.914          45.000  
G19  24187059.404   127104206.164        1625.631          45.000                                                                  
G24  25576814.650   134407147.717        1308.685          42.000    25576820.670   104732922.121        1019.647          44.000  
R05  21352649.070   114142389.928       -2630.602          52.000    21352651.310    88777298.130       -2045.937          50.000  
R16  22002312.810   117532531.469        -138.699          51.000    22002316.274    91414573.000        -107.864          50.000  
R04  24623752.015   131858961.886       -5135.459          50.000    24623767.812   102556894.529       -3994.162          48.000  
R06  22993224.361   122696331.399        2177.764          38.000                                                                  
E08  25186530.222   132356263.678        -773.796          47.000    25186534.047   101415904.542        -592.885          51.000  
S31  40679795.398   213773703.114        -802.497          44.000  
S33  41631246.164   218773587.491        -803.716          42.000  
E03  27348817.621   143718988.399       -2996.030          48.000    27348827.645   110122376.191       -2295.600          48.000  
R15  22438141.620   119903010.491       -3120.648          52.000    22438143.005    93257757.343       -2427.272          49.000  
R17  25816912.612   138151523.579        1977.582          45.000    25816920.545   107451250.837        1537.976          46.000  
E07  27420699.601   144096857.474        1467.973          45.000    27420706.948   110411908.420        1124.743          47.000  
G05  24778255.624   130210470.279       -3448.354          43.000    24778268.087   101462733.647       -2687.330          44.000  
G30  25453221.443   133757721.134       -3150.619          42.000    25453227.307   104226901.899       -2454.983          41.000  
E30  26075494.272   137028033.600         655.851          47.000    26075502.709   104995754.132         502.542          51.000  
G14  23829452.872   125224835.080       -3586.636          49.000    23829453.998    97577955.532       -2794.794          45.000  
E02  25502348.024   134016001.663       -1928.296          47.000    25502352.583   102687771.640       -1477.493          52.000  
G22  22291526.150   117143122.590       -2048.036          46.000                                                                  
G17  23869887.917   125437401.899         737.766          47.000    23869891.328    97743616.624         574.820          43.000  
E25  29150680.182   153188077.706       -3440.562          34.000    29150693.981   117377997.711       -2635.813          46.000  
E18  21899920.245   115085208.482        -662.722          45.000                                                                  
> 2024 04 16 21 19 00.0060000  0 24                     
G13  21960028.535   115400830.656        -457.737          46.000                                                                  
G15  23289758.231   122388550.865        1179.353          48.000    23289758.899    95367745.237         919.246          45.000  
G19  24177807.442   127055587.271        1615.302          45.000                                                                  
G24  25569342.034   134367879.932        1309.100          42.000    25569347.983   104702324.080        1020.117          44.000  
R05  21367479.076   114221665.198       -2654.542          52.000    21367481.410    88838956.611       -2064.529          50.000  
R16  22003126.826   117536881.999        -151.565          51.000    22003130.474    91417956.834        -117.755          50.000  
R04  24652541.205   132013120.894       -5141.921          51.000    24652557.005   102676794.708       -3999.182          48.000  
R06  22981029.746   122631262.373        2160.370          39.000                                                                  
E08  25190977.186   132379631.815        -784.217          47.000    25190980.754   101433810.013        -600.829          51.000  
S31  40684376.366   213797775.884        -802.180          44.000  
S33  41635830.951   218797681.318        -802.660          42.000  
E03  27365940.748   143808970.039       -3003.011          48.000    27365950.615   110191323.019       -2300.945          48.000  
R15  22455676.790   119996711.825       -3126.155          53.000    22455678.151    93330636.190       -2431.471          48.000  
R17  25805850.049   138092316.431        1969.471          48.000    25805856.591   107405201.199        1531.798          45.000  
E07  27412329.280   144052870.456        1464.271          45.000    27412336.427   110378204.184        1122.064          47.000  
G05  24797964.326   130314038.226       -3455.983          43.000    24797976.962   101543435.534       -2692.880          45.000  
G30  25471210.599   133852255.098       -3152.035          42.000    25471216.569   104300564.645       -2456.018          41.000  
E30  26071775.730   137008495.707         646.675          47.000    26071784.620   104980783.704         495.420          51.000  
G14  23849948.334   125332537.704       -3593.709          49.000    23849949.425    97661879.652       -2800.279          44.000  
E02  25513379.226   134073969.943       -1936.481          47.000    25513383.725   102732188.933       -1483.693          52.000  
G22  22303260.840   117204793.455       -2063.490          45.000                                                                  
G17  23865721.601   125415507.592         721.692          47.000    23865724.963    97726556.301         562.310          44.000  
E25  29170320.105   153291279.246       -3440.085          35.000    29170332.925   117457074.256       -2635.925          47.000  
E18  21903795.027   115105569.921        -694.745          45.000                                                                  
> 2024 04 16 21 19 30.0060000  0 24                     
G13  21962681.842   115414776.247        -472.274          46.000                                                                  
G15  23283057.006   122353336.774        1167.716          48.000    23283058.052    95340305.777         909.958          45.000  
G19  24168615.488   127007282.593        1604.711          45.000                                                                  
G24  25561866.771   134328599.232        1309.607          43.000    25561872.735   104671716.007        1020.465          43.000  
R05  21382443.301   114301656.596       -2678.446          52.000    21382445.654    88901172.092       -2083.312          50.000  
R16  22004013.783   117541619.847        -164.628          51.000    22004017.163    91421641.961        -127.943          49.000  
R04  24681366.443   132167474.223       -5148.577          50.000    24681381.908   102796846.027       -4004.260          47.000  
R06  22968930.820   122566700.039        2143.401          40.000                                                                  
E08  25195483.341   132403312.621        -794.728          47.000    25195487.360   101451955.054        -608.979          51.000  
S31  40688953.755   213821831.808        -801.740          44.000  
S33  41640412.767   218821757.661        -802.175          42.000  
E03  27383104.160   143899163.465       -3010.120          47.000    27383114.349   110260432.124       -2306.505          48.000  
R15  22473240.972   120090573.547       -3131.612          52.000    22473242.878    93403639.758       -2435.595          49.000  
R17  25794830.912   138033353.063        1961.120          49.000    25794837.666   107359341.111        1525.257          45.000  
E07  27403979.434   144008994.884        1460.670          45.000    27403986.982   110344585.367        1119.035          48.000  
G05  24817716.452   130417828.064       -3463.565          44.000    24817728.970   101624310.321       -2698.748          45.000  
G30  25489207.216   133946832.353       -3153.467          40.000    25489214.614   104374261.110       -2456.995          41.000  
E30  26068111.039   136989235.315         637.265          48.000    26068119.320   104966025.884         488.202          51.000  
G14  23870483.908   125440453.444       -3600.795          48.000    23870485.152    97745969.793       -2805.838          43.000  
E02  25524456.579   134132184.233       -1944.600          47.000    25524461.800   102776794.736       -1490.061          52.000  
G22  22315084.178   117266926.859       -2078.876          45.000                                                                  
G17  23861646.885   125394098.750         705.535          46.000    23861650.981    97709874.293         549.507          44.000  
E25  29189959.930   153394482.305       -3440.056          36.000    29189971.687   117536151.975       -2635.979          47.000  
E18  21907851.912   115126890.252        -726.855          46.000                                                                  
> 2024 04 16 21 20 00.0060000  0 24                     
G13  21965419.654   115429166.230        -487.189          45.000                                                                  
G15  23276423.153   122318478.794        1155.902          47.000    23276424.663    95313143.799         900.541          45.000  
G19  24159484.636   126959304.792        1593.529          45.000                                                                  
G24  25554390.487   134289315.428        1309.192          42.000    25554397.641   104641105.459        1020.398          43.000  
R05  21397543.156   114382372.299       -2702.783          52.000    21397545.438    88963950.892       -2102.032          50.000  
R16  22004975.624   117546753.913        -177.926          52.000    22004977.907    91425635.265        -138.324          49.000  
R04  24710229.371   132322028.140       -5155.099          49.000    24710244.823   102917053.317       -4009.591          47.000  
R06  22956929.400   122502658.118        2125.875          39.000                                                                  
E08  25200051.591   132427316.529        -805.810          47.000    25200055.116   101470347.655        -617.379          51.000  
S31  40693529.947   213845880.026        -801.587          44.000  
S33  41644992.729   218845826.998        -802.397          42.000  
E03  27400308.429   143989577.722       -3017.596          46.000    27400320.485   110329710.425       -2312.269          49.000  
R15  22490837.788   120184603.307       -3137.207          52.000    22490839.751    93476773.982       -2439.966          49.000  
R17  25783859.196   137974647.872        1952.126          47.000    25783867.158   107313681.829        1518.513          46.000  
E07  27395653.504   143965241.955        1456.298          46.000    27395661.103   110311060.502        1115.789          48.000  
G05  24837510.404   130521846.724       -3471.212          44.000    24837522.590   101705363.393       -2704.969          44.000  
G30  25507214.419   134041462.471       -3155.255          40.000    25507222.581   104447998.771       -2458.459          41.000  
E30  26064500.919   136970262.137         627.538          49.000    26064508.792   104951488.135         480.850          51.000  
G14  23891061.485   125548589.373       -3608.321          49.000    23891062.664    97830231.573       -2811.747          45.000  
E02  25535583.390   134190652.820       -1953.485          48.000    25535587.995   102821595.386       -1496.699          52.000  
G22  22326998.568   117329530.521       -2094.752          47.000                                                                  
G17  23857668.031   125373187.807         688.566          46.000    23857671.237    97693580.194         536.577          43.000  
E25  29209600.672   153497695.233       -3440.615          36.000    29209612.202   117615237.265       -2636.458          47.000  
E18  21912093.683   115149179.780        -759.261          46.000                                                                  
> 2024 04 16 21 20 30.0060000  0 25                     
G13  21968241.686   115443998.334        -501.656          46.000                                                                  
G15  23269857.612   122283975.880        1144.384          47.000    23269859.217    95286258.468         891.823          46.000  
G19  24150416.676   126911653.279        1583.091          46.000                                                                  
G24  25546914.694   134250025.080        1309.857          43.000    25546920.903   104610489.816        1020.703          44.000  
R05  21412777.169   114463806.929       -2726.356          53.000    21412779.827    89027288.864       -2120.521          51.000  
R16  22006009.642   117552278.783        -190.492          52.000    22006011.788    91429932.539        -148.145          49.000  
R04  24739127.159   132476775.454       -5161.161          48.000    24739143.769   103037410.999       -4014.366          47.000  
R06  22945026.583   122439137.354        2108.775          41.000                                                                  
E08  25204680.304   132451640.950        -815.976          47.000    25204683.916   101488985.850        -625.286          51.000  
S31  40698104.110   213869916.862        -800.947          44.000  
S33  41649570.866   218869885.085        -801.816          42.000  
E03  27417553.702   144080208.774       -3024.409          44.000    27417567.254   110399154.820       -2317.527          49.000  
R15  22508463.952   120278794.766       -3142.236          53.000    22508465.503    93550034.058       -2444.104          49.000  
R17  25772936.408   137916201.658        1944.012          47.000    25772944.728   107268223.989        1511.884          47.000  
E07  27387350.440   143921609.808        1452.533          45.000    27387358.082   110277628.178        1113.039          48.000  
G05  24857347.330   130626086.702       -3478.171          44.000    24857359.292   101786588.947       -2710.295          44.000  
G30  25525230.792   134136142.142       -3156.781          38.000    25525239.927   104521775.094       -2459.784          40.000  
E30  26060943.594   136951572.913         618.358          48.000    26060951.820   104937167.979         473.813          51.000  
G14  23911679.860   125656939.750       -3615.117          47.000    23911680.625    97914660.439       -2817.269          43.000  
E02  25546757.059   134249370.922       -1961.296          48.000    25546761.497   102866587.244       -1502.810          52.000  
G22  22339000.268   117392599.148       -2109.951          45.000                                                                  
G17  23853783.223   125352773.796         672.287          48.000    23853786.239    97677673.358         523.865          43.000  
E25  29229241.419   153600913.401       -3440.665          34.000    29229253.679   117694326.580       -2636.305          46.000  
E18  21916519.890   115172435.634        -791.121          47.000                                                                  
R09                                                                  25534885.199                3       1598.638          14.000  
> 2024 04 16 21 21 00.0060000  0 24                     
G13  21971146.769   115459264.630        -516.099          45.000                                                                  
G15  23263358.303   122249820.825        1132.773          48.000    23263359.589    95259644.226         882.578          45.000  
G19  24141409.545   126864321.978        1572.571          46.000                                                                  
G24  25539434.665   134210718.712        1310.492          43.000    25539440.604   104579861.685        1021.106          43.000  
R05  21428142.843   114545949.181       -2749.789          52.000    21428146.593    89091177.222       -2138.639          51.000  
R16  22007115.117   117558183.706        -203.098          52.000    22007116.330    91434525.396        -157.968          48.000  
R04  24768058.694   132631703.202       -5167.097          46.000    24768076.761   103157908.939       -4018.874          47.000  
R06  22933219.588   122376131.358        2092.066          41.000                                                                  
E08  25209367.885   132476277.172        -826.211          47.000    25209372.173   101507862.953        -633.062          51.000  
S31  40702674.432   213893934.003        -800.124          44.000  
S33  41654145.330   218893923.457        -800.757          43.000  
E03  27434841.000   144171046.454       -3031.268          45.000    27434853.248   110468757.540       -2322.607          50.000  
R15  22526118.668   120373135.930       -3147.150          52.000    22526120.003    93623410.508       -2447.778          49.000  
R17  25762060.066   137858009.031        1935.498          45.000    25762069.103   107222963.352        1505.469          46.000  
E07  27379068.127   143878090.449        1448.832          45.000    27379076.544   110244282.284        1110.205          49.000  
G05  24877224.010   130730535.988       -3485.068          45.000    24877236.352   101867977.580       -2715.603          43.000  
G30  25543256.361   134230861.715       -3157.770          39.000    25543264.659   104595582.488       -2460.583          41.000  
E30  26057439.847   136933158.180         609.483          49.000    26057447.348   104923058.145         466.914          51.000  
G14  23932336.636   125765492.581       -3621.622          47.000    23932337.286    97999247.052       -2822.265          43.000  
E02  25557976.506   134308327.616       -1969.127          48.000    25557980.490   102911761.891       -1508.736          52.000  
G22  22351087.917   117456121.484       -2124.905          46.000                                                                  
G17  23849992.045   125332849.510         656.111          48.000    23849994.144    97662148.091         511.175          43.000  
E25  29248882.823   153704126.078       -3440.301          33.000    29248894.341   117773411.636       -2635.935          45.000  
E18  21921126.823   115196648.789        -822.955          47.000                                                                  
> 2024 04 16 21 21 30.0060000  0 24                     
G13  21974134.475   115474960.259        -530.533          46.000                                                                  
G15  23256924.725   122216009.328        1121.138          48.000    23256924.264    95233297.707         873.817          44.000  
G19  24132463.007   126817307.388        1561.657          46.000                                                                  
G24  25531950.696   134171390.151        1311.194          42.000    25531956.485   104549216.262        1021.619          44.000  
R05  21443640.877   114628790.546       -2773.136          52.000    21443643.651    89155609.337       -2156.938          50.000  
R16  22008289.974   117564460.915        -215.642          52.000    22008291.162    91439407.815        -167.685          48.000  
R04  24797024.995   132786801.057       -5172.894          48.000    24797041.539   103278539.154       -4023.364          46.000  
R06  22921507.393   122313637.981        2074.351          38.000                                                                  
E08  25214114.271   132501219.616        -836.722          47.000    25214118.407   101526974.694        -641.123          51.000  
S31  40707239.593   213917924.299        -799.385          44.000  
S33  41658714.609   218917934.207        -800.040          43.000  
E03  27452164.317   144262083.771       -3038.089          45.000    27452176.858   110538513.247       -2327.834          50.000  
R15  22543800.402   120467618.267       -3151.892          53.000    22543801.198    93696896.760       -2451.562          49.000  
R17  25751233.234   137800068.056        1926.904          49.000    25751241.343   107177898.487        1498.688          46.000  
E07  27370807.331   143834679.080        1445.131          44.000    27370815.587   110211019.139        1107.360          49.000  
G05  24897138.420   130835185.301       -3491.980          45.000    24897149.797   101949522.138       -2720.797          42.000  
G30  25561286.771   134325614.923       -3159.155          38.000    25561294.252   104669416.090       -2461.359          38.000  
E30  26053986.301   136915011.717         600.322          48.000    26053994.311   104909153.859         459.896          51.000  
G14  23953030.881   125874239.089       -3628.206          47.000    23953031.588    98083984.580       -2827.186          44.000  
E02  25569239.849   134367515.189       -1976.964          48.000    25569243.534   102957113.435       -1514.781          52.000  
G22  22363261.408   117520089.101       -2139.871          47.000                                                                  
G17  23846293.084   125313410.695         639.676          47.000    23846295.658    97647001.134         498.436          44.000  
E25  29268518.757                       -3440.483          31.000    29268532.724   117852486.681       -2635.743          45.000  
E18  21925914.462   115221813.312        -854.890          46.000                                                                  
> 2024 04 16 21 22 00.0060000  0 24                     
G13  21977203.454   115491087.946        -545.040          46.000                                                                  
G15  23250556.385   122182544.949        1109.255          47.000    23250555.705    95207221.679         864.480          45.000  
G19  24123577.677   126770614.043        1550.725          46.000                                                                  
G24  25524462.544   134132040.825        1311.670          42.000    25524468.298   104518554.627        1022.296          43.000  
R05  21459267.643   114712330.311       -2796.546          52.000    21459270.876    89220584.611       -2175.089          50.000  
R16  22009533.714   117571110.577        -228.121          51.000    22009536.236    91444579.903        -177.425          48.000  
R04  24826020.255   132942067.114       -5178.496          47.000    24826038.137   103399300.145       -4027.649          47.000  
R06  22909892.029   122251662.489        2057.139          37.000                                                                  
E08  25218919.110   132526470.537        -847.072          47.000    25218923.353   101546322.812        -649.055          51.000  
S31  40711800.002   213941889.367        -798.713          44.000  
S33  41663279.110   218941919.944        -799.448          42.000  
E03  27469526.617   144353321.551       -3044.722          45.000    27469538.930   110608422.571       -2333.126          49.000  
R15  22561507.544   120562240.668       -3156.671          53.000    22561508.999    93770491.931       -2455.261          49.000  
R17  25740453.899   137742384.611        1918.195          48.000    25740461.421   107133033.914        1491.803          44.000  
E07  27362567.557   143791378.708        1441.079          44.000    27362575.683   110177841.040        1104.284          49.000  
G05  24917091.023   130940032.508       -3498.407          45.000    24917102.543   102031220.847       -2725.975          41.000  
G30  25579325.183   134420403.225       -3160.614          40.000    25579330.926   104743277.108       -2463.037          37.000  
E30  26050583.881   136897135.052         591.041          47.000    26050591.899   104895456.299         453.051          51.000  
G14  23973761.763   125983178.304       -3634.746          47.000    23973762.954    98168872.253       -2832.367          45.000  
E02  25580546.516   134426933.770       -1984.776          48.000    25580550.474   103002641.980       -1520.689          52.000  
G22  22375518.997   117584501.649       -2154.737          48.000                                                                  
G17  23842685.916   125294461.328         623.155          48.000    23842689.432    97632235.575         485.592          44.000  
E25  29288151.293                       -3439.824          29.000    29288168.664   117931551.849       -2635.665          46.000  
E18  21930883.154   115247930.998        -886.790          46.000                                                                  
> 2024 04 16 21 22 30.0060000  0 24                     
G13  21980355.415   115507653.249        -559.858          46.000                                                                  
G15  23244255.025   122149433.979        1097.571          46.000    23244254.362    95181421.017         855.260          44.000  
G19  24114753.897   126724248.971        1539.766          46.000                                                                  
G24  25516971.139   134092674.732        1312.134          42.000    25516976.393   104487879.948        1022.382          42.000  
R05  21475026.633   114796570.757       -2819.863          52.000    21475029.564    89286104.891       -2193.289          50.000  
R16  22010849.077   117578135.034        -240.518          52.000    22010851.889    91450043.489        -186.950          49.000  
R04  24855047.781   133097501.989       -5184.100          48.000    24855066.626   103520192.453       -4032.067          46.000  
R06  22898375.865   122190212.642        2039.593          39.000                                                                  
E08  25223784.122   132552034.588        -857.452          47.000    25223787.931   101565910.866        -657.092          50.000  
S31  40716356.121   213965833.195        -797.952          44.000  
S33  41667839.326   218965885.534        -798.466          42.000  
E03  27486928.076   144444763.001       -3051.706          46.000    27486940.083   110678487.946       -2338.239          49.000  
R15  22579241.132   120657004.769       -3161.371          52.000    22579242.572    93844197.334       -2458.722          49.000  
R17  25729723.520   137684967.069        1909.290          47.000    25729731.597   107088376.225        1484.949          44.000  
E07  27354350.160   143748194.714        1437.365          44.000    27354358.157   110144752.129        1101.270          50.000  
G05  24937081.405   131045078.289       -3504.834          45.000    24937092.926   102113074.303       -2731.299          40.000  
G30  25597371.883   134515230.460       -3161.737          41.000    25597377.094   104817168.365       -2463.379          38.000  
E30  26047235.276   136879532.150         582.084          48.000    26047241.906   104881968.514         445.967          51.000  
G14  23994528.979   126092311.677       -3641.155          46.000    23994530.054    98253911.227       -2837.302          45.000  
E02  25591897.544   134486585.864       -1992.463          47.000    25591901.940   103048349.451       -1526.688          52.000  
G22  22387860.416   117649361.174       -2169.538          48.000                                                                  
G17  23839175.026   125276007.997         606.637          48.000    23839177.374    97617856.544         472.663          45.000  
E25  29307790.821   154013688.798       -3439.296          32.000    29307802.410   118010609.139       -2635.181          46.000  
E18  21936035.308   115275006.009        -918.606          46.000                                                                  
> 2024 04 16 21 23 00.0060000  0 24                     
G13  21983591.480   115524657.374        -574.165          47.000                                                                  
G15  23238022.290   122116678.626        1085.828          47.000    23238021.711    95155897.466         846.033          44.000  
G19  24105993.582   126678215.646        1528.770          46.000                                                                  
G24  25509476.891   134053292.184        1312.952          43.000    25509481.947   104457192.467        1022.955          43.000  
R05  21490916.950   114881509.785       -2843.031          52.000    21490919.382    89352168.499       -2211.194          50.000  
R16  22012234.752   117585533.294        -252.908          52.000    22012236.418    91455797.815        -196.675          49.000  
R04  24884106.387   133253102.149       -5189.480          49.000    24884125.419   103641213.281       -4036.321          46.000  
R06  22886959.162   122129292.683        2021.941          40.000                                                                  
E08  25228708.587   132577912.739        -867.992          48.000    25228712.650   101585739.586        -665.081          51.000  
S31  40720908.419   213989755.308        -796.990          44.000  
S33  41672395.533   218989828.989        -797.997          43.000  
E03  27504367.400   144536407.685       -3058.218          46.000    27504379.373   110748709.041       -2343.452          49.000  
R15  22597001.255   120751908.571       -3165.814          52.000    22597002.323    93918011.392       -2462.445          49.000  
R17  25719045.178   137627820.242        1900.269          49.000    25719052.051   107043929.031        1477.869          43.000  
E07  27346154.338   143705128.899        1433.434          44.000    27346162.853   110111753.778        1098.381          50.000  
G05  24957107.886   131150319.909       -3511.437          44.000    24957119.439   102195080.299       -2735.892          39.000  
G30  25615423.707   134610096.855       -3163.122          39.000    25615428.473   104891090.220       -2464.844          37.000  
E30  26043937.707   136862203.223         572.977          48.000    26043944.574   104868690.649         438.982          51.000  
G14  24015332.450   126201637.059       -3647.433          46.000    24015333.598    98339099.845       -2841.954          45.000  
E02  25603292.697   134546470.293       -2000.224          46.000    25603297.772   103094234.937       -1532.569          53.000  
G22  22400287.780   117714665.751       -2184.297          49.000                                                                  
G17  23835757.051   125258052.327         590.128          47.000    23835760.701    97603865.332         459.630          45.000  
E25  29327422.032   154116853.920       -3438.643          34.000    29327434.131   118089657.817       -2634.843          46.000  
E18  21941369.576   115303038.807        -950.563          45.000                                                                  
> 2024 04 16 21 23 30.0060000  0 24                     
G13  21986911.260   115542103.647        -588.908          47.000                                                                  
G15  23231857.654   122084282.823        1073.804          48.000    23231857.165    95130654.070         836.908          45.000  
G19  24097297.375   126632518.587        1517.585          46.000                                                                  
G24  25501979.936   134013895.002        1313.440          42.000    25501985.121   104426493.556        1023.529          43.000  
R05  21506937.073   114967147.249       -2866.173          52.000    21506939.893    89418775.335       -2229.272          50.000  
R16  22013688.590   117593305.595        -265.313          52.000    22013690.907    91461843.073        -206.348          48.000  
R04  24913195.842   133408865.636       -5194.704          49.000    24913214.904   103762361.113       -4040.387          46.000  
R06  22875644.496   122068908.455        2004.089          41.000                                                                  
E08  25233693.879   132604107.471        -878.397          48.000    25233697.373   101605810.891        -673.134          51.000  
S31  40725457.080   214013658.862        -796.479          45.000  
S33  41676948.201   219013753.342        -797.395          42.000  
E03  27521846.247   144628256.698       -3065.040          46.000    27521857.467   110819086.661       -2348.684          49.000  
R15  22614787.683   120846951.694       -3170.398          52.000    22614788.390    93991933.783       -2465.845          50.000  
R17  25708417.965   137570949.967        1891.040          48.000    25708424.305   106999696.969        1470.715          44.000  
E07  27337982.145   143662184.580        1429.400          43.000    27337990.645   110078848.512        1095.323          50.000  
G05  24977173.067   131255756.272       -3517.780          44.000    24977182.684   102277238.044       -2741.040          39.000  
G30  25633483.800   134705004.152       -3164.044          39.000    25633489.750   104965043.947       -2465.375          39.000  
E30  26040692.307   136845150.170         563.859          48.000    26040699.364   104855624.185         431.946          51.000  
G14  24036172.634   126311153.789       -3653.898          46.000    24036173.850    98424437.566       -2847.047          44.000  
E02  25614732.006   134606587.381       -2007.849          46.000    25614737.695   103140298.731       -1538.475          53.000  
G22  22412799.071   117780415.248       -2198.992          48.000                                                                  
G17  23832436.144   125240598.846         573.411          48.000    23832439.348    97590265.366         446.942          45.000  
E25  29347052.128   154220008.371       -3438.205          33.000    29347063.569   118168698.325       -2634.565          47.000  
E18  21946887.357   115332031.208        -982.448          46.000                                                                  
> 2024 04 16 21 24 00.0060000  0 24                     
G13  21990316.176   115559997.653        -604.007          47.000                                                                  
G15  23225762.877   122052253.563        1061.432          48.000    23225762.252    95105696.275         827.161          45.000  
G19  24088666.135   126587165.314        1505.839          45.000                                                                  
G24  25494480.507   133974487.548        1313.739          42.000    25494486.008   104395786.661        1023.639          43.000  
R05  21523088.811   115053485.391       -2889.695          52.000    21523090.691    89485927.123       -2247.545          50.000  
R16  22015214.308   117601454.819        -278.076          52.000    22015216.265    91468181.472        -216.229          49.000  
R04  24942315.581   133564793.698       -5200.494          48.000    24942334.802   103883636.888       -4044.521          46.000  
R06  22864430.624   122009067.788        1985.614          41.000                                                                  
E08  25238739.054   132630623.829        -889.387          48.000    25238743.524   101626128.625        -681.486          51.000  
S31  40730002.669   214037547.039        -796.029          44.000  
S33  41681497.846   219037662.273        -796.965          42.000  
E03  27539364.143   144720313.605       -3072.288          47.000    27539374.804   110889623.588       -2354.025          48.000  
R15  22632599.179   120942135.715       -3175.201          51.000    22632600.952    94065965.763       -2469.690          50.000  
R17  25697842.613   137514365.087        1881.183          46.000    25697849.143   106955686.877        1463.135          44.000  
E07  27329833.762   143619367.555        1424.977          42.000    27329842.598   110046040.799        1091.849          50.000  
G05  24997273.333   131361388.156       -3524.288          42.000    24997285.011   102359548.191       -2746.345          40.000  
G30  25651549.626   134799956.622       -3166.272          35.000    25651560.282   105039032.855       -2466.895          40.000  
E30  26037500.209   136828377.265         554.226          48.000    26037507.494   104842772.359         424.624          52.000  
G14  24057049.682   126420863.703       -3660.335          45.000    24057051.339    98509925.831       -2852.236          45.000  
E02  25626216.181   134666939.999       -2015.872          46.000    25626222.461   103186542.983       -1544.582          53.000  
G22  22425395.817   117846611.868       -2214.209          48.000                                                                  
G17  23829211.530   125223654.086         556.163          47.000    23829214.494    97577061.859         433.560          45.000  
E25  29366685.132   154323155.146       -3437.980          33.000    29366691.561   118247732.897       -2634.499          47.000  
E18  21952588.923   115361987.660       -1014.816          48.000                                                                  
> 2024 04 16 21 24 30.0060000  0 24                     
G13  21993807.361   115578344.158        -618.940          46.000                                                                  
G15  23219738.438   122020595.920        1049.193          49.000    23219738.307    95081028.083         817.594          45.000  
G19  24080102.964   126542162.093        1494.447          46.000                                                                  
G24  25486979.927   133935073.321        1313.922          42.000    25486985.812   104365074.477        1023.883          44.000  
R05  21539371.858   115140525.349       -2912.896          53.000    21539373.246    89553624.763       -2265.543          50.000  
R16  22016810.854   117609982.792        -290.432          53.000    22016813.303    91474814.454        -225.986          50.000  
R04  24971465.441   133720886.113       -5205.620          47.000    24971484.794   104005040.516       -4048.867          46.000  
R06  22853318.204   121949778.178        1967.271          41.000                                                                  
E08  25243847.238   132657465.936        -900.052          49.000    25243851.223   101646695.974        -689.674          51.000  
S31  40734546.066   214061422.890        -795.612          45.000  
S33  41686045.202   219061560.631        -796.189          43.000  
E03  27556921.482   144812581.119       -3079.077          45.000    27556932.737   110960321.900       -2359.250          48.000  
R15  22650438.712   121037462.159       -3179.767          53.000    22650441.174    94140108.518       -2473.102          50.000  
R17  25687323.261   137458073.417        1871.588          48.000    25687329.496   106911904.848        1455.762          44.000  
E07  27321711.090   143576682.781        1420.947          42.000    27321719.643   110013334.416        1088.626          50.000  
G05  25017410.881   131467216.162       -3530.770          40.000    25017422.583   102442011.060       -2751.174          38.000  
G30  25669630.733   134894957.637       -3167.609          41.000    25669636.799   105113059.627       -2468.164          37.000  
E30  26034362.352   136811887.908         545.060          48.000    26034369.495   104830137.788         417.652          52.000  
G14  24077963.064   126530767.815       -3666.498          44.000    24077965.730    98595565.398       -2857.179          45.000  
E02  25637746.865   134727530.188       -2023.532          47.000    25637752.527   103232969.259       -1550.469          53.000  
G22  22438078.077   117913257.350       -2228.772          48.000                                                                  
G17  23826084.627   125207223.700         539.203          49.000    23826086.891    97564259.158         420.211          44.000  
E25  29386303.495   154426296.470       -3437.671          32.000    29386318.460   118326763.248       -2633.956          46.000  
E18  21958473.642   115392911.537       -1046.760          48.000                                                                  
> 2024 04 16 21 25 00.0060000  0 24                     
G13  21997383.347   115597137.873        -634.120          46.000                                                                  
G15  23213782.957   121989305.256        1036.683          48.000    23213783.903    95056645.821         807.839          45.000  
G19  24071605.251   126497505.245        1482.403          46.000                                                                  
G24  25479476.153   133895645.674        1313.985          43.000    25479483.302   104334351.865        1024.121          44.000  
R05  21555784.365   115228258.547       -2936.235          53.000    21555786.290    89621861.621       -2283.634          50.000  
R16  22018476.441   117618881.395        -303.006          53.000    22018479.162    91481735.701        -235.627          49.000  
R04  25000644.375   133877132.342       -5211.027          46.000    25000663.700   104126563.750       -4053.008          46.000  
R06  22842309.811   121891036.484        1948.292          41.000                                                                  
E08  25249016.213   132684627.756        -910.916          49.000    25249019.716   101667508.297        -697.991          51.000  
S31  40739086.380   214085281.579        -795.432          44.000  
S33  41690589.765   219085439.878        -795.604          43.000  
E03  27574517.654   144905051.830       -3086.080          44.000    27574529.675   111031175.879       -2364.646          48.000  
R15  22668302.894   121132921.580       -3184.411          52.000    22668304.683    94214354.724       -2476.758          49.000  
R17  25676858.616   137402072.566        1861.627          50.000    25676863.030   106868348.975        1447.931          43.000  
E07  27313612.609   143534125.113        1416.223          43.000    27313621.049   109980725.425        1085.083          50.000  
G05  25037585.357   131573229.977       -3537.075          41.000    25037595.225   102524618.836       -2756.628          37.000  
G30  25687716.582   134990000.480       -3168.988          38.000    25687722.169   105187118.971       -2469.208          37.000  
E30  26031276.781   136795675.418         535.617          48.000    26031284.350   104817715.360         410.329          52.000  
G14  24098912.255   126640856.985       -3672.855          43.000    24098915.107    98681349.157       -2861.905          46.000  
E02  25649321.412   134788349.822       -2031.342          48.000    25649326.241   103279571.327       -1556.542          54.000  
G22  22450843.821   117980342.820       -2243.628          48.000                                                                  
G17  23823056.110   125191303.151         521.986          50.000    23823057.336    97551853.717         406.689          44.000  
E25  29405929.177   154529424.359       -3437.258          35.000    29405943.096   118405783.389       -2634.091          47.000  
E18  21964539.529   115424796.047       -1079.122          47.000                                                                  
> 2024 04 16 21 25 30.0070000  0 25                     
G13  22001046.345   115616386.612        -648.905          46.000                                                                  
G15  23207899.743   121958388.959        1024.421          48.000    23207900.983    95032555.276         798.126          45.000  
G19  24063174.045   126453202.384        1470.911          46.000                                                                  
G24  25471970.741   133856209.389        1314.792          42.000    25471977.835   104303622.491        1024.686          43.000  
R05  21572328.081   115316691.354       -2959.082          53.000    21572329.852    89690642.599       -2301.561          50.000  
R16  22020212.283   117628155.589        -315.211          52.000    22020215.314    91488949.071        -245.187          50.000  
R04  25029853.366   134033540.184       -5215.813          47.000    25029873.767   104248212.705       -4056.815          47.000  
R06  22831406.556   121832850.550        1930.139          42.000                                                                  
E08  25254247.561   132712116.942        -921.505          49.000    25254250.764   101688571.473        -706.110          51.000  
S31  40743624.405   214109128.010        -794.363          45.000  
S33  41695131.200   219109307.701        -795.288          42.000  
E03  27592154.988   144997734.047       -3092.564          45.000    27592166.700   111102191.943       -2369.650          48.000  
R15  22686192.113   121228521.341       -3188.703          52.000    22686194.507    94288710.047       -2480.140          49.000  
R17  25666448.572   137346370.915        1851.789          49.000    25666453.830   106825025.764        1440.344          43.000  
E07  27305538.477   143491700.611        1411.872          42.000    27305547.797   109948218.462        1081.947          50.000  
G05  25057796.752   131679436.231       -3542.944          42.000    25057806.304   102607376.524       -2760.782          37.000  
G30  25705812.602   135085094.376       -3170.738          38.000    25705817.542   105261218.037       -2470.516          36.000  
E30  26028245.808   136779745.239         526.445          49.000    26028253.050   104805509.252         403.356          52.000  
G14  24119898.463   126751138.486       -3678.915          44.000    24119900.761    98767282.767       -2866.754          46.000  
E02  25660939.276   134849405.482       -2038.847          47.000    25660944.461   103326354.257       -1562.166          53.000  
G22  22463694.631   118047874.458       -2258.235          47.000                                                                  
G17  23820124.619   125175900.075         504.978          49.000    23820126.443    97539851.501         393.345          45.000  
E25  29425558.173   154632546.973       -3437.452          37.000    29425566.665   118484799.437       -2633.572          47.000  
E18  21970790.645   115457648.148       -1111.107          47.000                                                                  
R09                                                                  25419842.861                3       1238.684          11.000  
> 2024 04 16 21 26 00.0070000  0 25                     
G13  22004792.992   115636078.977        -663.866          46.000                                                                  
G15  23202087.417   121927839.947        1012.097          48.000    23202087.946    95008750.905         788.668          45.000  
G19  24054810.447   126409248.208        1459.246          47.000                                                                  
G24  25464463.124   133816756.002        1315.521          42.000    25464469.642   104272879.818        1024.765          42.000  
R05  21588998.280   115405804.227       -2981.860          52.000    21589000.282    89759952.533       -2319.240          50.000  
R16  22022016.222   117637791.686        -327.233          52.000    22022018.861    91496443.927        -254.504          50.000  
R04  25059088.483   134190084.165       -5220.557          48.000    25059109.690   104369967.534       -4060.314          46.000  
R06  22820606.000   121775216.795        1911.658          42.000                                                                  
E08  25259538.244   132739921.051        -932.160          49.000    25259541.756   101709875.946        -714.239          51.000  
S31  40748157.159   214132949.815        -794.034          44.000  
S33  41699668.822   219133151.283        -794.247          42.000  
E03  27609829.147   145090609.684       -3099.358          45.000    27609841.247   111173356.221       -2374.743          48.000  
R15  22704105.460   121324240.896       -3192.785          52.000    22704107.382    94363158.611       -2483.307          50.000  
R17  25656093.694   137290965.345        1841.791          46.000    25656099.398   106781932.818        1432.440          43.000  
E07  27297489.639   143449402.456        1407.622          43.000    27297498.505   109915808.320        1078.672          50.000  
G05  25078040.313   131785813.613       -3549.033          42.000    25078049.526   102690267.551       -2765.355          36.000  
G30  25723914.081   135180221.547       -3171.027          37.000    25723919.757   105335343.167       -2471.262          36.000  
E30  26025265.624   136764087.215         517.198          49.000    26025273.588   104793511.679         396.319          52.000  
G14  24140917.595   126861591.304       -3684.720          44.000    24140918.817    98853349.923       -2871.112          46.000  
E02  25672598.634   134910680.483       -2046.302          47.000    25672604.470   103373305.275       -1567.976          53.000  
G22  22476627.314   118115834.355       -2272.614          48.000                                                                  
G17  23817289.885   125161006.263         487.917          48.000    23817291.548    97528246.110         380.248          44.000  
E25  29445176.322   154735644.997       -3436.344          37.000    29445185.391   118563796.734       -2632.984          46.000  
E18  21977224.706   115491454.293       -1142.831          48.000                                                                  
R09                                                                  25109789.390                3       1249.580          10.000  
> 2024 04 16 21 26 30.0070000  0 26                     
G13  22008625.678   115656220.181        -678.784          46.000                                                                  
G15  23196344.767   121897662.681         999.663          48.000    23196345.209    94985236.228         779.022          45.000  
G19  24046512.687   126365647.339        1447.555          45.000                                                                  
G24  25456952.827   133777287.464        1315.690          43.000    25456958.228   104242125.294        1025.268          42.000  
R09  25097503.169                3       2165.897          14.000                                                                  
R05  21605795.938   115495601.379       -3004.650          52.000    21605799.335    89829794.642       -2336.885          50.000  
R16  22023888.839   117647792.084        -339.432          53.000    22023890.372    91504222.128        -263.929          49.000  
R04  25088350.076   134346769.696       -5225.104          48.000    25088371.078   104491832.476       -4063.899          46.000  
R06  22809909.942   121718140.294        1893.268          42.000                                                                  
E08  25264889.924   132768044.889        -942.681          49.000    25264893.536   101731425.402        -722.391          51.000  
S31  40752686.763   214156751.608        -793.029          45.000  
S33  41704201.912   219156974.741        -793.913          42.000  
E03  27627539.743   145183684.266       -3105.878          44.000    27627552.913   111244672.917       -2379.723          49.000  
R15  22722041.968   121420084.706       -3196.889          52.000    22722043.633    94437703.818       -2486.439          50.000  
R17  25645795.939   137235861.411        1831.682          47.000    25645801.910   106739074.419        1424.639          45.000  
E07  27289465.369   143407233.980        1403.455          43.000    27289473.948   109883497.549        1075.392          49.000  
G05  25098318.322   131892365.095       -3554.688          42.000    25098326.097   102773294.209       -2769.473          37.000  
G30  25742024.766   135275388.596       -3172.845          39.000    25742030.816   105409499.281       -2472.395          38.000  
E30  26022338.819   136748703.991         508.196          49.000    26022345.902   104781724.652         389.510          52.000  
G14  24161969.239   126972219.916       -3690.533          43.000    24161969.635    98939554.051       -2875.644          44.000  
E02  25684302.035   134972178.625       -2053.641          47.000    25684307.149   103420427.256       -1573.521          53.000  
G22  22489641.993   118184226.172       -2286.939          48.000                                                                  
G17  23814552.556   125146626.679         470.609          47.000    23814554.739    97517041.409         366.805          44.000  
E25  29464790.638   154838723.966       -3436.051          38.000    29464800.319   118642779.371       -2632.510          46.000  
E18  21983840.209   115526218.501       -1174.817          48.000                                                                  
G12                                                                  26593534.228                3       1871.702          26.000  
> 2024 04 16 21 27 00.0070000  0 25                     
G13  22012544.290   115676809.243        -694.071          47.000                                                                  
G15  23190672.474   121867856.790         987.164          48.000    23190673.503    94962010.922         769.305          46.000  
G19  24038283.211   126322400.597        1435.424          46.000                                                                  
G24  25449438.587   133737801.572        1316.320          43.000    25449443.377   104211357.244        1025.738          42.000  
R05  21622721.347   115586077.961       -3027.340          52.000    21622723.892    89900165.240       -2354.532          49.000  
R16  22025828.595   117658152.597        -351.487          53.000    22025829.211    91512280.389        -273.374          49.000  
R04  25117635.836   134503590.386       -5229.814          46.000    25117657.720   104613802.542       -4067.314          46.000  
R06  22799318.522   121661622.363        1874.127          42.000                                                                  
E08  25270302.818   132796486.839        -953.615          49.000    25270305.729   101753218.603        -730.660          50.000  
S31  40757211.335   214180529.721        -792.342          45.000  
S33  41708731.036   219180773.288        -792.969          42.000  
E03  27645288.736   145276954.787       -3112.520          45.000    27645301.936   111316139.761       -2384.869          48.000  
R15  22740000.085   121516048.478       -3200.941          52.000    22740001.476    94512342.298       -2489.613          49.000  
R17  25635554.137   137181061.344        1821.250          46.000    25635561.624   106696452.426        1416.475          44.000  
E07  27281465.653   143365194.440        1398.954          43.000    27281473.895   109851285.586        1071.946          49.000  
G05  25118627.046   131999085.743       -3560.396          41.000    25118635.706   102856452.703       -2774.406          38.000  
G30  25760139.667   135370593.062       -3174.367          38.000    25760147.659   105483684.605       -2473.402          38.000  
E30  26019463.486   136733593.237         498.917          50.000    26019470.201   104770146.410         382.341          52.000  
G14  24183053.186   127083019.664       -3696.026          42.000    24183054.833    99025891.537       -2880.145          45.000  
E02  25696046.686   135033896.235       -2061.108          48.000    25696051.328   103467717.411       -1579.232          53.000  
G22  22502737.486   118253045.661       -2301.228          49.000                                                                  
G17  23811913.775   125132761.142         453.484          47.000    23811916.132    97506237.247         353.344          44.000  
E25  29484402.142   154941780.222       -3434.872          38.000    29484411.413   118721744.649       -2631.949          46.000  
E18  21990636.560   115561938.124       -1206.740          47.000                                                                  
G12                                                                  26579833.111                3       1865.297          25.000  
> 2024 04 16 21 27 30.0070000  0 25                     
G13  22016548.312   115697849.279        -709.054          47.000                                                                  
G15  23185071.462   121838425.660         974.570          48.000    23185072.998    94939077.615         759.188          46.000  
G19  24030121.946   126279511.961        1423.474          46.000                                                                  
G24  25441921.544   133698299.810        1316.702          43.000    25441926.406   104180576.854        1026.000          41.000  
R05  21639774.150   115677232.935       -3049.983          52.000    21639776.158    89971063.454       -2372.310          49.000  
R16  22027835.491   117668873.248        -363.566          53.000    22027836.974    91520618.741        -282.768          50.000  
R04  25146945.819   134660544.319       -5234.170          45.000    25146969.346   104735876.215       -4070.882          45.000  
R06  22788833.018   121605668.057        1855.298          42.000                                                                  
E08  25275774.974   132825248.921        -964.282          48.000    25275778.690   101775257.107        -738.904          50.000  
S31  40761732.209   214204287.297        -791.760          45.000  
S33  41713255.558   219204551.834        -792.183          42.000  
E03  27663075.642   145370421.832       -3119.019          45.000    27663088.185   111387757.184       -2389.828          48.000  
R15  22757980.710   121612130.786       -3204.865          52.000    22757982.129    94587072.978       -2492.695          49.000  
R17  25625373.032   137126570.682        1810.955          48.000    25625378.319   106654070.962        1408.531          44.000  
E07  27273491.406   143323286.735        1394.471          44.000    27273498.973   109819174.635        1068.509          50.000  
G05  25138967.562   132105973.571       -3566.151          38.000    25138976.090   102939741.438       -2778.807          38.000  
G30  25778264.219   135465836.389       -3175.647          40.000    25778271.650   105557900.193       -2475.061          37.000  
E30  26016640.615   136718756.285         489.894          50.000    26016646.732   104758777.958         375.338          52.000  
G14  24204169.443   127193989.554       -3702.024          40.000    24204172.832    99112361.571       -2884.651          46.000  
E02  25707833.497   135095833.214       -2068.315          48.000    25707837.317   103515175.652       -1584.903          53.000  
G22  22515914.322   118322291.675       -2315.560          48.000                                                                  
G17  23809374.526   125119413.128         436.096          48.000    23809376.284    97495836.385         339.816          45.000  
E25  29504006.940   155044814.124       -3434.226          36.000    29504018.005   118800692.781       -2631.569          46.000  
E18  21997614.550   115598614.122       -1238.651          46.000                                                                  
G12                                                                  26566169.931                3       1867.576          19.000  
> 2024 04 16 21 28 00.0070000  0 25                     
G13  22020640.648   115719351.412        -724.244          48.000                                                                  
G15  23179544.894   121809382.096         961.656          48.000    23179546.051    94916446.302         749.459          45.000  
G19  24022030.975   126236995.288        1411.100          47.000                                                                  
G24  25434404.041   133658793.109        1317.157          44.000    25434409.266   104149792.600        1026.542          42.000  
R05  21656954.568   115769075.090       -3072.726          52.000    21656957.237    90042496.133       -2389.821          49.000  
R16  22029911.112   117679963.245        -375.786          53.000    22029913.778    91529244.399        -292.239          51.000  
R04  25176283.928   134817638.789       -5238.596          44.000    25176306.338   104858059.283       -4074.372          45.000  
R06  22778454.840   121550292.334        1836.402          42.000                                                                  
E08  25281310.657   132854342.537        -975.200          48.000    25281314.993   101797549.639        -747.171          50.000  
S31  40766250.707   214228033.274        -791.336          44.000  
S33  41717778.554   219228320.769        -791.938          43.000  
E03  27680900.929   145464095.407       -3125.702          45.000    27680913.734   111459532.865       -2395.068          48.000  
R15  22775984.602   121708340.617       -3208.967          51.000    22775986.310    94661902.849       -2495.789          50.000  
R17  25615250.270   137072404.642        1800.089          47.000    25615255.832   106611942.028        1400.010          45.000  
E07  27265544.224   143281523.184        1389.782          44.000    27265551.383   109787174.142        1064.935          49.000  
G05  25159340.509   132213036.653       -3570.889          36.000    25159350.686   103023166.762       -2783.217          39.000  
G30  25796398.449   135561129.305       -3177.057          42.000    25796404.998   105632154.397       -2475.671          37.000  
E30  26013870.665   136704203.798         480.430          49.000    26013877.249   104747627.474         368.236          52.000  
G14  24225320.808   127305137.921       -3707.834          41.000    24225323.376    99198970.699       -2889.229          45.000  
E02  25719663.494   135157998.923       -2075.826          48.000    25719666.784   103562809.165       -1590.526          52.000  
G22  22529174.114   118391973.095       -2329.860          47.000                                                                  
G17  23806935.575   125106595.048         418.600          48.000    23806937.657    97485848.482         326.286          45.000  
E25  29523612.440   155147835.150       -3433.479          38.000    29523622.124   118879631.047       -2630.854          45.000  
E18  22004777.015   115636256.803       -1270.625          46.000                                                                  
G12                                                                  26552518.920                3       1857.490          23.000  
> 2024 04 16 21 28 30.0070000  0 25                     
G13  22024819.578   115741314.095        -740.002          48.000                                                                  
G15  23174091.904   121780725.507         948.506          48.000    23174092.845    94894116.567         739.031          45.000  
G19  24014010.546   126194850.676        1398.597          48.000                                                                  
G24  25426884.803   133619278.627        1317.244          44.000    25426890.339   104119002.281        1026.299          42.000  
R05  21674263.571   115861598.683       -3095.680          52.000    21674266.512    90114458.835       -2407.716          50.000  
R16  22032054.659   117691418.457        -388.052          52.000    22032058.050    91538154.082        -301.854          51.000  
R04  25205645.386   134974867.271       -5243.387          44.000    25205669.475   104980346.583       -4078.185          44.000  
R06  22768185.324   121495495.568        1816.519          41.000                                                                  
E08  25286910.087   132883765.348        -986.454          48.000    25286914.099   101820094.409        -755.821          50.000  
S31  40770767.328   214251766.794        -791.060          45.000  
S33  41722298.657   219252075.439        -791.873          42.000  
E03  27698765.926   145557971.797       -3132.721          46.000    27698778.117   111531463.944       -2400.418          48.000  
R15  22794012.065   121804672.614       -3213.287          52.000    22794014.081    94736827.728       -2499.243          50.000  
R17  25605187.931   137018564.637        1788.926          45.000    25605195.120   106570066.719        1391.405          46.000  
E07  27257624.024   143239902.356        1384.652          44.000    27257631.187   109755283.020        1061.091          50.000  
G05  25179744.954                       -3577.759          33.000    25179755.633   103106723.246       -2787.544          37.000  
G30  25814540.527   135656468.861       -3178.955          41.000    25814548.150   105706444.918       -2477.393          37.000  
E30  26011154.490   136689932.797         470.874          49.000    26011161.270   104736692.677         360.828          52.000  
G14  24246505.009   127416459.468       -3713.586          40.000    24246506.942    99285714.759       -2893.670          46.000  
E02  25731536.087   135220388.910       -2083.537          49.000    25731539.159   103610614.535       -1596.477          53.000  
G22  22542515.808   118462084.958       -2344.411          47.000                                                                  
G17  23804597.225   125094306.525         400.644          48.000    23804598.839    97476273.181         312.157          45.000  
E25  29543212.992   155250839.138       -3433.464          38.000    29543222.975   118958556.251       -2630.785          45.000  
E18  22012124.727   115674862.714       -1303.169          47.000                                                                  
G12                                                                  26538920.907                        1854.744          27.000  
> 2024 04 16 21 29 00.0070000  0 25                     
G13  22029087.452   115763740.158        -755.438          48.000                                                                  
G15  23168712.979   121752459.573         935.608          48.000    23168713.151    94872091.204         729.237          44.000  
G19  24006061.659   126153082.531        1385.493          46.000                                                                  
G24  25419364.727   133579758.155        1317.344          44.000    25419369.708   104088207.300        1026.620          42.000  
R05  21691698.807   115954803.071       -3118.149          51.000    21691701.941    90186951.040       -2425.217          50.000  
R16  22034267.403   117703238.405        -400.138          52.000    22034270.824    91547347.474        -311.209          51.000  
R04  25235033.116   135132227.763       -5247.558          45.000    25235056.734   105102736.605       -4081.442          45.000  
R06  22758025.518   121441283.004        1797.308          41.000                                                                  
E08  25292572.001   132913519.688        -997.444          48.000    25292576.090   101842893.209        -764.177          50.000  
S31  40775281.228   214275487.567        -790.418          44.000  
S33  41726817.098   219275816.820        -791.181          42.000  
E03  27716669.158   145652051.916       -3139.444          46.000    27716681.141   111603551.115       -2405.528          48.000  
R15  22812061.779   121901126.349       -3217.126          52.000    22812063.878    94811847.293       -2502.234          49.000  
R17  25595189.478   136965056.920        1778.014          48.000    25595195.541   106528449.788        1382.855          45.000  
E07  27249731.623   143198427.470        1380.099          43.000    27249738.771   109723503.745        1057.412          50.000  
G05  25200183.234   132427666.594       -3582.637          37.000    25200192.728   103190409.850       -2791.761          37.000  
G30  25832692.332   135751856.770       -3180.597          40.000    25832698.978   105780773.064       -2478.320          36.000  
E30  26008492.241   136675944.902         461.573          49.000    26008499.251   104725974.827         353.580          51.000  
G14  24267720.961   127527953.529       -3719.360          40.000    24267724.015    99372593.165       -2898.059          47.000  
E02  25743450.808   135283003.467       -2090.927          49.000    25743454.295   103658591.961       -1602.082          53.000  
G22  22555939.608   118532626.902       -2358.650          47.000                                                                  
G17  23802360.327   125082551.208         382.924          49.000    23802362.219    97467113.395         298.295          45.000  
E25  29562812.124   155353826.577       -3432.502          38.000    29562820.740   119037468.797       -2630.290          45.000  
E18  22019654.668   115714432.929       -1335.101          47.000                                                                  
G12                                                                  26525347.108                3       1855.704          22.000  
> 2024 04 16 21 29 30.0070000  0 25                     
G13  22033443.402   115786630.157        -770.584          48.000                                                                  
G15  23163409.145   121724585.914         922.718          49.000    23163408.496    94850371.521         719.198          44.000  
G19  23998185.632   126111693.164        1373.466          48.000                                                                  
G24  25411842.672   133540231.202        1317.911          45.000    25411847.740   104057407.280        1027.017          42.000  
R05  21709261.949   116048685.098       -3140.481          52.000    21709265.165    90259970.298       -2442.613          50.000  
R16  22036548.387   117715421.413        -411.934          53.000    22036550.472    91556823.239        -320.393          50.000  
R04  25264444.699   135289716.466       -5251.683          46.000    25264468.272   105225226.442       -4084.368          45.000  
R06  22747976.936   121387658.080        1777.800          42.000                                                                  
E08  25298297.509   132943605.524       -1008.304          48.000    25298301.382   101865946.008        -772.716          50.000  
S31  40779792.344   214299195.314        -789.935          44.000  
S33  41731332.641   219299546.853        -790.507          43.000  
E03  27734610.964   145746334.305       -3146.033          46.000    27734622.553   111675793.281       -2410.547          48.000  
R15  22830134.507   121997698.995       -3220.819          51.000    22830136.323    94886959.392       -2505.145          49.000  
R17  25585252.319   136911884.708        1766.925          47.000    25585258.409   106487093.855        1374.106          43.000  
E07  27241866.651   143157099.509        1375.395          43.000    27241874.067   109691837.045        1053.771          50.000  
G05  25220653.529   132535228.924       -3587.739          40.000    25220663.368   103274224.180       -2796.002          40.000  
G30  25850853.462   135847292.311       -3181.567          40.000    25850860.479   105855138.475       -2479.730          38.000  
E30  26005884.224   136662239.394         452.255          49.000    26005891.165   104715473.333         346.485          52.000  
G14  24288970.000   127639617.009       -3724.932          41.000    24288972.300    99459603.653       -2902.453          46.000  
E02  25755407.963   135345840.500       -2098.115          48.000    25755412.067   103706739.868       -1607.726          53.000  
G22  22569444.645   118603596.051       -2372.454          47.000                                                                  
G17  23800224.385   125071330.359         365.280          48.000    23800226.760    97458370.037         284.574          45.000  
E25  29582406.145   155456795.675       -3431.756          38.000    29582415.233   119116367.264       -2629.469          45.000  
E18  22027367.045   115754966.155       -1367.015          47.000                                                                  
G12                                                                  26511801.462                3       1845.474          24.000  
