     3.00           OBSERVATION DATA    M: Mixed            RINEX VERSION / TYPE
CONVBIN 2.4.3                           20240416 071441 UTC PGM / RUN BY / DATE 
format: u-blox UBX                                          COMMENT             
log: /home/regis/git/gnsspwv/obsdata/VERT00CHL/2024-04-16/VECOMMENT             
{self.marker}                                               MARKER NAME         
                                                            MARKER NUMBER       
GEODETIC                                                    MARKER TYPE         
{self.observer}     {self.institution}                      OBSERVER / AGENCY   
UNKNOWN             UBLOX-ZED-F9P                           REC # / TYPE / VERS 
UNKNOWN             TWIVSP6037L                             ANT # / TYPE        
  1713381.0000 -5047934.0000 -3490983.0000                  APPROX POSITION XYZ 
        0.0000        0.0000        0.0000                  ANTENNA: DELTA H/E/N
G    8 C1C L1C D1C S1C C2L L2L D2L S2L                      SYS / # / OBS TYPES 
R    8 C1C L1C D1C S1C C2C L2C D2C S2C                      SYS / # / OBS TYPES 
E    8 C1C L1C D1C S1C C7Q L7Q D7Q S7Q                      SYS / # / OBS TYPES 
S    4 C1C L1C D1C S1C                                      SYS / # / OBS TYPES 
  2024    04    16    07    00   00.0100000     GPS         TIME OF FIRST OBS   
  2024    04    16    07    14   30.0110000     GPS         TIME OF LAST OBS    
                                                            END OF HEADER       
> 2024 04 16 07 00 00.0100000  0 26                     
G18  25293064.940   132916006.4661      -3091.230          47.000    25293060.912   103570888.0161      -2408.732          43.000  
G26  23656069.259   124313503.6131      -1988.673          49.000    23656069.196    96867673.7921      -1549.733          46.000  
G23  23609485.949   124068896.4161       -593.513          47.000    23609482.555    96677075.6561       -462.544          50.000  
G16  24206053.948   127203700.3541        908.294          45.000                                                                  
R05  25958792.545   138764640.9521      -1977.394          40.000    25958790.338   107928164.1651      -1537.906          48.000  
R11  23591725.557   126067118.4341      -3407.166          52.000    23591722.745    98052260.0141      -2650.062          50.000  
R21  23593000.771   126251091.6051      -1620.294          51.000    23592997.280    98195362.4031      -1260.272          48.000  
R20  26695559.776                1      -3169.775          31.000    26695559.754                3      -2467.120          24.000  
G29  27653383.083   145319555.3251      -3051.067          45.000    27653380.473   113236058.3701      -2377.609          39.000  
S33  42811995.111   224978614.2321       -642.171          42.000  
S31  41857887.779   219964761.0651       -641.885          44.000  
G10  24226912.199   127313429.5251       2066.539          49.000    24226912.200    99205258.5511       1610.364          46.000  
E11  27153225.034   142691152.9761        620.854          44.000    27153224.535   109334830.9421        475.734          47.000  
R12  24253800.201   129559479.0781        982.198          49.000    24253798.686   100768609.6981        763.836          47.000  
R22  24225631.497   129318146.4711        674.615          49.000    24225630.198   100580822.0571        524.634          49.000  
R07  26778460.679                1       3414.087          27.000                                                                  
R06  24736807.859   132000416.7711       1844.262          43.000                                                                  
G27  25616197.398   134614028.2461       1729.929          44.000    25616197.349   104894048.9861       1348.038          44.000  
E33  29885975.122   157051950.2051      -2858.432          41.000    29885974.378   120338563.6921      -2190.090          44.000  
E31  28371611.286   149093950.7331      -3270.188          45.000    28371615.974   114240890.1221      -2505.793          50.000  
E25  29094182.594   152890903.9971       1546.717          41.000    29094186.862   117150195.1591       1185.102          48.000  
E14  30674911.424   161197911.8851      -1606.851          46.000    30674913.604   123515257.8091      -1231.275          51.000  
E19  31101806.600   163441107.9441       1410.565          39.000    31101808.679   125234106.6411       1080.906          38.000  
E24  26787383.460   140768689.4271       -951.292          48.000    26787384.444   107861744.7321       -728.959          51.000  
E12  27036271.252   142076670.2001      -1451.736          45.000    27036269.897   108864022.9081      -1112.421          48.000  
E10  26981106.001   141786856.6001       -432.839          47.000    26981108.658   108642073.4571       -331.709          52.000  
> 2024 04 16 07 00 30.0100000  0 26                     
G18  25310722.510   133008795.019       -3094.444          49.000    25310717.182   103643190.814       -2411.381          42.000  
G26  23667475.587   124373443.369       -2006.915          49.000    23667475.004    96914380.067       -1563.868          45.000  
G23  23612933.784   124087017.141        -614.246          47.000    23612930.845    96691195.796        -478.577          50.000  
G16  24200916.266   127176700.251         891.720          46.000                                                                  
R05  25969957.798   138824320.232       -2000.914          38.000    25969954.777   107974581.527       -1556.281          49.000  
R11  23610909.277   126169633.670       -3426.807          52.000    23610907.387    98131994.048       -2665.309          49.000  
R21  23602095.958   126299762.688       -1624.164          51.000    23602092.160    98233217.708       -1263.221          48.000  
R20  26713333.775                       -3167.279          30.000    26713338.573                3      -2468.942          24.000  
G29  27670813.976   145411153.711       -3055.196          46.000    27670811.121   113307433.682       -2380.783          38.000  
S33  42815658.977   224997870.389        -641.420          42.000  
S31  41861552.857   219984021.689        -641.805          44.000  
G10  24215157.690   127251661.275        2051.417          47.000    24215158.086    99157127.409        1598.721          45.000  
E11  27149696.709   142672616.751         614.730          43.000    27149697.285   109320627.875         471.116          47.000  
R12  24248354.691   129530388.036         957.502          49.000    24248353.505   100745983.328         744.735          48.000  
R22  24221855.287   129297997.370         668.768          48.000    24221855.758   100565150.650         520.255          50.000  
R07  26759317.884                        3417.066          28.000    26759322.015                1       2657.404          27.000  
R06  24726490.498   131945359.050        1826.585          43.000                                                                  
G27  25606325.664   134562154.294        1728.705          45.000    25606326.420   104853627.783        1347.069          44.000  
E33  29902289.423   157137682.862       -2856.740          41.000    29902288.567   120404255.005       -2189.100          44.000  
E31  28390300.225   149192164.369       -3277.007          45.000    28390305.622   114316144.641       -2510.981          50.000  
E25  29085376.558   152844628.492        1538.409          41.000    29085380.934   117114737.271        1178.923          47.000  
E14  30684064.890   161246007.910       -1599.234          47.000    30684065.854   123552110.593       -1225.283          51.000  
E19  31093761.306   163398832.493        1407.716          39.000    31093763.533   125201713.922        1078.700          38.000  
E24  26792854.524   140797435.883        -964.855          48.000    26792854.909   107883771.230        -739.238          51.000  
E12  27044572.517   142120295.374       -1456.490          45.000    27044571.249   108897450.019       -1115.877          48.000  
E10  26983596.324   141799942.297        -439.231          48.000    26983598.653   108652100.179        -336.486          52.000  
> 2024 04 16 07 01 00.0100000  0 26                     
G18  25328398.020   133101680.902       -3097.868          48.000    25328393.050   103715569.444       -2413.779          43.000  
G26  23678985.977   124433927.932       -2025.226          50.000    23678984.950    96961510.865       -1578.046          46.000  
G23  23616500.240   124105758.087        -635.022          47.000    23616497.433    96705799.140        -494.794          50.000  
G16  24195873.735   127150201.786         874.894          46.000                                                                  
R05  25981259.146   138884708.158       -2024.217          35.000    25981250.939   108021549.857       -1574.845          49.000  
R11  23630202.931   126272732.941       -3446.456          52.000    23630200.230    98212182.292       -2680.574          49.000  
R21  23611211.933   126348546.080       -1628.065          52.000    23611208.518    98271160.319       -1266.310          48.000  
R20  26731092.373                       -3164.166          30.000    26731107.826                3      -2462.070          24.000  
G29  27688266.955   145502874.598       -3059.334          45.000    27688265.107   113378904.495       -2384.537          38.000  
S33  42819322.441   225017119.564        -641.561          42.000  
S31  41865217.289   220003276.647        -642.030          44.000  
G10  24203489.932   127190348.656        2036.115          48.000    24203490.378    99109351.365        1586.491          44.000  
E11  27146204.620   142654264.304         608.858          43.000    27146204.583   109306565.640         466.546          46.000  
R12  24243045.986   129502036.250         932.649          49.000    24243046.533   100723931.949         725.397          48.000  
R22  24218114.381   129278026.248         662.690          50.000    24218114.555   100549617.693         515.427          50.000  
R07  26740162.647   143142198.0551       3419.489          34.000    26740160.697   111332789.0191       2659.613          32.000  
R06  24716270.983   131890825.244        1808.809          43.000                                                                  
G27  25596459.568   134510311.598        1727.375          44.000    25596460.459   104813230.964        1346.105          44.000  
E33  29918595.637   157223367.297       -2855.148          41.000    29918594.421   120469909.290       -2187.765          45.000  
E31  28409028.580   149290584.425       -3284.236          45.000    28409034.170   114391557.362       -2516.451          49.000  
E25  29076615.425   152798590.397        1530.590          42.000    29076620.277   117079461.348        1172.758          47.000  
E14  30693173.240   161293873.083       -1591.742          46.000    30693174.595   123588786.498       -1219.683          51.000  
E19  31085733.545   163356646.175        1404.198          39.000    31085736.298   125169389.447        1076.276          38.000  
E24  26798401.387   140826585.159        -978.322          48.000    26798401.913   107906106.413        -749.722          51.000  
E12  27052900.327   142164057.561       -1460.927          44.000    27052899.027   108930982.140       -1119.505          48.000  
E10  26986122.557   141813213.900        -445.481          48.000    26986124.045   108662269.348        -341.423          52.000  
> 2024 04 16 07 01 30.0100000  0 27                     
G18  25346092.354   133194666.947       -3101.259          49.000    25346087.260   103788026.152       -2416.790          42.000  
G26  23690600.430   124494960.273       -2043.488          50.000    23690598.798    97009068.540       -1592.261          46.000  
G23  23620185.124   124125123.725        -655.982          47.000    23620182.283    96720889.326        -511.146          50.000  
G16  24190927.859   127124211.464         857.789          46.000                                                                  
R05  25992684.592   138945807.923       -2048.554          32.000    25992680.928   108069071.919       -1593.365          48.000  
R11  23649606.282   126376416.962       -3465.876          52.000    23649603.666    98292825.400       -2695.735          49.000  
R13  27566314.913                3       3416.781          12.000                                                                  
R21  23620350.592   126397445.460       -1631.946          51.000    23620346.656    98309193.183       -1269.281          48.000  
R20  26748833.060                1      -3163.147          30.000    26748843.487                3      -2458.884          24.000  
G29  27705744.653   145594722.424       -3063.720          43.000    27705742.692   113450474.175       -2387.382          37.000  
S33  42822985.176   225036367.617        -642.012          42.000  
S31  41868880.710   220022529.973        -641.830          43.000  
G10  24191911.132   127129499.345        2020.469          48.000    24191909.962    99061936.594        1574.371          43.000  
E11  27142748.378   142636099.492         602.024          43.000    27142747.694   109292647.165         461.488          46.000  
R12  24237879.592   129474430.180         907.686          50.000    24237878.799   100702460.561         706.089          48.000  
R22  24214407.901   129258236.865         656.632          50.000    24214407.209   100534226.084         510.647          50.000  
R07  26720991.252                1       3421.246          32.000    26720992.372   111252974.926        2660.669          34.000  
R06  24706150.444   131836823.781        1791.209          42.000                                                                  
G27  25586601.283   134458505.634        1726.237          44.000    25586601.884   104772862.734        1344.884          44.000  
E33  29934892.178   157309007.321       -2854.198          41.000    29934891.149   120535529.567       -2186.868          45.000  
E31  28427798.110   149389213.911       -3291.267          45.000    28427802.337   114467130.664       -2521.780          49.000  
E25  29067901.810   152752795.875        1522.177          42.000    29067905.618   117044372.037        1166.554          47.000  
E14  30702237.716   161341512.338       -1584.209          46.000    30702240.052   123625289.305       -1213.965          51.000  
E19  31077724.158   163314555.424        1401.326          39.000    31077726.503   125137138.299        1073.360          38.000  
E24  26804025.666   140856141.740        -992.056          48.000    26804026.097   107928753.676        -760.179          51.000  
E12  27061254.276   142207960.089       -1465.854          44.000    27061253.410   108964621.785       -1123.156          48.000  
E10  26988683.865   141826674.919        -451.931          48.000    26988685.743   108672583.662        -346.218          52.000  
> 2024 04 16 07 02 00.0100000  0 27                     
G18  25363806.180   133287749.376       -3104.115          49.000    25363800.260   103860557.965       -2418.822          42.000  
G26  23702317.749   124556536.830       -2061.450          49.000    23702317.311    97057050.252       -1606.348          46.000  
G23  23623989.408   124145111.472        -676.357          48.000    23623986.242    96736464.206        -527.003          50.000  
G16  24186078.997   127098729.219         841.134          46.000                                                                  
R05  26004239.149   139007728.2491      -2072.217          31.000    26004243.904   108117144.449       -1611.401          49.000  
R11  23669117.456   126480679.666       -3484.804          52.000    23669116.189    98373918.537       -2710.285          50.000  
R21  23629508.712   126446457.616       -1635.402          50.000    23629505.375    98347313.721       -1271.955          48.000  
R20  26766569.508                       -3159.198          27.000    26766569.693                3      -2453.832          14.000  
G29  27723247.313   145686695.291       -3067.671          44.000    27723245.306   113522141.243       -2390.363          39.000  
S33  42826647.129   225055611.668        -641.171          42.000  
S31  41872543.501   220041778.645        -641.353          44.000  
G10  24180420.436   127069112.556        2005.247          49.000    24180418.287    99014881.829        1562.665          44.000  
E11  27139325.990   142618119.617         596.101          42.000    27139326.221   109278870.404         457.097          46.000  
R12  24232851.176   129447569.636         883.168          50.000    24232849.929   100681569.023         686.896          48.000  
R22  24210733.907   129238626.135         650.908          50.000    24210733.072   100518973.488         506.322          50.000  
R07  26701808.312   142936791.0221       3423.535          33.000    26701809.538   111173106.901        2662.958          36.000  
R06  24696130.588   131783356.503        1773.396          41.000                                                                  
G27  25576750.024   134406735.287        1725.342          43.000    25576750.133   104732522.224        1344.504          44.000  
E33  29951179.728   157394600.126       -2851.972          41.000    29951178.954   120601113.662       -2185.298          45.000  
E31  28446605.825   149488048.733       -3297.760          45.000    28446610.059   114542861.183       -2526.767          48.000  
E25  29059233.941   152707244.327        1514.669          42.000    29059237.281   117009468.898        1160.636          47.000  
E14  30711260.177   161388924.052       -1576.295          46.000    30711262.275   123661617.733       -1207.872          51.000  
E19  31069733.454   163272560.431        1398.482          39.000    31069734.457   125104960.510        1071.748          38.000  
E24  26809727.431   140886103.488       -1005.208          48.000    26809727.838   107951711.380        -770.207          51.000  
E12  27069634.467   142251999.617       -1469.949          43.000    27069633.839   108998366.417       -1126.456          48.000  
E10  26991280.177   141840322.195        -457.869          47.000    26991282.866   108683040.695        -350.716          53.000  
G15  28362427.059                3       -755.924          27.000                                                                  
> 2024 04 16 07 02 30.0100000  0 27                     
G18  25381535.204   133380917.639       -3106.823          48.000    25381528.679   103933156.666       -2421.006          41.000  
G26  23714136.777   124618647.188       -2079.144          49.000    23714136.769    97105447.925       -1620.081          46.000  
G23  23627908.729   124165712.310        -696.840          47.000    23627906.408    96752516.889        -543.013          50.000  
G16  24181325.174   127073748.090         824.402          46.000                                                                  
R05  26015938.431   139070233.384       -2095.502          37.000    26015935.572   108165759.436       -1629.591          46.000  
R11  23688734.583   126585507.684       -3503.583          51.000    23688733.271    98455451.405       -2724.908          51.000  
R21  23638688.131   126495572.828       -1638.783          52.000    23638683.245    98385514.412       -1274.580          47.000  
R20  26784288.001                       -3157.086          28.000    26784262.940                3      -2453.808          17.000  
G29  27740770.566   145778784.008       -3071.608          42.000    27740769.215   113593898.619       -2393.266          39.000  
S33  42830306.941   225074842.644        -640.818          42.000  
S31  41876204.316   220061014.847        -640.944          44.000  
G10  24169015.302   127009182.581        1990.111          49.000    24169014.793    98968183.065        1550.715          44.000  
E11  27135938.156   142600315.202         590.607          42.000    27135938.182   109265228.111         452.650          46.000  
R12  24227961.186   129421447.469         858.546          50.000    24227960.412   100661251.814         667.679          49.000  
R22  24207091.971   129219183.992         645.295          50.000    24207090.114   100503852.006         501.800          49.000  
R07  26682611.162   142834028.975        3426.599          38.000    26682613.050   111093181.063        2665.052          38.000  
R06  24686209.575   131730418.269        1755.830          42.000                                                                  
G27  25566903.647   134354992.732        1724.421          44.000    25566903.039   104692203.410        1343.518          44.000  
E33  29967456.033   157480136.130       -2850.311          40.000    29967455.682   120666654.244       -2183.924          45.000  
E31  28465451.078   149587078.709       -3304.274          46.000    28465454.873   114618741.255       -2531.735          48.000  
E25  29050609.700   152661928.510        1506.562          43.000    29050613.894   116974746.379        1154.340          47.000  
E14  30720237.821   161436099.791       -1568.438          46.000    30720239.520   123697765.370       -1201.870          51.000  
E19  31061758.304   163230653.790        1395.370          38.000    31061760.127   125072850.415        1069.229          39.000  
E24  26815504.632   140916461.515       -1018.452          49.000    26815504.663   107974972.721        -780.423          51.000  
E12  27078038.846   142296166.012       -1474.176          44.000    27078038.394   109032208.238       -1129.669          48.000  
E10  26993910.977   141854145.829        -463.683          47.000    26993913.301   108693632.847        -355.250          53.000  
G15  28366785.679                1       -768.816          26.000                                                                  
> 2024 04 16 07 03 00.0100000  0 27                     
G18  25399281.222   133474174.564       -3110.188          48.000    25399276.114   104005824.390       -2423.676          40.000  
G26  23726057.536   124681294.303       -2097.296          49.000    23726058.029    97154263.880       -1634.290          46.000  
G23  23631945.940   124186930.217        -717.781          48.000    23631943.448    96769050.395        -559.260          50.000  
G16  24176668.159   127049274.448         807.105          47.000                                                                  
R05  26027762.328   139133438.679       -2118.853          36.000    26027759.124   108214919.125       -1647.861          46.000  
R11  23708456.508   126690901.616       -3522.638          51.000    23708456.549    98537424.429       -2739.850          51.000  
R21  23647887.125   126544794.204       -1642.738          53.000    23647881.781    98423797.665       -1277.656          48.000  
R20  26801994.894                       -3155.279          27.000    26801963.152                3      -2454.189          14.000  
G29  27758316.476   145870992.983       -3075.967          41.000    27758316.579   113665749.703       -2396.563          40.000  
S33  42833964.580   225094064.998        -640.652          42.000  
S31  41879863.325   220080242.275        -640.975          44.000  
G10  24157699.527   126949716.867        1974.109          49.000    24157699.484    98921846.209        1538.181          46.000  
E11  27132584.672   142582690.167         584.458          43.000    27132584.291   109251723.266         447.767          46.000  
R12  24223209.785   129396070.269         833.229          50.000    24223209.403   100641513.997         648.013          49.000  
R22  24203482.064   129199914.151         639.367          50.000    24203481.011   100488864.511         497.149          50.000  
R07  26663401.819   142731201.194        3428.602          41.000    26663401.707   111013204.063        2666.367          40.000  
R06  24676389.593   131678017.585        1737.434          42.000                                                                  
G27  25557063.369   134303283.617        1722.697          43.000    25557062.762   104651910.672        1342.579          43.000  
E33  29983723.477   157565619.145       -2848.891          40.000    29983723.008   120732154.219       -2182.753          46.000  
E31  28484333.468   149686306.838       -3311.129          46.000    28484337.837   114694773.247       -2537.062          49.000  
E25  29042032.438   152616854.467        1498.018          43.000    29042036.619   116940209.119        1148.013          47.000  
E14  30729170.378   161483044.525       -1561.149          46.000    30729172.796   123733736.006       -1196.359          51.000  
E19  31053801.608   163188842.095        1392.027          38.000    31053803.712   125040813.114        1066.479          40.000  
E24  26821357.239   140947220.294       -1032.176          48.000    26821357.612   107998541.159        -790.921          51.000  
E12  27086467.919   142340462.605       -1479.024          44.000    27086467.855   109066149.818       -1133.311          49.000  
E10  26996575.467   141868149.280        -469.989          47.000    26996578.148   108704362.770        -360.131          52.000  
R13                                                                  27517482.880                3       1997.483          13.000  
> 2024 04 16 07 03 30.0100000  0 26                     
G18  25417044.814   133567526.688       -3113.467          47.000    25417039.611   104078566.416       -2426.096          41.000  
G26  23738082.519   124744484.779       -2115.417          49.000    23738082.426    97203503.212       -1648.285          46.000  
G23  23636102.385   124208772.768        -738.562          47.000    23636099.761    96786070.533        -575.544          49.000  
G16  24172109.071   127025317.871         789.825          46.000                                                                  
R05  26039719.177   139197350.498       -2142.348          42.000    26039715.440   108264628.373       -1666.139          47.000  
R11  23728286.842   126796865.293       -3541.632          52.000    23728285.699    98619840.549       -2754.565          50.000  
R21  23657105.895   126594129.817       -1646.459          52.000    23657101.689    98462169.862       -1280.541          48.000  
R20  26819691.781                3      -3152.561          25.000                                                                  
G29  27775889.192   145963330.390       -3080.168          44.000    27775888.479   113737700.863       -2399.979          40.000  
S33  42837622.373   225113286.953        -640.854          42.000  
S31  41883521.970   220099468.653        -640.819          44.000  
G10  24146473.990   126890725.932        1958.363          49.000    24146473.712    98875879.402        1525.889          46.000  
E11  27129265.887   142565252.037         577.928          43.000    27129265.809   109238361.605         442.965          46.000  
R12  24218599.947   129371448.032         808.031          51.000    24218599.426   100622363.394         628.459          49.000  
R22  24199905.068   129180823.823         633.232          50.000    24199904.447   100474016.572         492.531          50.000  
R07  26644181.329   142628319.266        3430.183          44.000    26644181.768   110933184.952        2667.908          44.000  
R06  24666672.672   131626166.855        1718.966          41.000                                                                  
G27  25547231.766   134251617.150        1721.402          43.000    25547230.903   104611651.186        1341.346          43.000  
E33  29999980.584   157651056.653       -2847.283          38.000    29999981.345   120797619.354       -2181.683          46.000  
E31  28503255.015   149785739.555       -3317.900          46.000    28503259.469   114770961.949       -2542.305          49.000  
E25  29033502.651   152572031.882        1489.906          42.000    29033507.165   116905864.546        1141.579          46.000  
E14  30738061.384   161529766.881       -1553.894          46.000    30738063.682   123769536.241       -1190.647          51.000  
E19  31045864.209   163147135.569        1388.606          37.000    31045866.799   125008856.399        1063.628          39.000  
E24  26827287.518   140978387.990       -1045.761          48.000    26827288.514   108022422.928        -801.327          51.000  
E12  27094924.035   142384896.305       -1483.521          44.000    27094923.350   109100196.441       -1136.789          48.000  
E10  26999276.044   141882339.773        -476.223          47.000    26999278.179   108715236.034        -364.910          52.000  
> 2024 04 16 07 04 00.0100000  0 27                     
G18  25434826.240   133660969.926       -3116.479          47.000    25434822.128   104151379.358       -2428.487          43.000  
G26  23750209.631   124808214.496       -2133.563          49.000    23750209.669    97253162.738       -1662.561          46.000  
G23  23640377.193   124231237.451        -759.351          47.000    23640374.698    96803575.501        -591.706          49.000  
G16  24167648.401   127001878.366         772.381          46.000                                                                  
R05  26051806.141   139261965.123       -2165.466          43.000    26051803.253   108314884.214       -1684.451          47.000  
R11  23748222.322   126903392.218       -3560.290          52.000    23748219.979    98702694.796       -2769.263          49.000  
R21  23666346.473   126643575.763       -1650.356          52.000    23666342.205    98500627.785       -1283.601          48.000  
R20  26837369.149                3      -3146.227          23.000                                                                  
G29  27793483.966   146055793.608       -3084.523          42.000    27793482.698   113809750.052       -2403.634          40.000  
S33  42841279.505   225132505.188        -641.042          42.000  
S31  41887179.895   220118692.907        -640.753          44.000  
G10  24135339.249   126832209.534        1942.410          49.000    24135338.638    98830282.251        1513.630          46.000  
E11  27125982.264   142547997.765         571.737          43.000    27125982.347   109225140.853         437.998          46.000  
R12  24214132.193   129347580.060         782.824          51.000    24214131.472   100603799.414         608.880          49.000  
R22  24196361.998   129161909.677         627.295          50.000    24196360.753   100459305.676         488.009          50.000  
R07  26624951.640   142525385.429        3431.819          47.000    26624952.944   110853125.467        2669.177          46.000  
R06  24657059.407   131574867.138        1700.262          42.000                                                                  
G27  25537408.500   134199991.983        1719.697          43.000    25537407.565   104571423.907        1340.253          44.000  
E33  30016229.514   157736445.500       -2845.516          37.000    30016229.891   120863047.209       -2180.451          45.000  
E31  28522213.958   149885372.804       -3324.566          46.000    28522218.970   114847304.289       -2547.526          50.000  
E25  29025021.224   152527459.917        1481.258          43.000    29025025.396   116871711.988        1135.096          46.000  
E14  30746910.331   161576264.857       -1546.385          46.000    30746911.822   123805164.544       -1184.921          51.000  
E19  31037946.586   163105533.647        1384.985          35.000    31037949.941   124976979.831        1061.083          40.000  
G15  28380301.628   149139472.6791       -809.763          28.000                                                                  
E24  26833295.714   141009961.988       -1059.430          48.000    26833297.079   108046616.006        -811.800          51.000  
E12  27103405.275   142429463.566       -1488.173          44.000    27103404.115   109134345.403       -1140.205          48.000  
E10  27002011.648   141896713.596        -482.383          47.000    27002013.709   108726249.698        -369.569          53.000  
> 2024 04 16 07 04 30.0100000  0 26                     
G18  25452627.346   133754513.295       -3119.446          48.000    25452623.699   104224270.364       -2430.981          44.000  
G26  23762441.766   124872492.560       -2151.611          49.000    23762442.024    97303249.518       -1676.544          46.000  
G23  23644771.974   124254334.384        -780.306          47.000    23644769.197    96821573.166        -608.065          48.000  
G16  24163288.283   126978968.121         755.063          46.000                                                                  
R05  26064026.357   139327291.813       -2189.283          44.000    26064024.790   108365693.778       -1702.638          47.000  
R11  23768264.284   127010488.979       -3579.187          51.000    23768262.305    98785992.227       -2783.807          50.000  
R21  23675609.360   126693142.324       -1654.109          53.000    23675604.499    98539179.540       -1286.525          48.000  
R20  26855042.673                3      -3149.838          24.000                                                                  
G29  27811104.809   146148393.103       -3088.913          42.000    27811103.820   113881905.432       -2406.946          40.000  
S33  42844938.411   225151731.871        -641.148          42.000  
S31  41890839.609   220137924.234        -641.044          44.000  
G10  24124296.469   126774181.036        1926.100          49.000    24124296.831    98785065.294        1500.855          48.000  
E11  27122736.153   142530937.365         565.861          43.000    27122735.713   109212068.629         433.457          45.000  
R12  24209807.383   129324478.983         757.419          51.000    24209807.134   100585831.933         589.094          48.000  
R22  24192852.997   129143181.613         621.338          50.000    24192852.741   100444739.488         483.254          50.000  
R07  26605715.780   142422414.149        3433.123          46.000    26605716.081   110773036.873        2670.208          45.000  
R06  24647552.117   131524133.363        1681.858          42.000                                                                  
G27  25527595.135   134148419.729        1718.258          44.000    25527594.005   104531237.885        1338.743          44.000  
E33  30032467.161   157821795.801       -2844.808          33.000    30032471.571   120928445.459       -2179.317          45.000  
E31  28541213.617   149985215.579       -3331.267          45.000    28541218.469   114923807.092       -2552.600          49.000  
E25  29016590.942   152483150.744        1472.850          44.000    29016593.360   116837760.824        1128.561          45.000  
E14  30755717.906   161622549.604       -1539.115          46.000    30755719.345   123840629.476       -1179.320          51.000  
E19  31030049.096                        1381.649          32.000    31030055.954   124945192.913        1058.044          40.000  
E24  26839383.705   141041952.997       -1073.060          48.000    26839384.952   108071128.598        -822.231          51.000  
E12  27111912.647   142474173.789       -1492.475          44.000    27111911.798   109168603.952       -1143.656          48.000  
E10  27004783.768   141911280.622        -488.647          48.000    27004785.920   108737411.454        -374.329          53.000  
> 2024 04 16 07 05 00.0100000  0 26                     
G18  25470446.560   133848154.320       -3122.977          47.000    25470442.478   104297237.426       -2433.379          42.000  
G26  23774776.858   124937316.432       -2169.861          49.000    23774777.379    97353761.636       -1690.875          46.000  
G23  23649287.298   124278062.040        -801.405          46.000    23649284.713    96840062.272        -624.446          49.000  
G16  24159030.301   126956587.879         737.093          47.000                                                                  
R05  26076379.471   139393327.373       -2213.083          45.000    26076378.289   108417054.867       -1721.188          46.000  
R11  23788411.246   127118150.334       -3598.193          51.000    23788410.397    98869728.766       -2798.523          50.000  
R21  23684893.862   126742827.784       -1658.185          52.000    23684889.044    98577823.787       -1289.557          48.000  
R20  26872699.544                3      -3149.490          21.000                                                                  
G29  27828752.310   146241127.785       -3093.335          43.000    27828751.342   113954166.161       -2410.561          41.000  
S33  42848598.328   225170964.650        -641.052          42.000  
S31  41894500.458   220157161.805        -641.464          44.000  
G10  24113347.817   126716641.892        1909.751          50.000    24113346.953    98740229.647        1488.177          47.000  
E11  27119526.034   142514069.393         559.017          43.000    27119526.257   109199143.837         428.304          46.000  
R12  24205626.904   129302145.586         731.527          51.000    24205626.238   100568461.501         569.076          49.000  
R22  24189379.808   129124637.759         615.080          51.000    24189378.497   100430316.563         478.334          50.000  
R07  26586474.087   142319408.653        3434.124          47.000    26586472.760   110692921.707        2670.755          43.000  
R06  24638151.470   131473968.341        1662.706          43.000                                                                  
G27  25517791.107   134096900.650        1716.414          44.000    25517790.501   104491093.282        1337.518          45.000  
E33  30048703.923   157907105.907       -2843.288          34.000    30048705.489   120993812.960       -2178.388          45.000  
E31  28560252.488   150085265.678       -3338.400          45.000    28560257.351   115000468.816       -2558.053          49.000  
E25  29008208.902   152439105.072        1463.660          44.000    29008211.628   116804011.555        1121.540          45.000  
E14  30764484.556   161668620.719       -1532.167          45.000    30764486.159   123875930.715       -1174.004          50.000  
E19  31022177.258   163022682.161        1376.736          32.000    31022184.450   124913496.520        1054.966          41.000  
E24  26845550.827   141074359.970       -1087.120          49.000    26845551.717   108095959.916        -833.021          51.000  
E12  27120447.748   142519024.878       -1497.477          44.000    27120446.468   109202970.384       -1147.296          48.000  
E10  27007591.806   141926038.836        -495.087          48.000    27007594.648   108748719.704        -379.463          54.000  
> 2024 04 16 07 05 30.0100000  0 27                     
G18  25488282.081   133941880.901       -3125.649          47.000    25488278.747   104370271.186       -2435.767          43.000  
G26  23787214.501   125002673.988       -2187.543          49.000    23787213.716    97404689.587       -1704.565          45.000  
G23  23653920.294   124302409.316        -822.074          46.000    23653918.041    96859034.117        -640.456          48.000  
G16  24154871.472   126934729.217         719.844          47.000                                                                  
R05  26088865.292   139460059.943       -2236.208          48.000    26088861.312   108468958.010       -1739.177          46.000  
R11  23808662.719   127226361.954       -3616.253          52.000    23808660.462    98953893.302       -2812.750          50.000  
R21  23694199.142   126792620.522       -1661.566          52.000    23694194.294    98616551.509       -1292.206          48.000  
R20  26890336.219                3      -3137.440          20.000                                                                  
G29  27846422.871   146333987.179       -3097.841          43.000    27846421.505   114026524.075       -2413.579          40.000  
S33  42852257.090   225190192.079        -641.002          42.000  
S31  41898160.685   220176395.839        -641.143          44.000  
G10  24102490.594   126659583.972        1893.860          50.000    24102488.890    98695768.830        1475.769          46.000  
E11  27116351.375   142497382.698         553.137          44.000    27116350.952   109186357.951         423.725          46.000  
R12  24201588.267   129280571.020         706.436          50.000    24201586.771   100551681.300         549.433          48.000  
R22  24185938.159   129106266.550         609.558          50.000    24185937.143   100416027.888         474.027          50.000  
R07  26567224.323   142216362.300        3435.477          47.000    26567222.701   110612774.766        2672.118          45.000  
R06  24628855.993   131424365.340        1644.099          43.000                                                                  
G27  25507995.508   134045425.350        1714.855          44.000    25507994.486   104450982.789        1336.318          45.000  
E33  30064927.834   157992364.767       -2840.906          33.000    30064929.536   121059141.172       -2176.828          44.000  
E31  28579328.936   150185511.050       -3344.797          45.000    28579333.566   115077280.272       -2562.953          50.000  
E25  28999874.762   152395313.934        1455.422          44.000    28999878.323   116770457.325        1115.142          45.000  
E14  30773208.848   161714468.196       -1524.746          45.000    30773210.583   123911060.586       -1168.196          50.000  
E19  31014327.841   162981425.118        1373.071          35.000    31014333.090   124881884.120        1052.133          41.000  
E24  26851795.249   141107172.339       -1100.518          49.000    26851795.501   108121101.858        -843.188          51.000  
E12  27129007.141   142564005.158       -1501.534          44.000    27129005.794   109237435.821       -1150.538          48.000  
E10  27010434.366   141940976.769        -500.966          47.000    27010437.091   108760165.647        -383.822          53.000  
R13                                                                  27434183.744                3       1975.799          10.000  
> 2024 04 16 07 06 00.0100000  0 26                     
G18  25506132.660   134035689.315       -3128.781          46.000    25506129.166   104443368.710       -2438.083          44.000  
G26  23799752.236   125068561.388       -2205.408          49.000    23799751.450    97456030.401       -1718.597          45.000  
G23  23658671.113   124327373.976        -842.818          47.000    23658668.270    96878487.140        -656.672          48.000  
G16  24150811.156   126913391.776         702.162          48.000                                                                  
R05  26101477.602   139527485.232       -2259.342          49.000    26101474.853   108521399.933       -1757.290          46.000  
R11  23829013.806   127335116.818       -3634.515          52.000    23829011.775    99038480.349       -2826.880          49.000  
R21  23703523.059   126842517.482       -1665.295          52.000    23703518.758    98655360.329       -1295.178          48.000  
R20  26907968.142                3      -3144.096          20.000                                                                  
G29  27864116.058   146426969.413       -3101.726          41.000    27864116.140   114098977.742       -2416.978          41.000  
S33  42855914.944   225209413.793        -640.972          42.000  
S31  41901819.332   220195623.509        -641.300          44.000  
G10  24091723.307   126603008.095        1877.370          49.000    24091722.470    98651683.792        1462.994          45.000  
E11  27113209.492   142480874.561         546.989          44.000    27113209.540   109173708.881         418.972          46.000  
R12  24197690.236   129259754.596         680.843          51.000    24197690.789   100535490.738         529.533          50.000  
R22  24182527.830   129088064.935         603.508          50.000    24182527.082   100401871.067         469.340          50.000  
R07  26547966.372   142113276.757        3436.530          46.000    26547964.999   110532597.354        2672.728          44.000  
R06  24619666.695   131375326.032        1625.165          43.000                                                                  
G27  25498207.870   133993992.841        1713.378          44.000    25498206.772   104410905.663        1335.030          44.000  
E33  30081145.815   158077569.565       -2839.728          35.000    30081143.547   121124427.979       -2175.766          44.000  
E31  28598441.536   150285947.606       -3351.337          46.000    28598445.791   115154238.110       -2567.954          50.000  
E25  28991589.516   152351776.802        1446.515          43.000    28991593.443   116737097.714        1108.527          45.000  
E14  30781890.798   161760090.348       -1517.461          45.000    30781892.120   123946017.823       -1162.775          50.000  
E19  31006498.721   162940277.648        1369.325          36.000    31006502.522   124850355.653        1049.261          40.000  
E24  26858116.316   141140387.901       -1114.286          50.000    26858116.469   108146552.747        -853.775          51.000  
E12  27137590.112   142609111.325       -1506.183          44.000    27137588.918   109271997.735       -1154.033          47.000  
E10  27013310.597   141956091.273        -507.142          47.000    27013313.118   108771746.891        -388.566          53.000  
> 2024 04 16 07 06 30.0100000  0 27                     
G18  25524000.243   134129583.792       -3131.628          46.000    25523995.992   104516533.270       -2440.072          42.000  
G26  23812391.517   125134982.752       -2223.138          49.000    23812391.241    97507787.313       -1732.300          45.000  
G23  23663540.613   124352961.145        -863.564          48.000    23663537.797    96898425.331        -672.927          49.000  
G16  24146850.968   126892582.733         684.551          47.000                                                                  
R05  26114221.276   139595607.061       -2282.546          49.000    26114217.498   108574383.624       -1775.506          45.000  
R11  23849467.933   127444417.203       -3652.716          51.000    23849466.121    99123491.703       -2841.010          50.000  
R21  23712867.723   126892523.630       -1668.872          52.000    23712864.192    98694253.999       -1298.169          49.000  
R20  26925590.178                3      -3139.201          15.000                                                                  
G29  27881835.248   146520080.042       -3106.170          44.000    27881834.236   114171531.388       -2420.085          41.000  
S33  42859572.423   225228635.526        -640.901          42.000  
S31  41905477.928   220214850.434        -641.210          44.000  
G10  24081050.122   126546922.476        1861.181          50.000    24081049.189    98607980.900        1450.144          46.000  
E11  27110103.083   142464550.143         541.033          44.000    27110103.059   109161200.578         414.636          46.000  
R12  24193937.560   129239703.853         655.308          50.000    24193937.188   100519895.732         509.659          50.000  
R22  24179150.855   129070037.921         597.716          49.000    24179149.911   100387850.034         464.882          51.000  
R07  26528703.523   142010161.979        3437.408          46.000    26528701.892   110452397.171        2673.492          42.000  
R06  24610582.551   131326860.140        1605.630          42.000                                                                  
G27  25488429.589   133942609.939        1711.558          44.000    25488428.609   104370867.179        1333.752          44.000  
E33  30097347.359   158162725.540       -2837.931          31.000    30097348.497   121189677.372       -2174.479          45.000  
E31  28617590.917   150386579.732       -3357.936          45.000    28617595.594   115231345.833       -2573.040          50.000  
E25  28983354.074   152308500.951        1437.904          42.000    28983358.424   116703938.319        1101.742          45.000  
E14  30790529.877   161805493.460       -1509.958          45.000    30790532.069   123980807.210       -1156.974          50.000  
E19  30998690.954   162899247.465        1365.444          38.000    30998694.657   124818917.157        1046.229          40.000  
E24  26864514.653   141174012.287       -1127.881          50.000    26864514.946   108172316.892        -864.238          51.000  
E12  27146198.131   142654347.987       -1510.463          44.000    27146197.378   109306659.630       -1157.326          47.000  
E10  27016220.230   141971387.062        -513.113          47.000    27016223.398   108783467.052        -393.205          53.000  
R13                                                                  27399867.683                3       1970.044          14.000  
> 2024 04 16 07 07 00.0100000  0 25                     
G18  25541884.419   134223563.594       -3134.530          46.000    25541880.560   104589764.296       -2442.324          42.000  
G26  23825132.564   125201937.194       -2240.900          49.000    23825132.605    97559959.622       -1746.234          46.000  
G23  23668528.520   124379170.624        -884.241          48.000    23668525.180    96918848.272        -689.057          49.000  
G16  24142991.686   126872305.102         666.971          46.000                                                                  
R05  26127095.179   139664425.076       -2305.876          49.000    26127091.393   108627908.750       -1793.610          43.000  
R11  23870023.373   127554258.846       -3670.691          52.000    23870021.054    99208924.058       -2855.072          50.000  
R21  23722233.589   126942639.146       -1672.644          53.000    23722229.700    98733232.732       -1300.934          50.000  
G29  27899579.973   146613319.547       -3110.468          43.000    27899576.315   114244185.491       -2423.640          40.000  
S33  42863230.378   225247857.107        -640.831          42.000  
S31  41909136.898   220234077.511        -641.135          44.000  
G10  24070471.797   126491329.868        1844.606          50.000    24070470.250    98564661.944        1437.322          46.000  
E11  27107031.767   142448409.667         534.482          44.000    27107031.335   109148833.239         409.559          46.000  
R12  24190327.548   129220421.323         629.640          51.000    24190327.270   100504898.213         489.733          50.000  
R22  24175806.597   129052185.488         591.963          50.000    24175805.290   100373964.808         460.322          50.000  
R07  26509435.653   141907022.860        3438.018          46.000    26509434.200   110372178.034        2673.992          43.000  
R06  24601609.403   131278972.298        1586.329          42.000                                                                  
G27  25478661.623   133891278.672        1709.796          45.000    25478660.782   104330868.922        1332.438          44.000  
E33  30113551.189                       -2836.271          31.000    30113544.350   121254889.450       -2173.342          45.000  
E31  28636777.632   150487406.646       -3364.464          45.000    28636782.164   115308602.777       -2577.921          50.000  
E25  28975169.777   152265488.845        1429.019          44.000    28975173.661   116670980.984        1095.056          46.000  
E14  30799128.571   161850678.931       -1502.917          45.000    30799130.747   124015429.837       -1151.565          50.000  
E19  30990905.201   162858337.561        1360.980          37.000    30990909.909   124787570.773        1043.025          41.000  
E24  26870991.171   141208046.226       -1141.571          49.000    26870991.395   108198394.832        -874.720          51.000  
E12  27154831.180   142699714.751       -1514.651          44.000    27154830.444   109341421.229       -1160.632          47.000  
E10  27019165.702   141986864.000        -519.434          46.000    27019168.320   108795326.016        -397.876          52.000  
> 2024 04 16 07 07 30.0100000  0 25                     
G18  25559784.057   134317625.722       -3136.989          46.000    25559780.043   104663059.541       -2444.310          44.000  
G26  23837974.332   125269421.578       -2258.405          48.000    23837974.444    97612544.845       -1759.790          46.000  
G23  23673633.998   124406000.661        -904.872          48.000    23673630.631    96939754.738        -705.265          48.000  
G16  24139233.959   126852559.026         649.155          46.000                                                                  
R05  26140097.620   139733935.385       -2328.803          48.000    26140093.763   108681972.391       -1811.337          45.000  
R11  23890678.020   127664636.997       -3688.245          51.000    23890676.807    99294773.678       -2868.701          50.000  
R21  23731618.184   126992861.744       -1676.093          52.000    23731614.894    98772294.824       -1303.613          49.000  
G29  27917346.428   146706686.672       -3114.669          43.000    27917343.294   114316939.038       -2426.676          40.000  
S33  42866887.671   225267077.487        -640.809          42.000  
S31  41912795.179   220253302.627        -641.019          44.000  
G10  24059987.225   126436231.539        1828.142          51.000    24059985.357    98521728.115        1424.575          46.000  
E11  27103994.424   142432451.008         528.664          44.000    27103994.491   109136605.214         405.095          46.000  
R12  24186861.623   129201907.084         604.173          50.000    24186861.073   100490498.307         469.814          50.000  
R22  24172494.777   129034505.278         586.336          50.000    24172493.382   100360213.529         455.963          50.000  
R07  26490164.311   141803862.053        3438.861          46.000    26490161.934   110291942.008        2674.566          42.000  
R06  24592743.637   131231664.564        1566.898          43.000                                                                  
G27  25468903.946   133839998.833        1708.068          47.000    25468903.353   104290910.679        1331.088          45.000  
E33  30129738.496                       -2834.877          31.000    30129729.769   121320062.712       -2171.769          45.000  
E31  28656000.534   150588425.303       -3370.551          44.000    28656005.288   115386006.629       -2582.594          49.000  
E25  28967035.294   152222740.564        1420.394          43.000    28967038.937   116638225.823        1088.457          45.000  
E14  30807686.049   161895645.823       -1495.455          45.000    30807687.820   124049884.982       -1145.845          50.000  
E19  30983144.303   162817548.180        1357.233          38.000    30983147.802   124756316.704        1040.230          41.000  
E24  26877545.688   141242488.163       -1154.992          49.000    26877545.686   108224785.399        -885.004          51.000  
E12  27163488.230   142745209.118       -1518.742          44.000    27163487.728   109376280.597       -1163.701          47.000  
E10  27022144.746   142002519.554        -524.959          46.000    27022147.442   108807321.804        -402.304          52.000  
> 2024 04 16 07 08 00.0100000  0 25                     
G18  25577697.002   134411762.617       -3139.173          44.000    25577693.919   104736413.003       -2446.327          44.000  
G26  23850914.931   125337428.109       -2275.690          47.000    23850915.110    97665536.962       -1773.474          45.000  
G23  23678856.792   124433444.688        -925.233          49.000    23678852.225    96961139.669        -720.936          48.000  
G16  24135576.419   126833340.226         631.628          46.000                                                                  
R05  26153229.287   139804129.889       -2351.396          48.000    26153225.715   108736568.181       -1829.073          43.000  
R11  23911432.681   127775540.229       -3705.554          51.000    23911431.507    99381031.688       -2882.288          50.000  
R21  23741022.619   127043184.664       -1679.315          52.000    23741018.352    98811434.905       -1306.152          48.000  
G29  27935135.478   146800175.096       -3118.620          42.000    27935133.369   114389787.133       -2430.186          40.000  
S33  42870543.571   225286289.252        -640.509          42.000  
S31  41916452.330   220272520.566        -640.753          44.000  
G10  24049595.832   126381623.880        1811.858          50.000    24049594.441    98479176.674        1411.885          46.000  
E11  27100990.846   142416667.604         522.915          43.000    27100991.034   109124511.460         400.765          47.000  
R12  24183538.403   129184156.317         578.732          50.000    24183539.080   100476692.176         450.103          51.000  
R22  24169213.075   129016990.259         580.715          49.000    24169212.513   100346590.713         451.664          51.000  
R07  26470888.960   141700677.855        3439.654          46.000    26470886.371   110211687.791        2675.094          42.000  
R06  24583986.178   131184934.857        1547.797          43.000                                                                  
G27  25459154.602   133788765.501        1706.704          46.000    25459154.218   104250988.688        1329.818          45.000  
E33  30145896.064                3      -2832.248          23.000    30145904.568   121385191.993       -2170.399          45.000  
E31  28675258.956   150689628.064       -3376.678          44.000    28675263.553   115463551.540       -2587.341          49.000  
E25  28958950.304   152180251.649        1411.738          43.000    28958953.539   116605669.389        1081.638          45.000  
E14  30816200.479   161940388.588       -1487.882          45.000    30816202.355   124084168.408       -1140.124          50.000  
E19  30975405.259   162776875.255        1353.907          39.000    30975408.097   124725151.902        1036.915          42.000  
E24  26884175.820   141277331.896       -1168.411          49.000    26884176.046   108251483.831        -895.248          51.000  
E12  27172168.863   142790823.912       -1522.700          44.000    27172167.735   109411232.270       -1166.772          47.000  
E10  27025157.818   142018346.826        -530.678          47.000    27025159.339   108819449.198        -406.684          52.000  
> 2024 04 16 07 08 30.0100000  0 26                     
G18  25595625.480   134505974.884       -3141.920          44.000    25595622.225   104809825.170       -2448.170          45.000  
G26  23863955.264   125405957.071       -2293.103          47.000    23863955.281    97718936.121       -1786.871          44.000  
G23  23684196.144   124461504.104        -945.795          48.000    23684192.180    96983004.153        -737.018          47.000  
G16  24132020.501   126814652.798         613.756          46.000                                                                  
R05  26166489.114   139875008.555       -2374.246          48.000    26166484.274   108791696.077       -1846.711          42.000  
R11  23932283.532   127886966.976       -3723.047          50.000    23932284.091    99467696.913       -2895.801          50.000  
R13  27331498.501                3       3078.455          12.000    27331134.151                3       1948.312          16.000  
R21  23750445.033   127093609.267       -1682.733          52.000    23750442.000    98850654.041       -1308.801          49.000  
G29  27952949.409   146893786.773       -3122.785          43.000    27952946.605   114462731.239       -2433.339          39.000  
S33  42874198.544   225305495.906        -640.308          43.000  
S31  41920108.511   220291732.996        -640.609          44.000  
G10  24039298.537   126327511.586        1795.169          51.000    24039297.466    98437011.318        1398.836          47.000  
E11  27098021.630   142401060.843         517.017          43.000    27098021.323   109112553.062         396.208          47.000  
R12  24180358.798   129167172.735         553.067          51.000    24180359.793   100463482.706         430.145          51.000  
R22  24165963.336   128999641.645         575.256          50.000    24165962.566   100333097.312         447.474          51.000  
R07  26451610.689   141597476.284        3440.094          47.000    26451607.306   110131420.041        2675.629          43.000  
R06  24575338.808   131138788.900        1528.083          43.000                                                                  
G27  25449414.899   133737582.045        1705.048          47.000    25449413.966   104211105.581        1328.773          44.000  
E33  30162099.659                3      -2831.002          26.000    30162068.350   121450278.513       -2169.084          45.000  
E31  28694552.984   150791015.436       -3382.856          46.000    28694556.969   115541237.924       -2592.043          49.000  
E25  28950915.382   152138025.706        1402.771          44.000    28950918.117   116573314.470        1074.889          45.000  
E14  30824672.931   161984909.849       -1480.667          46.000    30824674.418   124118282.112       -1134.504          51.000  
E19  30967688.091   162736323.135        1349.479          38.000    30967690.849   124694079.683        1034.048          42.000  
E24  26890882.773   141312579.286       -1181.924          48.000    26890883.092   108278491.574        -905.619          51.000  
E12  27180872.193   142836559.954       -1526.693          44.000    27180870.680   109446276.820       -1169.912          47.000  
E10  27028202.904   142034346.740        -536.448          48.000    27028204.298   108831708.871        -410.998          53.000  
> 2024 04 16 07 09 00.0100000  0 25                     
G18  25613568.818   134600267.892       -3144.588          44.000    25613564.779   104883300.230       -2450.219          44.000  
G26  23877096.460   125475013.632       -2310.724          48.000    23877097.028    97772746.444       -1800.446          45.000  
G23  23689653.132   124490185.333        -966.467          48.000    23689650.464    97005353.294        -753.033          48.000  
G16  24128567.724   126796504.839         595.813          47.000                                                                  
R05  26179876.778   139946576.722       -2397.127          48.000    26179872.064   108847360.320       -1864.510          42.000  
R11  23953233.925   127998919.690       -3740.448          49.000    23953234.236    99554771.219       -2909.320          50.000  
R21  23759888.965   127144141.504       -1686.292          53.000    23759883.888    98889956.832       -1311.493          48.000  
G29  27970787.643   146987528.502       -3126.853          42.000    27970785.781   114535776.666       -2436.511          40.000  
S33  42877853.784   225324704.416        -640.554          42.000  
S31  41923764.658   220310946.818        -640.273          44.000  
G10  24029096.616   126273903.869        1778.444          50.000    24029096.352    98395239.227        1385.694          47.000  
E11  27095086.014   142385637.037         510.878          44.000    27095086.116   109100734.875         391.392          47.000  
R12  24177325.551   129150964.770         527.263          52.000    24177325.258   100450876.566         410.046          51.000  
R22  24162745.817   128982465.543         569.623          49.000    24162745.409   100319738.099         442.918          51.000  
R07  26432330.650   141494268.333        3440.270          47.000    26432327.636   110051147.347        2675.997          44.000  
R06  24566801.956   131093237.390        1508.412          43.000                                                                  
G27  25439685.700   133686456.459        1703.104          47.000    25439684.120   104171267.596        1327.116          43.000  
E33  30178237.832                       -2829.218          27.000    30178222.872   121515327.106       -2167.711          44.000  
E31  28713882.818   150892592.824       -3389.205          46.000    28713885.998   115619069.962       -2596.902          48.000  
E25  28942931.347   152096071.208        1393.907          44.000    28942934.381   116541167.546        1068.018          45.000  
E14  30833104.253   162029216.949       -1473.381          46.000    30833105.664   124152231.719       -1128.958          51.000  
E19  30959995.311   162695900.302        1345.044          38.000    30959998.292   124663106.518        1030.784          42.000  
E24  26897667.900   141348237.148       -1195.480          48.000    26897668.692   108305813.836        -916.084          51.000  
E12  27189600.069   142882423.103       -1530.869          45.000    27189597.963   109481418.766       -1173.080          47.000  
E10  27031281.242   142050525.285        -542.351          48.000    27031283.176   108844105.434        -415.523          53.000  
> 2024 04 16 07 09 30.0100000  0 26                     
G18  25631526.879   134694638.367       -3147.070          43.000    25631522.463   104956835.721       -2452.296          44.000  
G26  23890337.695   125544594.190       -2328.113          48.000    23890338.272    97826965.081       -1814.319          45.000  
G23  23695229.202   124519485.495        -987.122          48.000    23695226.092    97028184.580        -769.116          48.000  
G16  24125217.331   126778896.393         577.820          48.000                                                                  
R05  26193393.545   140018830.789       -2419.941          48.000    26193389.858   108903557.944       -1882.128          44.000  
R11  23974283.428   128111392.461       -3757.739          51.000    23974282.157    99642249.980       -2922.821          50.000  
R13  27298185.512                3       3008.672          11.000                                                                  
R21  23769351.956   127194779.189       -1689.746          53.000    23769346.989    98929341.690       -1314.172          49.000  
G29  27988649.971   147081398.439       -3131.122          41.000    27988650.198   114608921.958       -2440.093          41.000  
S33  42881508.613   225343912.270        -640.360          42.000  
S31  41927420.861   220330159.879        -640.638          44.000  
G10  24018992.045   126220800.994        1761.540          50.000    24018991.307    98353860.335        1372.584          46.000  
E11  27092185.082   142370393.825         505.000          44.000    27092185.452   109089055.042         386.934          46.000  
R12  24174437.123   129135531.975         501.404          52.000    24174435.812   100438873.288         389.994          51.000  
R22  24159560.629   128965459.444         563.817          50.000    24159560.057   100306511.110         438.550          51.000  
R07  26413049.207   141391056.332        3440.308          46.000    26413047.752   109970871.549        2675.793          44.000  
R06  24558377.255   131048282.336        1488.245          42.000                                                                  
G27  25429967.526   133635388.201        1701.179          48.000    25429965.366   104131474.237        1325.851          43.000  
E33  30194373.451                       -2827.510          30.000    30194367.603   121580336.002       -2166.443          44.000  
E31  28733247.026   150994356.620       -3395.395          46.000    28733251.389   115697044.794       -2601.594          49.000  
E25  28934999.335   152054387.998        1384.758          45.000    28935002.107   116509228.486        1061.071          45.000  
E14  30841494.048   162073308.752       -1466.249          45.000    30841496.176   124186016.357       -1123.511          51.000  
E19  30952327.334   162655607.131        1340.961          38.000    30952330.414   124632232.699        1027.042          42.000  
E24  26904530.568   141384303.606       -1209.109          47.000    26904532.036   108333449.171        -926.476          52.000  
E12  27198351.507   142928410.406       -1535.108          45.000    27198349.173   109516655.829       -1176.235          47.000  
E10  27034393.627   142066879.690        -548.137          48.000    27034395.275   108856636.733        -420.062          53.000  
> 2024 04 16 07 10 00.0100000  0 25                     
G18  25649499.827   134789091.491       -3149.993          43.000    25649495.752   105030435.595       -2454.330          43.000  
G26  23903679.004   125614703.684       -2346.002          48.000    23903679.108    97881595.853       -1828.094          45.000  
G23  23700923.870   124549410.786       -1008.087          49.000    23700920.129    97051503.049        -785.516          47.000  
G16  24121970.549   126761835.990         559.309          47.000                                                                  
R05  26207038.956   140091775.358       -2443.169          47.000    26207034.810   108960292.671       -1900.148          42.000  
R11  23995428.719   128224387.527       -3775.278          51.000    23995426.973    99730134.966       -2936.311          50.000  
R21  23778834.606   127245528.185       -1693.646          53.000    23778831.424    98968813.134       -1317.316          49.000  
G29  28006539.047   147175403.380       -3136.125          41.000    28006538.254   114682172.494       -2443.704          41.000  
S33  42885164.683   225363125.733        -640.875          42.000  
S31  41931078.236   220349379.436        -641.027          44.000  
G10  24008984.474   126168212.131        1744.135          50.000    24008984.301    98312881.955        1359.183          46.000  
E11  27089320.496   142355337.300         498.862          44.000    27089320.044   109077518.243         382.214          46.000  
R12  24171693.663   129120882.773         474.995          50.000    24171693.066   100427479.489         369.449          50.000  
R22  24156407.841   128948629.370         557.898          50.000    24156406.314   100293421.071         434.038          51.000  
R07  26393769.683   141287851.234        3439.695          46.000    26393767.822   109890601.066        2675.488          44.000  
R06  24550065.765   131003934.074        1467.975          42.000                                                                  
G27  25420261.401   133584385.167        1698.865          47.000    25420259.778   104091731.658        1323.831          42.000  
E31  28752648.129   151096312.141       -3402.027          45.000    28752653.059   115775166.539       -2606.592          49.000  
E25  28927120.077   152012984.306        1375.327          45.000    28927122.817   116477503.619        1053.801          45.000  
E14  30849844.182   162117192.468       -1459.530          45.000    30849847.095   124219641.532       -1118.238          51.000  
E19  30944686.023   162615452.421        1336.042          38.000    30944688.993   124601464.979        1023.660          41.000  
E24  26911472.382   141420785.122       -1223.115          47.000    26911474.377   108361402.537        -937.225          52.000  
E12  27207127.107   142974527.462       -1539.535          46.000    27207124.960   109551992.323       -1179.592          47.000  
E10  27037539.870   142083415.531        -554.350          48.000    27037541.758   108869307.021        -424.726          53.000  
E33                                                                  30210503.752   121645309.931       -2165.318          45.000  
> 2024 04 16 07 10 30.0100000  0 26                     
G18  25667488.639   134883624.782       -3152.798          43.000    25667484.203   105104097.933       -2456.689          43.000  
G26  23917120.792   125685339.186       -2363.623          47.000    23917121.152    97936636.497       -1841.803          46.000  
G23  23706737.593   124579959.285       -1028.937          49.000    23706733.292    97075307.060        -801.752          47.000  
G16  24118828.321   126745323.868         541.077          46.000                                                                  
R05  26220813.272   140165406.812       -2466.168          48.000    26220810.187   109017561.689       -1918.089          43.000  
R11  24016671.486   128337899.642       -3792.618          52.000    24016669.851    99818422.109       -2949.836          51.000  
R21  23788339.114   127296387.156       -1697.302          53.000    23788335.906    99008370.176       -1320.258          48.000  
G29  28024452.359   147269542.057       -3140.814          39.000    28024451.356   114755527.241       -2447.121          38.000  
S33  42888822.069   225382343.103        -641.161          42.000  
S31  41934736.225   220368603.559        -641.007          44.000  
G10  23999075.384   126116139.015        1726.823          51.000    23999074.830    98272305.637        1345.634          47.000  
E11  27086490.594   142340465.760         492.427          44.000    27086489.544   109066123.182         377.291          45.000  
R12  24169097.808   129107016.953         448.824          51.000    24169097.268   100416694.989         349.088          50.000  
R22  24153286.646   128931973.209         552.133          50.000    24153285.801   100280466.286         429.416          50.000  
R07  26374492.222   141184656.554        3439.317          47.000    26374490.751   109810338.721        2675.172          45.000  
R06  24541869.462   130960195.281        1447.550          42.000                                                                  
G27  25410567.637   133533447.616        1696.411          47.000    25410567.110   104052040.083        1321.834          43.000  
E33  30226633.737                1      -2824.508          27.000    30226631.401   121710247.605       -2164.158          46.000  
E31  28772085.549   151198456.441       -3408.163          45.000    28772090.777   115853432.907       -2611.460          49.000  
E25  28919294.322   151971860.658        1365.901          44.000    28919297.145   116445993.314        1046.500          45.000  
E14  30858155.239   162160867.584       -1452.645          45.000    30858158.155   124253106.864       -1113.032          50.000  
E19  30937069.986   162575436.874        1331.070          37.000    30937074.048   124570803.882        1019.959          41.000  
E24  26918493.128   141457680.422       -1237.048          47.000    26918495.665   108389672.963        -947.831          52.000  
E12  27215926.925   143020771.988       -1543.894          45.000    27215925.243   109587426.450       -1183.011          47.000  
E10  27040720.188   142100130.912        -560.415          48.000    27040722.457   108882114.916        -429.333          52.000  
R13                                                                  27268214.217                3       1856.692          12.000  
> 2024 04 16 07 11 00.0100000  0 25                     
G18  25685492.943   134978234.536       -3155.051          44.000    25685488.139   105177819.809       -2458.361          43.000  
G26  23930661.163   125756496.535       -2380.658          47.000    23930662.264    97992083.783       -1855.005          46.000  
G23  23712668.039   124611127.964       -1049.335          48.000    23712664.717    97099594.333        -817.627          47.000  
G16  24115790.067   126729359.584         522.808          46.000                                                                  
R05  26234715.360   140239721.498       -2488.481          48.000    26234712.689   109075362.024       -1935.702          43.000  
R11  24038009.419   128451921.913       -3809.224          52.000    24038007.327    99907106.058       -2962.751          50.000  
R21  23797863.447   127347352.515       -1700.714          53.000    23797859.263    99048009.823       -1322.748          47.000  
G29  28042390.611   147363812.223       -3144.269          40.000    28042389.861   114828984.479       -2449.878          39.000  
S33  42892479.437   225401564.571        -640.881          43.000  
S31  41938394.870   220387829.436        -640.887          44.000  
G10  23989263.778   126064581.251        1709.944          50.000    23989263.137    98232130.818        1332.421          47.000  
E11  27083694.100   142325776.319         486.719          44.000    27083694.046   109054867.679         372.844          45.000  
R12  24166649.141   129093933.764         423.091          50.000    24166648.336   100406519.197         328.898          51.000  
R22  24150198.928   128915487.862         546.662          50.000    24150197.655   100267644.311         425.239          51.000  
R07  26355215.810   141081474.008        3439.025          47.000    26355214.789   109730085.767        2674.941          44.000  
R06  24533786.799   130917067.227        1427.360          41.000                                                                  
G27  25400886.893   133482574.439        1694.777          48.000    25400886.414   104012398.624        1320.615          43.000  
E33  30242763.276   158926748.5301      -2822.617          30.000    30242749.017   121775146.922       -2162.723          46.000  
E31  28791558.934   151300785.869       -3414.016          45.000    28791563.539   115931841.108       -2615.959          49.000  
E25  28911521.323   151931016.280        1356.981          45.000    28911524.939   116414696.991        1039.720          45.000  
E14  30866426.778   162204332.365       -1445.300          45.000    30866429.166   124286411.037       -1107.411          50.000  
E19  30929481.748   162535560.250        1327.160          36.000    30929485.711   124540249.221        1016.917          41.000  
E24  26925593.119   141494986.981       -1250.448          48.000    26925594.753   108418258.514        -958.146          52.000  
E12  27224750.853   143067140.763       -1547.729          45.000    27224748.858   109622955.779       -1185.850          47.000  
E10  27043934.709   142117022.519        -566.082          47.000    27043936.841   108895057.839        -433.603          53.000  
> 2024 04 16 07 11 30.0110000  0 25                     
G18  25703511.280   135072918.125       -3157.003          44.000    25703505.481   105251599.243       -2460.258          43.000  
G26  23944300.466   125828172.010       -2397.435          47.000    23944301.102    98047934.788       -1868.188          46.000  
G23  23718716.474   124642913.161       -1069.513          48.000    23718713.226    97124362.141        -833.411          47.000  
G16  24112855.705   126713940.135         505.115          46.000                                                                  
R05  26248745.021   140314714.711       -2510.787          49.000    26248741.688   109133690.101       -1952.878          43.000  
R11  24059442.119   128566449.574       -3825.598          52.000    24059439.663    99996183.058       -2975.488          50.000  
R21  23807406.631   127398421.698       -1703.766          52.000    23807402.013    99087730.303       -1325.116          48.000  
G29  28060354.525   147458212.263       -3148.551          41.000    28060355.644   114902542.844       -2453.162          40.000  
S33  42896137.160   225420784.743        -640.287          43.000  
S31  41942053.334   220407055.803        -640.618          44.000  
G10  23979549.985   126013535.139        1693.208          50.000    23979549.232    98192354.629        1319.213          46.000  
E11  27080932.886   142311263.585         481.095          44.000    27080932.420   109043747.563         368.587          45.000  
R12  24164345.821   129081629.756         397.168          50.000    24164345.717   100396949.436         309.015          50.000  
R22  24147142.568   128899167.539         541.296          51.000    24147140.345   100254950.735         421.130          50.000  
R07  26335941.035   140978300.134        3438.985          46.000    26335941.056   109649839.550        2674.551          44.000  
R06  24525818.962   130874547.600        1407.349          41.000    24527003.848                3        919.312          10.000  
G27  25391218.452   133431761.048        1692.966          48.000    25391217.374   103972803.796        1319.138          44.000  
E31  28811066.844   151403297.989       -3419.729          46.000    28811070.995   116010389.364       -2620.219          50.000  
E25  28903801.711   151890447.145        1347.871          45.000    28903804.978   116383611.574        1032.728          46.000  
E14  30874657.373   162247584.518       -1437.771          45.000    30874659.667   124319552.303       -1101.723          50.000  
E19  30921919.638   162495818.946        1322.293          36.000    30921923.219   124509798.234        1013.394          42.000  
E24  26932770.246   141532701.628       -1263.608          48.000    26932771.552   108447156.744        -968.289          52.000  
E12  27233596.767   143113629.831       -1551.239          45.000    27233595.482   109658577.326       -1188.706          47.000  
E10  27047181.019   142134085.610        -571.398          47.000    27047183.946   108908132.179        -437.831          53.000  
E33                                                                  30258856.564   121840006.334       -2161.086          46.000  
> 2024 04 16 07 12 00.0110000  0 26                     
G18  25721542.091   135167668.252       -3159.594          43.000    25721535.343   105325430.521       -2461.956          42.000  
G26  23958037.252   125900359.364       -2414.833          47.000    23958037.538    98104184.682       -1881.819          46.000  
G23  23724881.805   124675311.800       -1090.376          47.000    23724878.184    97149607.804        -849.611          46.000  
G16  24110025.451   126699068.260         486.499          47.000                                                                  
R05  26262899.902   140390379.866       -2533.473          49.000    26262896.248   109192540.890       -1970.517          43.000  
R11  24080966.945   128681470.964       -3842.352          51.000    24080964.082   100085644.060       -2988.470          50.000  
R21  23816968.605   127449590.437       -1707.422          52.000    23816963.170    99127528.279       -1327.836          47.000  
R20  27118550.008                3      -3122.938          15.000                                                                  
G29  28078342.552   147552736.414       -3153.046          42.000    28078343.802   114976198.009       -2456.511          40.000  
S33  42899793.962   225440001.195        -640.749          42.000  
S31  41945711.488   220426278.958        -640.657          44.000  
G10  23969935.319   125963007.112        1675.456          50.000    23969934.226    98152982.159        1305.578          47.000  
E11  27078205.260   142296928.346         474.902          44.000    27078204.842   109032763.446         363.961          46.000  
R12  24162188.298   129070107.367         370.953          50.000    24162188.056   100387987.611         288.501          51.000  
R22  24144116.066   128883013.025         535.614          50.000    24144114.323   100242386.101         416.522          50.000  
R07  26316671.281   140875145.914        3438.108          46.000    26316671.450   109569608.642        2674.192          43.000  
R06  24517967.123   130832643.709        1386.383          42.000                                                                  
G27  25381561.522   133381012.467        1690.411          49.000    25381560.094   103933259.488        1317.167          44.000  
E33  30274960.746                1      -2818.541          29.000    30274953.665   121904821.477       -2160.061          45.000  
E31  28830607.507   151505984.610       -3425.902          46.000    28830611.655   116089071.302       -2625.091          50.000  
E25  28896135.197   151850157.905        1338.188          46.000    28896138.382   116352740.630        1025.436          46.000  
E14  30882847.016   162290622.168       -1431.107          45.000    30882849.558   124352529.213       -1096.591          50.000  
E19  30914384.947   162456218.022        1317.838          37.000    30914387.246   124479454.819        1009.641          41.000  
E24  26940024.433   141570822.044       -1277.511          48.000    26940025.766   108476365.886        -978.839          52.000  
E12  27242465.693   143160235.549       -1555.580          45.000    27242464.059   109694288.261       -1191.930          47.000  
E10  27050459.781   142151318.557        -577.367          46.000    27050463.379   108921336.687        -442.355          53.000  
> 2024 04 16 07 12 30.0110000  0 25                     
G18  25739586.367   135262491.477       -3162.280          44.000    25739581.556   105399318.772       -2463.806          44.000  
G26  23971872.661   125973063.902       -2432.141          48.000    23971872.773    98160837.534       -1895.198          46.000  
G23  23731164.844   124708329.214       -1110.814          47.000    23731160.881    97175335.674        -865.637          46.000  
G16  24107301.700   126684750.219         467.944          47.000                                                                  
R05  26277181.486   140466722.528       -2556.035          48.000    26277177.431   109251918.596       -1988.352          43.000  
R11  24102584.986   128796990.435       -3858.923          52.000    24102581.777   100175492.479       -3001.422          50.000  
R21  23826551.116   127500864.970       -1710.961          52.000    23826545.270    99167408.483       -1330.737          48.000  
G29  28096355.679   147647392.638       -3157.580          43.000    28096355.738   115049956.073       -2460.491          39.000  
S33  42903451.579   225459223.186        -640.872          42.000  
S31  41949370.309   220445505.728        -641.035          44.000  
G10  23960419.881   125913002.305        1657.995          49.000    23960419.012    98114017.377        1291.968          46.000  
E11  27075512.427   142282774.224         468.663          44.000    27075511.581   109021918.121         359.123          47.000  
R12  24160179.840   129059372.048         344.806          51.000    24160177.796   100379637.924         268.079          50.000  
R22  24141120.442   128867027.972         529.956          49.000    24141118.961   100229953.314         412.366          49.000  
R07  26297406.327   140772017.441        3437.067          46.000    26297404.493   109489397.757        2673.368          42.000  
R06  24510229.621   130791361.950        1365.502          41.000    24509276.308                3        905.984          11.000  
G27  25371916.997   133330333.111        1688.058          49.000    25371915.932   103893769.131        1315.346          44.000  
E31  28850182.543   151608852.433       -3432.077          46.000    28850186.554   116167892.073       -2629.737          49.000  
E25  28888522.769   151810153.552        1328.668          46.000    28888525.971   116322087.987        1018.141          46.000  
E14  30890997.515   162333452.063       -1424.353          45.000    30890999.829   124385346.920       -1091.355          50.000  
E19  30906877.726   162416763.003        1312.780          37.000    30906879.398   124449223.193        1005.890          42.000  
E24  26947356.679   141609354.020       -1291.263          48.000    26947357.990   108505890.391        -989.520          52.000  
E12  27251357.472   143206962.968       -1559.575          45.000    27251355.817   109730092.422       -1195.238          47.000  
E10  27053772.360   142168725.650        -583.145          46.000    27053775.913   108934674.611        -446.841          53.000  
E33                                                                  30291040.570   121969597.794       -2158.752          44.000  
> 2024 04 16 07 13 00.0110000  0 25                     
G18  25757643.059   135357384.708       -3164.245          44.000    25757639.946   105473261.585       -2465.460          45.000  
G26  23985805.642   126046282.041       -2449.005          48.000    23985805.882    98217890.629       -1908.276          46.000  
G23  23737565.392   124741962.870       -1131.410          48.000    23737560.978    97201543.692        -881.469          46.000  
G16  24104682.763   126670985.735         449.567          47.000                                                                  
R05  26291588.291   140543738.509       -2578.409          47.000    26291584.986   109311819.943       -2005.365          46.000  
R11  24124295.010   128913001.929       -3875.275          52.000    24124292.406   100265723.580       -3013.959          50.000  
R21  23836151.918   127552242.996       -1714.301          51.000    23836147.012    99207369.192       -1333.171          48.000  
G29  28114394.052   147742179.084       -3161.807          44.000    28114392.488   115123815.621       -2463.449          39.000  
S33  42907109.500   225478445.097        -640.655          42.000  
S31  41953029.582   220464734.579        -641.090          44.000  
G10  23951003.336   125863521.503        1640.557          49.000    23951003.320    98075460.940        1278.356          47.000  
E11  27072853.416   142268798.989         462.936          44.000    27072852.264   109011209.815         354.751          47.000  
R12  24158316.260   129049423.385         318.500          50.000    24158316.097   100371900.085         247.797          50.000  
R22  24138156.915   128851209.762         524.524          50.000    24138155.828   100217650.317         407.983          49.000  
R07  26278146.115   140668917.364        3436.244          47.000    26278143.874   109409208.959        2672.744          41.000  
R06  24502610.575   130750704.716        1344.811          41.000                                                                  
G27  25362285.877   133279722.640        1686.048          48.000    25362284.763   103854332.394        1313.778          43.000  
E33  30307118.914                1      -2815.026          28.000    30307117.442   122034333.689       -2157.168          44.000  
E31  28869790.307   151711898.197       -3437.899          44.000    28869795.380   116246849.164       -2634.089          49.000  
E25  28880964.027   151770434.060        1319.203          45.000    28880967.624   116291653.595        1011.001          46.000  
E14  30899108.498   162376073.217       -1417.207          45.000    30899110.434   124418004.675       -1085.845          50.000  
E19  30899396.277   162377454.063        1307.416          36.000    30899398.771   124419103.467        1002.207          41.000  
E24  26954767.452   141648295.708       -1304.816          48.000    26954768.258   108535728.821        -999.779          51.000  
E12  27260271.938   143253809.505       -1563.511          45.000    27260270.143   109765987.811       -1197.906          46.000  
E10  27057118.444   142186304.319        -588.853          47.000    27057121.116   108948143.982        -451.087          53.000  
> 2024 04 16 07 13 30.0110000  0 25                     
G18  25775711.663   135452339.043       -3166.171          43.000    25775709.645   105547252.024       -2467.049          46.000  
G26  23999835.026   126120004.299       -2465.875          49.000    23999835.165    98275336.542       -1921.283          45.000  
G23  23744081.226   124776204.095       -1151.650          47.000    23744076.983    97228225.093        -897.365          46.000  
G16  24102167.231   126657768.644         431.238          47.000                                                                  
R05  26306119.598   140621417.577       -2600.408          45.000    26306116.143   109372237.051       -2022.539          45.000  
R11  24146095.424   129029493.299       -3891.046          52.000    24146092.555   100356327.925       -3026.465          49.000  
R21  23845770.357   127603716.030       -1717.495          52.000    23845766.933    99247403.817       -1335.718          49.000  
G29  28132454.281   147837088.045       -3165.555          43.000    28132453.884   115197770.590       -2466.853          40.000  
S33  42910766.411   225497662.307        -640.628          42.000  
S31  41956687.529   220483957.268        -640.516          44.000  
G10  23941686.421   125814559.479        1623.289          50.000    23941686.382    98037308.813        1264.823          47.000  
E11  27070225.524   142254994.457         457.558          44.000    27070225.655   109000632.338         350.424          47.000  
R12  24156599.091   129040254.884         292.535          50.000    24156599.949   100364769.061         227.527          51.000  
R22  24135223.176   128835549.840         519.244          50.000    24135222.330   100205470.465         403.827          50.000  
R07  26258890.109   140565842.457        3435.141          46.000    26258888.093   109329039.782        2671.915          40.000  
R06  24495108.108   130710667.466        1324.129          42.000                                                                  
G27  25352666.839   133229174.843        1683.860          49.000    25352665.747   103814944.518        1312.209          43.000  
E33  30323172.420   159349409.9311      -2813.020          31.000    30323183.266   122099022.907       -2155.530          46.000  
E31  28889432.185   151815112.685       -3443.245          45.000    28889436.753   116325935.531       -2638.339          49.000  
E25  28873458.244   151730993.363        1309.905          45.000    28873462.127   116261432.834        1003.874          46.000  
E14  30907177.463   162418478.598       -1409.873          45.000    30907179.946   124450497.108       -1080.247          50.000  
E19  30891943.015   162338285.845        1302.986          36.000    30891945.203   124389091.574         998.623          41.000  
E24  26962254.554   141687639.283       -1318.170          48.000    26962254.860   108565875.188       -1010.094          51.000  
E12  27269207.806   143300766.547       -1567.090          45.000    27269205.710   109801967.925       -1200.790          46.000  
E10  27060495.091   142204045.965        -594.028          48.000    27060497.285   108961738.237        -455.270          53.000  
> 2024 04 16 07 14 00.0110000  0 25                     
G18  25793791.318   135547351.361       -3168.236          41.000    25793788.595   105621287.610       -2468.719          45.000  
G26  24013959.437   126194226.907       -2482.397          49.000    24013959.095    98333172.349       -1934.369          46.000  
G23  23750712.479   124811050.723       -1171.712          48.000    23750709.121    97255378.378        -913.063          47.000  
G16  24099755.834   126645098.635         413.257          46.000                                                                  
R05  26320774.202   140699756.096       -2622.328          44.000    26320770.539   109433167.067       -2039.453          45.000  
R11  24167983.758   129146458.383       -3906.781          52.000    24167980.849   100447300.721       -3038.538          50.000  
R21  23855406.861   127655281.893       -1720.490          52.000    23855402.686    99287510.668       -1338.234          48.000  
G29  28150537.645   147932117.485       -3169.625          45.000    28150537.192   115271819.451       -2469.810          39.000  
S33  42914421.831   225516870.892        -640.112          42.000  
S31  41960343.940   220503172.095        -640.473          44.000  
G10  23932468.121   125766116.507        1606.065          50.000    23932467.408    97999561.089        1251.587          47.000  
E11  27067630.609   142241358.292         451.750          44.000    27067630.951   108990183.848         346.035          47.000  
R12  24155029.763   129031865.684         266.626          51.000    24155028.941   100358244.165         207.416          51.000  
R22  24132319.000   128820045.623         514.246          50.000    24132318.474   100193411.680         399.969          50.000  
R07  26239639.522   140462794.493        3434.311          47.000    26239637.272   109248891.540        2671.334          40.000  
R06  24487721.147   130671252.071        1303.505          42.000                                                                  
G27  25343059.982   133178689.328        1681.718          49.000    25343057.823   103775605.186        1310.481          43.000  
E33  30339238.218   159433771.718       -2810.816          35.000    30339236.804   122163663.760       -2154.021          47.000  
E31  28909104.620   151918492.536       -3448.734          45.000    28909109.045   116405148.621       -2642.698          49.000  
E25  28866005.948   151691831.257        1300.625          45.000    28866009.587   116231425.534         996.604          46.000  
E14  30915205.661   162460667.046       -1402.907          45.000    30915208.228   124482823.321       -1074.906          50.000  
E19  30884515.527   162299258.456        1298.568          36.000    30884518.561   124359187.632         994.879          41.000  
E24  26969817.852   141727382.657       -1331.525          48.000    26969817.847   108596327.881       -1020.299          51.000  
E12  27278163.559   143347831.185       -1570.750          45.000    27278162.014   109838030.485       -1203.568          47.000  
E10  27063901.593   142221947.918        -599.407          48.000    27063903.614   108975455.335        -459.337          53.000  
> 2024 04 16 07 14 30.0110000  0 25                     
G18  25811883.626   135642420.106       -3170.089          42.000    25811880.112   105695367.164       -2470.027          45.000  
G26  24028178.187   126268947.664       -2499.042          48.000    24028177.936    98391396.318       -1947.400          46.000  
G23  23757458.037   124846501.390       -1191.785          48.000    23757455.370    97283002.355        -928.724          48.000  
G16  24097448.818   126632977.440         394.812          47.000                                                                  
R05  26335552.030   140778751.327       -2644.313          42.000    26335549.287   109494607.873       -2056.538          47.000  
R11  24189959.297   129263892.663       -3922.326          52.000    24189957.301   100538638.425       -3050.610          50.000  
R21  23865060.522   127706939.878       -1723.467          52.000    23865054.948    99327689.121       -1340.478          47.000  
G29  28168644.626   148027267.246       -3173.688          45.000    28168643.147   115345962.047       -2472.587          39.000  
S33  42918075.467   225536071.323        -639.702          42.000  
S31  41963998.998   220522379.728        -640.429          44.000  
G10  23923349.047   125718194.664        1588.648          50.000    23923347.412    97962219.439        1237.946          47.000  
E11  27065068.063   142227889.720         446.012          44.000    27065067.636   108979863.775         341.783          47.000  
R12  24153605.448   129024256.671         240.643          50.000    24153604.303   100352326.089         187.128          50.000  
R22  24129443.987   128804696.212         509.027          51.000    24129442.702   100181473.249         395.911          50.000  
R07  26220394.718   140359778.128        3433.146          48.000    26220392.504   109168767.855        2670.264          39.000  
R06  24480451.615   130632461.686        1282.150          42.000    24478888.404                3        899.778          13.000  
G27  25333465.228   133128267.311        1679.539          49.000    25333463.410   103736315.418        1308.741          42.000  
E33  30355277.268   159518069.821       -2809.151          34.000    30355278.134   122228255.817       -2152.297          46.000  
E31  28928808.547   152022036.019       -3454.366          45.000    28928812.753   116484487.082       -2646.719          49.000  
E25  28858607.378   151652949.161        1291.185          45.000    28858610.506   116201632.770         989.458          47.000  
E14  30923192.905   162502639.000       -1395.481          45.000    30923195.052   124514983.635       -1069.235          50.000  
E19  30877115.359   162260373.792        1293.645          36.000    30877118.514   124329393.046         991.132          41.000  
E24  26977456.598   141767525.463       -1344.985          48.000    26977456.842   108627086.638       -1030.523          51.000  
E12  27287139.875   143395002.112       -1574.080          44.000    27287138.769   109874174.476       -1206.177          47.000  
E10  27067337.916   142240009.003        -604.844          47.000    27067340.364   108989294.337        -463.403          53.000  
