     3.00           OBSERVATION DATA    M: Mixed            RINEX VERSION / TYPE
CONVBIN 2.4.3                           20240416 182942 UTC PGM / RUN BY / DATE 
format: u-blox UBX                                          COMMENT             
log: /home/regis/git/gnsspwv/obsdata/VERT00CHL/2024-04-16/VECOMMENT             
{self.marker}                                               MARKER NAME         
                                                            MARKER NUMBER       
GEODETIC                                                    MARKER TYPE         
{self.observer}     {self.institution}                      OBSERVER / AGENCY   
UNKNOWN             UBLOX-ZED-F9P                           REC # / TYPE / VERS 
UNKNOWN             TWIVSP6037L                             ANT # / TYPE        
  1713381.0000 -5047934.0000 -3490983.0000                  APPROX POSITION XYZ 
        0.0000        0.0000        0.0000                  ANTENNA: DELTA H/E/N
G    8 C1C L1C D1C S1C C2L L2L D2L S2L                      SYS / # / OBS TYPES 
R    8 C1C L1C D1C S1C C2C L2C D2C S2C                      SYS / # / OBS TYPES 
E    8 C1C L1C D1C S1C C7Q L7Q D7Q S7Q                      SYS / # / OBS TYPES 
S    4 C1C L1C D1C S1C                                      SYS / # / OBS TYPES 
  2024    04    16    18    15   00.0010000     GPS         TIME OF FIRST OBS   
  2024    04    16    18    29   30.0010000     GPS         TIME OF LAST OBS    
                                                            END OF HEADER       
> 2024 04 16 18 15 00.0010000  0 26                     
G13  24056314.121   126416772.1441       1454.260          42.000                                                                  
G06  24528200.289   128896435.0711      -3985.320          38.000    24528221.938   100438615.5851      -3106.112          36.000  
G07  20875910.697   109703791.5231      -2990.079          48.000    20875911.763    85483540.8361      -2329.916          47.000  
G09  22494946.102   118211688.3941      -2560.380          46.000    22494951.825    92113003.5151      -1994.895          42.000  
R05  23291974.114   124509074.5741       2488.557          34.000    23291984.696                1       1934.989          30.000  
R04  20123519.359   107760700.7911        883.530          50.000    20123517.432    83813873.1951        687.232          48.000  
R14  19361856.926   103209706.3781       -416.560          52.000    19361861.667    80274417.1751       -324.043          51.000  
G11  23621190.528   124130100.6891      -3007.953          45.000    23621199.117    96724881.8621      -2343.840          45.000  
E08  26027102.771   136773444.5301        841.552          44.000    26027109.962   104800482.7511        644.890          46.000  
S31  38973168.345   204805338.4061       -815.107          44.000  
S33  39924092.778   209802468.8371       -814.909          42.000  
G20  21126456.820   111020341.8601        206.274          46.000                                                                  
E03  23943488.563   125823945.3041       -604.155          49.000    23943493.275    96410611.6941       -462.859          50.000  
R15  21731419.752   116126391.7501       3028.755          51.000    21731429.658    90320357.8221       2355.692          48.000  
R03  20651248.448   110547777.8011      -2181.274          49.000    20651249.456    85981629.3021      -1696.464          48.000  
R13  22125909.897   118151342.9601      -4459.053          35.000    22125914.095    91895470.9381      -3468.163          42.000  
E05  24539538.788   128956060.7481      -2218.547          43.000    24539549.792    98810486.7671      -1699.812          48.000  
E13  27077750.658   142294541.5971       -997.109          39.000    27077762.336   109030899.2741       -764.112          41.000  
G05  23484595.308   123412330.0161       2204.233          45.000    23484597.225    96165507.5161       1717.898          39.000  
E15  26500312.492   139259985.0321      -3071.538          42.000    26500328.228   106705741.1631      -2353.450          50.000  
G30  20434948.034   107386588.7951       -835.472          50.000    20434950.835    83677984.8591       -651.092          45.000  
G14  22121230.420   116248000.1801       2186.511          45.000    22121237.174    90583001.6761       1703.654          46.000  
E02  25816511.970   135666823.6381       1987.469          47.000    25816524.409   103952655.4271       1522.872          49.000  
G22  24311636.115   127758646.9721       2848.776          38.000                                                                  
E24  27152322.717   142686378.1791      -2582.308          35.000    27152332.781   109331376.2621      -1978.433          46.000  
E25  24493685.649   128715422.2231        -70.936          48.000    24493694.188    98626232.2351        -54.325          53.000  
> 2024 04 16 18 15 30.0010000  0 26                     
G13  24048009.232   126373132.865        1454.639          41.000                                                                  
G06  24550951.224   129015983.174       -3984.100          40.000    24550974.401   100531769.019       -3104.488          39.000  
G07  20893010.666   109793650.987       -3000.693          48.000    20893011.511    85553561.129       -2338.043          47.000  
G09  22509578.819   118288584.263       -2566.136          45.000    22509584.878    92172922.237       -1999.486          42.000  
R05  23278007.527                        2490.220          31.000    23278010.807                3       1936.091          27.000  
R04  20118595.403   107734336.451         874.026          51.000    20118594.328    83793367.612         679.692          48.000  
R14  19364274.657   103222592.354        -442.705          52.000    19364279.649    80284439.652        -344.279          51.000  
G11  23638389.204   124220479.508       -3017.312          44.000    23638396.709    96795306.579       -2351.219          43.000  
E08  26022297.543   136748196.566         841.616          44.000    26022305.686   104781136.963         644.954          46.000  
S31  38977821.223   204829784.578        -814.968          44.000  
S33  39928744.621   209826913.245        -815.267          42.000  
G20  21125330.276   111014423.323         188.123          47.000                                                                  
E03  23946946.135   125842113.609        -607.102          49.000    23946950.643    96424532.849        -465.112          50.000  
R15  21714451.474   116035714.405        3016.284          52.000    21714459.310    90249831.322        2346.051          47.000  
R03  20663511.460   110613425.775       -2195.385          49.000    20663513.180    86032688.737       -1707.419          48.000  
R13  22150993.583   118285285.294       -4470.412          37.000    22150997.429    91999648.174       -3476.927          42.000  
E05  24552212.199   129022660.026       -2221.316          43.000    24552223.316    98861517.228       -1702.089          48.000  
E13  27083484.149   142324669.481       -1011.230          40.000    27083495.335   109053984.242        -775.064          41.000  
G05  23472034.434   123346322.541        2195.990          43.000    23472036.848    96114073.215        1711.155          40.000  
E15  26517863.793   139352227.755       -3078.136          40.000    26517881.182   106776420.302       -2358.411          50.000  
G30  20439757.575   107411863.413        -849.515          50.000    20439760.008    83697679.346        -661.847          45.000  
G14  22108777.629   116182554.663        2176.443          46.000    22108782.478    90532005.366        1695.889          45.000  
E02  25805179.532   135607273.240        1982.698          46.000    25805192.199   103907026.096        1519.071          49.000  
G22  24295372.258   127673184.154        2848.611          41.000                                                                  
E24  27167094.136   142764002.573       -2592.476          35.000    27167104.780   109390854.685       -1986.822          46.000  
E25  24494130.029   128717759.329         -84.760          47.000    24494138.908    98628023.072         -64.873          53.000  
> 2024 04 16 18 16 00.0010000  0 26                     
G13  24039703.153   126329483.695        1455.383          42.000                                                                  
G06  24573689.463   129135472.407       -3981.421          40.000    24573713.356   100624876.535       -3102.146          37.000  
G07  20910170.049   109883822.930       -3010.627          47.000    20910170.464    85623824.938       -2345.929          46.000  
G09  22524244.511   118365651.670       -2571.363          45.000    22524249.892    92232974.639       -2003.752          41.000  
R05  23264025.460                        2493.144          30.000    23264016.486                1       1939.484          27.000  
R04  20113725.546   107708260.201         864.640          51.000    20113724.579    83773086.097         672.570          48.000  
R14  19366838.352   103236258.248        -468.265          52.000    19366842.868    80295068.730        -364.197          51.000  
G11  23655641.068   124311137.300       -3026.172          44.000    23655650.498    96865948.724       -2358.168          46.000  
E08  26017491.079   136722941.219         842.205          43.000    26017499.352   104761785.549         645.330          46.000  
S31  38982472.355   204854227.021        -814.263          44.000  
S33  39933395.500   209851353.679        -814.199          42.000  
G20  21124307.753   111009050.104         170.233          47.000                                                                  
E03  23950418.978   125860366.306        -609.556          49.000    23950424.054    96438518.666        -466.993          50.000  
R15  21697551.477   115945413.273        3003.944          50.000    21697561.088    90179597.491        2336.427          48.000  
R03  20675852.159   110679492.511       -2208.888          49.000    20675855.362    86084073.841       -1718.101          49.000  
R13  22176138.486   118419560.216       -4481.427          36.000    22176143.128    92104084.040       -3485.298          42.000  
E05  24564902.626   129089342.920       -2223.761          44.000    24564912.664    98912611.745       -1703.931          48.000  
E13  27089295.618   142355210.967       -1024.720          40.000    27089307.517   109077386.078        -785.268          40.000  
G05  23459521.167   123280566.122        2188.104          44.000    23459522.746    96062834.589        1704.620          39.000  
E15  26535455.494   139444659.430       -3084.114          42.000    26535471.111   106847244.255       -2363.053          50.000  
G30  20444646.503   107437555.004        -863.194          50.000    20444647.944    83717698.751        -672.504          44.000  
G14  22096380.660   116117409.348        2166.757          48.000    22096385.719    90481242.994        1688.383          46.000  
E02  25793874.842   135547868.076        1977.977          46.000    25793887.678   103861508.048        1515.625          49.000  
G22  24279109.145   127587722.199        2849.036          41.000                                                                  
E24  27181927.783   142841945.868       -2603.367          36.000    27181936.101   109450577.385       -1994.585          46.000  
E25  24494652.531   128720506.004         -98.159          48.000    24494661.410    98630127.739         -75.205          53.000  
> 2024 04 16 18 16 30.0010000  0 26                     
G13  24031394.008   126285822.034        1455.450          42.000                                                                  
G06  24596416.002   129254897.592       -3979.906          41.000    24596439.482   100717934.269       -3101.235          38.000  
G07  20927387.351   109974302.823       -3021.205          47.000    20927388.099    85694328.717       -2354.078          46.000  
G09  22538942.607   118442888.644       -2577.512          45.000    22538946.566    92293159.121       -2007.878          40.000  
R05  23250077.844                1       2495.793          27.000    23250020.350                        1940.661          32.000  
R04  20108910.389   107682472.443         854.663          51.000    20108909.173    83753028.983         664.834          49.000  
R14  19369547.745   103250701.312        -494.460          52.000    19369552.220    80306302.293        -384.490          51.000  
G11  23672944.532   124402068.813       -3035.705          43.000    23672954.242    96936804.074       -2365.452          46.000  
E08  26012683.978   136697676.426         842.326          44.000    26012691.901   104742426.908         645.462          46.000  
S31  38987122.535   204878664.001        -814.816          44.000  
S33  39938045.381   209875788.118        -814.358          42.000  
G20  21123388.880   111004221.030         151.599          47.000                                                                  
E03  23953907.924   125878701.632        -612.538          49.000    23953913.294    96452567.807        -469.400          50.000  
R15  21680723.738   115855489.312        2991.100          51.000    21680732.780    90109657.015        2326.476          47.000  
R03  20688273.278   110745975.931       -2223.158          50.000    20688276.057    86135783.077       -1729.010          49.000  
R13  22201344.682   118554161.189       -4491.648          37.000    22201349.352    92208773.560       -3494.166          41.000  
E05  24577607.356   129156107.571       -2226.896          44.000    24577617.925    98963768.932       -1706.311          48.000  
E13  27095185.948   142386163.314       -1038.508          41.000    27095198.756   109101102.716        -795.651          42.000  
G05  23447055.106   123215060.969        2179.582          43.000    23447057.722    96011791.733        1698.337          40.000  
E15  26553078.962   139537275.662       -3090.459          41.000    26553095.789   106918209.598       -2367.903          50.000  
G30  20449613.898   107463660.156        -877.177          49.000    20449614.954    83738040.422        -683.444          44.000  
G14  22084041.263   116052565.001        2156.354          47.000    22084045.873    90430715.135        1680.108          45.000  
E02  25782598.040   135488607.825        1972.839          47.000    25782610.621   103816101.049        1511.684          49.000  
G22  24262846.622   127502261.906        2848.657          41.000                                                                  
E24  27196819.188   142920204.294       -2614.124          34.000    27196828.325   109510541.577       -2002.861          46.000  
E25  24495253.462   128723660.614        -112.060          48.000    24495261.551    98632544.958         -85.788          53.000  
> 2024 04 16 18 17 00.0010000  0 26                     
G13  24023082.375   126242148.372        1456.317          41.000                                                                  
G06  24619129.784   129374256.374       -3977.300          41.000    24619153.571   100810940.205       -3098.754          38.000  
G07  20944663.353   110065088.726       -3030.896          48.000    20944664.924    85765070.924       -2361.768          47.000  
G09  22553673.412   118520296.018       -2582.607          46.000    22553676.523    92353476.502       -2012.647          40.000  
R05  23236070.117                3       2506.564          20.000    23236010.722    96607606.4161       1943.095          37.000  
R04  20104149.128   107656976.364         845.381          51.000    20104148.084    83733198.722         657.500          48.000  
R14  19372402.927   103265921.815        -519.950          52.000    19372407.331    80318140.535        -404.471          51.000  
G11  23690299.884   124493271.507       -3044.313          43.000    23690309.100    97007870.723       -2371.996          44.000  
E08  26007875.228   136672402.783         843.101          45.000    26007882.512   104723061.475         645.968          46.000  
S31  38991772.011   204903096.770        -813.872          44.000  
S33  39942694.905   209900219.231        -814.170          42.000  
G20  21122574.078   110999937.694         134.052          48.000                                                                  
E03  23957412.834   125897120.646        -615.042          49.000    23957418.182    96466681.067        -471.165          50.000  
R15  21663966.480   115765946.579        2978.587          51.000    21663975.877    90040012.975        2316.846          49.000  
R03  20700772.252   110812877.967       -2236.812          51.000    20700772.545    86187817.841       -1739.619          48.000  
R13  22226611.002   118689084.730       -4502.625          38.000    22226616.514    92313713.899       -3501.886          40.000  
E05  24590327.363   129222955.073       -2229.444          43.000    24590338.766    99014989.560       -1708.040          48.000  
E13  27101154.503   142417526.421       -1051.799          41.000    27101166.838   109125134.085        -805.872          41.000  
G05  23434638.141   123149810.067        2171.023          43.000    23434641.318    95960946.967        1691.674          41.000  
E15  26570739.474   139630074.785       -3095.976          42.000    26570755.098   106989315.032       -2372.188          50.000  
G30  20454659.841   107490178.210        -890.467          48.000    20454662.180    83758703.828        -693.909          45.000  
G14  22071759.104   115988025.100        2146.581          47.000    22071763.482    90380424.491        1672.718          44.000  
E02  25771349.136   135429494.855        1968.317          46.000    25771361.580   103770806.889        1508.156          50.000  
G22  24246585.110   127416805.797        2848.761          40.000                                                                  
E24  27211772.686   142998776.896       -2624.133          37.000    27211780.389   109570746.520       -2010.541          46.000  
E25  24495931.561   128727224.226        -125.214          48.000    24495939.592    98635275.574         -95.994          52.000  
> 2024 04 16 18 17 30.0010000  0 26                     
G13  24014769.419   126198461.574        1456.341          42.000                                                                  
G06  24641830.828   129493544.488       -3975.291          40.000    24641853.784   100903891.123       -3097.583          37.000  
G07  20961997.031   110156176.695       -3041.279          48.000    20961998.347    85836048.510       -2369.732          47.000  
G09  22568434.540   118597872.742       -2588.808          44.000    22568439.366    92413925.741       -2017.436          41.000  
R05  23221991.407                3       2490.915          17.000    23221991.858    96549296.701        1944.333          38.000  
R04  20099442.104   107631773.264         835.166          50.000    20099441.966    83713596.338         649.640          48.000  
R14  19375403.600   103281918.215        -546.186          51.000    19375409.013    80330582.242        -424.718          52.000  
G11  23707705.880   124584741.099       -3053.555          42.000    23707715.744    97079145.395       -2379.280          45.000  
E08  26003064.288   136647119.149         842.884          45.000    26003071.523   104703688.388         645.723          47.000  
S31  38996419.865   204927522.141        -813.927          42.000  
S33  39947342.254   209924642.605        -814.281          43.000  
G20  21121862.953   110996200.567         115.448          47.000                                                                  
E03  23960934.056   125915622.496        -618.123          49.000    23960938.934    96480857.799        -473.570          50.000  
R15  21647281.294   115676786.787        2965.531          51.000    21647290.025    89970666.770        2306.549          49.000  
R03  20713346.918   110880197.234       -2250.959          51.000    20713347.396    86240177.141       -1750.715          47.000  
R13  22251938.103   118824325.551       -4513.320          40.000    22251942.796    92418901.092       -3510.444          39.000  
E05  24603064.075   129289884.461       -2232.309          44.000    24603075.272    99066272.998       -1710.490          49.000  
E13  27107200.891   142449298.412       -1066.115          41.000    27107212.864   109149478.765        -817.101          42.000  
G05  23422270.463   123084814.936        2162.387          43.000    23422273.362    95910301.496        1684.901          41.000  
E15  26588431.809   139723053.334       -3102.370          41.000    26588448.457   107060557.968       -2377.067          50.000  
G30  20459784.700   107517106.685        -904.476          49.000    20459787.001    83779687.053        -704.855          45.000  
G14  22059535.550   115923791.302        2135.972          47.000    22059539.904    90330372.371        1664.440          45.000  
E02  25760128.091   135370529.721        1962.819          46.000    25760140.034   103725626.014        1504.092          49.000  
G22  24230324.225   127331355.906        2848.132          39.000                                                                  
E24  27226783.478   143077661.054       -2634.735          36.000    27226791.178   109631190.177       -2018.890          45.000  
E25  24496687.214   128731196.166        -139.328          48.000    24496695.334    98638319.086        -106.772          53.000  
> 2024 04 16 18 18 00.0010000  0 26                     
G13  24006453.442   126154762.067        1456.750          43.000                                                                  
G06  24664517.499   129612759.559       -3972.390          41.000    24664539.724   100996785.027       -3095.608          38.000  
G07  20979387.767   110247564.707       -3051.270          49.000    20979388.769    85907259.882       -2377.546          47.000  
G09  22583229.682   118675619.694       -2594.277          44.000    22583234.982    92474507.629       -2021.243          41.000  
R05  23207972.917                        2502.281          30.000    23207957.562    96490933.346        1945.956          35.000  
R04  20094790.981   107606866.557         825.192          51.000    20094790.798    83694224.461         641.899          48.000  
R14  19378549.937   103298690.469        -571.928          52.000    19378555.260    80343627.345        -444.865          51.000  
G11  23725163.202   124676475.036       -3062.354          43.000    23725173.018    97150626.003       -2386.061          45.000  
E08  25998250.808   136621826.159         843.308          45.000    25998257.823   104684308.123         646.110          46.000  
S31  39001067.275   204951942.565        -813.810          42.000  
S33  39951988.624   209949060.618        -813.926          44.000  
G20  21121255.837   110993010.924          97.119          47.000                                                                  
E03  23964471.173   125934208.326        -620.912          49.000    23964475.570    96495098.880        -475.689          50.000  
R15  21630668.150   115588013.863        2952.683          51.000    21630676.748    89901621.428        2296.645          48.000  
R03  20726001.136   110947935.527       -2264.930          51.000    20726002.300    86292862.389       -1761.585          48.000  
R13  22277323.094   118959880.170       -4523.744          41.000    22277328.143    92524332.292       -3518.374          39.000  
E05  24615816.274   129356896.658       -2235.085          43.000    24615827.346    99117619.867       -1712.465          49.000  
E13  27113323.809   142481479.169       -1079.245          41.000    27113336.499   109174136.674        -827.120          41.000  
G05  23409951.673   123020078.728        2153.439          43.000    23409954.458    95859857.818        1678.144          41.000  
E15  26606160.088   139816209.657       -3108.288          42.000    26606175.962   107131937.109       -2381.504          50.000  
G30  20464986.402   107544444.869        -918.017          49.000    20464989.306    83800989.527        -715.444          45.000  
G14  22047371.193   115859867.073        2125.800          47.000    22047376.546    90280561.502        1656.273          46.000  
E02  25748935.334   135311714.842        1958.120          45.000    25748947.977   103680560.275        1500.345          49.000  
G22  24214065.099   127245915.513        2847.876          41.000                                                                  
E24  27241852.461   143156855.843       -2644.940          36.000    27241861.823   109691871.839       -2026.727          45.000  
E25  24497520.452   128735577.538        -152.854          48.000    24497528.739    98641676.283        -117.067          52.000  
> 2024 04 16 18 18 30.0010000  0 26                     
G13  23998135.620   126111052.669        1457.147          43.000                                                                  
G06  24687190.235   129731901.524       -3970.336          41.000    24687212.106   101089621.973       -3093.667          37.000  
G07  20996835.994   110339253.657       -3061.371          49.000    20996836.873    85978705.767       -2385.413          47.000  
G09  22598058.231   118753540.071       -2600.259          45.000    22598063.407    92535224.690       -2026.388          42.000  
R05  23193902.059   123984690.6331       2503.913          33.000    23193909.000    96432519.512        1948.043          32.000  
R04  20090196.593   107582261.590         814.995          51.000    20090195.717    83675087.293         633.867          49.000  
R14  19381841.253   103316240.540        -597.999          51.000    19381847.271    80357277.445        -465.123          52.000  
G11  23742670.431   124768473.166       -3070.691          43.000    23742679.790    97222312.481       -2392.982          45.000  
E08  25993436.514   136596526.824         843.442          46.000    25993443.778   104664923.010         646.225          47.000  
S31  39005713.539   204976359.375        -813.847          43.000  
S33  39956635.281   209973475.979        -813.709          42.000  
G20  21120753.981   110990373.161          78.656          48.000                                                                  
E03  23968024.000   125952881.476        -623.820          48.000    23968029.064    96509406.870        -477.934          50.000  
R15  21614130.001   115499634.558        2939.253          51.000    21614137.505    89832882.242        2286.019          49.000  
R03  20738734.854   111016096.062       -2279.073          51.000    20738735.951    86345876.022       -1772.529          49.000  
R13  22302766.447   119095747.625       -4534.285          41.000    22302772.111    92630006.864       -3526.695          39.000  
E05  24628584.692   129423995.089       -2238.050          43.000    24628595.517    99169032.786       -1714.987          48.000  
E13  27119525.312   142514071.062       -1093.265          41.000    27119538.653   109199109.573        -837.671          42.000  
G05  23397683.021   122955607.122        2144.421          44.000    23397685.706    95809620.311        1671.310          41.000  
E15  26623921.807   139909544.413       -3114.204          43.000    26623937.782   107203452.960       -2386.089          50.000  
G30  20470267.339   107572194.455        -931.969          49.000    20470270.207    83822612.568        -726.196          46.000  
G14  22035266.429   115796258.255        2115.089          47.000    22035272.457    90230996.388        1647.892          46.000  
E02  25737772.015   135253054.889        1952.742          45.000    25737784.602   103635613.276        1496.205          48.000  
G22  24197807.889   127160489.672        2847.192          41.000                                                                  
E24  27256983.559   143236362.738       -2655.139          36.000    27256990.949   109752792.648       -2034.706          44.000  
E25  24498432.927   128740371.744        -166.719          48.000    24498441.047    98645349.801        -127.754          52.000  
> 2024 04 16 18 19 00.0010000  0 26                     
G13  23989816.434   126067337.235        1457.196          44.000                                                                  
G06  24709849.100   129850971.068       -3967.802          41.000    24709871.236   101182402.594       -3091.499          37.000  
G07  21014341.742   110431244.743       -3071.435          48.000    21014341.857    86050387.059       -2393.372          46.000  
G09  22612919.973   118831637.753       -2606.157          45.000    22612925.605    92596079.884       -2030.818          42.000  
R05  23179841.098   123909527.708        2506.513          39.000    23179847.372                        1949.087          31.000  
R04  20085659.457   107557964.887         804.694          51.000    20085658.414    83656189.883         625.732          48.000  
R14  19385281.083   103334572.164        -624.120          51.000    19385286.978    80371535.390        -485.448          52.000  
G11  23760228.000   124860736.173       -3079.692          42.000    23760237.097    97294205.330       -2399.836          45.000  
E08  25988621.206   136571225.073         843.292          45.000    25988628.714   104645536.022         646.126          47.000  
S31  39010360.222   205000777.377        -813.878          42.000  
S33  39961281.778   209997891.969        -813.708          43.000  
G20  21120358.246   110988291.903          60.071          48.000                                                                  
E03  23971594.761   125971646.212        -626.994          48.000    23971600.277    96523785.003        -480.403          51.000  
R15  21597665.957   115411655.670        2925.807          51.000    21597673.263    89764454.563        2275.531          48.000  
R03  20751547.249   111084683.393       -2293.440          52.000    20751549.877    86399221.612       -1783.870          48.000  
R13  22328267.991   119231927.428       -4544.748          40.000    22328273.536    92735924.363       -3534.671          38.000  
E05  24641369.601   129491183.814       -2241.289          42.000    24641381.007    99220514.943       -1717.298          48.000  
E13  27125805.650   142547077.132       -1107.104          41.000    27125819.822   109224399.858        -848.400          42.000  
G05  23385466.245   122891406.085        2135.388          43.000    23385468.364    95759593.630        1663.916          40.000  
E15  26641716.562   140003059.114       -3120.083          42.000    26641733.168   107275106.685       -2390.877          50.000  
G30  20475626.782   107600357.940        -946.034          50.000    20475629.233    83844558.115        -736.928          45.000  
G14  22023223.483   115732971.551        2104.145          47.000    22023228.687    90181682.208        1639.485          46.000  
E02  25726640.826   135194555.547        1947.240          46.000    25726652.596   103590789.294        1491.926          48.000  
G22  24181555.332   127075085.286        2846.472          39.000                                                                  
E24  27272171.966   143316183.843       -2666.336          37.000    27272180.969   109813954.305       -2042.723          44.000  
E25  24499424.003   128745583.025        -180.669          48.000    24499432.495    98649342.902        -138.432          52.000  
> 2024 04 16 18 19 30.0010000  0 26                     
G13  23981498.552   126023624.472        1456.999          45.000                                                                  
G06  24732494.828   129969974.347       -3965.656          41.000    24732518.494   101275131.473       -3090.315          37.000  
G07  21031905.499   110523544.250       -3081.897          47.000    21031905.932    86122308.640       -2401.422          46.000  
G09  22627817.051   118909922.072       -2612.612          45.000    22627822.705    92657080.472       -2035.600          42.000  
R05  23165765.786   123834320.5053       2507.367          34.000    23165774.961    96315562.089        1950.573          33.000  
R04  20081181.969   107533988.084         793.917          51.000    20081180.776    83637541.316         617.504          48.000  
R14  19388868.026   103353693.622        -650.498          52.000    19388873.392    80386407.653        -505.925          52.000  
G11  23777837.096   124953269.836       -3088.813          45.000    23777846.275    97366309.090       -2406.781          45.000  
E08  25983807.823   136545929.822         843.085          45.000    25983815.491   104626154.035         646.063          47.000  
S31  39015008.539   205025205.108        -814.553          43.000  
S33  39965929.710   210022317.555        -814.178          43.000  
G20  21120069.716   110986777.116          41.144          48.000                                                                  
E03  23975184.577   125990511.911        -630.521          48.000    23975190.165    96538240.546        -483.113          51.000  
R15  21581278.355   115324089.605        2912.001          51.000    21581286.669    89696347.900        2264.845          48.000  
R03  20764441.423   111153706.748       -2308.029          51.000    20764443.667    86452906.309       -1795.126          48.000  
R13  22353829.832   119368424.611       -4555.083          42.000    22353835.472    92842088.723       -3543.069          37.000  
E05  24654174.289   129558472.191       -2244.447          43.000    24654185.904    99272073.428       -1719.782          48.000  
E13  27132167.928   142580505.680       -1121.280          42.000    27132180.975   109250013.821        -859.046          42.000  
G05  23373302.794   122827487.466        2125.883          43.000    23373304.739    95709787.031        1656.345          40.000  
E15  26659547.827   140096760.501       -3126.541          43.000    26659564.440   107346903.441       -2395.573          50.000  
G30  20481066.346   107628942.939        -959.936          49.000    20481068.625    83866832.141        -747.847          46.000  
G14  22011243.141   115670018.664        2092.864          47.000    22011248.857    90132628.228        1630.707          46.000  
E02  25715541.421   135136227.518        1941.387          45.000    25715553.255   103546096.582        1487.630          48.000  
G22  24165309.420   126989713.524        2845.306          39.000                                                                  
E24  27287422.360   143396326.851       -2676.454          38.000    27287432.038   109875362.559       -2051.105          44.000  
E25  24500496.850   128751220.824        -194.971          48.000    24500505.356    98653662.808        -149.438          52.000  
> 2024 04 16 18 20 00.0010000  0 26                     
G13  23973177.590   125979899.262        1457.799          44.000                                                                  
G06  24755124.618   130088893.175       -3962.490          40.000    24755149.400   101367794.578       -3087.487          39.000  
G07  21049524.824   110616134.697       -3091.125          47.000    21049525.047    86194456.973       -2408.649          46.000  
G09  22642747.094   118988377.998       -2617.892          45.000    22642752.617    92718214.811       -2040.109          42.000  
R05  23151672.231   123758935.0441       2510.104          37.000    23151693.708    96257016.138        1952.431          32.000  
R04  20076762.050   107510318.518         783.961          52.000    20076761.443    83619131.649         609.741          48.000  
R14  19392601.151   103373589.122        -676.023          52.000    19392605.765    80401881.965        -525.743          52.000  
G11  23795493.247   125046055.941       -3097.116          44.000    23795503.735    97438609.580       -2413.253          46.000  
E08  25978992.156   136520626.107         843.845          44.000    25978999.999   104606765.554         646.470          47.000  
S31  39019655.809   205049627.113        -813.920          43.000  
S33  39970576.827   210046737.574        -813.938          42.000  
G20  21119886.724   110985814.909          23.138          48.000                                                                  
E03  23978790.899   126009463.955        -633.004          47.000    23978797.020    96552762.222        -485.119          51.000  
R15  21564966.119   115236924.276        2899.007          51.000    21564973.499    89628552.879        2254.797          47.000  
R03  20777414.174   111223151.737       -2321.754          52.000    20777416.180    86506918.980       -1805.775          48.000  
R13  22379447.511   119505220.035       -4564.785          42.000    22379452.597    92948485.035       -3549.891          38.000  
E05  24666994.744   129625845.459       -2247.103          43.000    24667007.091    99323696.951       -1721.805          49.000  
E13  27138607.609   142614340.786       -1134.680          42.000    27138619.326   109275939.331        -869.247          42.000  
G05  23361190.462   122763838.214        2117.433          42.000    23361192.418    95660190.331        1649.961          40.000  
E15  26677410.201   140190631.158       -3131.634          42.000    26677427.517   107418829.907       -2399.608          49.000  
G30  20486581.927   107657932.985        -973.012          48.000    20486584.871    83889421.783        -758.075          45.000  
G14  21999324.789   115607387.406        2082.508          47.000    21999331.070    90083824.843        1622.546          46.000  
E02  25704472.540   135078057.401        1936.401          46.000    25704483.118   103501524.853        1483.825          48.000  
G22  24149067.560   126904362.353        2844.922          41.000                                                                  
E24  27302732.628   143476775.056       -2686.802          38.000    27302741.030   109937004.605       -2058.771          43.000  
E25  24501648.377   128757270.413        -208.392          48.000    24501656.636    98658298.261        -159.667          52.000  
> 2024 04 16 18 20 30.0010000  0 26                     
G13  23964854.885   125936164.361        1457.922          45.000                                                                  
G06  24777738.580   130207727.498       -3960.035          39.000    24777764.677   101460391.867       -3085.636          39.000  
G07  21067199.334   110709016.445       -3101.111          48.000    21067199.829    86266832.306       -2416.333          45.000  
G09  22657709.017   119067008.756       -2624.088          43.000    22657714.919    92779485.369       -2044.753          42.000  
R05  23137589.720   123683603.717        2511.931          36.000    23137602.352    96198425.380        1953.814          33.000  
R04  20072400.148   107486961.557         773.169          51.000    20072399.804    83600965.152         601.369          49.000  
R14  19396477.971   103394260.497        -702.168          51.000    19396483.590    80417959.702        -546.091          51.000  
G11  23813198.739   125139094.230       -3105.098          44.000    23813208.427    97511106.536       -2419.998          45.000  
E08  25974175.389   136495316.923         843.474          44.000    25974183.603   104587372.863         646.365          47.000  
S31  39024302.897   205074046.313        -813.899          44.000  
S33  39975223.344   210071155.888        -813.992          42.000  
G20  21119809.677   110985409.085           4.016          48.000                                                                  
E03  23982414.381   126028505.752        -636.330          48.000    23982420.639    96567352.655        -487.579          52.000  
R15  21548730.005   115150165.620        2884.958          51.000    21548738.356    89561074.217        2243.727          48.000  
R03  20790466.898   111293021.887       -2336.232          52.000    20790467.527    86561262.295       -1817.104          47.000  
R13  22405121.076   119642312.099       -4574.832          43.000    22405125.697    93055112.147       -3558.237          39.000  
E05  24679834.198   129693306.864       -2250.342          43.000    24679844.711    99375388.004       -1724.282          49.000  
E13  27145123.312   142648584.631       -1148.132          41.000    27145135.743   109302178.078        -879.830          42.000  
G05  23349129.759   122700463.686        2107.772          40.000    23349133.414    95610807.665        1642.681          41.000  
E15  26695305.154   140284671.739       -3137.453          41.000    26695323.037   107490886.563       -2404.136          48.000  
G30  20492176.708   107687329.724        -986.783          49.000    20492179.479    83912328.320        -768.918          45.000  
G14  21987468.908   115545083.523        2071.201          47.000    21987474.172    90035276.543        1613.850          46.000  
E02  25693433.388   135020049.894        1930.597          45.000    25693444.620   103457077.744        1479.327          48.000  
G22  24132830.598   126819037.076        2843.829          43.000                                                                  
E24  27318099.194   143557529.730       -2696.866          39.000    27318108.016   109998881.525       -2066.683          43.000  
E25  24502879.787   128763735.172        -222.626          49.000    24502886.813    98663251.790        -170.566          52.000  
> 2024 04 16 18 21 00.0010000  0 26                     
G13  23956532.489   125892428.352        1457.958          45.000                                                                  
G06  24800338.047   130326483.101       -3957.256          39.000    24800363.630   101552927.818       -3083.279          39.000  
G07  21084930.752   110802195.828       -3110.809          47.000    21084931.351    86339439.528       -2423.938          45.000  
G09  22672706.837   119145823.069       -2630.113          44.000    22672711.559    92840898.929       -2049.369          40.000  
R05  23123488.916   123608225.175        2513.394          33.000    23123501.065                1       1953.750          31.000  
R04  20068099.018   107463928.838         762.491          51.000    20068098.183    83583050.845         593.034          49.000  
R14  19400503.476   103415716.176        -728.236          52.000    19400508.470    80434647.446        -566.318          51.000  
G11  23830952.364   125232390.252       -3114.188          44.000    23830962.389    97583804.304       -2426.564          46.000  
E08  25969359.394   136470010.980         843.377          43.000    25969367.939   104567982.678         646.318          47.000  
S31  39028950.671   205098470.900        -814.218          44.000  
S33  39979870.885   210095578.361        -814.255          42.000  
G20  21119840.117   110985569.497         -14.691          48.000                                                                  
E03  23986056.062   126047646.375        -639.711          48.000    23986063.055    96582018.831        -490.073          52.000  
R15  21532573.267   115063826.037        2870.978          52.000    21532581.154    89493921.506        2232.880          48.000  
R03  20803600.084   111363325.983       -2350.666          51.000    20803600.678    86615943.158       -1828.328          47.000  
R13  22430850.469   119779705.407       -4584.783          43.000    22430855.464    93161973.488       -3565.745          39.000  
E05  24692690.821   129760865.444       -2253.779          44.000    24692700.999    99427153.502       -1726.806          49.000  
E13  27151719.752   142683245.241       -1162.307          41.000    27151731.972   109328736.111        -890.538          43.000  
G05  23337124.255   122637375.698        2098.386          40.000    23337128.298    95561648.304        1634.789          41.000  
E15  26713234.334   140378888.618       -3143.384          41.000    26713251.861   107563078.291       -2408.739          46.000  
G30  20497849.995   107717140.435       -1000.566          49.000    20497852.289    83935557.434        -779.542          46.000  
G14  21975677.931   115483118.508        2059.869          48.000    21975682.720    89986992.290        1605.115          46.000  
E02  25682426.682   134962215.415        1924.933          44.000    25682439.647   103412763.231        1474.950          49.000  
G22  24116600.599   126733748.793        2842.249          43.000                                                                  
E24  27333522.203   143638598.028       -2707.476          36.000    27333534.626   110060998.772       -2074.553          42.000  
E25  24504189.745   128770624.129        -236.697          48.000    24504197.314    98668530.377        -181.472          52.000  
> 2024 04 16 18 21 30.0010000  0 26                     
G13  23948209.525   125848691.919        1458.020          44.000                                                                  
G06  24822921.526   130445157.668       -3954.193          39.000    24822947.199   101645400.612       -3081.095          41.000  
G07  21102718.651   110895670.926       -3120.618          48.000    21102719.449    86412277.215       -2431.641          45.000  
G09  22687739.737   119224821.969       -2636.211          44.000    22687744.291    92902456.347       -2054.381          40.000  
R05  23109382.147   123532801.521        2515.309          34.000    23109405.844                3       1964.749          23.000  
R04  20063859.061   107441223.567         751.483          51.000    20063857.590    83565391.188         584.478          49.000  
R14  19404675.169   103437955.697        -754.303          51.000    19404680.796    80451944.863        -586.628          51.000  
G11  23848755.675   125325941.502       -3122.412          45.000    23848764.701    97656700.961       -2433.131          45.000  
E08  25964544.386   136444709.076         843.486          43.000    25964552.733   104548595.611         646.235          46.000  
S31  39033599.929   205122902.476        -814.416          43.000  
S33  39984519.734   210120007.814        -814.302          42.000  
G20  21119978.699   110986297.712         -33.472          48.000                                                                  
E03  23989717.405   126066887.015        -642.807          48.000    23989724.458    96596761.647        -492.592          52.000  
R15  21516494.070   114977909.139        2856.978          51.000    21516502.915    89427097.521        2221.998          48.000  
R03  20816815.140   111434065.863       -2365.100          52.000    20816816.228    86670962.922       -1839.526          48.000  
R13  22456635.959   119917397.266       -4594.470          43.000    22456641.751    93269067.046       -3573.401          40.000  
E05  24705563.993   129828522.184       -2256.558          42.000    24705575.669    99478994.222       -1729.053          50.000  
E13  27158393.437   142718322.353       -1176.004          41.000    27158406.921   109355613.294        -901.075          44.000  
G05  23325173.679   122574577.320        2088.499          41.000    23325178.210    95512714.570        1627.388          40.000  
E15  26731197.833   140473280.205       -3149.101          42.000    26731214.281   107635403.853       -2412.921          45.000  
G30  20503601.514   107747364.399       -1014.128          50.000    20503603.826    83959108.568        -790.272          46.000  
G14  21963950.959   115421495.849        2048.452          47.000    21963956.855    89938974.830        1596.168          47.000  
E02  25671455.466   134904556.411        1919.145          45.000    25671467.087   103368583.169        1470.530          49.000  
G22  24100378.034   126648500.985        2841.180          44.000                                                                  
E24  27349011.762   143719979.164       -2717.778          40.000    27349020.993   110123355.682       -2082.312          41.000  
E25  24505581.549   128777938.324        -250.718          49.000    24505589.307    98674134.790        -192.121          52.000  
> 2024 04 16 18 22 00.0010000  0 26                     
G13  23939886.441   125804956.730        1458.089          44.000                                                                  
G06  24845489.399   130563749.989       -3951.072          38.000    24845515.288   101737809.329       -3079.259          40.000  
G07  21120562.130   110989441.063       -3130.365          48.000    21120563.391    86485344.790       -2439.258          46.000  
G09  22702809.640   119304007.449       -2642.507          44.000    22702813.913    92964159.164       -2059.013          42.000  
R05  23095275.375                3       2516.189          23.000    23095275.700                1       1956.942          30.000  
R04  20059681.322   107418850.235         740.375          51.000    20059680.151    83547989.716         575.739          50.000  
R14  19408995.089   103460980.035        -780.459          52.000    19409000.388    80469852.677        -606.993          51.000  
G11  23866605.849   125419746.660       -3130.903          43.000    23866615.881    97729795.462       -2439.729          45.000  
E08  25959731.472   136419413.090         843.099          44.000    25959738.560   104529213.071         645.930          46.000  
S31  39038250.276   205147341.226        -814.679          43.000  
S33  39989170.238   210144445.647        -814.594          42.000  
G20  21120226.140   110987596.509         -52.667          48.000                                                                  
E03  23993398.114   126086229.907        -646.356          47.000    23993405.322    96611582.796        -495.262          52.000  
R15  21500496.368   114892419.943        2842.536          52.000    21500504.688    89360606.224        2210.916          49.000  
R03  20830112.127   111505243.372       -2379.755          52.000    20830113.203    86726323.096       -1850.892          49.000  
R13  22482476.161   120055385.084       -4604.010          41.000    22482482.680    93376390.816       -3581.087          41.000  
E05  24718458.622   129896279.353       -2260.043          43.000    24718469.268    99530911.925       -1731.901          49.000  
E13  27165148.252   142753817.056       -1190.145          41.000    27165161.827   109382810.430        -911.920          45.000  
G05  23313279.638   122512072.832        2078.614          41.000    23313284.048    95464009.868        1619.619          41.000  
E15  26749192.898   140567845.992       -3154.918          42.000    26749209.377   107707862.948       -2417.463          43.000  
G30  20509431.534   107778002.084       -1027.985          50.000    20509433.094    83982982.119        -801.144          45.000  
G14  21952290.584   115360220.167        2036.956          48.000    21952296.056    89891227.763        1586.999          47.000  
E02  25660517.377   134847076.495        1913.156          46.000    25660528.931   103324540.329        1465.865          49.000  
G22  24084163.903   126563297.888        2839.392          44.000                                                                  
E24  27364556.602   143801673.218       -2728.112          40.000    27364566.487   110185952.430       -2090.465          41.000  
E25  24507054.686   128785679.997        -265.100          49.000    24507062.655    98680066.739        -203.177          52.000  
> 2024 04 16 18 22 30.0010000  0 26                     
G13  23931563.910   125761221.574        1457.636          44.000                                                                  
G06  24868040.899   130682255.945       -3949.050          38.000    24868067.647   101830150.754       -3077.313          39.000  
G07  21138461.683   111083502.910       -3140.601          47.000    21138463.059    86558639.634       -2447.113          46.000  
G09  22717912.989   119383378.334       -2649.058          44.000    22717919.282    93026006.436       -2064.276          43.000  
R05  23081188.865                        2518.201          24.000    23081142.408    95963735.1311       1957.423          32.000  
R04  20055565.028   107396809.918         728.819          51.000    20055564.503    83530847.262         566.823          50.000  
R14  19413461.823   103484787.101        -806.926          52.000    19413466.044    80488369.276        -627.511          50.000  
G11  23884504.734   125513801.265       -3139.508          45.000    23884513.871    97803084.318       -2446.381          43.000  
E08  25954919.145   136394121.840         842.697          44.000    25954925.672   104509834.159         645.629          46.000  
S31  39042901.989   205171787.095        -815.292          44.000  
S33  39993821.713   210168890.118        -815.242          42.000  
G20  21120581.687   110989465.508         -72.150          48.000                                                                  
E03  23997099.074   126105674.293        -650.043          48.000    23997105.286    96626481.706        -498.115          52.000  
R15  21484577.580   114807360.493        2827.837          52.000    21484586.742    89294449.116        2199.434          48.000  
R03  20843490.773   111576857.540       -2394.654          52.000    20843491.861    86782022.884       -1862.451          48.000  
R13  22508371.069   120193663.262       -4614.241          42.000    22508377.959    93483940.381       -3588.821          41.000  
E05  24731370.073   129964135.923       -2263.751          42.000    24731382.046    99582905.780       -1734.644          49.000  
E13  27171981.190   142789727.270       -1204.300          40.000    27171995.632   109410325.948        -922.701          45.000  
G05  23301441.646   122449863.051        2068.058          40.000    23301446.282    95415534.752        1612.083          41.000  
E15  26767221.058   140662582.457       -3161.169          42.000    26767238.237   107780452.815       -2421.959          44.000  
G30  20515339.474   107809050.890       -1041.982          49.000    20515341.174    84007175.994        -812.029          44.000  
G14  21940695.807   115299293.007        2024.853          47.000    21940701.510    89843752.242        1577.667          47.000  
E02  25649613.367   134789776.108        1906.696          46.000    25649624.561   103280635.005        1460.947          49.000  
G22  24067958.933   126478141.069        2837.372          44.000                                                                  
E24  27380159.755   143883677.499       -2738.947          38.000    27380171.867   110248786.804       -2098.554          41.000  
E25  24508609.285   128793848.175        -279.718          49.000    24508616.835    98686325.497        -214.313          52.000  
> 2024 04 16 18 23 00.0010000  0 26                     
G13  23923242.327   125717490.933        1457.935          44.000                                                                  
G06  24890575.926   130800677.259       -3945.306          36.000    24890603.036   101922426.226       -3074.271          37.000  
G07  21156417.512   111177858.158       -3149.817          47.000    21156417.991    86632163.096       -2454.321          46.000  
G09  22733052.978   119462939.484       -2654.673          44.000    22733060.248    93088001.937       -2068.601          44.000  
R05  23067051.316                        2519.192          30.000    23067012.876    95904980.885        1959.473          38.000  
R04  20051512.508   107375110.309         717.993          51.000    20051512.560    83513969.787         558.504          50.000  
R14  19418075.655   103509380.807        -832.625          53.000    19418079.111    80507497.724        -647.447          50.000  
G11  23902451.113   125608106.814       -3147.105          45.000    23902460.236    97876568.731       -2452.288          42.000  
E08  25950108.828   136368840.095         842.768          44.000    25950114.823   104490462.531         645.810          46.000  
S31  39047556.214   205196244.163        -815.187          43.000  
S33  39998475.901   210193346.447        -814.806          43.000  
G20  21121046.967   110991910.345         -90.692          48.000                                                                  
E03  24000820.038   126125225.267        -653.092          48.000    24000825.762    96641462.286        -500.406          52.000  
R15  21468742.709   114722738.485        2813.735          52.000    21468750.825    89228632.295        2188.377          48.000  
R03  20856950.423   111648913.643       -2408.813          52.000    20856952.577    86838066.396       -1873.584          49.000  
R13  22534320.684   120332232.803       -4623.606          41.000    22534327.212    93591716.606       -3596.232          41.000  
E05  24744302.622   130032096.945       -2266.712          41.000    24744314.978    99634979.625       -1736.927          49.000  
E13  27178894.441   142826056.744       -1217.560          40.000    27178908.638   109438162.757        -933.013          44.000  
G05  23289660.324   122387955.115        2058.994          42.000    23289664.620    95367294.914        1604.560          41.000  
E15  26785282.128   140757491.915       -3166.087          42.000    26785299.876   107853175.215       -2425.937          44.000  
G30  20521326.560   107840514.036       -1055.249          49.000    20521328.897    84031692.730        -822.309          46.000  
G14  21929169.808   115238721.860        2013.414          48.000    21929174.448    89796554.118        1568.885          46.000  
E02  25638745.133   134732661.677        1901.069          46.000    25638755.751   103236872.172        1456.622          49.000  
G22  24051764.406   126393038.361        2836.218          45.000                                                                  
E24  27395827.177   143965995.047       -2748.763          42.000    27395836.730   110311861.270       -2106.117          40.000  
E25  24510246.165   128802447.898        -293.520          50.000    24510252.995    98692914.915        -224.832          51.000  
> 2024 04 16 18 23 30.0010000  0 26                     
G13  23914916.903   125673740.751        1458.733          43.000                                                                  
G06  24913090.230   130918986.947       -3941.342          35.000    24913117.765   102014614.747       -3071.290          35.000  
G07  21174423.288   111272480.192       -3158.624          47.000    21174424.312    86705894.520       -2461.206          46.000  
G09  22748225.490   119542667.057       -2660.418          45.000    22748231.765    93150127.136       -2072.971          44.000  
R05  23052886.565   123231094.6631       2520.907          39.000    23052870.864    95846181.866        1960.798          37.000  
R04  20047519.702   107353729.153         707.326          52.000    20047519.479    83497339.995         550.278          50.000  
R14  19422831.397   103534735.244        -857.815          52.000    19422835.171    80527217.856        -667.124          50.000  
G11  23920440.453   125702636.041       -3154.283          45.000    23920449.424    97950227.441       -2458.212          42.000  
E08  25945294.048   136343543.856         843.545          44.000    25945301.372   104471079.795         646.496          46.000  
S31  39052208.003   205220688.693        -814.609          43.000  
S33  40003127.732   210217788.592        -814.651          42.000  
G20  21121617.140   110994908.030        -109.180          48.000                                                                  
E03  24004556.609   126144859.252        -655.732          48.000    24004562.060    96656506.474        -502.417          52.000  
R15  21452984.986   114638532.626        2799.998          52.000    21452993.664    89163139.095        2177.687          49.000  
R03  20870489.656   111721387.922       -2422.639          52.000    20870492.020    86894435.183       -1884.284          50.000  
R13  22560320.535   120471064.860       -4632.203          41.000    22560325.189    93699696.980       -3602.691          40.000  
E05  24757251.971   130100138.642       -2269.471          42.000    24757262.783    99687115.319       -1738.849          49.000  
E13  27185882.929   142862780.648       -1230.596          40.000    27185896.931   109466301.776        -943.049          44.000  
G05  23277934.283   122326328.073        2049.436          44.000    23277937.557    95319273.899        1597.073          41.000  
E15  26803371.107   140852548.031       -3170.869          40.000    26803388.782   107926009.998       -2429.758          43.000  
G30  20527388.067   107872366.091       -1068.106          49.000    20527391.026    84056512.505        -832.209          46.000  
G14  21917706.247   115178485.364        2002.307          47.000    21917711.313    89749616.783        1560.271          46.000  
E02  25627906.348   134675710.822        1895.657          45.000    25627918.363   103193234.687        1452.557          49.000  
G22  24035575.525   126307967.496        2835.449          45.000                                                                  
E24  27411547.408   144048600.228       -2758.152          44.000    27411556.449   110375156.090       -2113.633          40.000  
E25  24511959.951   128811455.411        -306.939          49.000    24511967.151    98699816.796        -235.227          51.000  
> 2024 04 16 18 24 00.0010000  0 26                     
G13  23906585.475   125629961.326        1459.857          44.000                                                                  
G06  24935581.937   131037365.0753      -3937.182          32.000    24935608.588   102106706.620       -3068.389          35.000  
G07  21192477.441   111367357.065       -3166.925          47.000    21192479.310    86779824.455       -2467.798          46.000  
G09  22763427.458   119622551.705       -2665.465          46.000    22763433.296    93212374.745       -2076.899          44.000  
R05  23038719.278   123155430.060        2523.184          39.000    23038715.719    95787331.907        1962.022          36.000  
R04  20043585.795   107332659.784         696.979          52.000    20043584.858    83480952.707         542.093          50.000  
R14  19427728.889   103560840.570        -882.733          52.000    19427732.632    80547522.008        -686.506          50.000  
G11  23938468.732   125797376.299       -3161.629          43.000    23938477.084    98024050.527       -2463.569          39.000  
E08  25940475.556   136318223.751         844.297          44.000    25940483.315   104451678.776         647.055          46.000  
S31  39056854.942   205245110.550        -813.890          43.000  
S33  40007774.625   210242209.441        -813.611          42.000  
G20  21122291.036   110998449.243        -127.264          47.000                                                                  
E03  24008307.355   126164567.238        -658.249          49.000    24008312.502    96671607.368        -504.320          53.000  
R15  21437303.583   114554736.284        2786.238          53.000    21437311.403    89097964.440        2167.061          49.000  
R03  20884105.441   111794270.314       -2436.393          53.000    20884107.229    86951121.353       -1894.887          49.000  
R13  22586365.986   120610146.049       -4640.312          40.000    22586371.017    93807871.113       -3609.330          41.000  
E05  24770212.318   130168251.836       -2271.650          41.000    24770224.434    99739305.774       -1740.626          49.000  
E13  27192943.986   142899888.611       -1243.463          40.000    27192957.925   109494735.048        -952.689          43.000  
G05  23266258.764   122264974.795        2040.442          44.000    23266262.026    95271466.233        1589.835          40.000  
E15  26821486.170   140947739.026       -3175.367          39.000    26821503.699   107998948.088       -2432.990          43.000  
G30  20533521.320   107904596.087       -1080.806          49.000    20533524.702    84081626.800        -842.226          47.000  
G14  21906306.615   115118576.867        1991.280          47.000    21906311.302    89702935.006        1551.781          46.000  
E02  25617099.168   134618915.762        1890.582          45.000    25617110.583   103149716.591        1448.620          50.000  
G22  24019391.367   126222921.983        2834.198          45.000                                                                  
E24  27427318.761   144131481.880       -2767.407          44.000    27427327.381   110438662.724       -2120.508          40.000  
E25  24513749.862   128820861.483        -320.250          49.000    24513757.032    98707024.058        -245.371          51.000  
> 2024 04 16 18 24 30.0010000  0 26                     
G13  23898251.043   125586165.689        1460.008          43.000                                                                  
G06  24958048.840                1      -3934.586          30.000    24958078.144   102198709.739       -3065.125          31.000  
G07  21210583.007   111462499.548       -3175.940          47.000    21210584.139    86853961.383       -2474.817          46.000  
G09  22778659.973   119702606.515       -2671.613          45.000    22778667.398    93274754.817       -2081.856          44.000  
R05  23024547.188   123079715.292        2524.377          40.000    23024552.164    95728442.721        1963.624          36.000  
R04  20039712.366   107311917.856         685.743          52.000    20039711.468    83464820.077         533.422          50.000  
R14  19432768.967   103587708.165        -908.453          52.000    19432773.367    80568419.047        -706.446          50.000  
G11  23956539.970   125892337.346       -3169.211          42.000    23956548.845    98098045.723       -2469.459          40.000  
E08  25935655.314   136292892.875         844.358          44.000    25935662.759   104432269.481         647.138          46.000  
S31  39061500.669   205269522.537        -813.376          43.000  
S33  40012420.071   210266619.989        -813.595          42.000  
G20  21123071.193   111002548.154        -146.014          48.000                                                                  
E03  24012073.793   126184362.636        -661.426          49.000    24012079.470    96686775.248        -506.755          52.000  
R15  21421701.997   114471366.153        2771.685          52.000    21421709.469    89033121.280        2155.761          49.000  
R03  20897798.624   111867574.849       -2450.674          52.000    20897799.804    87008135.896       -1906.100          48.000  
R13  22612459.428   120749485.451       -4649.172          37.000    22612464.582    93916246.079       -3616.024          41.000  
E05  24783190.400   130236449.847       -2274.859          41.000    24783202.512    99791561.217       -1742.993          49.000  
E13  27200081.247   142937392.714       -1257.089          40.000    27200095.154   109523471.867        -963.052          45.000  
G05  23254637.687   122203910.928        2030.505          43.000    23254642.282    95223884.078        1582.130          40.000  
E15  26839628.516   141043075.451       -3180.281          39.000    26839645.447   108071997.637       -2436.874          43.000  
G30  20539728.369   107937215.572       -1093.868          48.000    20539731.557    84107044.570        -852.476          46.000  
G14  21894971.632   115059012.049        1979.673          47.000    21894976.019    89656521.013        1542.541          46.000  
E02  25606323.880   134562291.233        1884.453          46.000    25606335.189   103106329.144        1443.945          49.000  
G22  24003215.154   126137917.472        2832.611          45.000                                                                  
E24  27443144.647   144214651.374       -2777.041          44.000    27443153.982   110502389.955       -2127.925          39.000  
E25  24515617.840   128830679.355        -334.244          49.000    24515625.355    98714546.848        -256.068          51.000  
> 2024 04 16 18 25 00.0010000  0 26                     
G13  23889915.548   125542362.320        1460.424          44.000                                                                  
G06  24980498.015                       -3929.956          27.000    24980525.411                       -3062.653          27.000  
G07  21228739.500   111557913.452       -3184.741          47.000    21228740.678    86928309.791       -2481.537          46.000  
G09  22793928.901   119782840.185       -2677.235          45.000    22793934.406    93337274.334       -2086.098          43.000  
R05  23010372.632   123003959.924        2526.081          40.000    23010380.704    95669521.940        1964.656          34.000  
R04  20035901.873   107291514.224         674.724          52.000    20035901.533    83448950.592         524.816          50.000  
R14  19437953.687   103615345.572        -933.708          52.000    19437958.256    80589914.808        -726.325          50.000  
G11  23974653.723   125987524.390       -3176.731          40.000    23974664.296    98172217.008       -2475.019          40.000  
E08  25930834.541   136267559.729         844.778          44.000    25930841.916   104412858.463         647.385          46.000  
S31  39066146.131   205293933.757        -813.497          44.000  
S33  40017065.049   210291029.592        -813.403          42.000  
G20  21123959.267   111007214.012        -164.648          47.000                                                                  
E03  24015858.355   126204254.370        -664.292          48.000    24015864.699    96702016.942        -509.078          53.000  
R15  21406181.176   114388433.329        2757.304          52.000    21406189.126    88968618.253        2144.499          49.000  
R03  20911572.974   111941310.320       -2464.753          52.000    20911574.648    87065485.565       -1916.974          49.000  
R13  22638602.235   120889087.431       -4657.137          35.000    22638608.362    94024825.246       -3622.430          42.000  
E05  24796185.801   130304741.484       -2277.604          41.000    24796198.565    99843888.402       -1745.237          49.000  
E13  27207295.601   142975300.450       -1270.153          41.000    27207308.850   109552517.930        -973.157          45.000  
G05  23243074.808   122143147.565        2020.679          43.000    23243079.434    95176536.055        1574.413          40.000  
E15  26857799.802   141138563.516       -3185.300          38.000    26857816.656   108145163.333       -2440.542          42.000  
G30  20546010.841   107970231.494       -1106.942          49.000    20546013.720    84132771.250        -862.395          46.000  
G14  21883703.815   114999802.078        1968.069          47.000    21883709.630    89610383.540        1533.398          47.000  
E02  25595583.172   134505847.379        1878.610          46.000    25595594.239   103063080.141        1439.441          50.000  
G22  23987048.519   126052964.995        2831.030          45.000                                                                  
E24  27459028.792   144298115.543       -2786.688          46.000    27459036.606   110566342.933       -2135.308          40.000  
E25  24517566.312   128840917.710        -348.050          49.000    24517573.655    98722391.834        -266.670          51.000  
> 2024 04 16 18 25 30.0010000  0 26                     
G13  23881579.272   125498553.746        1460.368          44.000                                                                  
G06  25002923.308                       -3927.367          26.000    25002950.179                       -3059.848          27.000  
G07  21246948.056   111653599.584       -3193.964          48.000    21246949.098    87002870.312       -2488.812          46.000  
G09  22809231.784   119863255.624       -2683.502          45.000    22809236.688    93399935.474       -2091.110          42.000  
R05  22996194.255   122928168.461        2527.145          41.000    22996202.518    95610573.253        1965.003          31.000  
R04  20032155.850   107271454.752         663.002          52.000    20032154.275    83433348.769         515.607          48.000  
R14  19443283.327   103643754.181        -959.805          52.000    19443288.198    80612010.387        -746.476          50.000  
G11  23992810.133   126082937.005       -3184.094          38.000    23992821.184    98246564.100       -2481.134          40.000  
E08  25926013.176   136242227.215         844.464          43.000    25926020.988   104393447.931         647.103          46.000  
S31  39070791.486   205318345.587        -813.685          44.000  
S33  40021710.568   210315440.626        -813.628          42.000  
G20  21124955.739   111012450.537        -184.027          48.000                                                                  
E03  24019663.094   126224245.707        -667.968          49.000    24019668.965    96717334.945        -511.758          53.000  
R15  21390744.939   114305943.958        2742.230          53.000    21390752.161    88904460.100        2132.917          49.000  
R03  20925428.937   112015479.710       -2479.408          52.000    20925430.211    87123172.720       -1928.407          48.000  
R13  22664794.276   121028950.478       -4666.605          34.000    22664800.612    94133607.452       -3629.574          42.000  
E05  24809201.176   130373129.838       -2281.169          42.000    24809211.974    99896289.664       -1747.848          49.000  
E13  27214587.101   143013613.711       -1283.807          41.000    27214599.763   109581874.746        -983.803          45.000  
G05  23231570.735   122082689.386        2010.272          44.000    23231574.818    95129425.832        1566.397          41.000  
E15  26875999.517   141234203.677       -3190.594          36.000    26876017.257   108218445.575       -2444.646          43.000  
G30  20552369.753   108003645.260       -1120.346          50.000    20552372.211    84158807.932        -872.844          46.000  
G14  21872504.708   114940952.548        1955.464          47.000    21872511.361    89564526.908        1523.950          47.000  
E02  25584877.397   134449588.681        1872.323          46.000    25584888.414   103019973.015        1434.558          50.000  
G22  23970892.830   125968070.018        2828.985          45.000                                                                  
E24  27474967.498   144381875.543       -2796.935          45.000    27474975.993   110630522.619       -2143.094          39.000  
E25  24519595.298   128851579.609        -362.400          48.000    24519602.453    98730561.336        -277.514          51.000  
> 2024 04 16 18 26 00.0010000  0 26                     
G13  23873241.933   125454740.716        1460.607          44.000                                                                  
G06  25025331.156                1      -3922.255          26.000    25025366.887                3      -3055.472          23.000  
G07  21265208.446   111749555.258       -3202.869          49.000    21265209.147    87077640.875       -2495.795          46.000  
G09  22824569.824   119943853.554       -2689.378          46.000    22824573.835    93462738.846       -2095.869          42.000  
R05  22982009.452   122852343.248        2528.227          44.000    22982017.044                3       1966.656          23.000  
R04  20028475.063   107251742.564         651.419          52.000    20028472.628    83418017.078         506.594          49.000  
R14  19448757.185   103672933.911        -985.258          52.000    19448762.161    80634705.726        -766.326          51.000  
G11  24011008.037   126178572.628       -3191.534          36.000    24011019.976    98321084.905       -2486.932          40.000  
E08  25921192.951   136216896.056         844.398          44.000    25921200.685   104374038.413         646.961          46.000  
S31  39075437.045   205342759.288        -813.660          43.000  
S33  40026355.554   210339852.251        -813.616          42.000  
G20  21126060.971   111018258.744        -202.917          47.000                                                                  
E03  24023486.447   126244337.727        -671.271          49.000    24023492.353    96732730.110        -514.407          53.000  
R15  21375391.046   114223901.764        2727.350          52.000    21375398.120    88840649.704        2121.279          50.000  
R03  20939366.199   112090084.360       -2493.861          52.000    20939367.772    87181198.462       -1939.575          49.000  
R13  22691033.846   121169071.723       -4675.142          33.000    22691040.991    94242590.510       -3635.772          42.000  
E05  24822233.341   130441615.765       -2284.322          42.000    24822244.248    99948765.731       -1750.377          49.000  
E13  27221954.795   143052332.168       -1296.960          40.000    27221967.671   109611542.033        -993.831          45.000  
G05  23220125.064   122022539.748        2000.098          44.000    23220128.643    95082556.062        1558.490          40.000  
E15  26894226.974   141329994.095       -3195.046          34.000    26894245.970   108291843.036       -2448.495          42.000  
G30  20558803.870   108037456.005       -1133.448          50.000    20558806.367    84185153.969        -883.161          46.000  
G14  21861375.367   114882466.728        1943.569          47.000    21861381.349    89518953.702        1514.459          47.000  
E02  25574206.374   134393517.463        1866.020          46.000    25574217.983   102977009.533        1429.812          49.000  
G22  23954749.546   125883235.968        2826.897          45.000                                                                  
E24  27490962.381   144465930.369       -2806.622          45.000    27490971.032   110694928.153       -2150.548          40.000  
E25  24521704.837   128862665.890        -376.475          49.000    24521711.933    98739056.027        -288.488          50.000  
> 2024 04 16 18 26 30.0010000  0 26                     
G13  23864902.992   125410919.827        1460.729          45.000                                                                  
G07  21283518.671   111845774.865       -3211.957          48.000    21283519.648    87152617.126       -2502.777          47.000  
G09  22839940.896   120024630.863       -2695.895          45.000    22839947.391    93525681.922       -2100.400          44.000  
R05  22967818.685   122776482.947        2529.185          43.000    22967875.172                        1967.300          26.000  
R04  20024858.458   107232376.796         639.517          52.000    20024857.083    83402954.798         497.459          50.000  
R14  19454375.004   103702879.897       -1011.148          52.000    19454379.523    80657997.049        -786.421          50.000  
G11  24029247.018   126274515.6581      -3198.828          36.000    24029260.145    98395774.387       -2492.535          38.000  
E08  25916372.379   136191563.024         844.419          44.000    25916379.824   104354627.458         647.002          46.000  
S31  39080082.594   205367171.187        -814.006          43.000  
S33  40031000.844   210364262.537        -813.506          42.000  
G20  21127274.452   111024636.188        -222.058          47.000                                                                  
E03  24027328.048   126264527.537        -674.820          49.000    24027334.235    96748200.187        -516.994          53.000  
R15  21360120.805   114142306.203        2712.129          51.000    21360128.118    88777186.721        2109.488          48.000  
R03  20953384.328   112165121.083       -2508.552          53.000    20953384.997    87239560.196       -1951.050          48.000  
R13  22717322.068   121309443.536       -4683.888          33.000    22717328.193    94351768.397       -3642.504          41.000  
E05  24835283.672   130510196.355       -2287.702          42.000    24835294.958   100001314.299       -1752.939          48.000  
E13  27229398.882   143091451.592       -1310.552          41.000    27229411.401   109641516.529       -1004.347          44.000  
G05  23208738.027   121962697.569        1989.505          45.000    23208740.789    95035925.854        1550.273          40.000  
E15  26912483.850   141425929.343       -3200.778          34.000    26912502.614   108365351.349       -2452.250          42.000  
G30  20565311.989   108071658.897       -1146.844          50.000    20565314.591    84211805.585        -893.738          46.000  
G14  21850315.070   114824344.044        1931.252          48.000    21850320.608    89473663.464        1504.760          47.000  
E02  25563572.759   134337632.093        1859.590          46.000    25563582.816   102934188.446        1424.828          49.000  
G22  23938616.676   125798461.834        2824.700          45.000                                                                  
E24  27507012.319   144550274.982       -2816.308          45.000    27507021.289   110759555.767       -2157.841          40.000  
E25  24523894.446   128874173.445        -390.749          48.000    24523901.644    98747873.496        -299.360          50.000  
G06                                                                  25047777.260                3      -3052.926          25.000  
> 2024 04 16 18 27 00.0010000  0 26                     
G13  23856562.563   125367091.835        1461.054          45.000                                                                  
G07  21301878.602   111942257.010       -3220.408          48.000    21301879.318    87227797.905       -2509.338          46.000  
G09  22855346.433   120105588.560       -2701.686          45.000    22855352.360    93588765.648       -2105.361          43.000  
R05  22953621.488   122700589.999        2529.863          41.000    22953649.346                1       1968.272          30.000  
R04  20021306.730   107213360.968         628.031          51.000    20021306.198    83388164.714         488.402          50.000  
R14  19460136.429   103733591.821       -1036.488          52.000    19460140.574    80681884.122        -806.127          49.000  
G11  24047529.185   126370581.845       -3205.554          40.000    24047542.172    98470630.646       -2498.309          37.000  
E08  25911551.923   136166229.082         844.287          43.000    25911558.573   104335215.800         646.991          46.000  
S31  39084728.385   205391582.010        -813.626          44.000  
S33  40035646.279   210388672.831        -813.661          42.000  
G20  21128596.625   111031584.483        -241.180          47.000                                                                  
E03  24031189.300   126284816.516        -678.000          48.000    24031195.190    96763746.254        -519.503          53.000  
R15  21344935.717   114061161.375        2697.234          51.000    21344942.678    88714074.268        2097.818          49.000  
R03  20967482.663   112240590.505       -2522.821          52.000    20967483.445    87298258.509       -1962.238          47.000  
R13  22743652.153   121450062.801       -4691.580          32.000    22743661.994    94461138.750       -3648.802          42.000  
E05  24848353.006   130578872.613       -2290.668          43.000    24848363.659   100053936.163       -1755.242          48.000  
E13  27236919.473   143130971.795       -1323.874          41.000    27236931.833   109671798.122       -1014.609          44.000  
G05  23197409.170   121903165.985        1979.038          44.000    23197412.193    94989537.712        1542.364          40.000  
E15  26930767.582   141522007.725       -3204.929          36.000    26930786.175   108438969.382       -2455.806          42.000  
G30  20571894.853   108106253.344       -1159.798          49.000    20571897.842    84238762.286        -903.707          46.000  
G14  21839324.665   114766588.080        1919.047          47.000    21839329.599    89428658.928        1495.267          47.000  
E02  25552972.365   134281935.062        1853.524          44.000    25552983.582   102891511.701        1420.128          48.000  
G22  23922497.003   125713751.291        2822.485          46.000                                                                  
E24  27523117.402   144634908.689       -2825.945          46.000    27523126.991   110824404.841       -2165.125          41.000  
E25  24526164.399   128886103.290        -404.700          48.000    24526171.832    98757014.547        -310.034          50.000  
G06                                                                  25070118.923                3      -3050.465          22.000  
> 2024 04 16 18 27 30.0010000  0 26                     
G13  23848222.969   125323267.186        1460.661          44.000                                                                  
G07  21320289.513   112039009.415       -3229.653          47.000    21320290.617    87303189.357       -2516.543          46.000  
G09  22870789.052   120186737.038       -2708.374          45.000    22870794.494    93651998.072       -2110.497          43.000  
R05  22939419.014   122624677.003        2530.451          41.000    22939448.691                        1969.340          24.000  
R04  20017823.702   107194708.222         615.642          52.000    20017822.917    83373657.006         478.757          50.000  
R14  19466044.145   103765078.788       -1062.647          53.000    19466047.597    80706374.001        -826.375          49.000  
G11  24065853.084   126466869.093       -3213.391          36.000    24065864.336    98545659.244       -2503.979          36.000  
E08  25906731.838   136140904.651         843.930          43.000    25906739.457   104315811.439         646.537          46.000  
S31  39089375.273   205416002.295        -814.322          44.000  
S33  40040293.428   210413091.416        -814.380          42.000  
G20  21130029.764   111039114.622        -260.675          48.000                                                                  
E03  24035071.131   126305215.438        -681.958          49.000    24035076.979    96779376.570        -522.564          53.000  
R15  21329837.469   113980480.565        2681.478          51.000    21329844.474    88651322.707        2085.523          49.000  
R03  20981663.134   112316503.632       -2537.868          51.000    20981664.400    87357301.929       -1973.866          47.000  
R13  22770033.213                       -4700.323          30.000    22770042.344    94570706.313       -3655.518          41.000  
E05  24861440.018   130647655.289       -2294.548          41.000    24861453.018   100106639.578       -1758.290          49.000  
E13  27244516.618   143170902.140       -1337.928          40.000    27244530.200   109702393.974       -1025.198          44.000  
G05  23186141.604   121843958.543        1967.922          44.000    23186145.153    94943402.134        1533.457          40.000  
E15  26949077.948   141618237.308       -3210.107          33.000    26949098.627   108512703.282       -2459.882          42.000  
G30  20578554.919   108141248.147       -1173.358          50.000    20578556.964    84266030.963        -914.305          45.000  
G14  21828405.905   114709211.757        1906.062          48.000    21828411.198    89383950.260        1485.259          48.000  
E02  25542412.029   134226438.431        1846.512          45.000    25542422.723   102848988.487        1414.711          48.000  
G22  23906392.201   125629117.263        2819.731          46.000                                                                  
E24  27539279.158   144719840.080       -2836.076          46.000    27539289.378   110889482.062       -2173.207          42.000  
E25  24528517.115   128898465.923        -419.439          48.000    24528524.461    98766487.218        -321.329          50.000  
G06                                                                  25092439.141                3      -3046.145          20.000  
> 2024 04 16 18 28 00.0010000  0 26                     
G13  23839881.609   125279436.357        1461.333          44.000                                                                  
G07  21338749.174   112136020.441       -3237.879          46.000    21338751.706    87378782.293       -2523.053          46.000  
G09  22886265.749   120268067.104       -2713.835          46.000    22886272.126    93715371.933       -2114.743          43.000  
R05  22925212.580   122548736.073        2531.916          41.000    22925214.576                3       1969.456          31.000  
R04  20014406.681   107176411.481         604.101          52.000    20014405.537    83359426.218         469.866          49.000  
R14  19472093.955   103797329.752       -1087.643          53.000    19472097.638    80731458.068        -845.844          49.000  
G11  24084216.320   126563390.0951      -3219.635          37.000    24084225.743    98620850.440       -2508.679          34.000  
E08  25901914.219   136115580.563         844.325          44.000    25901920.529   104296407.307         646.863          47.000  
S31  39094022.206   205440422.157        -814.001          43.000  
S33  40044939.862   210437510.635        -813.922          42.000  
G20  21131572.107   111047217.853        -279.553          47.000                                                                  
E03  24038972.406   126325715.463        -684.962          48.000    24038978.000    96795084.344        -524.729          53.000  
R15  21314824.150   113900257.362        2666.623          51.000    21314831.380    88588927.120        2074.138          50.000  
R03  20995926.085   112392851.004       -2552.106          52.000    20995927.069    87416683.052       -1984.924          47.000  
R13  22796458.694                       -4707.643          31.000    22796468.856    94680460.925       -3661.244          41.000  
E05  24874548.979   130716535.398       -2297.338          43.000    24874561.093   100159417.600       -1760.310          49.000  
E13  27252192.040   143211232.359       -1350.871          40.000    27252205.615   109733296.213       -1034.954          45.000  
G05  23174934.939   121785067.889        1957.836          45.000    23174938.317    94897513.366        1525.983          40.000  
E15  26967419.044   141714606.403       -3214.419          34.000    26967437.788   108586544.058       -2462.951          42.000  
G30  20585288.473   108176632.483       -1185.651          49.000    20585290.407    84293603.165        -923.908          45.000  
G14  21817558.765   114652208.486        1893.854          47.000    21817564.046    89339532.268        1475.836          48.000  
E02  25531888.859   134171134.593        1840.328          46.000    25531899.331   102806612.958        1410.180          50.000  
G22  23890299.861   125544553.431        2817.569          45.000                                                                  
E24  27555496.041   144805058.128       -2845.076          45.000    27555505.772   110954778.931       -2179.935          42.000  
E25  24530950.235   128911252.183        -433.094          48.000    24530957.790    98776284.477        -331.841          50.000  
G06                                                                  25114746.974                3      -3041.821          14.000  
> 2024 04 16 18 28 30.0010000  0 25                     
G13  23831537.410   125235585.878        1461.858          44.000                                                                  
G07  21357255.990   112233274.280       -3246.002          46.000    21357258.436    87454564.387       -2529.258          46.000  
G09  22901774.735   120349565.548       -2719.720          47.000    22901780.564    93778877.046       -2119.114          43.000  
R05  22910998.274   122472755.038        2533.197          39.000    22911004.083    95256336.9031       1969.957          36.000  
R04  20011054.168   107158459.631         592.384          52.000    20011053.430    83345463.630         460.840          50.000  
R14  19478285.428   103830329.906       -1112.794          53.000    19478288.711    80757124.856        -865.413          49.000  
G11  24102615.958   126660078.134       -3226.056          34.000    24102625.671    98696191.256       -2514.020          36.000  
E08  25897092.620   136090243.615         844.537          45.000    25897098.822   104276993.300         647.151          47.000  
S31  39098666.648   205464828.363        -813.655          44.000  
S33  40049584.027   210461916.028        -813.221          41.000  
G20  21133220.268   111055881.305        -298.425          47.000                                                                  
E03  24042889.990   126346303.718        -687.972          48.000    24042896.047    96810859.738        -527.120          53.000  
R15  21299894.514   113820481.336        2651.421          51.000    21299901.010    88526879.290        2062.329          48.000  
R03  21010266.106   112469619.316       -2566.217          52.000    21010268.008    87476391.548       -1995.868          48.000  
R13  22822925.331   121873384.871       -4715.292          32.000    22822937.102    94790388.740       -3667.386          41.000  
E05  24887673.214   130785499.764       -2300.492          42.000    24887685.346   100212260.220       -1762.628          49.000  
E13  27259940.127   143251948.050       -1363.863          40.000    27259953.773   109764493.804       -1045.002          45.000  
G05  23163786.537   121726483.259        1947.346          46.000    23163789.903    94851863.058        1517.540          41.000  
E15  26985779.844   141811099.347       -3218.105          32.000    26985800.055   108660479.689       -2465.969          40.000  
G30  20592092.768   108212391.503       -1198.456          49.000    20592095.863    84321467.324        -933.854          46.000  
G14  21806779.739   114595567.597        1881.610          47.000    21806785.364    89295396.648        1466.300          48.000  
E02  25521399.338   134116011.775        1834.215          47.000    25521409.653   102764376.154        1405.492          50.000  
G22  23874217.908   125460048.583        2815.346          44.000                                                                  
E24  27571764.608   144890547.884       -2854.305          46.000    27571774.745   111020284.019       -2187.082          43.000  
E25  24533461.342   128924448.850        -446.870          48.000    24533468.818    98786396.210        -342.410          50.000  
> 2024 04 16 18 29 00.0010000  0 25                     
G13  23823190.485   125191725.750        1462.355          44.000                                                                  
G07  21375811.239   112330778.102       -3254.461          46.000    21375813.028    87530541.262       -2535.804          46.000  
G09  22917317.509   120431241.985       -2725.468          48.000    22917323.273    93842520.773       -2123.712          43.000  
R05  22896780.719   122396745.925        2534.020          38.000    22896787.991    95197218.889        1970.934          39.000  
R04  20007768.815   107140865.146         580.536          52.000    20007768.697    83331779.051         451.429          50.000  
R14  19484617.091   103864087.354       -1137.812          52.000    19484621.603    80783380.650        -885.076          49.000  
G11  24121054.021   126756964.426       -3232.110          37.000    24121064.419    98771686.475       -2519.348          37.000  
E08  25892270.940   136064903.418         844.719          45.000    25892276.896   104257576.842         647.171          47.000  
S31  39103310.355   205489230.329        -813.287          43.000  
S33  40054227.548   210486316.752        -813.307          42.000  
G20  21134976.936   111065115.290        -317.365          46.000                                                                  
E03  24046826.810   126366990.202        -691.262          48.000    24046832.474    96826710.398        -529.693          53.000  
R15  21285051.442   113741164.767        2636.176          51.000    21285059.115    88465188.856        2050.287          49.000  
R03  21024689.028   112546818.587       -2580.450          52.000    21024689.901    87536435.301       -2007.056          48.000  
R13  22849438.348   122014949.109       -4722.392          36.000    22849448.432    94900494.161       -3673.204          42.000  
E05  24900814.584   130854558.292       -2303.722          43.000    24900826.614   100265175.017       -1765.082          49.000  
E13  27267762.914   143293057.690       -1376.695          41.000    27267776.880   109795993.264       -1055.074          45.000  
G05  23152698.268   121668217.011        1937.045          46.000    23152701.903    94806460.918        1508.906          40.000  
E15  27004170.020   141907723.283       -3223.102          34.000    27004187.378   108734515.704       -2469.507          41.000  
G30  20598970.384   108248533.159       -1210.979          49.000    20598973.669    84349629.635        -943.698          46.000  
G14  21796073.067   114539301.273        1869.347          48.000    21796076.958    89251552.892        1456.536          46.000  
E02  25510945.163   134061081.207        1827.913          46.000    25510956.614   102722286.689        1400.497          49.000  
G22  23858151.501   125375615.068        2813.158          44.000                                                                  
E24  27588085.501   144976317.172       -2863.601          45.000    27588095.929   111086003.230       -2194.204          43.000  
E25  24536051.876   128938065.632        -461.010          47.000    24536059.814    98796829.842        -353.242          50.000  
> 2024 04 16 18 29 30.0010000  0 25                     
G13  23814841.987   125147859.179        1462.323          44.000                                                                  
G07  21394414.293   112428532.798       -3262.626          46.000    21394415.291    87606713.645       -2542.469          47.000  
G09  22932894.562   120513100.215       -2731.661          47.000    22932900.874    93906306.236       -2128.534          43.000  
R05  22882557.227   122320714.181        2534.362          37.000    22882566.813    95138083.221        1971.495          35.000  
R04  20004551.088   107123634.193         568.345          52.000    20004551.153    83318377.200         442.026          50.000  
R14  19491092.281   103898604.388       -1163.292          52.000    19491096.344    80810227.239        -904.714          48.000  
G11  24139528.620   126854049.515       -3239.367          37.000    24139538.821    98847336.668       -2524.103          33.000  
E08  25887449.164   136039563.783         844.569          44.000    25887455.087   104238160.802         647.133          47.000  
S31  39107953.688   205513630.892        -813.271          44.000  
S33  40058871.006   210510717.120        -813.354          42.000  
G20  21136844.130   111074923.933        -336.426          46.000                                                                  
E03  24050781.858   126387779.052        -694.707          48.000    24050788.414    96842639.500        -532.339          53.000  
R15  21270296.380   113662314.526        2620.495          51.000    21270302.758    88403861.124        2038.184          49.000  
R03  21039191.980   112624452.774       -2594.971          53.000    21039193.017    87596817.296       -2018.286          48.000  
R13  22875996.051   122156741.691       -4730.536          36.000    22876001.886    95010777.052       -3678.944          42.000  
E05  24913976.048   130923714.897       -2306.826          44.000    24913986.896   100318164.976       -1767.628          49.000  
E13  27275663.168   143334563.938       -1390.207          42.000    27275675.494   109827796.606       -1065.234          45.000  
G05  23141672.874   121610275.018        1925.930          46.000    23141676.083    94761311.391        1500.486          40.000  
E15  27022583.371   142004479.494       -3227.565          33.000    27022600.152   108808653.088       -2472.940          41.000  
G30  20605921.557   108285059.626       -1223.940          49.000    20605924.467    84378091.779        -953.731          46.000  
G14  21785438.091   114483415.764        1856.467          47.000    21785443.035    89208005.871        1446.617          47.000  
E02  25500528.354   134006348.188        1821.110          44.000    25500541.314   102680348.598        1395.283          50.000  
G22  23842099.242   125291259.276        2810.429          46.000                                                                  
E24  27604460.069   145062367.928       -2872.969          44.000    27604470.540   111151938.093       -2201.297          44.000  
E25  24538723.981   128952106.203        -475.090          48.000    24538731.976    98807588.215        -364.137          50.000  
