     3.00           OBSERVATION DATA    M: Mixed            RINEX VERSION / TYPE
CONVBIN 2.4.3                           20240416 031441 UTC PGM / RUN BY / DATE 
format: u-blox UBX                                          COMMENT             
log: /home/regis/git/gnsspwv/obsdata/VERT00CHL/2024-04-16/VECOMMENT             
{self.marker}                                               MARKER NAME         
                                                            MARKER NUMBER       
GEODETIC                                                    MARKER TYPE         
{self.observer}     {self.institution}                      OBSERVER / AGENCY   
UNKNOWN             UBLOX-ZED-F9P                           REC # / TYPE / VERS 
UNKNOWN             TWIVSP6037L                             ANT # / TYPE        
  1713381.0000 -5047934.0000 -3490983.0000                  APPROX POSITION XYZ 
        0.0000        0.0000        0.0000                  ANTENNA: DELTA H/E/N
G    8 C1C L1C D1C S1C C2L L2L D2L S2L                      SYS / # / OBS TYPES 
R    8 C1C L1C D1C S1C C2C L2C D2C S2C                      SYS / # / OBS TYPES 
E    8 C1C L1C D1C S1C C7Q L7Q D7Q S7Q                      SYS / # / OBS TYPES 
S    4 C1C L1C D1C S1C                                      SYS / # / OBS TYPES 
  2024    04    16    03    00   00.0040000     GPS         TIME OF FIRST OBS   
  2024    04    16    03    14   30.0050000     GPS         TIME OF LAST OBS    
                                                            END OF HEADER       
> 2024 04 16 03 00 00.0040000  0 27                     
G25  21816006.563   114643948.6071       -501.521          47.000    21816007.531    89332969.1221       -390.920          47.000  
G18  24588070.613   129211286.7821       2976.647          47.000    24588077.321   100684192.2561       2319.456          50.000  
G24  25573727.876                2      -4436.473          31.000    25573735.219                       -3453.667          31.000  
G32  25963652.117   136439808.3901      -3085.380          41.000    25963659.542   106316750.0231      -2403.855          35.000  
E09  28525973.861   149904981.8651      -2326.977          42.000    28525982.585   114862267.4661      -1782.865          48.000  
R16  22853424.216   122078855.8311      -3390.351          49.000    22853427.583    94950248.1981      -2636.920          49.000  
R09  20575626.809   109872727.7871       -103.113          52.000    20575625.288    85456665.2041        -80.159          53.000  
R10  22569073.210   120305886.1211       2497.300          44.000                                                                  
R20  21314088.594   113976053.7491       1763.732          40.000    21314092.706    88648095.0391       1371.883          44.000  
G29  21907715.610   115125884.8061       -615.308          49.000    21907713.599    89708525.4651       -479.303          45.000  
S33  40985244.843   215378915.1611       -702.789          43.000  
S31  40031687.848   210367980.1131       -701.605          43.000  
G28  23059261.226   121177236.6691       1112.047          46.000    23059259.547    94423795.2831        866.500          45.000  
G11  24989343.773   131320171.2561      -3447.137          39.000    24989339.135   102327517.9821      -2686.444          43.000  
R18  24588743.437                       -4852.043          30.000    24588739.028   102088388.5081      -3773.068          32.000  
R19  21362874.020   114277317.0191      -3158.890          40.000    21362872.027    88882083.9911      -2456.913          48.000  
E04  29047202.823   152644022.2601      -3160.998          35.000    29047219.138   116960969.7951      -2422.412          33.000  
G12  23282158.423   122348570.0881      -2045.677          47.000    23282155.699    95336541.3221      -1593.938          45.000  
E33  25146644.015   132146548.6241        847.086          48.000    25146646.700   101255190.7531        648.983          53.000  
E31  25523535.274   134127218.1211        574.868          46.000    25523540.769   102772875.2941        440.555          52.000  
G20  25279229.936   132843242.7811        172.884          40.000                                                                  
E14  21642251.057   113730943.5471      -3362.350          49.000    21642253.915    87144459.4401      -2576.432          53.000  
E26  25877926.965   135989781.8391      -1828.501          48.000    25877926.514   104200156.8951      -1401.004          48.000  
E21  29118828.751   153020438.2421      -2580.604          39.000    29118833.437   117249424.6121      -1977.115          46.000  
G05  25957686.115   136408729.5981       1372.345          44.000    25957686.044   106292572.3701       1068.858          35.000  
E12                                                                  28667996.959   115434139.1651       1862.091          29.000  
G31                                                                  25574497.060                1       2012.789          28.000  
> 2024 04 16 03 00 30.0040000  0 27                     
G25  21818893.523   114659120.795        -510.237          47.000    21818894.546    89344791.628        -397.627          47.000  
G18  24571093.084   129122068.784        2970.375          45.000    24571100.746   100614672.384        2314.739          46.000  
G24  25599067.275                3      -4439.504          27.000    25599073.045   104823932.103       -3459.478          36.000  
G32  25981276.378   136532426.051       -3089.103          40.000    25981285.740   106388919.438       -2407.597          35.000  
E09  28539279.717   149974907.552       -2335.006          41.000    28539289.205   114915846.910       -1789.263          48.000  
R16  22872503.546   122180771.006       -3404.349          53.000    22872505.467    95029515.983       -2647.816          52.000  
R09  20576254.229   109876078.070        -120.661          52.000    20576252.774    85459271.012         -93.865          53.000  
R10  22555031.585   120231042.172        2491.747          44.000                                                                  
R20  21304251.849   113923449.514        1742.411          41.000    21304255.196    88607180.757        1355.305          44.000  
G29  21911260.172   115144512.425        -627.026          49.000    21911258.515    89723040.561        -488.696          46.000  
S33  40989255.265   215399990.087        -702.879          43.000  
S31  40035694.965   210389036.965        -702.354          45.000  
G28  23052958.852   121144117.706        1095.382          47.000    23052957.245    94397988.137         853.546          46.000  
G11  25009058.415   131423775.510       -3459.796          38.000    25009054.356   102408248.586       -2696.008          43.000  
R18  24616018.884                       -4854.369          26.000    24616008.189                3      -3774.613          26.000  
R19  21380642.003   114372364.543       -3177.891          40.000    21380640.071    88956009.926       -2471.831          48.000  
E04  29065244.636   152738831.759       -3159.740          34.000    29065261.473   117033615.790       -2421.210          31.000  
G12  23293857.056   122410046.621       -2053.185          48.000    23293854.744    95384445.141       -1599.865          46.000  
E33  25141844.293   132121328.065         833.956          48.000    25141847.217   101235866.085         638.996          53.000  
E31  25520258.604   134109996.482         572.794          46.000    25520263.513   102759679.540         438.867          52.000  
G20  25278284.113   132838277.060         158.204          38.000                                                                  
E14  21661491.696   113832051.422       -3378.543          49.000    21661494.182    87221931.787       -2588.690          53.000  
E26  25888401.707   136044829.338       -1841.873          48.000    25888401.513   104242336.214       -1411.137          47.000  
E21  29133568.784   153097899.156       -2583.991          39.000    29133573.756   117308777.760       -1979.914          46.000  
G05  25949864.950   136367630.395        1367.260          44.000    25949865.162   106260547.374        1065.568          34.000  
E12  28654094.562   150578276.8921       2432.744          45.000    28654099.523   115378182.753        1863.901          44.000  
G31                                                                  25559778.699                        2007.405          31.000  
> 2024 04 16 03 01 00.0040000  0 27                     
G25  21821829.888   114674552.865        -518.646          47.000    21821831.236    89356816.629        -404.207          47.000  
G18  24554147.787   129033030.947        2965.186          47.000    24554154.939   100545294.986        2310.593          41.000  
G24  25624416.637                2      -4441.716          31.000    25624425.527                3      -3461.743          26.000  
G32  25998923.605   136625161.230       -3093.072          38.000    25998933.414   106461180.385       -2410.432          33.000  
E09  28552633.088   150045079.725       -2342.999          42.000    28552642.581   114969615.202       -1795.306          47.000  
R16  22891659.929   122283099.809       -3417.898          53.000    22891660.568    95109105.108       -2658.339          48.000  
R09  20576980.272   109879956.681        -138.111          51.000    20576979.249    85462287.727        -107.351          53.000  
R10  22541021.371   120156366.021        2486.276          42.000                                                                  
R20  21294533.695   113871482.430        1721.835          41.000    21294537.048    88566762.043        1339.141          44.000  
G29  21914871.917   115163492.052        -638.501          49.000    21914869.998    89737829.943        -497.662          45.000  
S33  40993266.200   215421069.393        -702.678          43.000  
S31  40039702.956   210410098.881        -701.976          42.000  
G28  23046751.958   121111497.634        1079.016          47.000    23046750.424    94372569.744         840.783          46.000  
G11  25028843.697   131527749.576       -3471.771          39.000    25028839.854   102489267.403       -2705.402          42.000  
R18  24643329.217                3      -4861.706          20.000    24643303.265                1      -3777.428          29.000  
R19  21398515.978   114467979.675       -3196.955          40.000    21398514.230    89030377.297       -2486.133          48.000  
E04  29083274.269   152833582.546       -3157.106          33.000    29083293.208   117106216.854       -2419.289          33.000  
G12  23305597.335   122471746.909       -2060.508          46.000    23305596.278    95432523.254       -1605.516          46.000  
E33  25137118.963   132096497.667         821.270          47.000    25137122.078   101216840.374         629.251          53.000  
E31  25516994.664   134092843.056         570.767          46.000    25516999.040   102746536.037         437.314          52.000  
G20  25277421.767   132833754.221         143.378          38.000                                                                  
G31  25545098.736                3       2568.826          27.000    25545092.886   104602866.7761       2001.658          29.000  
E14  21680823.357   113933641.365       -3394.401          49.000    21680826.121    87299773.518       -2600.798          53.000  
E26  25898952.746   136100275.699       -1854.860          48.000    25898952.682   104284821.162       -1421.267          47.000  
E21  29148328.468   153175466.032       -2587.290          39.000    29148334.074   117368212.089       -1982.581          45.000  
G05  25942072.867   136326682.960        1362.497          44.000    25942071.915   106228640.648        1061.631          36.000  
E12  28640207.601   150505312.1081       2430.765          39.000    28640216.659                1       1862.266          32.000  
> 2024 04 16 03 01 30.0040000  0 27                     
G25  21824813.805   114690233.923        -526.890          46.000    21824815.312    89369035.652        -410.676          47.000  
G18  24537235.125   128944152.129        2959.714          47.000    24537241.556   100476039.289        2305.956          45.000  
G24  25649780.868   134790508.6681      -4443.912          39.000    25649787.547   105031580.5751      -3463.019          38.000  
G32  26016590.013   136717998.774       -3096.392          35.000    26016599.635                       -2412.582          32.000  
E09  28566030.806   150115484.450       -2350.709          42.000    28566039.921   115023561.651       -1801.245          44.000  
R16  22910890.098   122385829.511       -3431.141          49.000    22910891.071    95189005.981       -2668.695          45.000  
R09  20577803.325   109884353.880        -155.344          51.000    20577802.687    85465707.785        -120.870          53.000  
R10  22527041.505   120081847.686        2481.123          44.000                                                                  
R20  21284932.955   113820143.826        1700.838          40.000    21284936.000    88526832.165        1322.628          44.000  
G29  21918547.904   115182810.658        -649.713          49.000    21918545.546    89752883.480        -506.281          45.000  
S33  40997276.286   215442142.174        -702.454          43.000  
S31  40043710.194   210431154.261        -701.838          43.000  
G28  23040637.358   121079366.496        1062.774          48.000    23040636.143    94347532.437         828.024          47.000  
G11  25048696.427   131632078.848       -3483.856          40.000    25048693.030   102570562.987       -2714.594          42.000  
R18  24670622.839                1      -4859.240          27.000    24670603.177                       -3779.144          26.000  
R19  21416493.657   114564145.734       -3214.936          41.000    21416491.160    89105173.153       -2500.409          48.000  
E04  29101290.132                       -3155.576          30.000    29101309.047   117178762.077       -2417.804          32.000  
G12  23317379.383   122533658.760       -2067.374          47.000    23317377.832    95480766.167       -1611.000          47.000  
E33  25132466.264   132072046.346         808.547          48.000    25132468.919   101198105.111         619.593          53.000  
E31  25513740.805   134075746.433         568.768          46.000    25513745.489   102733436.065         435.814          52.000  
G20  25276642.852   132829663.828         128.570          37.000                                                                  
G31  25530449.959                3       2562.909          26.000    25530440.464                        1995.828          28.000  
E14  21700243.494   114035696.228       -3409.641          49.000    21700246.291    87377971.476       -2612.630          53.000  
E26  25909577.909   136156107.683       -1867.601          48.000    25909577.519   104327601.585       -1431.062          47.000  
E21  29163106.649   153253126.885       -2590.119          40.000    29163112.514   117427718.460       -1984.762          45.000  
G05  25934307.314   136285877.696        1357.862          43.000    25934308.191   106196844.692        1058.013          38.000  
E12  28626335.875   150432406.764        2428.947          42.000    28626344.326   115266417.9981       1861.359          39.000  
> 2024 04 16 03 02 00.0040000  0 27                     
G25  21827848.239   114706177.192        -535.943          47.000    21827849.019    89381458.993        -417.596          46.000  
G18  24520355.841   128855456.588        2953.525          42.000    24520361.848   100406926.967        2301.154          46.000  
G24  25675154.341   134923844.3543      -4445.979          41.000    25675159.355   105135492.086       -3466.497          28.000  
G32  26034277.111   136810947.479       -3100.333          33.000    26034287.895                       -2415.913          30.000  
E09  28579474.991   150186131.848       -2359.306          42.000    28579483.530   115077694.034       -1807.658          43.000  
R16  22930199.535   122488972.078       -3445.186          53.000    22930200.104    95269228.055       -2679.531          51.000  
R09  20578726.819   109889283.857        -173.421          52.000    20578725.975    85469542.222        -134.940          52.000  
R10  22513095.847   120007503.189        2474.869          45.000                                                                  
R20  21275452.359   113769446.213        1679.202          40.000    21275455.231    88487400.786        1306.044          44.000  
G29  21922290.011   115202478.722        -661.462          48.000    21922288.610    89768209.318        -515.485          44.000  
S33  41001286.905   215463219.848        -703.078          43.000  
S31  40047717.491   210452214.623        -702.208          46.000  
G28  23034619.195   121047737.975        1045.607          47.000    23034617.422    94322886.698         814.861          45.000  
G11  25068619.409   131736772.678       -3496.130          40.000    25068616.053   102652142.628       -2724.237          42.000  
R18  24697925.642                3      -4861.457          23.000                                                                  
R19  21434575.811   114660871.765       -3233.617          41.000    21434573.108    89180404.527       -2515.107          48.000  
G12  23329204.625   122595795.142       -2075.099          49.000    23329202.015    95529184.102       -1616.947          47.000  
E33  25127886.680   132047987.107         795.150          47.000    25127890.784   101179670.282         609.271          53.000  
E31  25510500.706   134058719.378         566.082          46.000    25510505.327   102720389.388         433.892          51.000  
G20  25275950.522   132826020.043         113.605          39.000                                                                  
G31  25515844.623                2       2554.410          27.000    25515840.029                        1990.569          30.000  
E14  21719752.660   114138222.985       -3425.583          48.000    21719756.451    87456531.004       -2624.837          53.000  
E26  25920277.687   136212336.100       -1881.109          48.000    25920277.519   104370685.764       -1441.368          48.000  
E21  29177905.972   153330894.016       -2594.311          42.000    29177911.145   117487306.235       -1987.808          45.000  
G05  25926572.537   136245229.258        1352.080          44.000    25926572.354   106165170.925        1053.501          38.000  
E12                                                                  28612483.383   115210617.051        1859.505          45.000  
E04                                                                  29119314.604   117251258.975       -2416.001          34.000  
> 2024 04 16 03 02 30.0040000  0 27                     
G25  21830931.836   114722382.421        -544.824          47.000    21830932.199    89394086.477        -424.728          46.000  
G18  24503511.357   128766943.725        2947.002          48.000    24503517.194   100337957.622        2296.418          45.000  
G32  26051986.191   136904003.157       -3104.478          33.000    26051996.277                       -2418.346          29.000  
E09  28592964.205   150257018.529       -2367.370          40.000    28592972.563   115132009.800       -1813.947          42.000  
R16  22949584.906   122592523.727       -3458.940          51.000    22949586.124    95349768.129       -2690.334          49.000  
R09  20579750.627   109894747.136        -191.382          52.000    20579749.091    85473791.452        -148.857          53.000  
R10  22499182.253   119933333.712        2469.080          45.000                                                                  
R20  21266091.484   113719390.582        1657.544          40.000    21266094.717    88448468.767        1289.089          44.000  
G29  21926099.051   115222493.549        -673.322          48.000    21926097.449    89783805.338        -524.554          45.000  
S33  41005298.671   215484301.320        -703.017          43.000  
S31  40051725.990   210473278.609        -702.638          43.000  
G28  23028695.855   121016612.898        1028.552          47.000    23028694.671    94298633.392         801.557          46.000  
G11  25088611.080   131841826.982       -3508.221          42.000    25088606.177   102734003.207       -2733.575          41.000  
R18  24725260.111                       -4864.559          29.000    24725268.040                1      -3783.859          27.000  
R19  21452760.932   114758152.397       -3252.311          39.000    21452758.263    89256067.303       -2529.424          48.000  
G12  23341070.755   122658154.888       -2082.782          48.000    23341068.497    95577776.061       -1622.897          47.000  
E33  25123382.742   132024319.460         781.983          47.000    25123386.802   101161535.501         599.196          53.000  
E31  25507273.815   134041761.118         563.724          46.000    25507278.115   102707395.446         431.936          51.000  
G20  25275343.937   132822823.493          98.440          40.000                                                                  
G31  25501281.067                        2547.432          30.000    25501274.589                1       1984.454          29.000  
E14  21739351.613   114241215.115       -3441.149          48.000    21739355.169    87535447.125       -2636.713          53.000  
E26  25931052.340   136268958.324       -1894.258          48.000    25931052.394   104414071.702       -1451.532          48.000  
E21  29192723.987   153408766.085       -2598.205          42.000    29192729.891   117546974.429       -1990.455          45.000  
G05  25918868.241   136204739.162        1346.598          44.000    25918867.378   106133620.487        1049.413          39.000  
E12  28598628.841   150286808.0031       2424.798          40.000    28598636.294   115154857.0051       1857.376          49.000  
E04                                                                  29137306.817   117323705.614       -2413.981          34.000  
G24                                                                  25700546.143                1      -3465.822          30.000  
> 2024 04 16 03 03 00.0040000  0 27                     
G25  21834065.819   114738851.338        -553.591          47.000    21834065.790    89406919.419        -431.287          46.000  
G18  24486702.258   128678487.0401       2940.976          46.000    24486706.895   100269131.338        2291.847          43.000  
G24  25725940.798   135190730.7503      -4449.640          37.000    25725946.826   105343448.8001      -3468.965          33.000  
E09  28606499.824   150328143.197       -2374.857          39.000    28606506.442   115186507.876       -1819.575          40.000  
R16  22969044.986   122696485.126       -3472.250          49.000    22969047.393    95430626.900       -2700.369          47.000  
R09  20580873.903   109900746.554        -208.939          52.000    20580871.819    85478457.685        -162.585          52.000  
R10  22485302.366   119859343.064        2463.169          46.000                                                                  
R20  21256850.998   113669979.738        1636.067          40.000    21256854.333    88410038.216        1272.673          44.000  
G29  21929973.844   115242854.780        -684.601          49.000    21929971.517    89799671.278        -533.258          45.000  
S33  41009310.996   215505386.901        -702.950          43.000  
S31  40055735.225   210494346.846        -702.216          42.000  
G28  23022868.889   120985993.710        1012.048          47.000    23022867.665    94274774.420         788.628          46.000  
G11  25108670.608   131947239.686       -3519.684          43.000    25108665.106   102816143.023       -2742.426          41.000  
R18  24752599.526                       -4865.939          26.000    24752594.156                3      -3784.884          23.000  
R19  21471049.425   114855983.385       -3270.211          40.000    21471047.145    89332158.113       -2543.439          50.000  
G12  23352980.003   122720738.805       -2090.041          48.000    23352977.971    95626542.691       -1628.541          47.000  
E33  25118954.196   132001044.893         769.232          47.000    25118957.776   101143701.899         589.372          54.000  
E31  25504060.000   134024872.916         561.676          46.000    25504064.444   102694455.182         430.385          52.000  
G20  25274819.573   132820076.176          83.921          36.000                                                                  
G31  25486757.555   133933813.4111       2540.116          31.000    25486749.425                        1980.059          30.000  
E14  21759038.538   114344668.078       -3455.974          49.000    21759041.272    87614716.359       -2648.112          53.000  
E26  25941901.865   136325973.641       -1907.064          48.000    25941902.209   104457758.833       -1461.294          48.000  
E21  29207562.951   153486743.750       -2601.112          43.000    29207569.040   117606723.542       -1992.916          46.000  
G05  25911193.405   136164410.525        1341.725          42.000    25911192.574   106102195.861        1045.386          40.000  
E12  28584795.197   150214106.005        2422.358          39.000    28584803.345   115099163.210        1857.072          32.000  
E04                                                                  29155285.738   117396100.207       -2412.195          32.000  
G32                                                                  26069723.050                       -2420.699          27.000  
> 2024 04 16 03 03 30.0040000  0 27                     
G25  21837249.746   114755581.763        -562.300          47.000    21837249.065    89419956.138        -438.178          46.000  
G18  24469928.258   128590340.762        2934.844          46.000    24469932.487   100200284.5981       2286.573          42.000  
G24  25751348.248                3      -4451.059          26.000    25751358.899                1      -3468.385          27.000  
G32  26087464.731                3      -3111.064          29.000    26087469.179                       -2423.114          28.000  
E09  28620077.625   150399500.560       -2383.115          36.000    28620085.373   115241184.225       -1825.554          39.000  
R16  22988583.389   122800851.218       -3485.855          50.000    22988585.273    95511800.350       -2711.228          47.000  
R09  20582097.485   109907280.824        -226.895          52.000    20582095.067    85483539.893        -176.483          52.000  
R10  22471455.163   119785530.649        2457.282          46.000                                                                  
R20  21247731.038   113621211.127        1614.844          40.000    21247734.620    88372107.190        1255.868          44.000  
G29  21933913.540   115263557.526        -696.027          48.000    21933910.738    89815803.345        -542.401          45.000  
S33  41013323.705   215526473.426        -703.032          43.000  
S31  40059744.843   210515415.853        -702.583          43.000  
G28  23017138.716   120955878.513         995.238          48.000    23017136.820    94251308.069         775.535          47.000  
G11  25128796.890   132053004.820       -3531.384          43.000    25128791.835   102898557.474       -2751.697          41.000  
R18  24779962.423                3      -4868.502          23.000    24779944.214                1      -3786.410          30.000  
R19  21489439.372   114954358.581       -3288.243          39.000    21489437.392    89408672.205       -2557.656          49.000  
G12  23364931.323   122783544.307       -2097.327          47.000    23364928.684    95675482.018       -1634.481          46.000  
E33  25114599.131   131978160.988         756.117          47.000    25114602.931   101126167.647         579.256          54.000  
E31  25500859.179   134008052.132         559.268          46.000    25500863.589   102681566.580         428.535          52.000  
G20  25274381.342   132817776.674          68.967          37.000                                                                  
G31  25472273.634                        2532.983          28.000    25472269.920                        1973.612          31.000  
E14  21778811.303   114448573.498       -3471.305          49.000    21778813.534    87694332.261       -2659.760          52.000  
E26  25952825.613   136383377.498       -1920.085          49.000    25952825.623   104501743.663       -1471.341          48.000  
E21  29222420.982   153564823.824       -2604.791          42.000    29222426.725   117666551.108       -1995.833          45.000  
G05  25903549.609   136124243.521        1336.057          42.000    25903547.840   106070897.172        1040.999          39.000  
E12  28570972.941                1       2419.961          49.000    28570982.387   115043510.4961       1854.237          46.000  
E04                                                                  29173250.659   117468438.848       -2410.134          29.000  
> 2024 04 16 03 04 00.0040000  0 27                     
G25  21840482.884   114772569.237        -570.771          48.000    21840481.736    89433193.164        -444.807          46.000  
G18  24453188.614   128502379.352        2928.759          49.000    24453192.289   100131738.506        2282.030          43.000  
E09  28633698.724   150471082.990       -2390.034          34.000    28633707.766   115296033.047       -1831.151          39.000  
R16  23008196.885   122905615.512       -3498.947          52.000    23008197.363    95593283.259       -2721.258          46.000  
R09  20583420.746   109914346.477        -244.542          51.000    20583418.702    85489035.422        -190.235          52.000  
R10  22457640.914   119711893.826        2451.396          46.000                                                                  
R20  21238731.121   113573081.240        1593.619          41.000    21238733.849    88334672.951        1239.231          44.000  
G29  21937916.617   115284595.192        -707.001          48.000    21937913.825    89832196.380        -550.934          44.000  
S33  41017335.065   215547554.774        -702.750          43.000  
S31  40063753.545   210536480.178        -702.073          42.000  
G28  23011502.907   120926263.588         978.552          48.000    23011501.565    94228231.463         762.448          47.000  
G11  25148989.331   132159114.014       -3542.780          44.000    25148983.804   102981240.027       -2760.626          41.000  
R18  24807321.831                3      -4868.848          19.000    24807311.777                1      -3787.754          30.000  
R19  21507929.239   115053267.605       -3305.977          39.000    21507927.574    89485601.483       -2571.365          49.000  
G12  23376923.857   122846566.164       -2104.522          47.000    23376921.956    95724589.908       -1639.856          46.000  
E33  25110318.016   131955663.038         743.235          47.000    25110321.340   101108929.112         569.519          54.000  
E31  25497670.104   133991293.834         557.329          46.000    25497674.336   102668725.855         427.058          52.000  
G20  25274026.208   132815920.976          53.896          34.000                                                                  
G31  25457832.479                        2525.677          27.000    25457829.508                        1967.883          28.000  
E14  21798667.431   114552920.690       -3485.781          49.000    21798670.250    87774286.663       -2670.853          53.000  
E26  25963822.112   136441163.007       -1932.737          49.000    25963821.425   104546020.917       -1480.850          48.000  
E21  29237297.974   153643000.794       -2607.850          42.000    29237302.994   117726452.921       -1998.051          45.000  
G05  25895936.141   136084234.572        1330.691          40.000    25895934.728   106039721.681        1036.808          40.000  
E12  28557165.266                3       2416.442          26.000    28557174.096   114987915.466        1852.280          44.000  
E04                                                                  29191202.245                       -2408.898          29.000  
G24                                                                  25776778.930                3      -3475.370          25.000  
G32                                                                  26105233.992                       -2426.145          27.000  
> 2024 04 16 03 04 30.0040000  0 27                     
G25  21843764.351   114789814.874        -579.281          47.000    21843763.853    89446631.339        -451.259          47.000  
G18  24436483.109   128414597.155        2922.847          40.000    24436486.067   100063336.912        2277.676          42.000  
E09  28647362.566   150542888.474       -2397.225          33.000    28647372.773   115351052.807       -1837.243          40.000  
R16  23027883.754   123010777.069       -3511.908          52.000    23027884.531    95675075.362       -2731.482          48.000  
R09  20584843.173   109921945.301        -262.040          51.000    20584841.737    85494945.641        -203.874          52.000  
R10  22443859.781   119638435.929        2445.615          46.000                                                                  
R20  21229850.556   113525591.728        1572.276          42.000    21229852.578    88297736.776        1222.709          44.000  
G29  21941983.391   115305966.182        -717.883          48.000    21941980.464    89848849.174        -559.424          44.000  
S33  41021345.625   215568630.413        -702.360          42.000  
S31  40067761.154   210557539.767        -701.746          43.000  
G28  23005962.735   120897151.062         962.029          47.000    23005961.555    94205546.372         749.630          46.000  
G11  25169246.237   132265564.556       -3553.949          45.000    25169240.794   103064188.554       -2769.257          40.000  
R18  24834696.105                3      -4864.392          19.000    24834694.239                3      -3789.545          23.000  
R19  21526518.214   115152706.807       -3323.334          41.000    21526515.565    89562943.132       -2584.990          48.000  
G12  23388958.121   122909805.071       -2111.586          48.000    23388955.675    95773866.958       -1645.576          45.000  
E33  25106110.371   131933551.869         730.625          47.000    25106113.328   101091986.924         559.847          53.000  
E31  25494492.957   133974598.678         555.502          46.000    25494497.396   102655933.505         425.686          52.000  
G20  25273757.687   132814510.913          39.211          35.000                                                                  
G31  25443435.002   133706165.633        2518.282          33.000    25443429.256                        1962.371          27.000  
E14  21818606.906   114657704.515       -3499.962          48.000    21818610.272    87854575.638       -2681.823          53.000  
E26  25974891.060   136499328.850       -1945.159          49.000    25974889.955   104590589.598       -1490.442          48.000  
E21  29252192.427   153721274.729       -2610.812          41.000    29252197.249   117786429.021       -2000.385          43.000  
G05  25888351.560   136044387.426        1325.565          40.000    25888352.892   106008672.300        1032.683          40.000  
E12  28543368.839   149996413.1611       2415.765          35.000    28543378.464   114932358.9281       1851.022          44.000  
E04                                                                  29209136.400                       -2406.371          28.000  
G24                                                                  25802210.394                3      -3466.729          18.000  
G32                                                                  26123010.144                3      -2426.747          25.000  
> 2024 04 16 03 05 00.0040000  0 27                     
G25  21847093.836   114807310.406        -587.864          48.000    21847092.984    89460264.244        -457.949          46.000  
G18  24419812.352   128326982.7211       2916.813          48.000    24419815.807    99995073.965        2272.787          47.000  
E09  28661067.947   150614905.633       -2404.545          35.000    28661077.192   115406234.708       -1842.250          39.000  
R16  23047642.271   123116325.157       -3525.099          52.000    23047643.234    95757168.136       -2741.688          48.000  
R09  20586364.546   109930069.617        -279.852          52.000    20586363.214    85501264.564        -217.631          52.000  
R10  22430111.391   119565150.650        2439.684          46.000                                                                  
R20  21221087.743   113478734.840        1550.970          41.000    21221089.905    88261292.654        1206.237          44.000  
G29  21946111.886   115327659.584        -728.894          48.000    21946109.102    89865753.165        -567.871          44.000  
S33  41025353.574   215589691.966        -702.356          43.000  
S31  40071765.572   210578584.373        -701.476          44.000  
G28  23000516.920   120868532.673         945.260          47.000    23000516.069    94183246.110         736.702          46.000  
G11  25189565.464   132372344.397       -3565.001          46.000    25189560.198   103147393.660       -2777.850          39.000  
R18  24862085.957                2      -4873.181          27.000    24862075.224                3      -3793.666          20.000  
R19  21545203.706   115252662.065       -3340.633          38.000    21545200.510    89640686.111       -2598.231          48.000  
G12  23401031.812   122973252.022       -2118.710          48.000    23401029.167    95823306.209       -1650.896          46.000  
E33  25101974.603   131911818.923         717.885          47.000    25101977.666   101075334.550         550.038          53.000  
E31  25491325.787   133957957.962         553.527          46.000    25491330.824   102643182.873         424.078          52.000  
G20  25273575.237   132813538.722          24.907          36.000                                                                  
G31  25429076.874   133630711.582        2511.464          32.000    25429070.447                        1957.497          26.000  
E14  21838627.246   114762910.521       -3514.169          49.000    21838630.233    87935188.109       -2692.630          53.000  
E26  25986029.153   136557864.286       -1957.547          49.000    25986029.054   104635441.476       -1499.795          48.000  
E21  29267104.525   153799636.341       -2613.626          40.000    29267108.603   117846472.284       -2002.680          43.000  
G05  25880797.644   136004695.060        1320.225          42.000    25880798.769   105977743.453        1029.063          37.000  
E12  28529583.050   149923974.121        2413.693          46.000    28529592.037   114876850.142        1849.450          46.000  
E04                                                                  29227052.771                3      -2403.948          25.000  
G24                                                                  25827631.921                3      -3470.043          23.000  
G32                                                                  26140807.303                       -2429.865          26.000  
> 2024 04 16 03 05 30.0040000  0 27                     
G25  21850472.434   114825066.590        -596.308          48.000    21850472.082    89474100.282        -464.686          47.000  
G18  24403177.635   128239570.248        2910.132          43.000    24403180.004    99926961.723        2267.939          43.000  
E09  28674815.610   150687142.172       -2411.601          35.000    28674823.791   115461584.711       -1847.958          39.000  
R16  23067474.223   123222268.559       -3538.104          50.000    23067476.796    95839568.461       -2752.343          44.000  
R09  20587987.038   109938731.369        -297.912          52.000    20587985.432    85508001.502        -231.555          52.000  
R10  22416397.972   119492050.398        2433.474          46.000                                                                  
R20  21212446.211   113432522.154        1529.753          42.000    21212448.196    88225349.582        1189.634          44.000  
G29  21950302.678   115349683.878        -739.728          48.000    21950300.510    89882915.020        -576.453          45.000  
S33  41029360.061   215610748.816        -701.822          43.000  
S31  40075769.643   210599623.726        -701.532          43.000  
G28  22995167.296   120840420.570         928.480          47.000    22995167.062    94161340.499         723.490          47.000  
G11  25209948.997   132479460.457       -3576.173          46.000    25209942.760   103230860.851       -2786.656          37.000  
R18  24889462.529                3      -4875.316          24.000                                                                  
R19  21563987.277   115353139.380       -3358.191          40.000    21563984.066    89718835.184       -2611.750          49.000  
G12  23413146.883   123036916.874       -2125.838          49.000    23413144.429    95872915.168       -1656.603          47.000  
E33  25097913.024   131890474.729         704.835          47.000    25097916.010   101058980.038         540.066          53.000  
E31  25488172.166   133941381.990         551.204          47.000    25488176.493   102630481.839         422.430          52.000  
G20  25273473.806   132813015.797           9.854          34.000                                                                  
G31  25414758.212   133555480.982        2503.577          33.000    25414746.345                1       1950.815          27.000  
E14  21858728.506   114868543.356       -3528.365          49.000    21858731.082    88016127.606       -2703.462          52.000  
E26  25997239.611   136616777.679       -1970.165          49.000    25997239.517   104680582.978       -1509.689          47.000  
E21  29282035.401   153878095.311       -2617.065          41.000    29282039.432   117906590.167       -2005.114          43.000  
G05  25873276.998   135965169.399        1314.579          43.000    25873276.295   105946944.542        1024.357          36.000  
E12  28515810.528   149851590.5241       2411.022          39.000    28515818.798   114821389.4011       1847.577          45.000  
E04                                                                  29244953.116                3      -2401.026          21.000  
G24                                                                  25853067.369                3      -3470.415          20.000  
G32                                                                  26158614.925                3      -2432.018          24.000  
> 2024 04 16 03 06 00.0040000  0 26                     
G25  21853901.873   114843087.499        -605.244          48.000    21853901.527    89488142.563        -471.761          48.000  
G18  24386580.041   128152350.823        2903.976          48.000    24386581.975    99858986.3031       2262.440          44.000  
E09  28688603.649   150759598.928       -2418.801          32.000    28688612.047   115517103.444       -1853.352          38.000  
R16  23087382.516   123328608.795       -3551.568          52.000    23087384.260    95922277.332       -2762.238          47.000  
R09  20589710.755   109947935.372        -316.083          52.000    20589709.402    85515160.198        -245.881          52.000  
R10  22402720.992   119419141.304        2426.884          47.000                                                                  
R20  21203925.158   113386957.823        1507.744          41.000    21203927.581    88189910.765        1172.662          44.000  
G29  21954556.985   115372040.653        -751.038          49.000    21954554.833    89900335.944        -585.040          45.000  
S33  41033366.591   215631803.043        -702.137          42.000  
S31  40079772.748   210620661.646        -701.578          44.000  
G28  22989914.543   120812819.407         911.212          46.000    22989914.388    94139833.080         710.096          47.000  
G11  25230395.917   132586912.834       -3587.517          46.000    25230391.205   103314590.048       -2795.489          39.000  
R18  24916850.958                3      -4877.069          25.000                                                                  
R19  21582867.812   115454137.991       -3375.453          41.000    21582865.517    89797389.719       -2625.470          49.000  
G12  23425303.715   123100802.792       -2133.370          48.000    23425300.938    95922696.391       -1662.400          44.000  
E33  25093925.611   131869522.873         691.735          47.000    25093929.042   101042926.163         529.999          54.000  
E31  25485031.518   133924874.317         549.010          47.000    25485035.121   102617833.152         420.596          52.000  
G20  25273462.022   132812946.715          -5.322          36.000                                                                  
G31  25400486.076   133480479.311        2495.836          33.000    25400481.300                        1944.872          31.000  
E14  21878910.752   114974600.769       -3542.465          49.000    21878912.963    88097392.432       -2714.335          52.000  
E26  26008523.066   136676070.533       -1982.897          49.000    26008522.217   104726015.222       -1519.290          47.000  
E21  29296984.558   153956654.586       -2620.311          41.000    29296989.883   117966784.934       -2007.993          44.000  
G05  25865788.800   135925816.800        1308.804          43.000    25865787.340   105916280.473        1019.342          34.000  
E12  28502053.791   149779293.3631       2408.058          38.000    28502060.371   114765987.2281       1845.212          40.000  
G24                                                                  25878517.624                3      -3473.145          25.000  
G32                                                                  26176442.709                3      -2432.717          22.000  
> 2024 04 16 03 06 30.0040000  0 26                     
G25  21857381.152   114861373.067        -614.247          48.000    21857381.167    89502391.067        -478.535          48.000  
G18  24370020.013   128065316.2681       2897.190          47.000    24370022.467    99791170.852        2257.542          45.000  
E09  28702432.253   150832272.807       -2426.664          32.000    28702441.634   115572788.477       -1859.083          36.000  
R16  23107364.353   123435342.483       -3564.558          52.000    23107365.615    96005291.824       -2772.472          48.000  
R09  20591536.638   109957682.581        -334.108          52.000    20591534.333    85522741.362        -259.842          52.000  
R10  22389079.910   119346425.853        2420.360          48.000                                                                  
R20  21195525.460   113342042.475        1485.914          41.000    21195527.176    88154976.678        1156.092          44.000  
G29  21958874.040   115394727.664        -761.896          47.000    21958871.329    89918014.150        -593.665          45.000  
S33  41037372.489   215652854.361        -701.948          43.000  
S31  40083775.518   210641695.652        -700.961          45.000  
G28  22984759.325   120785729.320         894.273          47.000    22984759.255    94118723.866         696.792          48.000  
G11  25250906.534   132694697.649       -3598.412          47.000    25250901.329   103398578.296       -2804.100          37.000  
R19  21601845.063   115555652.011       -3392.481          40.000    21601842.599    89876345.108       -2638.636          49.000  
G12  23437502.878   123164908.668       -2140.690          50.000    23437500.040    95972649.061       -1668.050          47.000  
E33  25090013.354   131848963.057         678.619          47.000    25090016.732   101027172.673         519.936          54.000  
E31  25481903.607   133908434.521         546.641          48.000    25481906.544   102605236.459         418.909          52.000  
G20  25273535.290   132813331.697         -20.224          35.000                                                                  
G31  25386254.732   133405707.839        2488.840          33.000    25386255.769   103952461.1051       1939.091          32.000  
E14  21899172.248   115081076.583       -3556.204          49.000    21899174.237    88178977.836       -2724.903          52.000  
E26  26019878.173   136735740.362       -1995.488          49.000    26019876.523   104771736.323       -1529.040          47.000  
E21  29311952.829   154035313.099       -2624.107          40.000    29311958.232   118027055.678       -2010.353          45.000  
G05  25858333.150   135886638.427        1302.875          44.000    25858331.162   105885752.018        1015.203          37.000  
E12  28488308.315   149707074.018        2405.999          43.000    28488315.907   114710650.458        1843.590          43.000  
G24                                                                  25903976.552                3      -3485.639          20.000  
R18                                                                  24944261.321                1      -3794.293          26.000  
G32                                                                  26194282.912                3      -2436.566          23.000  
> 2024 04 16 03 07 00.0040000  0 25                     
G25  21860911.258   114879921.042        -622.704          48.000    21860910.681    89516844.053        -485.309          47.000  
G18  24353497.200   127978491.195        2890.817          44.000    24353499.516    99723515.555        2252.753          44.000  
E09  28716299.291                       -2433.251          30.000    28716310.944   115628635.794       -1864.371          35.000  
R16  23127417.625   123542467.167       -3577.448          52.000    23127419.627    96088610.808       -2782.317          50.000  
R09  20593463.243   109967971.350        -352.154          52.000    20593460.945    85530743.736        -273.805          52.000  
R10  22375474.987   119273903.050        2414.060          47.000                                                                  
R20  21187246.650   113297774.008        1464.582          41.000    21187249.079    88120545.784        1139.148          44.000  
G29  21963252.855   115417740.004        -772.650          47.000    21963250.177    89935945.879        -602.106          44.000  
S33  41041376.907   215673897.545        -701.306          43.000  
S31  40087776.803   210662722.785        -700.934          44.000  
G28  22979701.741   120759149.097         877.532          47.000    22979701.611    94098012.022         683.697          46.000  
G11  25271479.440   132802808.886       -3609.244          47.000    25271474.041   103482820.873       -2812.898          36.000  
R18  24971684.016                3      -4880.370          19.000    24971684.268                3      -3796.132          25.000  
R19  21620916.848   115657674.304       -3409.296          41.000    21620914.455    89955695.833       -2651.636          49.000  
G12  23449743.365   123229232.682       -2147.929          50.000    23449740.959    96022771.624       -1673.704          46.000  
E33  25086174.273   131828792.723         665.677          46.000    25086178.108   101011717.625         510.102          54.000  
E31  25478787.538   133892059.904         544.567          49.000    25478790.450   102592689.721         417.273          52.000  
G20  25273693.535   132814169.208         -36.195          31.000                                                                  
G31  25372071.086   133331165.987        2480.978          34.000    25372072.077   103894376.521        1933.618          32.000  
E14  21919513.023   115187962.441       -3569.756          49.000    21919514.034    88260877.446       -2735.271          52.000  
E26  26031303.182   136795782.467       -2007.746          49.000    26031301.923   104817742.679       -1538.292          46.000  
E21  29326937.644   154114067.519       -2626.792          38.000    29326943.780   118087399.969       -2012.779          44.000  
G05  25850910.802   135847634.104        1297.185          44.000    25850909.556   105855359.244        1011.002          36.000  
E12  28474576.646   149634917.4631       2403.876          40.000    28474586.679   114655357.6851       1841.741          45.000  
G32                                                                  26212130.537                3      -2443.200          15.000  
> 2024 04 16 03 07 30.0040000  0 25                     
G25  21864491.840   114898739.404        -632.021          48.000    21864491.564    89531507.744        -492.525          47.000  
G18  24337013.066   127891868.820        2883.486          44.000    24337016.796    99656016.962        2246.909          42.000  
E09  28730214.067                       -2440.588          29.000    28730222.057   115684648.987       -1870.097          35.000  
R16  23147546.223   123649988.538       -3590.999          54.000    23147547.590    96172238.764       -2793.034          52.000  
R09  20595492.735   109978810.518        -370.860          52.000    20595490.566    85539174.203        -288.359          51.000  
R10  22361907.750   119201583.309        2406.894          47.000                                                                  
R20  21179090.729   113254161.361        1442.785          41.000    21179093.232    88086624.951        1122.015          44.000  
G29  21967694.545   115441083.159        -783.960          47.000    21967692.681    89954135.398        -610.779          44.000  
S33  41045381.025   215694940.781        -701.785          42.000  
S31  40091778.454   210683749.833        -701.511          43.000  
G28  22974742.962   120733087.137         859.544          47.000    22974741.721    94077704.006         669.807          47.000  
G11  25292115.669   132911250.587       -3620.518          47.000    25292110.246   103567320.945       -2821.024          37.000  
R18  24999102.091                3      -4879.854          26.000    24999130.713                3      -3793.052          17.000  
R19  21640085.139   115760207.343       -3426.745          42.000    21640081.670    90035443.768       -2665.060          49.000  
G12  23462027.513   123293781.554       -2155.567          50.000    23462024.231    96073069.401       -1679.861          47.000  
E33  25082411.624   131809019.462         652.343          47.000    25082415.181   100996566.826         499.737          53.000  
E31  25475685.790   133875758.010         541.964          48.000    25475688.383   102580198.697         415.206          52.000  
G20  25273938.784   132815467.524         -51.812          31.000                                                                  
G31  25357933.621   133256862.790        2472.348          35.000    25357932.176                        1926.666          31.000  
E14  21939929.935   115295260.113       -3583.738          49.000    21939932.325    88343092.611       -2746.016          52.000  
E26  26042800.476   136856202.285       -2020.668          49.000    26042799.231   104864038.446       -1548.294          46.000  
E21  29341942.875   154192924.833       -2630.442          37.000    29341949.637   118147823.055       -2015.784          43.000  
G05  25843523.313   135808813.445        1290.436          43.000    25843522.250   105825109.596        1005.590          37.000  
E12                                                                  28460872.310   114600137.331        1839.737          41.000  
G32                                                                  26230002.006                3      -2439.955          21.000  
> 2024 04 16 03 08 00.0040000  0 25                     
G25  21868124.397   114917829.245        -640.802          48.000    21868124.178    89546382.956        -499.360          47.000  
G18  24320569.605   127805457.692        2876.934          47.000    24320572.971    99588684.207        2241.601          46.000  
E09  28744170.387   151051577.010       -2447.556          32.000    28744173.232   115740826.478       -1875.454          34.000  
R16  23167747.618   123757903.547       -3603.749          54.000    23167749.197    96256172.730       -2802.910          52.000  
R09  20597625.323   109990201.976        -388.999          51.000    20597623.934    85548034.216        -302.571          51.000  
R10  22348379.403   119129469.408        2400.323          47.000                                                                  
R20  21171057.289   113211204.749        1420.804          40.000    21171060.136    88053214.343        1105.267          44.000  
G29  21972199.354   115464755.438        -794.489          48.000    21972197.275    89972581.383        -619.141          44.000  
S33  41049385.748   215715984.425        -701.303          42.000  
S31  40095779.454   210704776.106        -700.542          43.000  
G28  22969881.976   120707545.008         842.459          47.000    22969880.989    94057801.096         656.518          46.000  
G11  25312813.348   133020019.934       -3631.070          47.000    25312808.688   103652076.342       -2829.253          38.000  
R18  25026521.219                3      -4874.594          22.000    23528728.241                3      -3800.210          17.000  
R19  21659347.833   115863247.599       -3443.013          42.000    21659344.121    90115586.205       -2678.023          50.000  
G12  23474353.206   123358555.668       -2162.750          49.000    23474350.953    96123542.638       -1685.381          46.000  
E33  25078724.866   131789644.011         639.220          47.000    25078728.116   100981720.832         489.770          54.000  
E31  25472596.950   133859529.481         539.752          48.000    25472600.213   102567763.893         413.500          52.000  
G20  25274277.809   132817228.401         -66.805          36.000                                                                  
G31  25343840.753   133182800.702        2464.336          37.000    25343839.342                        1920.969          28.000  
E14  21960425.992   115402964.608       -3596.957          49.000    21960427.865    88425619.471       -2756.033          52.000  
E26  26054369.417   136916998.410       -2032.713          49.000    26054368.585   104910622.564       -1557.550          46.000  
E21  29356969.834   154271884.934       -2633.761          38.000    29356975.576   118208324.891       -2018.059          45.000  
G05  25836171.215   135770178.561        1284.510          43.000    25836169.907   105795004.734        1000.783          39.000  
E12  28447162.956   149490839.2701       2398.036          40.000    28447172.713   114544972.0441       1837.972          46.000  
G32                                                                  26247875.065                3      -2433.755          20.000  
> 2024 04 16 03 08 30.0040000  0 24                     
G25  21871808.772   114937190.470        -649.926          48.000    21871808.172    89561469.644        -506.383          48.000  
G18  24304165.548   127719253.612        2869.643          43.000    24304170.321    99521511.220        2236.167          45.000  
E09  28758154.968                       -2455.260          30.000    28758163.819                       -1880.411          27.000  
R16  23188023.626   123866210.156       -3616.753          52.000    23188024.578    96340411.122       -2813.137          46.000  
R09  20599861.878   110002146.323        -407.520          52.000    20599860.516    85557324.263        -316.898          51.000  
R10  22334890.354   119057563.793        2393.239          47.000                                                                  
R20  21163146.377   113168905.670        1399.012          41.000    21163150.150    88020315.182        1087.908          45.000  
G29  21976766.663   115488754.746        -805.609          48.000    21976763.437    89991282.186        -627.655          44.000  
S33  41053389.513   215737025.448        -701.452          42.000  
S31  40099780.362   210725801.071        -701.062          43.000  
G28  22965120.656   120682523.677         825.181          47.000    22965119.695    94038304.221         642.992          48.000  
G11  25333572.684   133129112.994       -3641.818          47.000    25333568.175   103737084.056       -2837.935          39.000  
R18  25053952.184                3      -4882.681          23.000    25054059.497                3      -3804.065          11.000  
R19  21678703.573   115966789.127       -3460.156          42.000    21678700.277    90196118.533       -2690.980          49.000  
G12  23486721.766   123423554.223       -2170.512          49.000    23486720.041    96174190.840       -1691.309          47.000  
E33  25075112.430   131770665.869         625.783          46.000    25075116.812   100967179.274         479.518          54.000  
E31  25469522.120   133843373.860         537.156          47.000    25469525.853   102555384.951         411.579          52.000  
G20  25274698.844   132819451.907         -82.131          36.000                                                                  
G31  25329793.569   133108981.674        2456.431          37.000    25329793.861                        1913.929          27.000  
E14  21980997.656   115511069.672       -3610.382          48.000    21980999.779    88508453.281       -2766.369          53.000  
E26  26066010.045   136978168.272       -2045.320          49.000    26066009.217   104957493.034       -1567.153          47.000  
E21  29372015.892   154350946.730       -2637.248          39.000    29372020.987   118268904.686       -2020.689          45.000  
G05  25828854.682   135731731.953        1278.366          41.000    25828853.520   105765046.512         996.197          40.000  
E12  28433482.177   149418945.824        2395.256          39.000    28433490.535   114489881.591        1835.513          46.000  
> 2024 04 16 03 09 00.0040000  0 24                     
G25  21875546.098   114956827.595        -659.081          49.000    21875545.485    89576771.329        -513.684          46.000  
G18  24287804.460   127633268.059        2862.765          47.000    24287807.903    99454509.642        2230.731          45.000  
E09  28772192.339                       -2462.255          26.000    28772196.465                       -1886.369          29.000  
R16  23208371.280   123974911.043       -3629.814          53.000    23208373.440    96424956.361       -2823.196          51.000  
R09  20602203.602   110014648.860        -426.007          51.000    20602201.780    85567048.465        -331.345          51.000  
R10  22321440.996   118985872.882        2386.273          47.000                                                                  
R20  21155360.927   113127268.946        1377.246          41.000    21155363.551    87987931.146        1071.005          45.000  
G29  21981396.285   115513082.894        -816.315          47.000    21981393.403    90010239.243        -636.169          44.000  
S33  41057393.791   215758068.682        -701.143          42.000  
S31  40103781.712   210746827.812        -700.756          43.000  
G28  22960459.242   120658027.507         807.779          46.000    22960457.778    94019216.465         629.419          46.000  
G11  25354394.187   133238530.482       -3652.695          47.000    25354390.093   103822344.495       -2846.268          41.000  
R18  25081380.817                3      -4889.686          18.000                                                                  
R19  21698153.188   116070831.870       -3476.164          42.000    21698149.489    90277040.722       -2703.827          49.000  
G12  23499133.742   123488780.972       -2177.998          48.000    23499132.291    96225016.823       -1697.157          44.000  
E33  25071577.886   131752089.239         612.410          46.000    25071581.768   100952945.357         469.299          54.000  
E31  25466461.964   133827295.240         534.636          46.000    25466466.125   102543065.007         409.689          52.000  
G20  25275213.089   132822143.048         -97.382          37.000                                                                  
G31  25315793.908   133035411.049        2448.251          38.000    25315796.263                3       1911.510          21.000  
E14  22001643.905   115619573.701       -3623.370          48.000    22001647.324    88591592.796       -2776.327          52.000  
E26  26077721.643   137039713.852       -2057.704          49.000    26077721.704   105004651.401       -1576.760          47.000  
E21  29387080.455   154430113.602       -2640.438          39.000    29387085.939   118329565.006       -2023.388          45.000  
G05  25821574.668   135693478.754        1271.859          41.000    25821573.985   105735238.969         991.069          38.000  
E12  28419813.955   149347140.3301       2392.576          39.000    28419824.497   114434856.9601       1832.592          43.000  
> 2024 04 16 03 09 30.0040000  0 24                     
G25  21879334.943   114976738.647        -668.423          49.000    21879334.232    89592286.445        -520.710          47.000  
G18  24271482.796   127547496.272        2855.353          45.000    24271487.276    99387681.6811       2224.954          47.000  
R16  23228793.912   124084001.155       -3643.026          49.000    23228795.571    96509804.034       -2833.288          44.000  
R09  20604649.357   110027708.216        -444.604          52.000    20604647.460    85577205.747        -345.881          52.000  
R10  22308032.334   118914396.454        2378.837          48.000                                                                  
R20  21147697.400   113086291.580        1354.827          40.000    21147700.445    87956059.941        1053.770          45.000  
G29  21986087.514   115537735.614        -827.203          48.000    21986085.664    90029449.205        -644.531          45.000  
S33  41061397.690   215779110.235        -701.656          42.000  
S31  40107782.595   210767852.620        -700.703          45.000  
G28  22955897.238   120634055.063         790.275          46.000    22955895.868    94000536.700         615.715          47.000  
G11  25375276.267   133348266.495       -3663.137          47.000    25375272.757   103907853.157       -2854.551          42.000  
R18  25108802.776                3      -4881.623          21.000                                                                  
R19  21717694.718   116175368.386       -3492.774          42.000    21717691.585    90358346.962       -2716.745          50.000  
G12  23511589.273   123554233.418       -2185.540          48.000    23511587.210    96276018.686       -1703.220          44.000  
E33  25068118.789   131733911.710         599.201          47.000    25068122.604   100939017.240         459.062          54.000  
E31  25463416.776   133811291.275         532.116          46.000    25463420.532   102530802.259         407.717          51.000  
G20  25275813.690   132825300.584        -113.424          38.000                                                                  
G31  25301840.962   132962088.459        2439.850          38.000    25301875.469                3       1904.816          20.000  
E14  22022366.632   115728468.749       -3636.507          48.000    22022369.204    88675031.911       -2786.435          52.000  
E26  26089503.402   137101630.702       -2070.254          48.000    26089504.187   105052094.237       -1586.260          48.000  
E21  29402166.103   154509382.631       -2643.936          41.000    29402170.812   118390303.533       -2025.977          46.000  
G05  25814333.002   135655420.211        1265.046          43.000    25814331.402   105705583.189         985.709          39.000  
E12  28406163.364                3       2389.446          28.000    28406175.992   114379891.148        1830.524          45.000  
E09                                                                  28786269.822   115910329.330       -1891.460          32.000  
> 2024 04 16 03 10 00.0040000  0 23                     
G25  21883174.481   114996917.325        -677.248          49.000    21883174.399    89608010.115        -527.828          47.000  
G18  24255201.947   127461934.474        2848.449          45.000    24255206.342    99321008.600        2219.573          41.000  
R16  23249286.907   124193471.857       -3655.440          51.000    23249290.367    96594947.568       -2843.179          50.000  
R09  20607197.830   110041318.937        -462.945          52.000    20607196.706    85587791.875        -360.125          51.000  
R10  22294663.668   118843130.398        2371.660          49.000                                                                  
R20  21140156.798   113045968.994        1332.656          41.000    21140159.611    87924697.991        1036.718          44.000  
G29  21990839.167   115562703.988        -837.634          48.000    21990836.658    90048905.123        -652.704          45.000  
S33  41065399.709   215800143.025        -700.883          42.000  
S31  40111781.671   210788868.577        -700.750          44.000  
G28  22951433.851   120610600.470         773.031          46.000    22951432.886    93982260.314         602.339          48.000  
G11  25396217.150   133458310.891       -3673.319          47.000    25396212.942   103993602.143       -2862.463          42.000  
R19  21737326.151   116280387.073       -3508.802          41.000    21737323.137    90440028.180       -2729.079          49.000  
G12  23524086.313   123619904.411       -2192.947          49.000    23524083.409    96327190.860       -1708.744          44.000  
E33  25064734.478   131716126.549         586.107          48.000    25064738.095   100925389.771         449.102          54.000  
E31  25460384.390   133795355.282         529.914          46.000    25460387.912   102518591.595         406.049          51.000  
G20  25276503.033   132828918.453        -128.648          37.000                                                                  
G31  25287933.377   132889009.078        2431.652          36.000                                                                  
E14  22043160.549   115837742.344       -3648.896          48.000    22043163.104    88758761.088       -2795.912          52.000  
E26  26101354.720   137163909.976       -2082.223          48.000    26101355.663   105099814.769       -1595.452          48.000  
E21  29417268.626   154588746.347       -2647.071          41.000    29417273.054   118451114.637       -2028.232          46.000  
G05  25807126.606   135617550.715        1259.107          43.000    25807125.011   105676074.701         981.028          40.000  
E12  28392531.914   149203759.1471       2386.684          41.000    28392541.734   114324994.261        1828.760          49.000  
E09                                                                  28800378.534                       -1896.317          31.000  
> 2024 04 16 03 10 30.0040000  0 23                     
G25  21887065.810   115017368.479        -686.487          49.000    21887066.022    89623946.079        -534.833          47.000  
G18  24238962.766   127376592.341        2840.795          46.000    24238966.440    99254507.925        2213.553          44.000  
R16  23269852.132   124303326.137       -3668.276          53.000    23269855.288    96680389.625       -2853.183          52.000  
R09  20609851.152   110055486.465        -481.567          51.000    20609850.098    85598811.050        -374.623          52.000  
R10  22281335.259   118772081.620        2364.537          49.000                                                                  
R20  21132739.121   113006304.878        1311.007          40.000    21132742.201    87893848.192        1019.572          44.000  
G29  21995650.489   115587990.216        -848.151          47.000    21995647.434    90068608.719        -661.011          44.000  
S33  41069400.893   215821170.069        -700.744          42.000  
S31  40115779.993   210809879.422        -700.580          44.000  
G28  22947070.183   120587669.498         755.481          46.000    22947069.560    93964391.991         588.671          47.000  
G11  25417216.802   133568664.588       -3683.040          46.000    25417212.695   104079592.113       -2870.566          43.000  
R19  21757048.446   116385887.551       -3524.827          41.000    21757045.665    90522084.125       -2741.457          49.000  
G12  23536625.132   123685798.181       -2200.359          49.000    23536622.075    96378536.670       -1714.453          44.000  
E33  25061425.960   131698738.218         573.007          48.000    25061429.111   100912066.360         438.944          54.000  
E31  25457366.369   133779491.654         527.508          47.000    25457369.147   102506436.388         404.131          51.000  
G20  25277281.047   132833001.896        -144.177          37.000                                                                  
G31  25274074.156   132816179.067        2423.233          37.000    25274101.825                        1888.467          28.000  
E14  22064027.249   115947393.300       -3661.372          49.000    22064029.079    88842779.391       -2805.504          52.000  
E26  26113275.017   137226553.908       -2094.294          48.000    26113276.520   105147814.717       -1604.801          49.000  
E21  29432390.248   154668208.549       -2650.535          42.000    29432394.435   118512001.197       -2030.912          46.000  
G05  25799957.608   135579876.533        1252.455          45.000    25799957.118   105646718.446         975.774          41.000  
E12  28378914.662   149132196.981        2382.971          32.000    28378924.634   114270159.671        1825.838          32.000  
E09                                                                  28814525.571                       -1901.733          26.000  
> 2024 04 16 03 11 00.0040000  0 24                     
G25  21891009.722   115038093.485        -695.728          49.000    21891009.386    89640095.458        -542.035          47.000  
G18  24222764.421   127291472.731        2833.575          48.000    24222766.619    99188181.822        2207.746          41.000  
R16  23290488.788   124413562.801       -3681.187          54.000    23290491.020    96766129.234       -2863.118          51.000  
R09  20612609.513   110070212.774        -500.562          52.000    20612607.825    85610264.845        -389.304          51.000  
R10  22268048.294   118701253.562        2356.901          49.000                                                                  
R20  21125445.411   112967302.101        1288.812          40.000    21125448.551    87863512.769        1002.334          45.000  
G29  22000522.295   115613593.436        -859.064          47.000    22000519.564    90088559.323        -669.458          44.000  
S33  41073401.184   215842191.300        -701.121          42.000  
S31  40119777.051   210830884.478        -700.344          44.000  
G28  22942806.629   120565263.790         737.670          47.000    22942806.044    93946932.959         574.951          48.000  
G11  25438275.088   133679325.153       -3693.931          43.000    25438270.058   104165821.206       -2878.433          43.000  
R19  21776860.010   116491866.105       -3540.743          41.000    21776857.619    90604511.901       -2753.945          50.000  
G12  23549207.100   123751915.114       -2207.928          49.000    23549203.616    96430056.253       -1720.558          44.000  
E33  25058192.082   131681747.641         559.465          48.000    25058195.689   100899047.703         428.674          54.000  
E31  25454360.955   133763701.401         524.801          46.000    25454364.528   102494337.410         402.187          51.000  
G20  25278145.699   132837552.397        -159.107          36.000                                                                  
G31  25260262.403   132743601.103        2414.473          36.000    25260272.958                        1882.118          30.000  
E14  22084963.878   116057416.941       -3674.011          49.000    22084965.835    88927083.272       -2814.989          52.000  
E26  26125265.128   137289561.383       -2106.505          48.000    26125265.989   105196093.213       -1614.000          48.000  
E21  29447529.199   154747769.477       -2653.798          41.000    29447534.798   118572963.421       -2033.603          47.000  
G05  25792825.787   135542400.833        1245.587          45.000    25792825.251   105617516.849         970.385          41.000  
E12  28365313.262   149060735.4181       2380.035          31.000    28365323.002                3       1822.909          26.000  
E09                                                                  28828711.178                       -1906.710          27.000  
R18                                                                  25191123.520                3      -3898.208          20.000  
> 2024 04 16 03 11 30.0040000  0 23                     
G25  21895008.322   115059106.310        -705.365          49.000    21895008.088    89656469.101        -549.615          47.000  
G18  24206611.256   127206586.139        2825.496          45.000    24206614.196    99122034.521        2201.900          42.000  
R16  23311199.230   124524192.902       -3694.291          50.000    23311202.036    96852174.771       -2873.404          48.000  
R09  20615473.983   110085512.624        -519.667          52.000    20615472.244    85622164.729        -404.157          51.000  
R10  22254805.077   118630662.812        2348.903          49.000                                                                  
R20  21118277.861   112928973.331        1266.136          41.000    21118280.651    87833701.576         984.885          45.000  
G29  22005456.722   115639524.448        -869.806          47.000    22005454.534    90108765.356        -677.741          45.000  
S33  41077402.954   215863220.320        -701.222          42.000  
S31  40123775.600   210851896.976        -700.563          44.000  
G28  22938646.058   120543397.867         719.774          47.000    22938645.132    93929894.577         560.939          49.000  
G11  25459393.168   133790302.668       -3704.517          41.000    25459388.133   104252297.225       -2886.681          44.000  
R19  21796761.966   116598331.221       -3557.212          41.000    21796759.266    90687318.168       -2766.531          50.000  
G12  23561834.100   123818268.513       -2215.817          49.000    23561829.633    96481760.156       -1726.611          44.000  
E33  25055037.114   131665168.323         545.698          48.000    25055040.629   100886344.175         418.187          54.000  
E31  25451371.986   133747998.148         521.975          46.000    25451376.314   102482305.100         399.976          52.000  
G20  25279101.990   132842584.446        -175.423          36.000                                                                  
G31  25246503.113   132671291.143        2405.762          37.000    25246510.733   103380283.0521       1874.384          32.000  
E14  22105972.775   116167821.243       -3686.554          49.000    22105975.035    89011678.843       -2824.635          52.000  
E26  26137326.946   137352943.792       -2119.013          48.000    26137327.090   105244659.002       -1623.741          48.000  
E21  29462689.255   154827442.071       -2657.729          40.000    29462696.014   118634011.178       -2036.277          47.000  
G05  25785735.027   135505139.319        1238.325          45.000    25785733.482   105588482.092         964.698          40.000  
E12  28351730.682   148989358.453        2377.468          38.000    28351742.807   114160721.2421       1821.483          45.000  
E09                                                                  28842936.810                       -1911.900          25.000  
> 2024 04 16 03 12 00.0040000  0 23                     
G25  21899061.587   115080405.748        -714.844          49.000    21899061.250    89673066.082        -556.860          47.000  
G18  24190503.001   127121937.478        2817.503          45.000    24190506.463    99056074.502        2195.475          43.000  
R16  23331982.471   124635212.876       -3707.115          51.000    23331985.277    96938523.229       -2883.075          47.000  
R09  20618446.722   110101385.546        -538.645          52.000    20618444.403    85634510.336        -418.938          50.000  
R10  22241607.060   118560309.818        2341.082          49.000                                                                  
R20  21111236.750   112891319.263        1244.012          41.000    21111239.477    87804415.281         967.475          46.000  
G29  22010453.146   115665780.576        -880.621          48.000    22010450.347    90129224.720        -686.084          44.000  
S33  41081405.375   215884253.900        -701.031          42.000  
S31  40127775.360   210872914.841        -700.793          44.000  
G28  22934587.756   120522070.908         701.942          47.000    22934587.054    93913276.193         546.929          48.000  
G11  25480570.697   133901591.983       -3714.603          41.000    25480565.206   104339016.263       -2894.708          43.000  
R19  21816754.570   116705276.994       -3572.845          40.000    21816751.937    90770498.282       -2778.827          48.000  
G12  23574505.019   123884856.278       -2223.526          49.000    23574501.763    96533646.671       -1732.555          44.000  
E33  25051959.959   131648998.641         532.046          48.000    25051963.483   100873954.522         407.680          54.000  
E31  25448400.051   133732380.348         519.198          46.000    25448404.386   102470338.271         397.776          52.000  
G20  25280150.497   132848097.138        -192.099          36.000                                                                  
G31  25232792.812   132599248.931        2397.299          33.000    25232798.191                        1867.862          31.000  
E14  22127052.836   116278598.992       -3698.850          48.000    22127055.271    89096560.555       -2834.229          52.000  
E26  26149458.506   137416697.407       -2131.334          48.000    26149458.429   105293509.222       -1633.165          48.000  
E21  29477871.336   154907224.011       -2661.192          41.000    29477878.143   118695142.756       -2039.129          47.000  
G05  25778684.870   135468092.568        1231.331          44.000    25778683.499   105559614.622         959.338          40.000  
E12  28338168.230   148918069.981        2373.800          39.000    28338180.227   114106108.7931       1818.901          49.000  
E09                                                                  28857199.677                3      -1916.188          25.000  
> 2024 04 16 03 12 30.0040000  0 23                     
G25  21903169.259   115101991.722        -724.622          49.000    21903168.437    89689886.322        -564.630          46.000  
G18  24174440.237   127037527.623        2809.451          46.000    24174444.428    98990300.848        2189.140          45.000  
R16  23352838.961   124746620.491       -3720.260          52.000    23352841.339    97025173.300       -2893.710          48.000  
R09  20621527.314   110117831.772        -558.064          52.000    20621524.124    85647301.853        -434.026          50.000  
R10  22228453.815   118490197.098        2332.832          49.000                                                                  
R20  21104320.978   112854338.848        1221.378          41.000    21104323.139    87775652.852         949.758          44.000  
G29  22015510.452   115692358.869        -891.602          48.000    22015507.323    90149935.134        -694.666          44.000  
S33  41085408.630   215905291.969        -701.747          43.000  
S31  40131775.772   210893937.034        -701.227          44.000  
G28  22930631.242   120501283.296         683.526          46.000    22930630.830    93897078.076         532.610          48.000  
G11  25501807.232   134013189.197       -3725.530          39.000    25501801.198   104425975.201       -2902.870          44.000  
R19  21836836.885   116812697.736       -3588.864          42.000    21836833.307    90854047.773       -2791.267          49.000  
G12  23587219.888   123951677.770       -2231.545          49.000    23587217.725    96585715.319       -1738.809          45.000  
E33  25048961.115   131633238.015         518.280          48.000    25048964.229   100861878.296         397.080          54.000  
E31  25445444.604   133716847.568         515.992          47.000    25445448.664   102458436.571         395.410          52.000  
G20  25281290.288   132854090.816        -208.872          36.000                                                                  
G31  25219130.490   132527476.045        2387.427          31.000    25219136.357   103268219.342        1860.266          32.000  
E14  22148203.319   116389744.081       -3711.133          49.000    22148205.092    89181723.722       -2843.590          52.000  
E26  26161660.337   137480819.547       -2143.797          47.000    26161660.402   105342641.813       -1642.719          47.000  
E21  29493074.361   154987114.169       -2665.000          41.000    29493081.086   118756357.208       -2042.078          47.000  
G05  25771675.447   135431262.517        1223.994          42.000    25771674.905   105530916.067         953.745          40.000  
E12  28324627.365   148846905.651        2370.366          37.000    28324636.719   114051581.142        1816.149          43.000  
E09                                                                  28871501.751                       -1922.277          26.000  
> 2024 04 16 03 13 00.0040000  0 23                     
G25  21907332.001   115123866.568        -734.033          49.000    21907331.285    89706931.678        -572.052          47.000  
G18  24158423.383   126953360.233        2801.500          47.000    24158426.768    98924716.461        2183.078          43.000  
R16  23373767.726   124858416.125       -3732.860          54.000    23373769.957    97112125.492       -2903.376          54.000  
R09  20624714.725   110134854.538        -577.077          52.000    20624711.977    85660541.772        -448.765          50.000  
R10  22215346.076   118420328.571        2324.810          48.000                                                                  
R20  21097532.606   112818034.569        1198.894          43.000    21097534.640    87747416.328         932.363          45.000  
G29  22020629.476   115719259.056        -902.032          48.000    22020626.329    90170896.353        -702.893          44.000  
S33  41089412.714   215926334.173        -701.525          43.000  
S31  40135776.693   210914963.463        -701.011          44.000  
G28  22926778.178   120481037.606         665.909          46.000    22926778.244    93881302.200         518.754          47.000  
G11  25523102.320   134125092.745       -3734.856          37.000    25523095.762   104513172.812       -2910.530          44.000  
R19  21857005.721   116920591.018       -3604.085          42.000    21857002.263    90937964.771       -2803.385          47.000  
G12  23599981.425   124018735.090       -2239.192          51.000    23599978.515    96637967.726       -1744.949          46.000  
E33  25046040.559   131617888.273         504.846          48.000    25046043.182   100850116.899         386.836          54.000  
E31  25442505.331   133701401.736         513.458          47.000    25442509.642   102446601.500         393.398          52.000  
G20  25282523.356   132860567.933        -223.645          35.000                                                                  
G31  25205526.972   132455976.291        2378.954          30.000    25205533.168   103212505.244        1853.840          33.000  
E14  22169421.728   116501252.892       -3722.893          48.000    22169424.513    89267165.601       -2852.722          52.000  
E26  26173932.737   137545309.965       -2155.719          48.000    26173932.294   105392056.596       -1651.818          47.000  
E21  29508297.615   155067113.754       -2668.635          42.000    29508304.291   118817655.509       -2044.614          47.000  
G05  25764709.746   135394652.669        1216.597          44.000    25764708.435   105502389.032         948.102          40.000  
E12  28311105.901   148775846.600        2366.973          39.000    28311113.314   113997134.135        1813.523          46.000  
E09                                                                  28885841.940                3      -1928.295          23.000  
> 2024 04 16 03 13 30.0040000  0 23                     
G25  21911549.724   115146030.493        -743.561          49.000    21911549.088    89724202.248        -579.303          47.000  
G18  24142452.303   126869437.560        2793.458          45.000    24142455.836    98859323.248        2176.872          42.000  
R16  23394767.498   124970596.126       -3745.646          47.000    23394770.311    97199376.340       -2913.219          46.000  
R09  20628010.738   110152454.738        -596.228          53.000    20628008.663    85674230.790        -463.677          51.000  
R10  22202284.942   118350707.125        2316.605          48.000                                                                  
R20  21090869.670   112782406.144        1176.477          41.000    21090871.314    87719705.427         915.177          43.000  
G29  22025809.571   115746478.776        -912.592          49.000    22025806.012    90192106.571        -711.078          43.000  
S33  41093417.702   215947380.330        -701.632          42.000  
S31  40139778.791   210935994.407        -700.920          44.000  
G28  22923029.421   120461334.533         647.912          46.000    22923029.036    93865949.083         504.800          48.000  
G11  25544454.838   134237298.942       -3744.668          34.000    25544448.114   104600606.301       -2918.486          44.000  
R19  21877262.161   117028951.041       -3619.708          40.000    21877258.738    91022244.804       -2815.278          48.000  
G12  23612786.371   124086027.187       -2246.855          47.000    23612784.816    96690403.017       -1750.811          42.000  
E33  25043198.181   131602949.200         491.171          49.000    25043199.678   100838670.161         376.448          53.000  
E31  25439582.395   133686042.760         510.759          47.000    25439586.902   102434832.972         391.291          52.000  
G20  25283845.513                3       -241.817          32.000                                                                  
G31  25191961.787                3       2369.225          27.000    25191976.064   103157005.124        1846.374          33.000  
E14  22190709.418   116613119.695       -3734.593          48.000    22190712.186    89352881.776       -2861.624          52.000  
E26  26186274.743   137610166.327       -2167.799          48.000    26186274.209   105441751.775       -1661.013          47.000  
E21  29523542.660   155147221.854       -2672.020          43.000    29523547.817   118879036.963       -2047.206          46.000  
G05  25757785.333   135358264.828        1209.358          43.000    25757782.044   105474035.030         942.061          37.000  
E12                                                                  28297609.846   113942758.7981       1810.975          42.000  
E09                                                                  28900219.363                3      -1938.576          20.000  
> 2024 04 16 03 14 00.0050000  0 23                     
G25  21915821.759   115168477.883        -752.892          49.000    21915820.616    89741693.727        -586.651          46.000  
G18  24126526.241   126785750.678        2785.441          46.000    24126530.262    98794113.453        2170.403          47.000  
R16  23415839.188   125083155.996       -3758.129          52.000    23415841.125    97286922.527       -2923.056          48.000  
R09  20631413.905   110170626.884        -615.173          53.000    20631411.510    85688364.689        -478.457          51.000  
R10  22189269.705   118281325.840        2308.575          48.000                                                                  
R20  21084331.899   112747447.249        1153.892          41.000    21084333.760    87692515.546         897.436          43.000  
G29  22031048.487   115774009.914        -922.820          48.000    22031045.224    90213559.470        -719.030          44.000  
S33  41097421.929   215968423.887        -701.262          43.000  
S31  40143779.962   210957021.464        -700.440          44.000  
G28  22919381.989   120442167.785         630.082          47.000    22919381.496    93851014.098         490.924          48.000  
R19  21897604.228   117137770.005       -3634.291          41.000    21897601.395    91106881.882       -2827.014          47.000  
G12  23625636.008   124153549.588       -2254.399          50.000    23625633.086    96743017.832       -1756.744          45.000  
E33  25040431.488   131588413.371         477.834          48.000    25040433.572   100827532.422         366.037          53.000  
E31  25436674.672   133670763.429         508.018          47.000    25436679.222   102423125.472         389.186          52.000  
G20  25285276.394                3       -251.359          31.000                                                                  
G31  25178479.057                        2361.130          29.000    25178472.259   103101713.455        1839.187          34.000  
E14  22212063.998   116725335.931       -3746.029          49.000    22212066.420    89438865.689       -2870.390          53.000  
E26  26198684.972   137675381.814       -2179.790          48.000    26198684.670   105491722.139       -1670.201          48.000  
E21  29538806.798   155227433.703       -2675.429          43.000    29538811.843   118940497.923       -2049.975          46.000  
G05  25750902.390   135322093.138        1201.895          44.000    25750898.488   105445849.468         936.358          38.000  
E12  28284120.032   148634038.9921       2359.704          36.000    28284125.717   113888468.317        1808.411          40.000  
E09                                                                  28914633.431                3      -1928.168          16.000  
G11                                                                  25565856.657   104688270.611       -2925.838          44.000  
> 2024 04 16 03 14 30.0050000  0 22                     
G25  21920146.497   115191204.055        -762.320          49.000    21920145.337    89759402.437        -594.083          46.000  
G18  24110646.429   126702303.796        2777.723          45.000    24110650.068    98729090.751        2164.313          47.000  
R16  23436979.639   125196082.648       -3770.398          51.000    23436981.998    97374754.195       -2932.252          44.000  
R09  20634923.661   110189367.051        -634.197          53.000    20634920.805    85702940.372        -493.195          51.000  
R10  22176299.957   118212188.582        2300.547          48.000                                                                  
R20  21077918.843   112713155.696        1131.907          42.000    21077920.922    87665844.401         880.169          44.000  
G29  22036345.709   115801845.312        -932.967          48.000    22036342.047    90235249.444        -727.017          44.000  
S33  41101424.692   215989458.317        -700.943          42.000  
S31  40147780.009   210978040.373        -700.759          43.000  
G28  22915836.242   120423535.369         612.141          45.000    22915835.671    93836495.393         477.085          46.000  
G11  25587346.372                3      -3764.093          32.000    25587318.881   104776154.318       -2933.114          44.000  
R19  21918030.197   117247032.165       -3649.453          40.000    21918027.337    91191863.592       -2838.516          49.000  
G12  23638527.231   124221293.413       -2261.908          50.000    23638524.002    96795805.283       -1762.390          45.000  
E33  25037741.823   131574278.121         464.576          48.000    25037743.771   100816701.593         355.963          54.000  
E31  25433781.138   133655561.211         505.489          46.000    25433786.301   102411477.054         387.304          52.000  
G31  25165027.016   132242999.9421       2351.830          32.000    25165020.523   103046632.830        1832.573          33.000  
E14  22233481.488   116837884.980       -3757.222          49.000    22233483.669    89525104.609       -2878.787          53.000  
E26  26211161.490   137740946.340       -2191.401          47.000    26211160.907   105541959.935       -1679.003          48.000  
E21  29554088.393   155307739.625       -2678.357          43.000    29554093.580   119002030.968       -2052.309          47.000  
G05  25744058.635   135286138.294        1194.947          42.000    25744057.124   105417832.842         930.698          38.000  
E12  28270654.895   148563283.881        2356.509          39.000    28270660.804   113834254.375        1805.742          45.000  
E09                                                                  28929082.310                3      -1941.136          19.000  
