     3.00           OBSERVATION DATA    M: Mixed            RINEX VERSION / TYPE
CONVBIN 2.4.3                           20240416 052942 UTC PGM / RUN BY / DATE 
format: u-blox UBX                                          COMMENT             
log: /home/regis/git/gnsspwv/obsdata/VERT00CHL/2024-04-16/VECOMMENT             
{self.marker}                                               MARKER NAME         
                                                            MARKER NUMBER       
GEODETIC                                                    MARKER TYPE         
{self.observer}     {self.institution}                      OBSERVER / AGENCY   
UNKNOWN             UBLOX-ZED-F9P                           REC # / TYPE / VERS 
UNKNOWN             TWIVSP6037L                             ANT # / TYPE        
  1713381.0000 -5047934.0000 -3490983.0000                  APPROX POSITION XYZ 
        0.0000        0.0000        0.0000                  ANTENNA: DELTA H/E/N
G    8 C1C L1C D1C S1C C2L L2L D2L S2L                      SYS / # / OBS TYPES 
R    8 C1C L1C D1C S1C C2C L2C D2C S2C                      SYS / # / OBS TYPES 
E    8 C1C L1C D1C S1C C7Q L7Q D7Q S7Q                      SYS / # / OBS TYPES 
S    4 C1C L1C D1C S1C                                      SYS / # / OBS TYPES 
  2024    04    16    05    15   00.0080000     GPS         TIME OF FIRST OBS   
  2024    04    16    05    29   30.0080000     GPS         TIME OF LAST OBS    
                                                            END OF HEADER       
> 2024 04 16 05 15 00.0080000  0 24                     
G25  24867867.037   130681544.9911      -3552.264          45.000    24867868.763   101829788.0541      -2768.131          42.000  
G18  22585068.374   118685375.9221       -932.527          49.000    22585065.591    92482081.2731       -726.730          50.000  
G26  23600477.613   124021363.9221       1627.074          47.000    23600477.564    96640031.7731       1267.823          45.000  
G23  25161248.541   132223414.2661       2617.451          47.000    25161248.350   103031232.6041       2039.493          45.000  
R05  26382325.111   141028696.4481       2100.446          48.000    26382322.676   109689037.6011       1633.602          42.000  
R11  22643242.962   120998734.7931       1803.025          50.000    22643241.791    94110185.8891       1402.267          50.000  
R09  24646775.287   131612373.9191      -4812.925          50.000    24646776.059   102365264.1821      -3743.360          47.000  
R10  21826494.095   116347525.5731      -2504.852          47.000                                                                  
R21  22560029.765   120723439.2141        256.872          51.000    22560026.652    93896072.1841        199.817          49.000  
R20  22845763.741   122166646.4821      -3047.457          43.000    22845763.739    95018567.3371      -2370.154          44.000  
G29  24473248.854   128607873.6921      -2305.922          49.000    24473242.592   100213977.2091      -1796.414          38.000  
S33  42035741.604   220899363.3281       -655.838          43.000  
S31  41081629.517   215885489.1801       -655.466          43.000  
G28  25083894.314   131816751.7631      -3340.337          44.000    25083893.300   102714325.3561      -2602.738          43.000  
E11  28737988.793   151019130.7841       1974.559          33.000    28737986.321   115716002.5881       1512.958          31.000  
R04  26360459.355                3        115.752          25.000    26360454.786                3         86.355          20.000  
E33  26556462.195   139555233.7901      -2391.879          46.000    26556464.207   106931984.5621      -1832.877          53.000  
E31  25644510.743   134762949.0941      -1149.465          46.000    25644514.618   103259995.3311       -880.821          52.000  
G31  24383440.044   128135755.7821      -1580.845          48.000    24383437.973    99846180.0621      -1231.780          44.000  
E14  27688921.929   145506437.3891      -3405.885          45.000    27688924.440   111491921.0601      -2609.654          52.000  
G05  26273365.761   138067473.5171      -2315.802          41.000    26273358.280   107585300.7441      -1804.431          33.000  
E24  27140294.169   142623243.0101       1249.927          45.000    27140296.390   109282764.4911        957.641          51.000  
E12  26217858.567   137775872.2931        315.084          44.000    26217858.296   105568603.2121        241.321          49.000  
E10  27470774.096   144360049.0811       1340.140          46.000    27470778.416   110613732.7721       1026.765          51.000  
> 2024 04 16 05 15 30.0080000  0 24                     
G25  24888174.731   130788262.801       -3562.586          44.000    24888176.362   101912944.666       -2775.826          41.000  
G18  22590440.024   118713600.658        -949.492          50.000    22590436.486    92504074.637        -739.828          51.000  
G26  23591220.697   123972717.927        1615.720          47.000    23591220.231    96602125.828        1259.056          45.000  
G23  25146321.119   132144972.095        2611.856          45.000    25146321.434   102970109.022        2034.797          44.000  
R05  26370558.620   140965799.484        2092.365          47.000    26370556.578   109640117.729        1627.264          42.000  
R11  22633177.171   120944939.992        1782.826          51.000    22633175.023    94068345.477        1386.691          51.000  
R09  24673835.984   131756878.948       -4821.043          50.000    24673836.809   102477656.842       -3749.785          46.000  
R10  21840658.268   116423028.247       -2529.079          47.000                                                                  
R21  22558629.691   120715945.875         242.417          51.000    22558627.178    93890244.113         188.509          49.000  
R20  22862878.661   122258167.830       -3054.316          44.000    22862878.748    95089750.631       -2375.427          44.000  
G29  24486421.157   128677092.883       -2309.004          49.000    24486415.480   100267914.254       -1799.281          39.000  
S33  42039483.234   220919026.407        -655.951          43.000  
S31  41085370.509   215905147.632        -655.424          43.000  
G28  25102985.783   131917078.035       -3348.372          45.000    25102984.679   102792501.626       -2609.336          43.000  
E11  28726724.278                1       1969.419          29.000    28726726.862   115670666.122        1509.215          33.000  
E33  26570136.536   139627092.691       -2399.016          46.000    26570138.392   106987045.274       -1838.183          53.000  
E31  25651103.471   134797592.122       -1160.189          47.000    25651107.106   103286539.925        -888.992          53.000  
G31  24392513.369   128183437.797       -1598.261          47.000    24392510.781    99883334.841       -1245.524          43.000  
E14  27708340.698   145608480.685       -3397.488          45.000    27708342.806   111570110.068       -2603.279          52.000  
G05  26286630.847   138137184.355       -2331.720          41.000    26286624.257   107639620.938       -1816.919          35.000  
E24  27133174.661   142585828.676        1244.075          45.000    27133176.759   109254096.367         953.336          51.000  
E12  26216089.884   137766580.132         303.969          43.000    26216089.955   105561483.241         233.053          48.000  
E10  27463147.347   144319971.882        1331.361          46.000    27463151.642   110583024.346        1020.192          51.000  
R04                                                                  26359859.744                3         71.604          21.000  
> 2024 04 16 05 16 00.0080000  0 24                     
G25  24908539.477   130895276.466       -3572.062          45.000    24908541.005   101996331.852       -2783.537          43.000  
G18  22595906.438   118742328.092        -965.937          50.000    22595903.946    92526459.723        -752.730          51.000  
G26  23582028.203   123924411.859        1604.545          47.000    23582028.629    96564484.755        1250.287          46.000  
G23  25131425.742   132066699.005        2606.107          44.000    25131426.730   102909117.153        2030.682          45.000  
R05  26358837.477   140903142.398        2084.509          47.000    26358835.446   109591384.448        1621.216          44.000  
R11  22623222.579   120891747.774        1762.850          51.000    22623221.052    94026973.741        1371.178          51.000  
R09  24700941.640   131901622.810       -4828.745          49.000    24700942.575   102590235.217       -3755.636          47.000  
R10  21854957.962   116499253.513       -2552.843          47.000                                                                  
R21  22557309.511   120708881.033         228.337          52.000    22557307.391    93884749.305         177.598          49.000  
R20  22880031.457   122349891.332       -3060.810          43.000    22880031.417    95161091.193       -2380.628          44.000  
G29  24499609.463   128746401.318       -2311.860          48.000    24499604.841   100321920.822       -1801.700          39.000  
S33  42043224.121   220938684.981        -655.305          42.000  
S31  41089110.287   215924801.354        -655.118          44.000  
G28  25122123.603   132017646.205       -3356.204          45.000    25122122.854   102870866.310       -2615.032          42.000  
E11  28715495.198                        1964.683          27.000    28715495.063   115625441.057        1505.658          33.000  
E33  26583850.751   139699160.917       -2405.850          46.000    26583852.371   107042266.386       -1843.411          52.000  
E31  25657755.720   134832554.529       -1170.838          47.000    25657760.480   103313329.312        -897.107          54.000  
G31  24401685.447   128231637.318       -1615.303          47.000    24401682.696    99920892.864       -1258.867          42.000  
E14  27727711.711   145710272.698       -3388.925          45.000    27727713.242   111648106.524       -2596.682          52.000  
G05  26299984.475   138207362.323       -2347.192          37.000    26299979.655   107694305.104       -1828.662          35.000  
E24  27126086.939   142548584.679        1238.547          46.000    27126089.347   109225558.784         948.967          51.000  
E12  26214383.929   137757614.310         293.452          44.000    26214383.654   105554613.366         224.695          48.000  
E10  27455570.721   144280156.167        1322.815          47.000    27455574.791   110552516.273        1013.627          51.000  
R04                                                                  26359391.223                3         56.813          25.000  
> 2024 04 16 05 16 30.0080000  0 24                     
G25  24928959.793   131002588.981       -3582.094          44.000    24928961.951   102079951.851       -2791.196          42.000  
G18  22601468.991   118771561.268        -982.882          49.000    22601467.372    92549238.838        -765.864          51.000  
G26  23572901.814   123876452.656        1592.761          47.000    23572902.859    96527113.969        1241.270          46.000  
G23  25116564.263   131988602.745        2600.136          45.000    25116565.627   102848263.109        2026.056          46.000  
R05  26347162.662   140840734.438        2075.940          48.000    26347160.476   109542844.946        1614.685          44.000  
R11  22613382.877   120839166.399        1742.372          51.000    22613381.148    93986077.120        1355.167          51.000  
R09  24728092.656   132046606.644       -4836.958          49.000    24728093.767   102703000.242       -3761.904          48.000  
R10  21869393.778   116576202.726       -2577.097          49.000                                                                  
R21  22556069.571   120702248.270         213.853          52.000    22556068.067    93879590.559         166.375          49.000  
R20  22897222.751   122441819.247       -3067.720          44.000    22897222.430    95232590.734       -2386.061          44.000  
G29  24512816.065   128815803.196       -2314.963          49.000    24512812.083   100376000.190       -1804.152          40.000  
S33  42046964.379   220958341.445        -655.095          43.000  
S31  41092849.762   215944453.581        -655.112          44.000  
G28  25141307.814   132118457.573       -3364.694          45.000    25141307.157   102949420.583       -2621.707          42.000  
E11  28704292.599                        1959.666          30.000    28704293.149   115580331.646        1501.532          36.000  
E33  26597605.722   139771441.414       -2412.972          47.000    26597607.035   107097650.154       -1848.833          52.000  
E31  25664470.548   134867841.108       -1181.852          46.000    25664475.407   103340367.028        -905.556          53.000  
G31  24410957.476   128280357.201       -1632.776          48.000    24410953.959    99958856.364       -1272.291          42.000  
E14  27747034.929   145811817.280       -3380.855          45.000    27747036.651   111725913.408       -2590.464          52.000  
G05  26313427.629   138278010.326       -2362.842          37.000    26313423.456   107749355.494       -1841.211          36.000  
E24  27119032.916   142511517.069        1232.609          45.000    27119035.742   109197156.343         944.481          51.000  
E12  26212740.323   137748979.108         282.272          43.000    26212740.035   105547996.827         216.301          47.000  
E10  27448045.493   144240606.929        1313.848          47.000    27448048.888   110522212.379        1006.670          51.000  
R04                                                                  26359037.110                3         37.145          20.000  
> 2024 04 16 05 17 00.0080000  0 23                     
G25  24949436.609   131110194.741       -3591.864          45.000    24949438.724   102163800.406       -2798.986          42.000  
G18  22607126.964   118801294.872        -999.770          49.000    22607125.533    92572407.914        -779.042          51.000  
G26  23563840.589   123828838.619        1581.233          46.000    23563842.288    96490012.145        1231.985          46.000  
G23  25101736.486   131910682.356        2594.058          45.000    25101737.794   102787546.123        2021.431          44.000  
R05  26335534.291   140778575.724        2067.487          46.000    26335531.551   109494499.296        1608.130          42.000  
R11  22603657.116   120787194.830        1721.868          51.000    22603654.588    93945654.785        1339.257          50.000  
R09  24755287.595   132191822.913       -4844.608          50.000    24755288.689   102815946.066       -3767.920          48.000  
R10  21883963.957   116653869.948       -2601.175          47.000                                                                  
R21  22554909.693   120696042.188         199.548          52.000    22554907.373    93874763.688         155.131          49.000  
R20  22914450.252   122533944.266       -3074.469          42.000    22914450.528    95304243.570       -2391.292          44.000  
G29  24526039.684   128885294.076       -2318.076          49.000    24526035.502   100430148.939       -1806.495          40.000  
S33  42050703.980   220977993.182        -655.385          43.000  
S31  41096588.585   215964099.858        -655.422          43.000  
G28  25160536.069   132219504.889       -3372.326          44.000    25160535.762   103028158.689       -2628.029          42.000  
E11  28693121.300   150783346.8511       1954.467          31.000    28693118.970   115535335.352        1497.592          38.000  
E33  26611399.156   139843928.367       -2419.940          47.000    26611400.687   107153192.133       -1854.219          52.000  
E31  25671246.384   134903448.319       -1192.498          46.000    25671251.313   103367650.483        -913.747          53.000  
G31  24420326.595   128329591.410       -1650.102          48.000    24420324.031    99997220.633       -1285.761          43.000  
E14  27766310.691   145913109.727       -3372.310          46.000    27766311.868   111803527.106       -2584.097          52.000  
G05  26326959.297   138349122.770       -2378.424          36.000    26326955.937   107804767.828       -1853.247          34.000  
E24  27112012.215   142474623.218        1226.438          45.000    27112015.070   109168887.045         939.744          51.000  
E12  26211158.141   137740670.117         271.388          43.000    26211158.708   105541630.249         207.830          48.000  
E10  27440569.099   144201320.370        1304.961          48.000    27440572.647   110492109.779         999.880          51.000  
> 2024 04 16 05 17 30.0080000  0 24                     
G25  24969970.348   131218101.800       -3602.252          44.000    24969973.136   102247883.749       -2806.853          42.000  
G18  22612882.471   118831537.096       -1016.814          50.000    22612880.095    92595973.348        -792.314          52.000  
G26  23554847.833   123781581.764        1568.790          46.000    23554849.645    96453188.625        1222.546          45.000  
G23  25086944.394   131832950.880        2587.576          45.000    25086945.623   102726976.459        2016.277          46.000  
R05  26323954.379   140716680.116        2058.496          46.000    26323953.791   109446358.242        1601.080          44.000  
R11  22594048.432   120735846.933        1700.830          52.000    22594045.412    93905717.551        1322.877          50.000  
R09  24782526.623   132337277.571       -4852.626          50.000    24782528.416   102929077.272       -3774.332          48.000  
R10  21898669.885   116732264.836       -2625.479          47.000                                                                  
R21  22553832.667   120690271.366         184.810          52.000    22553828.416    93870275.348         143.826          48.000  
R20  22931716.128   122626273.369       -3081.245          42.000    22931716.215    95376055.135       -2396.306          44.000  
G29  24539281.996   128954883.722       -2321.502          48.000    24539279.305   100484374.612       -1808.906          41.000  
S33  42054444.450   220997648.643        -655.531          42.000  
S31  41100327.928   215983751.243        -655.477          44.000  
G28  25179810.694   132320794.564       -3380.571          43.000    25179810.924   103107085.633       -2634.469          42.000  
E11  28681968.916                        1949.784          29.000    28681974.096   115490460.136        1494.091          38.000  
E33  26625234.419   139916629.602       -2427.178          47.000    26625235.394   107208898.287       -1859.766          52.000  
E31  25678085.466   134939386.081       -1203.636          47.000    25678090.146   103395187.191        -922.300          54.000  
G31  24429794.726   128379347.774       -1667.595          47.000    24429792.124   100035991.780       -1299.300          43.000  
E14  27785540.037   146014159.004       -3364.444          46.000    27785540.802   111880954.487       -2577.999          52.000  
G05  26340581.745   138420707.836       -2394.305          35.000    26340577.079   107860548.412       -1865.796          33.000  
E24  27105027.127   142437914.117        1220.174          46.000    27105029.608   109140759.299         935.060          51.000  
E12  26209641.344   137732696.526         259.891          43.000    26209641.609   105535520.655         199.096          48.000  
E10  27433146.063   144162306.529        1295.634          48.000    27433148.575   110462216.119         992.799          51.000  
R04                                                                  26358669.466                3         14.060          17.000  
> 2024 04 16 05 18 00.0080000  0 24                     
G25  24990560.268   131326304.222       -3611.848          44.000    24990563.301   102332197.245       -2814.360          43.000  
G18  22618733.449   118862281.804       -1033.364          50.000    22618730.717    92619930.318        -805.171          52.000  
G26  23545922.781   123734679.954        1557.184          46.000    23545923.898    96416641.777        1213.272          45.000  
G23  25072188.472   131755406.606        2581.512          46.000    25072188.755   102666552.566        2011.584          45.000  
R05  26312426.025   140655047.301        2049.786          47.000    26312424.974   109398421.664        1594.360          45.000  
R11  22584555.494   120685121.420        1680.309          52.000    22584553.567    93866264.388        1306.852          51.000  
R09  24809809.220   132482962.596       -4860.017          50.000    24809810.993   103042387.655       -3780.081          48.000  
R10  21913511.493   116811378.254       -2649.243          47.000                                                                  
R21  22552833.553   120684929.675         170.788          51.000    22552831.308    93866120.750         132.811          50.000  
R20  22949018.552   122718799.006       -3087.628          43.000    22949018.398    95448019.536       -2401.386          43.000  
G29  24552542.428   129024567.131       -2324.458          48.000    24552539.439   100538673.373       -1811.271          40.000  
S33  42058184.530   221017303.812        -654.916          43.000  
S31  41104067.277   216003401.679        -655.411          43.000  
G28  25199129.837   132422318.906       -3388.203          44.000    25199130.215   103186195.452       -2639.969          41.000  
E11  28670855.670   150666368.990        1943.974          32.000    28670858.264   115445703.263        1489.697          39.000  
E33  26639108.558   139989538.937       -2433.855          47.000    26639109.694   107264763.886       -1864.947          53.000  
E31  25684986.899   134975650.309       -1214.441          47.000    25684991.006   103422974.023        -930.536          53.000  
G31  24439360.703   128429620.046       -1684.448          46.000    24439358.364   100075164.929       -1312.488          42.000  
E14  27804721.105   146114959.960       -3356.105          46.000    27804722.518   111958191.598       -2571.475          51.000  
G05  26354291.677   138492760.052       -2409.393          36.000    26354288.798   107916693.002       -1877.795          35.000  
E24  27098076.266   142401386.811        1214.380          46.000    27098078.545   109112770.858         930.566          51.000  
E12  26208187.301   137725053.539         249.182          43.000    26208187.522   105529664.362         190.900          48.000  
E10  27425771.927   144123561.233        1286.859          48.000    27425775.678   110432528.238         985.974          51.000  
R04                                                                  26358671.807                3         -8.454          26.000  
> 2024 04 16 05 18 30.0080000  0 24                     
G25  25011207.187   131434796.472       -3621.292          46.000    25011208.954   102416736.552       -2821.924          43.000  
G18  22624677.685   118893523.754       -1049.677          49.000    22624675.841    92644274.731        -818.132          51.000  
G26  23537065.100   123688131.764        1545.413          46.000    23537065.695    96380370.467        1204.346          44.000  
G23  25057468.167   131678048.997        2575.372          48.000    25057467.354   102606274.022        2006.832          45.000  
R05  26300945.921   140593677.656        2041.046          46.000    26300944.288   109350689.720        1587.470          45.000  
R11  22575179.379   120635017.864        1659.448          52.000    22575177.824    93827294.960        1290.718          51.000  
R09  24837133.220   132628870.507       -4867.348          50.000    24837135.589   103155871.440       -3785.703          48.000  
R10  21928486.445   116891205.185       -2672.927          47.000                                                                  
R21  22551914.653   120680012.126         156.772          52.000    22551912.722    93862296.026         121.939          49.000  
R20  22966356.825   122811514.942       -3093.646          43.000    22966356.655    95520132.004       -2406.423          43.000  
G29  24565819.409   129094340.441       -2327.324          48.000    24565816.488   100593042.163       -1813.681          40.000  
S33  42061924.052   221036953.778        -654.951          43.000  
S31  41107805.865   216023047.174        -655.065          44.000  
G28  25218493.388   132524070.975       -3395.888          44.000    25218493.148   103265482.688       -2646.026          42.000  
E11  28659764.110                        1939.484          31.000    28659771.183   115401062.412        1486.018          39.000  
E33  26653021.675   140062650.964       -2440.539          47.000    26653022.533   107320784.809       -1870.005          53.000  
E31  25691949.457   135012237.644       -1225.070          48.000    25691953.264   103451008.451        -938.662          54.000  
G31  24449024.342   128480402.557       -1701.413          46.000    24449022.333   100114735.667       -1325.795          43.000  
E14  27823853.881   146215508.167       -3347.482          45.000    27823856.029   112035235.041       -2564.888          52.000  
G05  26368093.448   138565273.406       -2424.890          39.000    26368089.453   107973196.927       -1889.532          36.000  
E24  27091159.739   142365038.925        1208.512          47.000    27091161.556   109084919.889         925.997          51.000  
E12  26206795.326   137717737.040         238.453          43.000    26206795.363   105524058.220         182.648          49.000  
E10  27418449.075   144085081.071        1278.136          48.000    27418453.072   110403043.514         979.427          51.000  
R04                                                                  26358801.182                3        -28.104          20.000  
> 2024 04 16 05 19 00.0080000  0 24                     
G25  25031908.299   131543578.005       -3630.770          45.000    25031909.914   102501501.270       -2829.135          43.000  
G18  22630717.292   118925262.645       -1066.153          48.000    22630715.876    92669006.341        -830.763          51.000  
G26  23528275.223   123641940.611        1533.822          47.000    23528275.461    96344377.386        1195.241          44.000  
G23  25042783.836   131600882.617        2568.973          47.000    25042782.540   102546144.559        2001.867          44.000  
R05  26289515.388   140532576.730        2032.318          46.000    26289514.475   109303166.747        1580.615          45.000  
R11  22565920.612   120585540.841        1638.828          51.000    22565918.638    93788812.840        1274.719          50.000  
R09  24864497.738   132774998.945       -4874.587          49.000    24864500.750   103269526.740       -3791.379          47.000  
R10  21943595.737   116971745.948       -2696.447          48.000                                                                  
R21  22551074.505   120675518.459         142.795          52.000    22551071.403    93858800.944         111.219          49.000  
R20  22983729.928   122904418.786       -3099.867          42.000    22983730.386    95592390.532       -2410.876          43.000  
G29  24579114.448   129164204.097       -2330.234          48.000    24579110.884   100647481.359       -1815.823          40.000  
S33  42065662.658   221056601.703        -654.590          43.000  
S31  41111543.910   216042690.983        -654.604          43.000  
G28  25237899.352   132626048.568       -3402.830          44.000    25237898.725   103344945.654       -2651.268          43.000  
E11  28648709.870   150550001.586        1933.280          31.000    28648713.551   115356538.902        1482.344          39.000  
E33  26666972.590   140135965.023       -2447.104          47.000    26666973.735   107376960.552       -1875.029          53.000  
E31  25698972.816   135049149.555       -1235.821          47.000    25698977.369   103479291.633        -946.985          53.000  
G31  24458784.829   128531694.295       -1718.186          46.000    24458783.084   100154703.219       -1338.896          44.000  
E14  27842940.009   146315804.020       -3339.025          45.000    27842941.765   112112085.115       -2558.425          51.000  
G05  26381981.066   138638247.523       -2440.749          39.000    26381975.720   108030059.848       -1901.154          36.000  
E24  27084277.729   142328872.980        1202.581          47.000    27084279.296   109057208.336         921.324          51.000  
E12  26205464.598   137710747.813         227.633          43.000    26205465.446   105518702.855         174.463          49.000  
E10  27411177.527   144046867.468        1269.408          47.000    27411181.298   110373763.035         972.597          51.000  
R04                                                                  26359004.653                3        -39.790          16.000  
> 2024 04 16 05 19 30.0080000  0 23                     
G25  25052662.222   131652643.870       -3640.326          45.000    25052664.278   102586487.589       -2836.870          43.000  
G18  22636849.975   118957493.487       -1082.626          49.000    22636849.364    92694121.358        -843.743          52.000  
G26  23519553.087   123596105.366        1521.595          47.000    23519553.335    96308661.621        1185.578          44.000  
G23  25028135.560   131523906.788        2562.629          47.000    25028134.149   102486163.475        1996.729          44.000  
R05  26278135.763   140471745.272        2023.083          45.000    26278134.573   109255853.397        1573.438          43.000  
R11  22556778.687   120536690.119        1617.676          52.000    22556775.874    93750817.801        1258.173          50.000  
R09  24891902.342   132921340.591       -4881.750          49.000    24891905.834   103383347.891       -3796.823          48.000  
R10  21958837.119   117052992.547       -2719.930          47.000                                                                  
R21  22550314.307   120671443.698         128.793          52.000    22550310.465    93855631.682         100.037          49.000  
R20  23001137.709   122997504.116       -3106.001          41.000    23001137.595    95664790.277       -2416.062          43.000  
G29  24592426.674   129234155.362       -2333.138          48.000    24592422.513   100701988.792       -1818.093          40.000  
S33  42069400.317   221076242.426        -654.573          43.000  
S31  41115280.427   216062327.151        -654.489          43.000  
G28  25257346.916   132728244.976       -3410.384          44.000    25257346.657   103424579.137       -2657.150          43.000  
E11  28637681.365   150492044.879        1928.951          32.000    28637684.546   115312130.657        1478.298          39.000  
E33  26680961.047   140209475.869       -2453.674          47.000    26680962.407   107433287.084       -1880.120          53.000  
E31  25706058.764   135086382.793       -1246.660          46.000    25706062.566   103507820.960        -955.165          53.000  
G31  24468641.279   128583490.160       -1734.929          47.000    24468639.072   100195063.597       -1352.102          43.000  
E14  27861977.216   146415843.433       -3330.481          45.000    27861978.517   112188738.701       -2551.979          51.000  
G05  26395953.474   138711677.404       -2455.172          39.000    26395947.859   108087277.954       -1913.109          35.000  
E24  27077429.232   142292886.859        1196.575          46.000    27077431.351   109029634.572         916.735          51.000  
E12  26204196.830   137704081.910         216.653          44.000    26204196.988   105513595.244         165.975          49.000  
E10  27403954.718   144008917.173        1260.382          46.000    27403959.711   110344684.313         965.803          51.000  
> 2024 04 16 05 20 00.0080000  0 23                     
G25  25073471.891   131761998.107       -3650.092          45.000    25073473.495   102671698.500       -2843.922          41.000  
G18  22643077.599   118990220.425       -1099.000          48.000    22643076.510    92719622.876        -856.422          51.000  
G26  23510900.391   123550634.239        1509.806          47.000    23510900.775    96273229.579        1176.439          44.000  
G23  25013525.375   131447130.995        2556.083          47.000    25013524.304   102426338.376        1991.651          45.000  
R05  26266808.047   140411193.319        2013.751          45.000    26266806.243   109208757.438        1566.113          43.000  
R11  22547755.959   120488475.168        1596.674          51.000    22547752.407    93713317.320        1241.857          50.000  
R09  24919348.772   133067898.089       -4888.615          49.000    24919351.483   103497336.914       -3802.410          48.000  
R10  21974212.601   117134949.983       -2743.535          48.000                                                                  
R21  22549631.150   120667792.263         114.775          52.000    22549628.698    93852791.679          89.325          50.000  
R20  23018579.676   123090775.362       -3112.098          43.000    23018578.739    95737334.679       -2420.441          41.000  
G29  24605755.541   129304199.579       -2336.150          47.000    24605750.993   100756568.652       -1820.123          40.000  
S33  42073137.320   221095881.831        -654.104          42.000  
S31  41119016.993   216081962.262        -654.445          43.000  
G28  25276837.042   132830662.940       -3417.418          43.000    25276836.463   103504385.266       -2663.110          42.000  
E11  28626677.091   150434245.208        1924.419          31.000    28626685.215   115267842.772        1474.262          39.000  
E33  26694987.967   140283187.695       -2460.351          46.000    26694989.227   107489767.597       -1885.207          53.000  
E31  25713205.753   135123943.511       -1257.429          46.000    25713210.183   103536601.214        -963.514          53.000  
G31  24478594.227   128635793.858       -1751.751          46.000    24478591.799   100235819.649       -1364.937          43.000  
E14  27880966.123   146515631.628       -3321.960          45.000    27880967.597   112265199.788       -2545.448          51.000  
G05  26410014.156   138785566.562       -2470.324          40.000    26410007.772   108144853.972       -1925.105          34.000  
E24  27070617.083   142257087.937        1190.294          46.000    27070618.882   109002204.240         911.974          51.000  
E12  26202991.589   137697744.759         205.879          45.000    26202991.065   105508739.522         157.726          49.000  
E10  27396783.396   143971236.380        1251.672          46.000    27396788.896   110315812.113         959.036          51.000  
> 2024 04 16 05 20 30.0080000  0 24                     
G25  25094336.907   131871642.425       -3659.874          46.000    25094338.387   102757135.511       -2851.866          43.000  
G18  22649400.915   119023445.373       -1115.892          49.000    22649398.308    92745512.450        -869.509          51.000  
G26  23502318.053   123505532.871        1497.117          48.000    23502318.449    96238085.661        1166.779          45.000  
G23  24998954.628   131370561.348        2548.577          46.000    24998953.392   102366673.838        1986.134          43.000  
R05  26255534.373   140350928.352        2003.827          45.000    26255531.652   109161884.648        1558.453          43.000  
R11  22538852.973   120440902.751        1574.910          51.000    22538850.545    93676316.559        1225.011          50.000  
R09  24946834.572   133214670.787       -4896.203          49.000    24946836.468   103611493.245       -3807.847          46.000  
R10  21989721.552   117217618.950       -2767.647          48.000                                                                  
R21  22549028.164   120664566.338         100.357          52.000    22549025.335    93850282.661          78.125          49.000  
R20  23036056.453   123184232.191       -3118.416          43.000    23036055.862    95810023.347       -2425.410          42.000  
G29  24619102.272   129374339.851       -2339.699          47.000    24619098.284   100811223.446       -1822.983          39.000  
S33  42076875.070   221115523.511        -654.951          43.000  
S31  41122753.684   216101599.605        -654.247          43.000  
G28  25296368.160   132933302.465       -3425.128          43.000    25296368.002   103584364.042       -2668.914          42.000  
E11  28615708.804                        1918.578          30.000    28615716.777   115223678.330        1469.914          39.000  
R22  25835205.867                3       2286.855          27.000                                                                  
E33  26709053.931   140357101.964       -2467.239          46.000    26709054.765   107546403.233       -1890.523          53.000  
E31  25720416.540   135161835.520       -1268.687          46.000    25720420.686   103565635.345        -972.063          54.000  
G31  24488644.262   128688606.654       -1769.109          46.000    24488641.882   100276972.437       -1378.480          43.000  
E14  27899908.117   146615171.262       -3313.891          45.000    27899909.251   112341470.424       -2539.249          51.000  
G05  26424162.416   138859917.110       -2486.302          42.000    26424155.427   108202789.547       -1937.415          34.000  
E24  27063841.419   142221480.936        1183.522          46.000    27063843.073   108974920.956         906.882          51.000  
E12  26201848.073   137691739.312         194.728          44.000    26201847.970   105504137.966         149.091          48.000  
E10  27389664.553   143933828.734        1242.303          45.000    27389670.203   110287149.176         951.917          50.000  
> 2024 04 16 05 21 00.0080000  0 24                     
G25  25115256.604   131981576.064       -3669.047          46.000    25115258.111   102842797.952       -2858.951          42.000  
G18  22655818.399   119057167.569       -1132.139          49.000    22655814.976    92771789.490        -882.068          51.000  
G26  23493806.782   123460804.420        1485.021          48.000    23493807.035    96203232.334        1157.329          45.000  
G23  24984422.997   131294202.098        2542.043          46.000    24984422.318   102307173.345        1980.908          43.000  
R05  26244314.864   140290955.711        1994.580          45.000    26244312.665   109115239.226        1551.434          42.000  
R11  22530071.345   120393977.012        1553.666          50.000    22530069.965    93639818.718        1208.459          51.000  
R09  24974359.904   133361656.233       -4902.649          49.000    24974362.162   103725815.106       -3813.159          47.000  
R10  22005362.881   117300998.599       -2790.739          46.000                                                                  
R21  22548505.263   120661765.537          86.558          52.000    22548501.913    93848104.246          67.426          49.000  
R20  23053567.603   123277872.248       -3123.962          42.000    23053568.090    95882854.573       -2429.791          43.000  
G29  24632467.206   129444576.556       -2342.635          47.000    24632463.883   100865953.296       -1825.235          40.000  
S33  42080613.409   221135167.564        -654.990          43.000  
S31  41126491.054   216121239.687        -654.241          43.000  
G28  25315940.567   133036161.179       -3432.154          39.000    25315941.510   103664513.614       -2674.191          42.000  
E11  28604772.955                        1913.019          30.000    28604779.481   115179638.538        1465.937          39.000  
R22  25822407.552                1       2279.018          30.000    25822466.720                3       1771.817          24.000  
E33  26723157.462   140431217.848       -2473.514          46.000    26723158.480   107603193.324       -1895.310          53.000  
E31  25727689.938   135200059.825       -1279.248          48.000    25727694.467   103594924.062        -980.236          55.000  
G31  24498790.479   128741927.361       -1785.366          45.000    24498788.433   100318521.016       -1391.302          42.000  
E14  27918802.338   146714462.648       -3305.215          46.000    27918803.561   112417550.835       -2532.539          51.000  
G05  26438398.175   138934728.514       -2500.733          41.000    26438391.955   108261084.215       -1949.412          36.000  
E24  27057102.910   142186068.111        1177.571          47.000    27057104.343   108947786.463         902.261          51.000  
E12  26200768.306   137686066.026         183.952          44.000    26200768.255   105499790.914         140.950          48.000  
E10  27382598.673   143896695.347        1233.555          46.000    27382603.718   110258696.382         945.222          50.000  
> 2024 04 16 05 21 30.0080000  0 24                     
G25  25136231.184   132091797.508       -3678.782          46.000    25136233.003   102928684.644       -2866.381          42.000  
G18  22662329.638   119091385.539       -1148.766          49.000    22662326.179    92798452.891        -895.247          51.000  
G26  23485367.317   123416451.442        1472.274          49.000    23485366.844    96168671.569        1147.130          45.000  
G23  24969932.951   131218056.283        2534.423          44.000    24969931.541   102247839.078        1975.167          42.000  
R05  26233152.546   140231279.952        1984.375          47.000    26233150.366   109068824.699        1543.256          45.000  
R11  22521411.939   120347701.279        1531.690          52.000    22521409.720    93603826.472        1191.259          50.000  
R09  25001925.689   133508851.150       -4909.904          49.000    25001927.013   103840299.856       -3818.873          47.000  
R10  22021137.253   117385086.182       -2814.649          47.000                                                                  
R21  22548060.216   120659388.402          72.334          52.000    22548057.794    93846255.364          56.313          49.000  
R20  23071113.520   123371693.617       -3130.279          43.000    23071113.621    95955826.794       -2434.673          43.000  
G29  24645850.947   129514909.986       -2345.968          46.000    24645847.552   100920758.592       -1828.096          40.000  
S33  42084352.101   221154814.391        -655.075          43.000  
S31  41130228.816   216140882.171        -654.524          44.000  
G28  25335555.539   133139236.101       -3439.371          37.000    25335555.763   103744831.560       -2679.942          42.000  
E11  28593872.110   150261818.660        1908.522          32.000    28593872.539   115135724.014        1462.147          38.000  
R22  25809627.840                1       2269.793          27.000    25809648.777                1       1766.155          27.000  
E33  26737298.075   140505533.842       -2480.392          45.000    26737300.482   107660136.772       -1900.676          53.000  
E31  25735027.513   135238616.867       -1290.903          47.000    25735031.537   103624467.684        -989.061          54.000  
G31  24509033.910   128795754.294       -1802.520          47.000    24509031.308   100360464.030       -1404.772          43.000  
E14  27937649.720   146813505.300       -3297.250          46.000    27937650.839   112493440.668       -2526.487          51.000  
G05  26452720.832   139009998.506       -2516.296          39.000    26452715.737   108319736.183       -1961.181          36.000  
E24  27050401.270   142150851.086        1170.553          47.000    27050402.858   108920801.994         896.992          51.000  
E12  26199752.203   137680724.655         172.450          44.000    26199751.910   105495698.189         132.237          49.000  
E10  27375584.809   143859836.628        1224.145          45.000    27375589.902   110230454.047         937.984          50.000  
> 2024 04 16 05 22 00.0080000  0 24                     
G25  25157259.455   132202304.030       -3688.062          44.000    25157262.272   103014793.489       -2873.815          43.000  
G18  22668934.499   119126096.635       -1165.002          48.000    22668931.795    92825500.531        -907.812          51.000  
G26  23476999.403   123372475.082        1459.772          50.000    23476998.072    96134404.280        1137.488          45.000  
G23  24955483.802   131142126.270        2527.608          46.000    24955483.131   102188673.038        1969.506          45.000  
R05  26222044.697   140171903.306        1974.396          46.000    26222042.298   109022642.861        1535.730          44.000  
R11  22512874.369   120302078.431        1510.132          51.000    22512872.262    93568342.038        1174.487          51.000  
R09  25029528.907   133656250.692       -4916.461          49.000    25029530.610   103954943.795       -3823.836          48.000  
R10  22037044.364   117469878.203       -2837.867          48.000                                                                  
R21  22547694.373   120657432.309          58.504          52.000    22547692.916    93844733.976          45.558          49.000  
R20  23088691.125   123465692.391       -3136.163          42.000    23088690.926    96028937.036       -2439.215          43.000  
G29  24659254.223   129585338.941       -2348.939          48.000    24659249.517   100975638.258       -1830.432          39.000  
S33  42088091.206   221174463.803        -654.611          42.000  
S31  41133967.387   216160527.150        -654.398          43.000  
G28  25355211.703   133242522.741       -3445.826          39.000    25355209.793   103825314.600       -2685.297          40.000  
E11  28582986.719                        1902.411          29.000    28582997.142   115091934.565        1457.904          38.000  
R22  25796922.411                3       2267.759          23.000    25796928.039                3       1759.188          22.000  
E33  26751477.091   140580047.034       -2486.856          45.000    26751479.775   107717231.294       -1905.472          53.000  
E31  25742428.327   135277506.034       -1301.654          46.000    25742431.721   103654265.853        -997.316          52.000  
G31  24519371.995   128850084.081       -1819.192          46.000    24519370.353   100402798.855       -1417.643          44.000  
E14  27956449.083   146912297.528       -3288.736          46.000    27956450.226   112569138.613       -2519.873          51.000  
G05  26467130.877   139085724.689       -2531.255          40.000    26467126.292   108378743.580       -1972.217          36.000  
E24  27043737.225   142115830.174        1164.223          47.000    27043738.808   108893967.792         892.130          51.000  
E12  26198798.968   137675713.617         161.758          45.000    26198798.659   105491858.597         123.852          49.000  
E10  27368623.263   143823251.734        1215.070          46.000    27368627.991   110202421.524         931.075          50.000  
> 2024 04 16 05 22 30.0080000  0 24                     
G25  25178342.006   132313092.325       -3696.939          45.000    25178344.106   103101121.852       -2880.602          41.000  
G18  22675633.067   119161297.711       -1180.801          50.000    22675630.561    92852929.984        -920.177          51.000  
G26  23468702.650   123328876.163        1447.590          49.000    23468701.180    96100431.123        1128.018          45.000  
G23  24941076.478   131066413.330        2520.800          45.000    24941075.620   102129676.029        1964.087          44.000  
R05  26210993.704   140112829.050        1964.746          47.000    26210990.840   108976696.167        1528.180          43.000  
R11  22504458.953   120257109.621        1488.636          52.000    22504456.813    93533366.353        1157.799          50.000  
R09  25057169.737   133803849.472       -4922.602          48.000    25057171.667   104069742.626       -3828.700          48.000  
R10  22053081.849   117555370.458       -2860.877          47.000                                                                  
R21  22547407.224   120655894.321          44.949          52.000    22547404.883    93843537.779          34.937          49.000  
R20  23106302.131   123559863.987       -3141.290          43.000    23106300.863    96102181.632       -2443.170          41.000  
G29  24672673.787   129655861.393       -2351.622          48.000    24672669.127   101030590.833       -1832.385          39.000  
S33  42091830.084   221194112.705        -654.369          43.000  
S31  41137705.602   216180171.976        -654.125          43.000  
G28  25374905.874   133346016.426       -3452.515          40.000    25374904.371   103905958.962       -2690.508          42.000  
E11  28572151.714   150147682.794        1897.462          33.000    28572153.729   115048269.451        1453.839          39.000  
R22  25784217.805                2       2253.236          28.000    25784207.762                3       1755.223          21.000  
E33  26765694.017   140654754.200       -2492.763          46.000    26765696.013   107774474.473       -1910.067          53.000  
E31  25749890.531   135316726.094       -1312.203          46.000    25749894.957   103684317.636       -1005.438          53.000  
G31  24529806.393   128904913.248       -1835.334          47.000    24529803.954   100445522.866       -1430.038          43.000  
E14  27975200.537   147010837.213       -3279.711          46.000    27975201.796   112644643.079       -2513.095          51.000  
G05  26481627.022   139161903.788       -2546.042          40.000    26481621.415   108438104.017       -1984.170          36.000  
E24  27037109.708   142081005.268        1158.264          46.000    27037111.730   108867283.798         887.446          51.000  
E12  26197907.955   137671030.865         151.320          44.000    26197907.540   105488270.539         115.838          49.000  
E10  27361713.847   143786939.399        1206.591          46.000    27361718.160   110174597.841         924.476          50.000  
> 2024 04 16 05 23 00.0080000  0 25                     
G25  25199476.138   132424153.369       -3706.388          44.000    25199478.205   103187662.905       -2887.877          41.000  
G18  22682423.121   119196979.612       -1197.238          49.000    22682420.745    92880734.085        -932.889          51.000  
G26  23460476.612   123285649.458        1434.732          49.000    23460475.962    96066747.995        1117.941          45.000  
G23  24926709.771   130990913.477        2513.221          47.000    24926708.901   102070845.067        1958.542          45.000  
G16  26453020.544                3       2620.848          29.000                                                                  
R05  26199997.996   140054053.798        1954.407          47.000    26199994.818   108930982.092        1519.916          43.000  
R11  22496166.031   120212790.324        1466.587          52.000    22496162.911    93498895.792        1140.765          51.000  
R09  25084844.555   133951636.588       -4929.223          47.000    25084847.641   104184687.938       -3833.748          49.000  
R10  22069250.052   117641553.660       -2884.032          49.000                                                                  
R21  22547196.918   120654765.327          30.966          53.000    22547193.017    93842659.712          24.089          48.000  
R20  23123943.078   123654198.485       -3147.064          42.000    23123942.182    96175553.005       -2447.534          42.000  
G29  24686110.269   129726469.872       -2354.840          47.000    24686107.038   101085610.409       -1835.066          41.000  
S33  42095567.513   221213753.110        -654.259          42.000  
S31  41141442.241   216199808.800        -654.146          43.000  
G28  25394638.568   133449706.340       -3459.404          41.000    25394636.063   103986756.204       -2695.571          42.000  
E11  28561337.889   150090851.551        1892.102          33.000    28561339.114   115004723.569        1449.580          39.000  
R22  25771575.569                1       2244.736          29.000    25771584.872                        1746.302          30.000  
E33  26779945.462   140729646.123       -2499.359          45.000    26779947.264   107831859.200       -1915.013          53.000  
E31  25757416.362   135356269.474       -1323.437          46.000    25757420.065   103714617.035       -1014.009          52.000  
G31  24540333.134   128960232.249       -1851.921          47.000    24540330.771   100488628.532       -1443.225          43.000  
E14  27993902.207   147109116.237       -3271.489          46.000    27993903.776   112719947.784       -2506.644          51.000  
G05  26496207.433   139238526.530       -2561.083          39.000    26496203.136   108497810.067       -1995.538          36.000  
E24  27030519.344   142046370.274        1151.529          46.000    27030520.931   108840745.305         882.300          51.000  
E12  26197077.043   137666668.478         140.321          44.000    26197077.312   105484927.973         107.515          49.000  
E10  27354853.864   143750892.313        1197.409          46.000    27354858.587   110146977.421         917.361          50.000  
> 2024 04 16 05 23 30.0080000  0 25                     
G25  25220660.793   132535481.976       -3715.736          44.000    25220664.203   103274412.289       -2895.314          43.000  
G18  22689303.502   119233137.417       -1213.368          49.000    22689301.677    92908909.016        -945.559          51.000  
G26  23452321.077   123242794.045        1422.088          49.000    23452320.990    96033354.186        1108.140          46.000  
G23  24912382.171   130915626.373        2505.776          46.000    24912382.395   102012179.805        1952.660          44.000  
G16  26438062.035                1       2619.962          29.000                                                                  
R05  26189058.808   139995578.664        1944.073          46.000    26189056.834   108885501.410        1512.073          44.000  
R11  22487993.541   120169120.926        1444.641          52.000    22487990.641    93464930.750        1123.589          50.000  
R09  25112554.813   134099604.990       -4935.507          47.000    25112557.394   104299774.272       -3838.710          48.000  
R10  22085546.552   117728421.458       -2907.160          47.000                                                                  
R21  22547061.891   120654040.498          17.253          52.000    22547056.909    93842096.015          13.402          48.000  
R20  23141612.576   123748689.251       -3152.234          42.000    23141612.630    96249045.955       -2451.965          41.000  
G29  24699562.197   129797161.153       -2358.103          48.000    24699558.676   101140694.519       -1837.180          40.000  
S33  42099303.042   221233383.032        -654.355          42.000  
S31  41145177.159   216219435.081        -654.238          44.000  
G28  25414405.831   133553586.110       -3466.334          42.000    25414404.561   104067701.392       -2700.695          42.000  
E11  28550551.675   150034173.385        1886.672          35.000    28550553.477   114961294.955        1445.558          39.000  
R22  25758981.095   137503201.4641       2236.594          34.000    25758986.318                1       1739.296          30.000  
E33  26794230.739   140804717.787       -2505.532          45.000    26794232.810   107889381.670       -1919.898          53.000  
E31  25765002.484   135396133.539       -1334.338          46.000    25765006.204   103745162.232       -1022.491          54.000  
G31  24550952.423   129016035.774       -1868.436          46.000    24550949.644   100532111.736       -1456.115          43.000  
E14  28012553.868   147207130.785       -3262.859          45.000    28012555.237   112795049.847       -2500.159          51.000  
G05  26510871.066   139315588.075       -2576.388          41.000    26510868.153   108557858.083       -2007.183          38.000  
E24  27023964.995   142011923.455        1144.804          47.000    27023965.883   108814350.985         877.223          51.000  
E12  26196307.197   137662622.850         129.272          44.000    26196307.171   105481828.114          99.099          48.000  
E10  27348044.965   143715107.569        1188.141          47.000    27348048.721   110119557.996         910.450          50.000  
> 2024 04 16 05 24 00.0080000  0 26                     
G25  25241899.579   132647091.537       -3724.690          45.000    25241903.042   103361380.623       -2902.559          43.000  
G18  22696277.265   119269784.503       -1229.526          48.000    22696274.978    92937465.186        -958.003          50.000  
G26  23444240.043   123200327.254        1409.226          48.000    23444240.064    96000263.171        1098.093          46.000  
G23  24898099.674   130840570.530        2498.305          46.000    24898099.227   101953694.802        1946.723          44.000  
G16  26423107.618                1       2619.107          29.000                                                                  
R05  26178178.486   139937422.477        1933.527          45.000    26178177.386   108840268.863        1503.626          44.000  
R11  22479945.644   120126119.651        1422.363          52.000    22479943.512    93431485.328        1106.319          51.000  
R09  25140301.046   134247766.461       -4941.677          48.000    25140304.026   104415010.749       -3843.493          49.000  
R10  22101972.065   117815987.019       -2930.133          46.000                                                                  
R21  22547004.528   120653733.781           3.520          53.000    22547000.572    93841857.476           2.775          49.000  
R20  23159314.410   123843349.039       -3158.026          40.000    23159314.706    96322670.221       -2455.829          42.000  
G29  24713033.421   129867949.731       -2361.013          48.000    24713029.679   101195854.419       -1839.892          40.000  
S33  42103039.373   221253017.687        -654.226          43.000  
S31  41148912.609   216239065.371        -654.102          43.000  
G28  25434210.744   133657667.435       -3472.241          40.000    25434209.964   104148803.673       -2705.773          41.000  
E11  28539797.720   149977663.936        1881.131          35.000    28539799.963   114917995.631        1441.499          39.000  
R22  25746435.415   137436241.265        2227.803          38.000    25746442.750                        1731.763          31.000  
E33  26808553.328   140879982.508       -2511.766          45.000    26808555.138   107947052.052       -1924.512          53.000  
E31  25772652.064   135436333.473       -1345.276          46.000    25772656.182   103775964.781       -1030.786          53.000  
G31  24561665.878   129072336.735       -1884.838          46.000    24561663.708   100575982.553       -1468.615          44.000  
E14  28031158.176   147304895.372       -3254.383          46.000    28031159.276   112869960.375       -2493.612          51.000  
G05  26525622.659   139393101.230       -2591.230          41.000    26525619.314   108618258.000       -2019.131          38.000  
E24  27017448.520   141977681.200        1138.208          47.000    27017449.824   108788113.424         872.186          51.000  
E12  26195599.578   137658908.443         118.529          43.000    26195599.984   105478982.021          90.874          48.000  
E10  27341288.253   143679600.341        1179.247          48.000    27341291.782   110092351.233         903.603          50.000  
R04                                                                  26368134.480                3       -208.669          25.000  
> 2024 04 16 05 24 30.0080000  0 26                     
G25  25263192.609   132758983.434       -3734.485          45.000    25263195.639   103448568.958       -2910.173          43.000  
G18  22703344.347   119306922.291       -1246.185          48.000    22703342.280    92966403.745        -970.949          50.000  
G26  23436234.053   123158254.483        1395.926          49.000    23436233.798    95967479.187        1087.880          46.000  
G23  24883862.391   130765751.955        2489.900          46.000    24883861.324   101895394.601        1940.171          44.000  
G16  26408169.368                        2617.470          32.000                                                                  
R05  26167360.961   139879592.974        1922.077          46.000    26167358.878   108795290.385        1495.093          41.000  
R11  22472025.359   120083792.876        1399.635          52.000    22472022.732    93398564.508        1088.536          51.000  
R09  25168083.633   134396120.291       -4948.278          49.000    25168086.429   104530396.832       -3848.662          49.000  
R10  22118529.831   117904250.716       -2953.630          47.000                                                                  
R21  22547025.478   120653846.538         -10.677          52.000    22547021.901    93841945.203          -8.353          49.000  
R20  23177048.121   123938179.175       -3163.623          43.000    23177048.488    96396427.150       -2460.870          44.000  
G29  24726522.823   129938838.425       -2364.598          48.000    24726518.572   101251092.342       -1842.355          40.000  
S33  42106777.040   221272658.978        -654.817          42.000  
S31  41152649.476   216258702.387        -654.897          44.000  
G28  25454054.597   133761950.260       -3479.223          41.000    25454053.421   104230062.944       -2711.122          41.000  
E11  28529077.039   149921326.958        1874.816          36.000    28529079.370   114874828.511        1436.516          39.000  
R04  26369742.539                3       -282.656          14.000                                                                  
R22  25733939.957   137369544.758        2218.822          39.000    25733946.287   106843005.3561       1725.306          33.000  
E33  26822912.491   140955441.685       -2518.521          46.000    26822914.521   108004871.436       -1929.785          52.000  
E31  25780366.734   135476872.539       -1356.958          46.000    25780370.804   103807027.160       -1039.751          54.000  
G31  24572474.127   129129135.903       -1901.660          45.000    24572472.395   100620241.597       -1481.893          44.000  
E14  28049714.790   147402412.505       -3246.336          46.000    28049716.187   112944681.306       -2487.509          51.000  
G05  26540458.120   139471067.238       -2606.482          43.000    26540454.780   108679010.798       -2030.793          36.000  
E24  27010971.218   141943648.091        1130.866          46.000    27010973.513   108762036.123         866.524          51.000  
E12  26194956.453   137655527.871         107.160          43.000    26194956.788   105476391.730          82.030          48.000  
E10  27334584.718   143644373.984        1169.557          48.000    27334588.087   110065359.674         896.051          50.000  
> 2024 04 16 05 25 00.0080000  0 25                     
G25  25284537.922   132871153.102       -3743.573          45.000    25284540.896   103535973.821       -2917.241          44.000  
G18  22710504.222   119344546.020       -1262.215          49.000    22710501.887    92995720.961        -983.572          50.000  
G26  23428302.188   123116574.949        1382.814          49.000    23428301.821    95935001.640        1077.589          45.000  
G23  24869670.296   130691170.771        2482.152          47.000    24869669.371   101837279.410        1934.058          45.000  
G16  26393235.421   138697351.7471       2615.038          33.000                                                                  
R05  26156605.009   139822090.984        1911.218          46.000    26156603.141   108750566.542        1486.609          43.000  
R11  22464230.630   120042140.763        1377.178          51.000    22464228.311    93366168.404        1071.084          51.000  
R09  25195901.258   134544659.689       -4954.296          51.000    25195902.926   104645927.257       -3853.295          49.000  
R10  22135218.116   117993206.822       -2976.547          47.000                                                                  
R21  22547123.419   120654374.388         -24.495          51.000    22547121.137    93842355.771         -18.969          49.000  
R20  23194813.107   124033172.257       -3169.159          41.000    23194812.726    96470310.636       -2464.966          42.000  
G29  24740030.302   130009824.409       -2367.642          46.000    24740027.166   101306406.105       -1845.061          40.000  
S33  42110514.976   221292303.140        -654.994          42.000  
S31  41156387.019   216278343.710        -654.811          44.000  
G28  25473935.206   133866428.205       -3485.777          42.000    25473934.522   104311474.289       -2716.230          40.000  
E11  28518388.091   149865160.108        1869.610          37.000    28518390.867   114831791.761        1432.296          39.000  
R22  25721494.942   137303108.958        2210.259          38.000    25721499.041   106791333.195        1718.764          34.000  
E33  26837308.764   141031090.539       -2524.735          47.000    26837309.968   108062836.154       -1934.525          52.000  
E31  25788143.876   135517747.790       -1368.183          45.000    25788149.153   103838347.070       -1048.230          54.000  
G31  24583376.437   129186428.134       -1917.976          46.000    24583375.829   100664884.805       -1494.307          45.000  
E14  28068223.458   147499678.579       -3238.066          45.000    28068225.198   113019209.852       -2481.137          51.000  
G05  26555380.604   139549481.407       -2621.276          45.000    26555375.029   108740112.745       -2042.129          35.000  
E24  27004534.641   141909822.493        1123.983          46.000    27004536.612   108736117.810         861.377          51.000  
E12  26194375.877   137652477.552          96.259          43.000    26194376.115   105474054.508          73.661          48.000  
E10  27327933.338   143609425.625        1160.385          47.000    27327937.972   110038581.112         889.110          51.000  
> 2024 04 16 05 25 30.0080000  0 25                     
G25  25305935.452   132983599.074       -3752.440          44.000    25305938.633   103623593.913       -2924.287          43.000  
G18  22717755.967   119382654.569       -1278.232          49.000    22717753.463    93025415.927        -995.893          50.000  
G26  23420445.828   123075291.635        1369.705          48.000    23420445.833    95902832.824        1067.438          45.000  
G23  24855523.876   130616831.070        2474.071          47.000    24855522.767   101779352.475        1928.050          45.000  
G16  26378308.349   138618906.947        2614.862          33.000                                                                  
R05  26145909.560   139764921.796        1900.330          45.000    26145909.096   108706101.592        1478.046          42.000  
R11  22456563.199   120001167.089        1354.743          52.000    22456560.632    93334299.982        1053.679          51.000  
R09  25223752.220   134693382.093       -4960.147          50.000    25223754.677   104761600.038       -3857.878          49.000  
R10  22152036.435   118082853.720       -2999.515          47.000                                                                  
R21  22547300.012   120655316.241         -38.038          51.000    22547297.729    93843088.351         -29.454          49.000  
R20  23212606.601   124128327.945       -3174.390          41.000    23212606.669    96544320.712       -2468.842          41.000  
G29  24753556.965   130080908.748       -2370.970          46.000    24753555.039   101361796.480       -1847.489          41.000  
S33  42114254.393   221311953.029        -654.681          42.000  
S31  41160125.368   216297988.899        -654.463          44.000  
G28  25493852.730   133971098.744       -3492.037          42.000    25493853.628   104393035.666       -2721.033          42.000  
E11  28507730.829   149809164.734        1864.373          36.000    28507734.912   114788886.359        1428.291          38.000  
R22  25709098.575   137236935.125        2201.804          40.000    25709100.714                        1712.856          32.000  
E33  26851740.600   141106928.018       -2530.954          47.000    26851741.425   108120945.410       -1939.214          53.000  
E31  25795987.689   135558960.332       -1379.293          46.000    25795991.765   103869925.434       -1056.733          54.000  
G31  24594372.296   129244211.716       -1933.986          46.000    24594371.775   100709910.927       -1507.083          45.000  
E14  28086684.376   147596693.716       -3229.406          45.000    28086686.426   113093546.131       -2474.459          50.000  
G05  26570388.269   139628342.735       -2636.255          45.000    26570381.474   108801563.143       -2053.792          36.000  
E24  26998137.623   141876206.478        1117.133          46.000    26998139.787   108710360.094         856.088          51.000  
E12  26193858.598   137649757.644          85.256          44.000    26193858.250   105471970.460          65.378          48.000  
E10  27321335.694   143574756.107        1151.261          47.000    27321340.724   110012016.225         882.059          51.000  
> 2024 04 16 05 26 00.0080000  0 25                     
G25  25327384.338   133096313.665       -3761.512          45.000    25327387.780   103711423.343       -2931.036          45.000  
G18  22725098.169   119421240.057       -1293.925          49.000    22725095.545    93055482.534       -1008.231          50.000  
G26  23412664.239   123034400.622        1356.399          48.000    23412664.641    95870969.717        1057.013          46.000  
G23  24841422.852   130542729.609        2466.208          46.000    24841421.538   101721611.186        1921.770          44.000  
G16  26363385.889   138540504.975        2612.744          33.000                                                                  
R05  26135276.886   139708082.763        1889.356          46.000    26135275.740   108661893.483        1469.415          43.000  
R11  22449021.668   119960868.412        1332.088          52.000    22449019.071    93302956.539        1036.118          51.000  
R09  25251635.363   134842277.421       -4965.799          50.000    25251638.420   104877407.301       -3862.354          49.000  
R10  22168981.928   118173181.900       -3022.168          48.000                                                                  
R21  22547551.444   120656664.501         -51.512          51.000    22547549.723    93844137.023         -39.937          49.000  
R20  23230429.569   124223636.457       -3179.053          41.000    23230429.634    96618449.589       -2472.699          42.000  
G29  24767101.749   130152084.553       -2373.937          47.000    24767097.962   101417258.136       -1849.745          39.000  
S33  42117992.956   221331599.126        -654.563          42.000  
S31  41163863.313   216317632.359        -654.552          43.000  
G28  25513806.762   134075952.428       -3497.964          44.000    25513806.978   104474739.744       -2725.692          42.000  
E11  28497107.006   149753335.145        1858.436          36.000    28497110.873   114746108.050        1423.982          38.000  
R22  25696750.066   137171017.590        2193.334          42.000    25696748.864                        1705.598          29.000  
E33  26866206.952   141182946.162       -2536.786          47.000    26866207.267   108179193.094       -1943.782          52.000  
E31  25803892.868   135600504.272       -1390.214          46.000    25803897.264   103901757.861       -1065.244          54.000  
G31  24605460.554   129302478.343       -1950.151          47.000    24605459.999   100755313.445       -1519.443          45.000  
E14  28105096.367   147693451.207       -3220.739          45.000    28105098.677   113167685.007       -2467.913          50.000  
G05  26585478.283   139707643.161       -2650.491          45.000    26585472.411   108863355.758       -2065.451          35.000  
E24  26991779.935   141842795.286        1110.345          46.000    26991781.990   108684759.329         850.875          51.000  
E12  26193403.259   137647361.425          74.684          44.000    26193402.481   105470134.424          57.191          48.000  
E10  27314791.373   143540359.456        1142.069          47.000    27314795.000   109985660.395         875.133          51.000  
> 2024 04 16 05 26 30.0080000  0 26                     
G25  25348884.137   133209291.989       -3770.176          45.000    25348887.419   103799458.192       -2937.863          44.000  
G18  22732530.388   119460298.049       -1309.774          48.000    22732528.020    93085917.329       -1020.620          50.000  
G26  23404957.647   122993901.370        1343.447          48.000    23404957.448    95839411.857        1046.894          46.000  
G23  24827366.264   130468866.740        2458.255          46.000    24827365.681   101664055.823        1915.370          44.000  
G16  26348472.296   138462144.654        2611.328          33.000                                                                  
R05  26124705.253   139651575.785        1878.351          44.000    26124704.401   108617943.649        1460.614          42.000  
R11  22441606.991   119921245.428        1309.532          52.000    22441604.061    93272138.691        1018.590          51.000  
R09  25279549.595   134991339.169       -4971.376          50.000    25279553.094   104993343.989       -3866.626          49.000  
R10  22186054.503   118264186.549       -3044.604          47.000                                                                  
R21  22547877.774   120658414.720         -64.930          51.000    22547876.183    93845498.317         -50.466          49.000  
R20  23248280.861   124319091.750       -3184.369          40.000    23248280.223    96692692.612       -2476.447          42.000  
G29  24780663.460   130223348.827       -2376.631          48.000    24780659.978   101472788.733       -1851.959          41.000  
S33  42121730.912   221351242.186        -654.149          43.000  
S31  41167600.411   216337271.016        -654.034          44.000  
G28  25533793.644   134180983.206       -3503.875          44.000    25533794.010   104556581.788       -2730.243          42.000  
E11  28486515.682   149697669.392        1852.598          37.000    28486517.343   114703455.141        1419.775          37.000  
R04  26377317.670                3       -382.304          26.000                                                                  
R22  25684447.955   137105353.944        2184.730          41.000    25684450.891   106637524.050        1698.903          37.000  
E33  26880705.451   141259140.475       -2542.749          47.000    26880706.469   108237575.776       -1948.286          53.000  
E31  25811860.508   135642376.793       -1401.118          46.000    25811865.200   103933841.975       -1073.665          54.000  
G31  24616639.819   129361222.861       -1966.023          48.000    24616638.744   100801088.360       -1532.121          45.000  
E14  28123459.136   147789947.732       -3212.032          45.000    28123461.389   113241623.916       -2461.234          50.000  
G05  26600650.523   139787377.702       -2664.984          45.000    26600645.182   108925486.647       -2076.627          36.000  
E24  26985460.468   141809587.557        1103.678          46.000    26985462.674   108659314.457         845.641          51.000  
E12  26193007.935   137645285.626          63.948          44.000    26193007.461   105468543.877          48.959          47.000  
E10  27308297.777   143506233.030        1133.100          47.000    27308300.788   109959511.622         868.173          51.000  
> 2024 04 16 05 27 00.0080000  0 27                     
G25  25370432.637   133322528.642       -3779.026          45.000    25370435.086   103887694.401       -2944.559          43.000  
G18  22740051.928   119499822.852       -1325.381          48.000    22740049.331    93116715.893       -1032.747          50.000  
G26  23397325.513   122953792.177        1330.408          48.000    23397325.063    95808157.964        1036.551          45.000  
G23  24813355.281   130395241.817        2450.102          46.000    24813355.079   101606685.894        1909.098          45.000  
G16  26333568.615   138383824.216        2609.656          32.000                                                                  
R05  26114197.403   139595400.342        1866.882          45.000    26114196.366   108574251.660        1452.075          44.000  
R11  22434318.065   119882297.073        1286.973          52.000    22434315.782    93241845.571        1000.918          51.000  
R09  25307493.845   135140559.646       -4976.728          49.000    25307497.162   105109404.105       -3870.766          48.000  
R10  22203251.324   118355860.525       -3067.070          48.000                                                                  
R21  22548279.375   120660561.319         -78.194          52.000    22548276.436    93847167.905         -60.872          48.000  
R20  23266158.345   124414687.776       -3188.940          42.000    23266157.184    96767045.168       -2480.426          41.000  
G29  24794240.884   130294697.489       -2379.774          47.000    24794237.155   101528385.059       -1854.222          41.000  
S33  42125466.939   221370875.119        -654.478          42.000  
S31  41171335.855   216356900.232        -654.323          43.000  
G28  25553813.106   134286183.924       -3509.541          44.000    25553813.354   104638556.250       -2734.860          43.000  
E11  28475951.806   149642163.894        1847.865          36.000    28475954.679   114660925.096        1415.560          37.000  
R04  26379514.234                3       -405.844          24.000                                                                  
R22  25672193.754   137039940.382        2175.890          42.000    25672197.244   106586646.922        1692.548          39.000  
E33  26895236.916   141335505.279       -2548.373          46.000    26895238.017   108296089.054       -1952.692          52.000  
E31  25819890.121   135684574.076       -1412.030          46.000    25819894.907   103966174.872       -1081.947          53.000  
G31  24627908.364   129420439.310       -1981.817          48.000    24627907.298   100847231.008       -1544.364          45.000  
E14  28141771.859   147886178.814       -3203.319          46.000    28141773.554   113315359.438       -2454.457          50.000  
G05  26615905.439   139867540.535       -2679.165          45.000    26615899.591   108987951.266       -2087.844          36.000  
E24  26979180.321   141776580.777        1096.663          47.000    26979181.672   108634023.557         840.332          51.000  
E12  26192672.905   137643525.661          53.340          44.000    26192672.583   105467195.337          40.831          47.000  
E10  27301853.717   143472372.996        1124.152          47.000    27301857.659   109933566.976         861.382          51.000  
R12                                                                  27030692.024                3       2502.666          11.000  
> 2024 04 16 05 27 30.0080000  0 25                     
G25  25392032.369   133436034.619       -3788.094          44.000    25392034.431   103976140.480       -2951.587          43.000  
G18  22747665.093   119539825.530       -1341.238          48.000    22747661.495    93147886.859       -1045.164          50.000  
G26  23389769.702   122914088.177        1316.619          48.000    23389769.702    95777219.806        1025.994          46.000  
G23  24799393.867   130321870.628        2441.575          46.000    24799393.539   101549513.547        1902.459          45.000  
G16  26318675.074                        2607.635          33.000                                                                  
R05  26103753.812   139539574.037        1854.773          44.000    26103752.390   108530831.176        1442.865          41.000  
R11  22427159.324   119844039.490        1263.830          52.000    22427156.595    93212089.691         982.905          50.000  
R09  25335469.963   135289948.460       -4982.292          49.000    25335473.167   105225595.122       -3875.174          48.000  
R10  22220577.507   118448214.455       -3089.719          49.000                                                                  
R21  22548755.740   120663115.710         -91.855          51.000    22548753.131    93849154.717         -71.433          48.000  
R20  23284062.818   124510434.512       -3193.988          42.000    23284062.047    96841514.937       -2484.113          42.000  
G29  24807836.312   130366143.178       -2383.082          47.000    24807833.563   101584057.048       -1857.040          42.000  
S33  42129203.903   221390512.621        -654.483          43.000  
S31  41175072.145   216376534.526        -654.481          44.000  
G28  25573866.323   134391564.143       -3515.640          44.000    25573866.233   104720670.605       -2739.387          42.000  
E11  28465422.715   149586832.404        1841.689          35.000    28465425.902   114618528.358        1411.044          37.000  
R22  25659988.780   136974790.362        2167.342          43.000    25659992.077   106535974.724        1685.684          40.000  
E33  26909803.713   141412051.812       -2554.582          47.000    26909804.140   108354741.615       -1957.393          52.000  
E31  25827984.636   135727109.572       -1423.398          46.000    25827988.856   103998767.048       -1090.747          53.000  
G31  24639268.808   129480138.205       -1997.968          48.000    24639267.167   100893749.560       -1556.811          44.000  
E14  28160035.755   147982156.838       -3195.143          45.000    28160037.512   113388901.046       -2448.145          50.000  
G05  26631243.473   139948142.574       -2694.124          46.000    26631238.795   109050758.129       -2099.375          38.000  
E24  26972940.020   141743789.231        1089.496          46.000    26972941.649   108608897.581         834.794          51.000  
E12  26192400.323   137642093.988          42.239          44.000    26192400.168   105466098.363          32.490          47.000  
E10  27295463.556   143438792.453        1114.680          47.000    27295467.389   109907836.512         854.058          52.000  
> 2024 04 16 05 28 00.0080000  0 26                     
G25  25413682.863   133549807.917       -3796.756          44.000    25413684.867   104064794.876       -2958.420          44.000  
G18  22755367.238   119580303.995       -1357.144          49.000    22755364.794    93179428.570       -1057.485          50.000  
G26  23382291.436   122874791.400        1303.101          48.000    23382292.202    95746598.974        1015.430          46.000  
G23  24785479.895   130248756.313        2433.043          46.000    24785480.717   101492541.458        1895.695          44.000  
G16  26303790.090   138227348.631        2605.988          34.000                                                                  
R05  26093375.586   139484100.837        1843.262          44.000    26093374.389   108487685.357        1433.545          41.000  
R11  22420129.577   119806475.237        1240.622          52.000    22420126.706    93182873.098         964.858          51.000  
R09  25363476.565   135439501.923       -4987.704          50.000    25363480.223   105341914.214       -3879.242          48.000  
R10  22238029.560   118541245.157       -3112.352          48.000                                                                  
R21  22549310.951   120666076.329        -105.305          52.000    22549306.165    93851457.444         -81.880          47.000  
R20  23301995.055   124606329.408       -3198.767          40.000    23301995.139    96916099.917       -2487.946          40.000  
G29  24821450.198   130437686.095       -2386.285          46.000    24821446.876   101639804.774       -1859.461          41.000  
S33  42132941.161   221410153.039        -654.523          42.000  
S31  41178808.569   216396171.227        -654.731          43.000  
G28  25593952.932   134497120.468       -3521.258          44.000    25593953.361   104802922.183       -2744.005          41.000  
E11  28454926.814   149531675.358        1836.048          35.000    28454930.096   114576265.299        1406.745          36.000  
R22  25647834.185   136909904.248        2158.643          46.000    25647835.536   106485507.813        1678.882          40.000  
E33  26924404.281   141488778.071       -2560.481          47.000    26924404.668   108413531.897       -1961.919          52.000  
E31  25836143.671   135769983.053       -1434.750          47.000    25836147.396   104031618.233       -1099.304          54.000  
G31  24650720.413   129540316.903       -2013.777          47.000    24650718.138   100940642.016       -1569.255          43.000  
E14  28178251.447   148077881.043       -3186.508          45.000    28178253.363   113462248.181       -2441.589          50.000  
G05  26646664.850   140029182.243       -2708.473          46.000    26646659.868   109113905.961       -2110.237          37.000  
E24  26966740.661   141711214.109        1082.483          46.000    26966742.715   108583937.434         829.421          50.000  
E12  26192190.491   137640989.739          31.427          44.000    26192190.023   105465252.278          24.069          48.000  
E10  27289126.986   143405491.304        1105.537          47.000    27289130.308   109882320.096         847.097          52.000  
R12                                                                  28489485.601                3       2468.596          13.000  
> 2024 04 16 05 28 30.0080000  0 26                     
G25  25435383.130   133663845.265       -3805.641          44.000    25435385.876   104153655.012       -2965.461          43.000  
G18  22763160.017   119621255.193       -1372.906          49.000    22763157.325    93211338.634       -1069.768          50.000  
G26  23374891.862   122835902.745        1289.435          48.000    23374892.103    95716296.130        1004.871          46.000  
G23  24771616.387   130175900.836        2424.204          47.000    24771616.342   101435771.157        1888.906          46.000  
G16  26288918.500   138149195.532        2604.163          33.000                                                                  
R05  26083066.067   139428983.107        1831.354          46.000    26083063.388   108444815.971        1424.353          40.000  
R11  22413229.538   119769606.130        1217.381          52.000    22413226.923    93154197.077         946.875          51.000  
R09  25391513.278   135589214.805       -4993.105          50.000    25391516.853   105458357.276       -3883.452          48.000  
R10  22255607.588   118634948.386       -3134.715          48.000                                                                  
R21  22549938.992   120669439.931        -118.729          52.000    22549935.449    93854073.610         -92.336          48.000  
R20  23319954.837   124702369.091       -3203.229          39.000    23319954.882    96990797.569       -2491.809          42.000  
G29  24835082.795   130509324.238       -2389.500          46.000    24835078.211   101695626.696       -1862.030          41.000  
S33  42136679.056   221429795.720        -654.625          42.000  
S31  41182545.837   216415810.101        -654.609          43.000  
G28  25614072.852   134602848.276       -3526.986          44.000    25614072.523   104885307.390       -2748.445          41.000  
E11  28444463.949   149476691.922        1830.336          33.000    28444467.128   114534135.288        1401.897          36.000  
R04  26386887.129                1       -471.938          28.000                                                                  
R22  25635728.992   136845280.983        2149.653          47.000    25635729.508   106435245.347        1672.104          41.000  
E33  26939038.458   141565680.939       -2566.243          47.000    26939038.841   108472457.506       -1966.308          52.000  
E31  25844365.914   135813192.938       -1445.865          46.000    25844370.061   104064727.015       -1107.807          53.000  
G31  24662262.839   129600972.087       -2029.767          47.000    24662260.180   100987905.725       -1581.520          43.000  
E14  28196417.546   148173349.631       -3177.859          45.000    28196420.364   113535399.440       -2434.901          50.000  
G05  26662168.161   140110655.700       -2722.934          45.000    26662162.845   109177391.870       -2121.959          37.000  
E24  26960583.378   141678855.546        1075.114          46.000    26960585.148   108559143.222         823.810          50.000  
E12  26192042.240   137640210.970          20.574          43.000    26192041.943   105464655.585          15.941          47.000  
E10  27282841.765   143372468.348        1096.280          47.000    27282846.308   109857016.848         840.048          52.000  
> 2024 04 16 05 29 00.0080000  0 26                     
G25  25457132.736   133778141.896       -3814.271          44.000    25457136.021   104242717.190       -2971.979          43.000  
G18  22771041.951   119662674.183       -1388.393          49.000    22771038.795    93243613.243       -1081.861          50.000  
G26  23367568.602   122797421.357        1275.897          47.000    23367569.615    95686310.656         994.202          46.000  
G23  24757802.460   130103303.726        2415.572          47.000    24757801.189   101379202.029        1882.312          44.000  
G16  26274054.572   138071098.417        2601.935          34.000                                                                  
R05  26072821.065   139374221.978        1819.199          43.000    26072819.840   108402224.057        1415.100          40.000  
R11  22406460.341   119733431.851        1194.216          53.000    22406456.802    93126061.563         928.900          50.000  
R09  25419578.309   135739079.991       -4998.005          49.000    25419582.195   105574918.809       -3887.250          48.000  
R10  22273311.190   118729318.442       -3156.825          47.000                                                                  
R21  22550641.780   120673201.817        -131.954          52.000    22550637.701    93856999.572        -102.631          47.000  
R20  23337941.029   124798547.035       -3208.136          41.000    23337940.425    97065602.726       -2495.288          41.000  
G29  24848732.585   130581054.544       -2392.444          46.000    24848728.785   101751520.421       -1864.085          42.000  
S33  42140416.769   221449436.864        -654.819          42.000  
S31  41186282.935   216435448.080        -654.485          43.000  
G28  25634223.784   134708741.199       -3532.435          44.000    25634223.306   104967821.243       -2752.613          41.000  
E11  28434031.527   149421879.647        1824.900          32.000    28434036.857   114492136.385        1397.405          37.000  
R22  25623671.688   136780917.486        2141.057          48.000    25623671.447   106385184.881        1665.243          44.000  
E33  26953704.868   141642755.644       -2572.020          47.000    26953705.447   108531514.773       -1970.679          52.000  
E31  25852652.128   135856736.702       -1456.931          46.000    25852656.184   104098091.695       -1116.332          53.000  
G31  24673894.460   129662098.169       -2045.221          47.000    24673892.140   101035536.370       -1593.840          43.000  
E14  28214535.736   148268559.006       -3169.162          44.000    28214538.157   113608352.081       -2428.406          50.000  
G05  26677754.262   140192558.739       -2737.288          45.000    26677748.924   109241212.468       -2132.794          37.000  
E24  26954466.145   141646711.838        1067.989          46.000    26954468.418   108534513.643         818.310          50.000  
E12  26191954.693   137639754.045          10.012          43.000    26191955.049   105464305.512           7.661          48.000  
E10  27276610.293   143339720.591        1086.936          47.000    27276614.281   109831924.479         832.929          52.000  
R12                                                                  25452620.533                3       2430.119          12.000  
> 2024 04 16 05 29 30.0080000  0 26                     
G25  25478932.561   133892699.983       -3823.045          44.000    25478935.379   104331983.149       -2979.280          42.000  
G18  22779012.920   119704563.096       -1404.097          49.000    22779010.300    93276253.992       -1094.050          50.000  
G26  23360324.152   122759353.426        1262.042          47.000    23360325.411    95656647.347         983.325          46.000  
G23  24744038.321   130030972.433        2406.601          46.000    24744035.933   101322840.107        1875.154          43.000  
G16  26259204.115   137993062.903        2600.269          34.000                                                                  
R05  26062644.564   139319826.097        1807.233          41.000    26062645.329   108359916.212        1405.499          39.000  
R11  22399822.054   119697959.281        1170.864          52.000    22399818.429    93098471.803         910.576          51.000  
R09  25447671.498   135889098.524       -5003.147          48.000    25447676.323   105691599.550       -3891.257          48.000  
R10  22291140.631   118824356.196       -3178.988          48.000                                                                  
R21  22551419.169   120677364.409        -145.349          51.000    22551415.534    93860237.167        -113.099          48.000  
R20  23355952.752   124894864.935       -3212.933          39.000    23355952.574    97140516.675       -2498.846          42.000  
G29  24862400.647   130652881.451       -2395.898          46.000    24862396.014   101807489.418       -1866.970          40.000  
S33  42144154.766   221469080.421        -654.937          42.000  
S31  41190020.598   216455088.928        -654.608          43.000  
G28  25654406.605   134814799.996       -3537.865          45.000    25654405.840   105050464.384       -2756.885          42.000  
E11  28423635.304                        1817.605          31.000    28423639.656   114450272.107        1393.243          36.000  
R22  25611664.117   136716818.363        2132.276          49.000    25611664.118   106335330.021        1658.483          45.000  
E33  26968404.999   141720004.471       -2577.750          47.000    26968405.573   108590705.456       -1975.160          53.000  
E31  25861002.169   135900618.428       -1468.233          46.000    25861006.603   104131715.375       -1125.082          54.000  
G31  24685616.684   129723696.601       -2061.068          48.000    24685613.259   101083535.092       -1606.211          42.000  
E14  28232605.064   148363512.697       -3160.694          45.000    28232607.462   113681108.796       -2421.907          50.000  
G05  26693422.175   140274892.971       -2751.700          45.000    26693417.805   109305369.060       -2144.062          40.000  
E24  26948391.328   141614788.420        1060.507          46.000    26948393.567   108510052.865         812.503          51.000  
E12  26191929.552   137639622.330          -1.003          43.000    26191930.132   105464204.619          -0.794          48.000  
E10  27270432.253   143307252.180        1077.680          47.000    27270435.598   109807046.137         825.788          51.000  
R12                                                                  28430390.718                3       2418.215          14.000  
