     3.00           OBSERVATION DATA    M: Mixed            RINEX VERSION / TYPE
CONVBIN 2.4.3                           20240416 121442 UTC PGM / RUN BY / DATE 
format: u-blox UBX                                          COMMENT             
log: /home/regis/git/gnsspwv/obsdata/VERT00CHL/2024-04-16/VECOMMENT             
{self.marker}                                               MARKER NAME         
                                                            MARKER NUMBER       
GEODETIC                                                    MARKER TYPE         
{self.observer}     {self.institution}                      OBSERVER / AGENCY   
UNKNOWN             UBLOX-ZED-F9P                           REC # / TYPE / VERS 
UNKNOWN             TWIVSP6037L                             ANT # / TYPE        
  1713381.0000 -5047934.0000 -3490983.0000                  APPROX POSITION XYZ 
        0.0000        0.0000        0.0000                  ANTENNA: DELTA H/E/N
G    8 C1C L1C D1C S1C C2L L2L D2L S2L                      SYS / # / OBS TYPES 
R    8 C1C L1C D1C S1C C2C L2C D2C S2C                      SYS / # / OBS TYPES 
E    8 C1C L1C D1C S1C C7Q L7Q D7Q S7Q                      SYS / # / OBS TYPES 
S    4 C1C L1C D1C S1C                                      SYS / # / OBS TYPES 
  2024    04    16    12    00   00.4960000     GPS         TIME OF FIRST OBS   
  2024    04    16    12    14   30.4970000     GPS         TIME OF LAST OBS    
                                                            END OF HEADER       
> 2024 04 16 12 00 00.4960000  0 24                     
G31  22868908.950   120176973.4761       1268.796          46.000    22868911.753    93644369.0871        988.654          43.000  
G02  18988825.389    99786963.7071        -70.164          49.000                                                                  
G03  20329228.626   106830843.8681        313.995          43.000    20329230.514    83244771.0481        244.728          45.000  
G04  21224363.995   111534720.0051       2584.276          46.000    21224363.755    86910143.0161       2013.658          44.000  
R23  18883779.895   101015581.7111      -2533.202          52.000                                                                  
R24  18773683.178   100391137.2761       1521.801          52.000    18773681.579    78082099.6211       1183.675          49.000  
R02  21014413.568   112136629.3281       2568.892          43.000    21014420.393    87217449.5881       1997.848          39.000  
R08  20170794.000   108013661.1061      -4057.631          49.000    20170790.544    84010661.3141      -3156.050          44.000  
G21  18586364.323    97671976.3511       -891.964          48.000                                                                  
S33  38682288.321   203276818.4761       -680.818          42.000  
S31  37729792.241   198271443.7711       -681.051          44.000  
E36  22733802.891   119466926.1261        424.396          48.000    22733807.622    91539654.7741        325.200          53.000  
E11  22378482.654   117599707.0751      -1719.340          45.000    22378484.570    90108914.1681      -1317.364          47.000  
R01  18301021.782    97829611.2591       -471.023          49.000    18301021.753    76089545.3561       -366.159          45.000  
G08  21311169.660   111990955.0811      -4017.617          48.000    21311171.570    87265684.1361      -3130.378          44.000  
E04  24549548.391   129008747.3481      -2770.545          42.000    24549554.256    98850876.4031      -2122.690          51.000  
G28  22601838.877   118773438.8911        108.923          35.000    22601842.420    92550739.3961         84.924          40.000  
E09  22430077.439   117870894.9531       -332.092          47.000    22430081.297    90316632.5691       -254.483          53.000  
E05  23144332.002   121624218.3851       1965.656          46.000    23144337.501    93192597.4891       1506.236          49.000  
G17  22116543.964   116223202.7631       2119.141          36.000    22116556.281                        1651.897          26.000  
G32  23221511.643   122029800.9371      -4194.584          46.000    23221518.255    95088162.3111      -3268.221          41.000  
E10  25433121.838   133652055.3971      -2576.684          45.000    25433129.182   102408891.0611      -1974.216          48.000  
E18  26759896.086   140624181.0351      -1484.410          39.000                                                                  
E34                                                                  26084783.769   105032599.4541       1295.599          33.000  
> 2024 04 16 12 00 30.4960000  0 24                     
G31  22861693.000   120139052.307        1259.332          46.000    22861694.628    93614820.188         981.349          43.000  
G02  18989275.028    99789329.269         -87.660          49.000                                                                  
G03  20327461.563   106821547.048         305.696          45.000    20327461.072    83237526.742         238.176          45.000  
G04  21209643.459   111457365.110        2572.582          47.000    21209643.858    86849866.450        2004.762          45.000  
R23  18898050.468   101091917.971       -2555.910          52.000                                                                  
R24  18765198.148   100345763.257        1503.037          52.000    18765196.210    78046808.677        1169.035          49.000  
R02  21000014.607   112059787.515        2554.070          44.000    21000019.081    87157683.723        1986.535          35.000  
R08  20193550.669   108135522.367       -4066.477          49.000    20193547.301    84105442.146       -3162.839          44.000  
G21  18591515.097    97699036.900        -912.084          49.000                                                                  
S33  38686178.410   203297261.782        -682.379          42.000  
S31  37733685.021   198291900.162        -682.863          44.000  
E36  22731401.096   119454304.322         417.024          48.000    22731405.762    91529983.452         319.553          53.000  
E11  22388326.656   117651431.309       -1729.017          46.000    22388327.291    90148546.910       -1324.902          47.000  
R01  18303725.416    97844064.476        -492.666          49.000    18303725.292    76100786.699        -383.092          45.000  
G08  21334133.840   112111632.750       -4027.493          47.000    21334136.076    87359718.568       -3138.282          43.000  
E04  24565393.239   129092005.185       -2780.239          42.000    24565397.847    98914671.198       -2130.283          51.000  
G28  22601268.006   118770432.556          91.284          36.000    22601270.042    92548396.761          71.106          40.000  
E09  22432016.327   117881085.682        -347.263          47.000    22432020.357    90324441.018        -266.093          53.000  
E05  23133134.178   121565374.751        1957.102          45.000    23133140.422    93147509.440        1499.709          49.000  
G17  22104493.110   116159865.891        2102.933          36.000    22104487.139                3       1634.564          21.000  
G32  23245479.433   122155747.098       -4201.970          46.000    23245485.276    95186301.856       -3274.482          41.000  
E10  25447853.580   133729470.919       -2584.589          45.000    25447860.676   102468209.215       -1980.370          47.000  
E18  26768381.898   140668771.361       -1488.134          40.000                                                                  
E34                                                                  26075132.589   104993739.306        1295.271          33.000  
> 2024 04 16 12 01 00.4960000  0 24                     
G31  22854532.600   120101425.192        1249.275          46.000    22854534.508    93585500.454         973.300          43.000  
G02  18989827.675    99792231.645        -105.604          49.000                                                                  
G03  20325741.013   106812506.177         297.228          45.000    20325740.218    83230481.902         231.658          44.000  
G04  21194991.622   111380370.391        2560.544          45.000    21194991.471    86789870.529        1995.193          44.000  
R23  18912450.748   101168945.528       -2578.962          52.000                                                                  
R24  18756821.094   100300965.660        1483.778          52.000    18756818.805    78011966.061        1154.072          49.000  
R02  20985697.678   111983396.786        2538.851          45.000    20985702.374    87098268.730        1975.233          36.000  
R08  20216358.429   108257662.423       -4075.879          47.000    20216356.671    84200439.782       -3170.138          46.000  
G21  18596781.290    97726715.700        -932.800          49.000                                                                  
S33  38690081.732   203317772.169        -684.622          42.000  
S31  37737590.430   198312422.869        -685.099          44.000  
E36  22729042.828   119441909.929         409.488          49.000    22729047.296    91520486.390         313.695          53.000  
E11  22398226.214   117703453.452       -1738.774          46.000    22398227.081    90188407.919       -1332.390          47.000  
R01  18306552.461    97859177.906        -514.657          49.000    18306551.930    76112541.573        -400.347          44.000  
G08  21357156.324   112232614.055       -4037.701          46.000    21357158.458    87453989.553       -3146.100          43.000  
E04  24581294.874   129175566.531       -2790.286          43.000    24581299.228    98978698.581       -2138.058          51.000  
G28  22600795.960   118767958.856          74.170          37.000    22600798.764    92546469.193          57.666          40.000  
E09  22434043.198   117891738.476        -362.622          47.000    22434047.565    90332603.516        -277.872          53.000  
E05  23121987.178   121506796.524        1948.316          46.000    23121993.741    93102624.784        1492.900          50.000  
G17  22092534.612   116097024.904        2086.976          33.000    22092545.722                3       1630.161          15.000  
G32  23269490.568   122281925.418       -4209.535          47.000    23269496.835    95284622.242       -3280.240          41.000  
E10  25462632.785   133807136.923       -2592.806          44.000    25462640.594   102527719.291       -1986.729          47.000  
E18  26776889.903   140713482.393       -1492.210          40.000                                                                  
E34                                                                  26065486.473   104954898.224        1294.448          33.000  
> 2024 04 16 12 01 30.4960000  0 24                     
G31  22847430.300   120064100.948        1239.252          45.000    22847430.904    93556416.649         965.878          42.000  
G02  18990483.600    99795677.957        -123.755          49.000                                                                  
G03  20324069.223   106803726.821         288.571          45.000    20324069.600    83223640.830         224.728          44.000  
G04  21180409.824   111303744.345        2548.268          45.000    21180409.709    86730161.914        1985.596          45.000  
R23  18926979.847   101246670.295       -2602.260          51.000                                                                  
R24  18748553.163   100256754.543        1464.131          52.000    18748551.111    77977579.589        1138.745          49.000  
R02  20971468.827   111907465.042        2523.627          45.000    20971473.840    87039210.603        1963.023          37.000  
R08  20239220.252   108380083.727       -4085.176          48.000    20239217.193    84295656.192       -3177.438          45.000  
G21  18602167.985    97755019.792        -953.700          49.000                                                                  
S33  38693998.214   203338353.129        -687.067          42.000  
S31  37741509.540   198333018.101        -687.415          44.000  
E36  22726728.610   119429750.347         401.694          49.000    22726733.402    91511169.250         307.787          53.000  
E11  22408183.511   117755780.149       -1748.925          46.000    22408184.284    90228502.284       -1340.136          46.000  
R01  18309503.769    97874956.241        -536.709          48.000    18309503.318    76124813.577        -417.489          44.000  
G08  21380236.851   112353901.924       -4047.706          46.000    21380238.701    87548499.492       -3154.293          43.000  
E04  24597255.576   129259435.859       -2800.587          43.000    24597258.819    99042961.930       -2145.850          51.000  
G28  22600429.492   118766025.491          55.701          40.000    22600430.480    92544962.585          43.427          40.000  
E09  22436159.123   117902859.206        -378.301          46.000    22436163.990    90341124.548        -289.843          54.000  
E05  23110891.574   121448491.070        1939.267          46.000    23110898.573    93057949.129        1485.815          50.000  
G17  22080671.221                        2070.652          30.000    22080678.021                3       1618.625          23.000  
G32  23293546.895   122408339.332       -4217.579          46.000    23293552.705    95383126.192       -3286.150          42.000  
E10  25477460.949   133885059.473       -2601.419          43.000    25477468.328   102587425.938       -1993.203          46.000  
E18  26785422.422   140758319.782       -1496.267          41.000                                                                  
E34                                                                  26055847.307   104916081.465        1294.178          34.000  
> 2024 04 16 12 02 00.4970000  0 24                     
G31  22840383.778   120027073.371        1229.755          44.000    22840385.483    93527564.034         958.313          42.000  
G02  18991242.342    99799663.169        -141.345          50.000                                                                  
G03  20322446.651   106795200.800         280.375          45.000    20322448.377    83216997.138         218.356          46.000  
G04  21165896.619   111227479.323        2536.562          44.000    21165897.092    86670734.612        1976.491          44.000  
R23  18941638.544   101325086.118       -2624.859          51.000                                                                  
R24  18740393.995   100213124.500        1444.975          52.000    18740392.593    77943645.059        1123.925          49.000  
R02  20957324.276   111831984.329        2508.841          45.000    20957329.951    86980503.435        1951.362          36.000  
R08  20262132.535   108502779.912       -4093.532          47.000    20262130.826    84391086.435       -3184.000          47.000  
G21  18607671.973    97783943.934        -973.994          48.000                                                                  
S33  38697927.843   203359000.994        -688.550          42.000  
S31  37745441.361   198353678.714        -689.549          44.000  
E36  22724458.038   119417819.125         394.255          48.000    22724463.140    91502027.096         302.112          53.000  
E11  22418198.240   117808406.420       -1758.703          46.000    22418198.511    90268826.197       -1347.606          46.000  
R01  18312577.919    97891391.305        -558.501          48.000    18312577.948    76137596.349        -434.259          43.000  
G08  21403374.212   112475490.019       -4057.076          46.000    21403376.618    87643243.345       -3161.410          44.000  
E04  24613271.971   129343606.959       -2810.263          42.000    24613276.150    99107456.511       -2153.291          51.000  
G28  22600164.058   118764626.689          38.209          41.000    22600164.982    92543872.568          29.638          41.000  
E09  22438363.485   117914440.651        -393.273          46.000    22438367.940    90349998.603        -301.382          54.000  
E05  23099846.277   121390450.401        1930.635          46.000    23099853.977    93013476.379        1479.229          50.000  
G17  22068907.727                1       2053.022          31.000    22068901.582                3       1597.949          22.000  
G32  23317646.321   122534982.983       -4224.634          45.000    23317652.615    95481809.160       -3291.963          43.000  
E10  25492338.158   133963233.905       -2609.525          44.000    25492344.464   102647325.621       -1999.392          46.000  
E18  26793978.820   140803277.256       -1500.024          41.000                                                                  
E34                                                                  26046213.485   104877282.732        1293.483          35.000  
> 2024 04 16 12 02 30.4970000  0 24                     
G31  22833395.359   119990348.151        1218.896          44.000    22833396.763    93498947.007         949.939          41.000  
G02  18992102.785    99804188.310        -160.124          50.000                                                                  
G03  20320872.399   106786927.865         271.074          46.000    20320874.753    83210550.634         211.210          46.000  
G04  21151453.736   111151582.588        2523.372          43.000    21151454.806    86611594.282        1966.345          45.000  
R23  18956426.481   101404187.269       -2648.410          52.000                                                                  
R24  18732345.195   100170081.734        1424.645          52.000    18732343.498    77910167.346        1108.031          49.000  
R02  20943264.949   111756960.810        2493.066          44.000    20943270.717    86922151.646        1938.480          34.000  
R08  20285093.624   108625739.309       -4103.214          46.000    20285093.767    84486721.326       -3191.471          48.000  
G21  18613294.095    97813487.020        -995.392          49.000                                                                  
S33  38701869.111   203379712.433        -691.712          42.000  
S31  37749385.290   198374403.253        -692.046          44.000  
E36  22722231.747   119406118.144         385.991          48.000    22722236.442    91493061.361         295.676          53.000  
E11  22428269.391   117861328.930       -1769.405          47.000    22428269.400    90309377.087       -1355.813          46.000  
R01  18315774.511    97908479.947        -580.663          48.000    18315774.854    76150887.501        -451.663          44.000  
G08  21426566.346   112597366.886       -4067.803          45.000    21426569.036    87738212.211       -3169.783          44.000  
E04  24629344.519   129428072.333       -2820.687          42.000    24629349.373    99172176.585       -2161.309          51.000  
G28  22599999.545   118763764.224          19.584          40.000    22600002.639    92543200.508          15.031          41.000  
E09  22440655.328   117926481.554        -409.216          47.000    22440659.460    90359224.717        -313.615          54.000  
E05  23088853.076   121332679.400        1920.898          46.000    23088860.654    92969210.234        1471.802          50.000  
G32  23341787.601   122661845.045       -4232.718          46.000    23341794.114    95580662.307       -3298.150          42.000  
E10  25507261.141   134041654.671       -2618.411          44.000    25507268.145   102707414.078       -2006.253          47.000  
E18  26802556.330   140848351.154       -1504.665          42.000                                                                  
E34                                                                  26036584.653   104838505.082        1291.817          35.000  
G17                                                                  22057235.590                        1586.319          27.000  
> 2024 04 16 12 03 00.4970000  0 24                     
G31  22826467.777   119953942.824        1208.148          45.000    22826470.202    93470579.263         941.168          44.000  
G02  18993070.524    99809272.148        -178.886          49.000                                                                  
G03  20319350.217   106778924.076         262.118          48.000    20319351.451    83204313.868         204.201          45.000  
G04  21137083.486   111076070.863        2510.383          43.000    21137086.010    86552754.005        1956.282          46.000  
R23  18971344.916   101483992.562       -2672.079          52.000                                                                  
R24  18724409.124   100127645.470        1404.247          53.000    18724407.982    77877161.327        1092.210          49.000  
R02  20929295.506   111682410.896        2476.973          44.000    20929303.437    86864168.410        1926.245          35.000  
R08  20308107.558   108748979.309       -4112.786          46.000    20308108.294    84582574.455       -3198.692          48.000  
G21  18619037.021    97843667.969       -1016.919          49.000                                                                  
S33  38705825.876   203400505.643        -694.472          42.000  
S31  37753344.675   198395209.572        -695.125          45.000  
E36  22720051.970   119394665.270         377.520          48.000    22720056.845    91484285.726         289.258          53.000  
E11  22438400.432   117914567.012       -1780.144          47.000    22438400.276    90350169.794       -1364.027          46.000  
R01  18319097.268    97926238.521        -603.190          49.000    18319097.349    76164699.684        -469.128          45.000  
G08  21449817.700   112719550.363       -4077.843          46.000    21449820.667    87833419.960       -3177.579          44.000  
E04  24645478.273   129512850.217       -2831.250          43.000    24645482.397    99237136.086       -2169.386          51.000  
G28  22599939.823   118763456.635           1.312          40.000    22599940.801    92542960.864           0.627          40.000  
E09  22443037.086   117938998.998        -425.328          47.000    22443041.387    90368815.982        -325.944          54.000  
E05  23077913.942   121275194.443        1911.333          45.000    23077921.372    92925163.282        1464.496          50.000  
G32  23365973.811   122788944.031       -4240.651          45.000    23365980.773    95679700.109       -3304.151          41.000  
E10  25522234.577   134120341.512       -2627.470          43.000    25522242.867   102767706.363       -2013.242          49.000  
E18  26811159.356   140893559.522       -1509.357          42.000                                                                  
E34                                                                  26026962.787   104799760.799        1291.187          36.000  
G17                                                                  22045660.093                        1572.758          29.000  
> 2024 04 16 12 03 30.4970000  0 24                     
G31  22819604.216   119917867.783        1196.558          44.000    22819605.315    93442468.882         932.452          43.000  
G02  18994145.950    99814923.163        -198.225          49.000                                                                  
G03  20317880.187   106771196.056         252.732          49.000    20317880.215    83198291.978         196.846          45.000  
G04  21122790.500   111000953.670        2496.942          44.000    21122791.904    86494221.151        1945.468          47.000  
R23  18986397.051   101564508.675       -2696.045          53.000                                                                  
R24  18716589.190   100085826.778        1383.250          53.000    18716587.224    77844635.636        1075.769          49.000  
R02  20915415.279   111608343.692        2460.481          42.000    20915421.573                        1912.974          32.000  
R08  20331175.665   108872504.301       -4122.610          46.000    20331175.414    84678649.268       -3206.370          48.000  
G21  18624903.645    97874495.053       -1038.648          49.000                                                                  
S33  38709799.805   203421387.227        -697.732          42.000  
S31  37757321.260   198416104.741        -698.463          44.000  
E36  22717921.692   119383468.972         368.588          47.000    22717926.252    91475706.691         282.399          52.000  
E11  22448592.236   117968128.240       -1791.217          46.000    22448592.653    90391210.112       -1372.448          45.000  
R01  18322546.217    97944672.836        -626.040          49.000    18322546.591    76179037.446        -487.054          45.000  
G08  21473127.839   112842044.564       -4088.823          46.000    21473130.635    87928869.833       -3185.992          44.000  
E04  24661671.026   129597946.098       -2842.114          43.000    24661675.629    99302339.260       -2177.717          51.000  
G28  22599989.281   118763712.866         -18.429          40.000    22599990.738    92543160.509         -14.378          41.000  
E09  22445511.517   117951999.898        -441.778          48.000    22445515.481    90378777.668        -338.500          54.000  
E05  23067030.213   121218003.986        1901.066          44.000    23067038.612    92881341.980        1456.670          50.000  
G32  23390205.873   122916284.489       -4248.963          45.000    23390213.240    95778926.116       -3310.834          40.000  
E10  25537260.362   134199301.522       -2636.937          43.000    25537268.621   102828207.934       -2020.544          48.000  
E18  26819789.001   140938909.092       -1514.409          42.000                                                                  
E34                                                                  26017350.658   104761056.031        1289.158          36.000  
G17                                                                  22034191.977    90226322.3551       1558.269          32.000  
> 2024 04 16 12 04 00.4970000  0 24                     
G31  22812802.691   119882130.874        1185.364          44.000    22812804.135    93414622.009         923.730          43.000  
G02  18995330.910    99821148.613        -217.147          50.000                                                                  
G03  20316462.553   106763748.760         243.574          49.000    20316463.318    83192488.859         189.762          44.000  
G04  21108573.250   110926238.810        2483.527          44.000    21108574.515    86436001.802        1935.332          47.000  
R23  19001582.811   101645740.115       -2719.686          53.000                                                                  
R24  18708885.373   100044634.779        1362.531          53.000    18708884.082    77812597.377        1059.753          49.000  
R02  20901625.835   111534766.885        2444.101          40.000    20901629.654    86749334.064        1900.735          33.000  
R08  20354297.074   108996316.278       -4131.982          47.000    20354296.900    84774947.290       -3213.575          49.000  
G21  18630893.832    97905974.613       -1060.216          48.000                                                                  
S33  38713791.408   203442363.092        -700.909          42.000  
S31  37761315.290   198437094.479        -701.307          44.000  
E36  22715840.451   119372536.113         360.057          47.000    22715845.755    91467329.508         275.829          52.000  
E11  22458847.599   118022018.712       -1801.828          46.000    22458848.022    90432502.715       -1380.586          46.000  
R01  18326122.227    97963787.024        -648.481          49.000    18326122.116    76193904.014        -504.452          45.000  
G08  21496497.128   112964851.943       -4098.874          45.000    21496499.734    88024563.756       -3193.869          43.000  
E04  24677926.898   129683363.910       -2852.743          43.000    24677930.169    99367789.133       -2185.906          51.000  
G28  22600146.935   118764540.006         -37.233          42.000    22600149.286    92543805.009         -28.838          42.000  
E09  22448079.280   117965489.506        -457.900          48.000    22448082.191    90389113.815        -350.811          53.000  
E05  23056204.513   121161114.829        1891.154          45.000    23056213.153    92837751.576        1449.119          50.000  
G32  23414484.634   123043869.327       -4256.979          44.000    23414491.986    95878342.534       -3316.892          39.000  
E10  25552339.256   134278540.213       -2646.007          44.000    25552347.030   102888923.091       -2027.420          48.000  
E18  26828446.574   140984404.972       -1518.976          42.000                                                                  
E34                                                                  26007749.874   104722395.701        1288.096          36.000  
G17                                                                  22022818.769                        1544.103          31.000  
> 2024 04 16 12 04 30.4970000  0 24                     
G31  22806064.524   119846726.001        1174.237          45.000    22806068.182    93387033.912         915.094          44.000  
G02  18996623.049    99827940.954        -236.049          49.000                                                                  
G03  20315097.286   106756572.388         234.445          49.000    20315098.046    83186896.825         182.719          45.000  
G04  21094430.853   110851919.316        2470.474          45.000    21094431.790    86378090.541        1925.069          47.000  
R23  19016899.569   101727676.802       -2743.143          52.000                                                                  
R24  18701297.615   100004063.655        1341.761          52.000    18701297.234    77781042.010        1043.752          49.000  
R02  20887928.767   111461672.038        2428.153          40.000    20887935.503    86692482.572        1888.641          39.000  
R08  20377469.170   109120402.019       -4140.877          47.000    20377468.880    84871458.274       -3220.851          49.000  
G21  18637006.550    97938098.686       -1081.792          48.000                                                                  
S33  38717798.889   203463423.756        -703.532          42.000  
S31  37765325.796   198458168.392        -704.152          44.000  
E36  22713808.888   119361858.783         351.338          47.000    22713813.941    91459148.113         269.222          52.000  
E11  22469163.205   118076229.661       -1812.422          45.000    22469164.410    90474040.866       -1388.721          46.000  
R01  18329822.988    97983570.085        -670.852          49.000    18329823.114    76209290.799        -521.732          45.000  
G08  21519924.167   113087960.089       -4108.883          46.000    21519926.421    88120492.032       -3201.872          43.000  
E04  24694239.033   129769092.688       -2862.897          42.000    24694243.894    99433477.250       -2193.631          51.000  
G28  22600411.825   118765930.381         -55.902          41.000    22600414.761    92544888.369         -43.531          42.000  
E09  22450737.595   117979458.239        -473.768          49.000    22450740.337    90399817.084        -363.034          53.000  
E05  23045435.677   121104519.022        1881.329          45.000    23045443.048    92794385.915        1441.595          49.000  
G32  23438808.054   123171686.606       -4264.801          44.000    23438815.237    95977940.065       -3323.081          40.000  
E10  25567468.833   134358048.313       -2654.858          44.000    25567477.486   102949844.664       -2034.219          48.000  
E18  26837130.678   141030037.491       -1523.657          43.000                                                                  
E34                                                                  25998157.868   104683773.368        1286.593          36.000  
G17                                                                  22011552.735    90133640.193        1530.766          32.000  
> 2024 04 16 12 05 00.4970000  0 24                     
G31  22799391.603   119811658.856        1163.043          45.000    22799394.230    93359708.927         906.268          44.000  
G02  18998024.686    99835304.801        -255.189          50.000                                                                  
G03  20313783.744   106749669.444         225.361          49.000    20313785.099    83181517.844         175.626          46.000  
G04  21080364.587   110778000.500        2457.078          45.000    21080365.541    86320491.455        1914.725          48.000  
R23  19032349.473   101810320.906       -2766.819          52.000                                                                  
R24  18693829.252    99964120.192        1320.833          53.000    18693827.261    77749974.825        1027.403          49.000  
R02  20874323.930   111389064.523        2412.040          43.000    20874326.837    86636010.183        1875.725          42.000  
R08  20400692.865   109244762.161       -4150.070          47.000    20400693.383    84968182.615       -3227.680          51.000  
G21  18643243.216    97970871.199       -1103.363          48.000                                                                  
S33  38721824.117   203484574.658        -706.611          42.000  
S31  37769353.172   198479331.947        -707.438          44.000  
E36  22711826.863   119351441.314         342.742          47.000    22711831.506    91451165.838         262.625          52.000  
E11  22479540.980   118130764.614       -1823.330          45.000    22479542.203    90515827.284       -1397.035          46.000  
R01  18333649.445    98004023.344        -693.131          50.000    18333648.487    76225198.854        -539.105          44.000  
G08  21543407.799   113211368.967       -4118.808          45.000    21543410.071    88216654.650       -3209.310          43.000  
E04  24710613.321   129855133.891       -2873.408          43.000    24710617.380    99499404.805       -2201.760          51.000  
G28  22600784.982   118767888.841         -74.951          42.000    22600786.310    92546414.371         -58.498          41.000  
E09  22453486.963   117993908.877        -489.883          48.000    22453490.251    90410889.624        -375.415          53.000  
E05  23034722.530   121048220.889        1871.570          45.000    23034729.637    92751248.345        1433.985          49.000  
G32  23463175.605   123299736.764       -4272.185          44.000    23463182.576    96077719.055       -3329.105          40.000  
E10  25582651.432   134437828.910       -2664.122          45.000    25582658.927   103010975.037       -2041.380          47.000  
E18  26845840.545   141075809.283       -1528.346          43.000                                                                  
E34                                                                  25988575.124   104645192.018        1285.402          35.000  
G17                                                                  22000391.345    90087927.805        1516.494          34.000  
> 2024 04 16 12 05 30.4970000  0 24                     
G31  22792784.416   119776931.502        1151.874          47.000    22792786.302    93332648.681         897.644          44.000  
G02  18999535.263    99843240.843        -274.184          50.000                                                                  
G03  20312522.117   106743038.901         216.353          49.000    20312523.592    83176351.125         168.649          45.000  
G04  21066375.703   110704484.283        2443.740          46.000    21066376.176    86263206.095        1904.264          47.000  
R23  19047931.198   101893670.682       -2790.105          52.000                                                                  
R24  18686478.029    99924807.057        1299.872          53.000    18686475.470    77719397.899        1010.994          48.000  
R02  20860809.593   111316945.116        2395.771          45.000    20860811.375    86579917.333        1863.632          44.000  
R08  20423968.878   109369392.277       -4158.816          48.000    20423966.712    85065117.010       -3234.688          49.000  
G21  18649602.584    98004292.449       -1124.827          48.000                                                                  
S33  38725865.847   203505812.436        -709.738          42.000  
S31  37773396.519   198500582.690        -709.875          44.000  
E36  22709894.368   119341284.614         334.120          48.000    22709899.010    91443383.372         255.978          52.000  
E11  22489980.185   118185623.710       -1834.410          45.000    22489981.763    90557862.066       -1405.455          47.000  
R01  18337600.381    98025145.005        -715.194          49.000    18337600.350    76241626.748        -556.269          44.000  
G08  21566947.890   113335075.125       -4128.398          44.000    21566951.107    88313048.890       -3217.160          42.000  
E04  24727046.275   129941485.454       -2883.540          43.000    24727049.785    99565570.107       -2209.425          51.000  
G28  22601266.562   118770416.460         -93.683          39.000    22601265.938    92548383.858         -73.097          39.000  
E09  22456328.508   118008840.645        -505.748          48.000    22456331.832    90422330.819        -387.588          53.000  
E05  23024067.020   120992221.261        1861.714          46.000    23024073.469    92708339.504        1426.441          49.000  
G32  23487587.231   123428016.774       -4279.774          44.000    23487593.453    96177677.115       -3334.845          39.000  
E10  25597885.700   134517881.493       -2673.013          46.000    25597892.559   103072313.825       -2048.079          47.000  
E18  26854576.849   141121719.500       -1532.729          43.000                                                                  
E34                                                                  25979003.561   104606651.889        1283.875          35.000  
G17                                                                  21989332.088    90042637.978        1502.688          36.000  
> 2024 04 16 12 06 00.4970000  0 25                     
G31  22786239.788   119742541.937        1140.717          46.000    22786241.733    93305851.669         888.812          43.000  
G02  19001153.921    99851746.209        -292.969          50.000                                                                  
G03  20311311.179   106736675.411         207.778          49.000    20311312.013    83171392.495         161.912          45.000  
G04  21052461.791   110631368.102        2430.739          46.000    21052462.528    86206232.447        1893.963          47.000  
R23  19063643.742   101977720.825       -2813.135          52.000                                                                  
R24  18679243.874    99886123.015        1279.049          53.000    18679241.555    77689310.261         994.839          49.000  
R02  20847386.641   111245310.873        2379.930          45.000    20847386.824    86524201.873        1851.200          44.000  
R08  20447290.636   109494284.467       -4167.374          47.000    20447290.681    85162255.172       -3241.293          51.000  
G21  18656085.418    98038358.678       -1146.083          48.000                                                                  
S33  38729922.703   203527131.736        -712.026          42.000  
S31  37777456.700   198521916.239        -712.457          44.000  
E36  22708010.826   119331385.228         325.745          48.000    22708015.306    91435798.056         249.616          52.000  
E11  22500481.138   118240802.577       -1844.688          45.000    22500481.833    90600141.872       -1413.368          47.000  
R01  18341675.612    98046928.254        -737.161          49.000    18341675.903    76258569.222        -573.241          45.000  
R17  22599819.527                3       3371.023          14.000                                                                  
G08  21590543.670   113459070.633       -4137.958          45.000    21590547.495    88409668.567       -3224.270          44.000  
E04  24743535.814   130028140.983       -2893.584          42.000    24743540.334    99631968.344       -2217.049          52.000  
G28  22601853.800   118773510.025        -112.274          37.000    22601854.329    92550794.424         -87.604          39.000  
E09  22459260.141   118024248.467        -521.435          48.000    22459263.896    90434136.775        -399.542          53.000  
E05  23013466.926   120936516.645        1852.057          46.000    23013472.784    92665656.732        1419.035          48.000  
G17  21978378.361   115497123.3133       1910.722          32.000    21978374.961    89997769.093        1488.483          36.000  
G32  23512041.642   123556519.250       -4286.878          44.000    23512047.031    96277808.559       -3340.479          39.000  
E10  25613169.726   134598201.292       -2681.577          45.000    25613176.780   103133857.329       -2054.773          46.000  
E18  26863338.440   141167762.941       -1536.685          42.000                                                                  
E34                                                                  25969441.437   104568150.026        1282.890          35.000  
> 2024 04 16 12 06 30.4970000  0 24                     
G31  22779759.290   119708491.876        1129.608          46.000    22779761.315    93279319.200         880.168          42.000  
G02  19002880.798    99860821.373        -311.744          51.000                                                                  
G03  20310150.587   106730577.475         199.170          48.000    20310150.773    83166640.811         155.198          44.000  
G04  21038624.623   110558653.357        2417.454          46.000    21038625.040    86149571.623        1883.609          47.000  
R23  19079485.667   102062468.895       -2836.318          51.000                                                                  
R24  18672127.357    99848070.774        1258.103          52.000    18672125.627    77659714.027         978.442          49.000  
R02  20834049.671   111174162.256        2363.675          44.000    20834052.876    86468864.085        1838.390          43.000  
R08  20470660.440   109619434.593       -4175.652          47.000    20470661.512    85259593.973       -3247.646          50.000  
G21  18662691.003    98073069.814       -1167.462          48.000                                                                  
S33  38733995.786   203548535.509        -714.534          42.000  
S31  37781532.148   198543332.959        -715.113          44.000  
E36  22706175.925   119321743.523         317.352          48.000    22706180.781    91428410.199         243.236          52.000  
E11  22511041.841   118296300.766       -1854.949          45.000    22511043.055    90642666.362       -1421.289          47.000  
R01  18345874.006    98069370.547        -758.792          49.000    18345874.038    76276024.273        -590.299          44.000  
G08  21614193.681   113583351.355       -4147.238          45.000    21614197.294    88506510.476       -3231.519          43.000  
E04  24760082.289   130115097.753       -2903.173          43.000    24760087.476    99698597.424       -2224.581          51.000  
G28  22602551.248   118777170.306        -131.183          40.000    22602551.280    92553646.547        -102.487          40.000  
E09  22462282.316   118040131.013        -537.062          48.000    22462286.091    90446306.481        -411.469          53.000  
E34  25959899.369                1       1672.662          30.000    25959889.003   104529686.357        1281.572          35.000  
E05  23002923.801   120881107.301        1842.325          46.000    23002928.707    92623200.183        1411.655          49.000  
G17  21967513.945   115440087.0351       1892.555          30.000    21967520.276    89953322.383        1474.966          35.000  
G32  23536536.568   123685240.555       -4293.946          44.000    23536541.946    96378110.524       -3345.861          39.000  
E10  25628505.330   134678787.305       -2690.344          45.000    25628512.182   103195604.808       -2061.463          46.000  
E18  26872124.425   141213938.246       -1541.170          42.000                                                                  
> 2024 04 16 12 07 00.4970000  0 24                     
G31  22773342.141   119674767.689        1118.099          45.000    22773344.500    93253040.642         871.323          44.000  
G02  19004713.649    99870451.316        -330.745          50.000                                                                  
G03  20309037.622   106724728.187         190.373          48.000    20309037.692    83162082.893         148.285          45.000  
G04  21024860.969   110486325.894        2403.916          46.000    21024861.474    86093212.534        1873.270          47.000  
R23  19095455.574   102147897.508       -2859.413          51.000                                                                  
R24  18665126.669    99810636.941        1236.927          52.000    18665124.721    77630598.768         962.074          48.000  
R02  20820804.256   111103484.150        2347.556          45.000    20820806.043    86413892.295        1825.744          41.000  
R08  20494077.535   109744822.143       -4184.104          48.000    20494076.113    85357117.424       -3254.268          50.000  
G21  18669416.251    98108410.351       -1189.025          49.000                                                                  
S33  38738080.890   203570003.073        -717.320          42.000  
S31  37785619.955   198564814.364        -717.595          44.000  
E36  22704387.557   119312344.501         308.665          47.000    22704392.573    91421208.295         236.476          52.000  
E11  22521660.833   118352102.412       -1865.520          45.000    22521662.218    90685423.352       -1429.406          48.000  
R01  18350192.079    98092453.407        -780.599          49.000    18350192.115    76293977.584        -607.138          44.000  
G08  21637894.336   113707897.959       -4156.470          45.000    21637897.693    88603559.575       -3238.706          42.000  
E04  24776684.085   130202337.990       -2913.171          43.000    24776688.933    99765443.677       -2232.234          51.000  
G28  22603351.280   118781382.411        -149.068          35.000    22603354.763    92556928.623        -117.076          42.000  
E09  22465392.056   118056471.611        -552.950          48.000    22465395.505    90458827.155        -423.640          53.000  
E34  25950356.645                        1671.296          28.000    25950343.141   104491249.064        1279.911          35.000  
E05  22992432.678   120825978.168        1832.399          45.000    22992438.072    92580958.408        1404.101          49.000  
G17  21956764.429   115383575.453        1875.036          33.000    21956765.112                        1460.821          32.000  
G32  23561069.889   123814161.794       -4301.097          44.000    23561075.228    96478568.292       -3351.616          39.000  
E10  25643887.091   134759623.142       -2699.229          44.000    25643895.140   103257543.708       -2068.241          47.000  
E18  26880933.100   141260228.611       -1545.355          41.000                                                                  
> 2024 04 16 12 07 30.4970000  0 25                     
G31  22766985.328   119641368.312        1107.509          43.000    22766988.314    93227015.224         863.078          43.000  
G02  19006650.891    99880634.047        -348.904          50.000                                                                  
G03  20307971.132   106719123.310         182.595          50.000    20307971.755    83157715.419         142.512          46.000  
G04  21011170.543   110414384.357        2391.343          46.000    21011170.933    86037154.191        1863.444          46.000  
R23  19111551.448   102234001.972       -2881.574          51.000                                                                  
R24  18658242.440    99773821.643        1216.654          53.000    18658240.186    77601964.625         946.249          49.000  
R02  20807646.282   111033274.590        2332.292          46.000    20807648.305    86359284.815        1814.186          39.000  
R08  20517536.202   109870440.880       -4191.244          48.000    20517534.210    85454820.673       -3259.897          50.000  
G21  18676260.643    98144377.443       -1209.417          49.000                                                                  
S33  38742178.285   203591533.469        -719.099          42.000  
S31  37789719.745   198586358.662        -719.379          44.000  
E36  22702644.869   119303185.799         301.150          47.000    22702649.786    91414190.524         230.781          52.000  
E11  22532336.293   118408204.333       -1875.051          45.000    22532338.474    90728410.437       -1436.756          48.000  
R01  18354629.012    98116171.447        -801.444          49.000    18354628.537    76312424.886        -623.393          44.000  
R17  22543164.843                1       3363.184          30.000    22543090.386                3       2617.727          17.000  
G08  21661644.258   113832703.686       -4164.574          45.000    21661647.555    88700810.612       -3245.156          42.000  
E04  24793336.444   130289856.250       -2922.118          42.000    24793343.268    99832502.974       -2239.005          51.000  
G28  22604255.957   118786144.195        -168.014          37.000    22604261.732    92560639.049        -131.162          43.000  
E09  22468587.594   118073266.189        -567.545          48.000    22468591.257    90471695.690        -434.853          53.000  
E05  22981995.692   120771126.795        1823.724          46.000    22982000.317    92538929.436        1397.358          49.000  
G17  21946116.663   115327590.529        1857.493          34.000    21946111.574    89865662.560        1446.896          35.000  
G32  23585639.424   123943276.699       -4307.267          44.000    23585645.291    96579176.952       -3356.095          38.000  
E10  25659315.666   134840705.096       -2707.073          43.000    25659324.503   103319671.170       -2074.196          47.000  
E18  26889762.476   141306629.981       -1548.554          40.000                                                                  
E34                                                                  25940802.531   104452835.952        1280.297          34.000  
> 2024 04 16 12 08 00.4970000  0 25                     
G31  22760690.776   119608290.657        1096.983          45.000    22760694.680    93201240.489         854.746          44.000  
G02  19008692.931    99891364.949        -367.104          49.000                                                                  
G03  20306949.838   106713756.368         174.650          50.000    20306950.912    83153533.369         135.908          46.000  
G04  20997552.940   110342824.992        2378.783          46.000    20997553.522    85981393.647        1853.548          46.000  
R23  19127773.062   102320775.013       -2903.855          51.000                                                                  
R24  18651473.520    99737621.997        1196.127          53.000    18651471.203    77573809.313         930.383          49.000  
R02  20794576.545   110963529.038        2316.842          48.000    20794579.306    86305038.296        1801.925          41.000  
R08  20541034.939   109996280.899       -4198.600          48.000    20541034.354    85552696.035       -3265.442          49.000  
G21  18683223.164    98180966.086       -1230.258          48.000                                                                  
S33  38746286.073   203613121.228        -720.625          42.000  
S31  37793830.264   198607959.002        -721.080          44.000  
E36  22700947.582   119294262.795         293.340          47.000    22700951.765    91407353.361         224.811          52.000  
E11  22543068.363   118464601.079       -1884.995          45.000    22543070.514    90771623.410       -1444.368          48.000  
R01  18359182.980    98140516.948        -822.129          49.000    18359182.844    76331360.217        -639.302          44.000  
R17  22524329.251   120532111.9851       3359.551          35.000    22524318.298                3       2614.056          26.000  
G08  21685442.208   113957759.426       -4172.827          46.000    21685444.767    88798256.408       -3251.629          41.000  
E04  24810044.236   130377644.971       -2931.071          43.000    24810048.934    99899769.524       -2245.790          51.000  
G28  22605267.663   118791451.158        -186.281          40.000    22605270.070    92564774.277        -145.126          41.000  
E09  22471868.635   118090508.435        -582.419          48.000    22471872.550    90484907.233        -446.245          53.000  
E05  22971609.447   120716548.507        1814.446          45.000    22971614.617    92497109.734        1390.331          50.000  
G17  21935560.855   115272129.688        1839.669          34.000    21935559.134    89822446.166        1433.414          36.000  
G32  23610244.943   124072576.719       -4313.250          43.000    23610250.408    96679929.867       -3361.015          38.000  
E10  25674790.465   134922027.127       -2714.928          42.000    25674799.860   103381982.620       -2080.371          47.000  
E18  26898613.238   141353135.962       -1552.017          40.000                                                                  
E34                                                                  25931267.976   104414443.291        1278.642          35.000  
> 2024 04 16 12 08 30.4970000  0 25                     
G31  22754457.136   119575528.004        1086.743          45.000    22754460.240    93175711.198         846.584          43.000  
G02  19010837.256    99902636.424        -384.944          49.000                                                                  
G03  20305971.892   106708617.370         167.259          50.000    20305973.061    83149528.894         130.325          46.000  
G04  20984007.482   110271640.702        2366.276          47.000    20984008.064    85925925.362        1843.947          46.000  
R23  19144117.783   102408205.805       -2925.563          51.000                                                                  
R24  18644817.945    99702031.856        1176.011          52.000    18644815.828    77546128.050         914.734          49.000  
R02  20781592.685   110894239.278        2301.831          48.000    20781595.943    86251146.290        1790.198          42.000  
R08  20564573.637   110122329.152       -4205.183          48.000    20564572.782    85650733.420       -3270.724          48.000  
G21  18690302.275    98218167.524       -1250.377          48.000                                                                  
S33  38750403.156   203634755.140        -722.060          42.000  
S31  37797949.645   198629606.179        -722.692          44.000  
E36  22699292.627   119285567.395         285.811          46.000    22699297.324    91400690.614         218.946          52.000  
E11  22553854.680   118521283.603       -1894.425          45.000    22553856.936    90815055.373       -1451.539          48.000  
R01  18363852.466    98165478.496        -842.523          49.000    18363852.569    76350774.697        -655.231          44.000  
R17  22505496.564   120431331.491        3357.938          38.000    22505519.422                1       2612.107          30.000  
G08  21709284.991   114083052.708       -4180.664          45.000    21709287.001    88895887.330       -3257.569          41.000  
E04  24826798.963   130465693.129       -2939.427          43.000    24826804.266    99967234.824       -2252.313          51.000  
G28  22606380.782   118797295.414        -203.595          40.000    22606381.317    92569328.241        -158.716          41.000  
E09  22475233.554   118108188.545        -596.780          48.000    22475237.226    90498454.278        -457.298          53.000  
E05  22961274.143   120662235.056        1805.754          45.000    22961279.160    92455492.930        1383.785          50.000  
G17  21925099.834   115217193.8391       1822.505          32.000    21925104.079    89779632.591        1420.214          36.000  
G32  23634882.985   124202049.885       -4318.553          42.000    23634888.965    96780817.687       -3365.365          37.000  
E10  25690309.593   135003579.838       -2722.524          42.000    25690319.414   103444470.812       -2085.976          47.000  
E18  26907480.574   141399736.677       -1554.974          40.000                                                                  
E34                                                                  25921737.153   104376064.408        1278.976          35.000  
> 2024 04 16 12 09 00.4970000  0 25                     
G31  22748281.585   119543078.868        1076.244          46.000    22748283.429    93150426.166         838.689          41.000  
G02  19013085.199    99914445.872        -402.626          50.000                                                                  
G03  20305037.079   106703701.984         160.144          49.000    20305037.787    83145698.671         124.701          46.000  
G04  20970532.358   110200829.905        2354.119          46.000    20970533.294    85870748.128        1834.420          46.000  
R23  19160583.960   102496289.725       -2947.005          51.000                                                                  
R24  18638276.076    99667050.971        1155.783          52.000    18638274.088    77518920.648         898.840          49.000  
R02  20768691.848   110825403.127        2286.958          48.000    20768695.543    86197607.053        1778.856          40.000  
R08  20588151.160   110248579.412       -4211.620          48.000    20588149.413    85748927.871       -3275.666          49.000  
G21  18697497.585    98255979.051       -1270.678          47.000                                                                  
S33  38754528.241   203656432.655        -723.014          42.000  
S31  37802077.381   198651296.970        -723.856          44.000  
E36  22697680.077   119277097.151         278.596          46.000    22697685.273    91394200.368         213.366          52.000  
E11  22564695.289   118578248.589       -1903.763          46.000    22564696.730    90858703.741       -1458.689          47.000  
R01  18368636.219    98191050.428        -862.656          49.000    18368636.867    76370663.939        -671.034          45.000  
R17  22486674.928   120330617.155        3356.110          36.000    22486690.562                        2610.955          27.000  
G08  21733172.277   114208576.698       -4188.060          46.000    21733173.599    88993697.990       -3263.380          42.000  
E04  24843599.427   130553995.258       -2947.385          41.000    24843607.859   100034894.764       -2258.542          51.000  
G28  22607593.498   118803674.678        -221.682          38.000    22607597.643    92574299.053        -172.509          44.000  
E09  22478680.342   118126302.352        -611.062          48.000    22478684.341    90512333.636        -468.142          53.000  
E05  22950987.697   120608183.911        1797.221          45.000    22950993.620    92414077.126        1377.069          50.000  
G17  21914740.522                1       1806.230          30.000    21914746.670    89737221.032        1406.850          36.000  
G32  23659552.964   124331689.853       -4324.220          40.000    23659559.072    96881835.434       -3369.293          36.000  
E10  25705872.435   135085359.374       -2729.664          42.000    25705881.285   103507132.814       -2091.717          46.000  
E18  26916365.110   141446427.967       -1557.807          39.000                                                                  
E34                                                                  25912209.343   104337697.143        1278.676          36.000  
> 2024 04 16 12 09 30.4970000  0 25                     
G31  22742166.321   119510941.410        1065.850          47.000    22742167.956    93125384.023         830.690          40.000  
G02  19015434.236    99926790.066        -420.591          50.000                                                                  
G03  20304142.192   106699005.322         152.687          49.000    20304143.573    83142038.907         118.898          46.000  
G04  20957127.858   110130390.406        2341.577          47.000    20957129.086    85815860.175        1824.579          46.000  
R23  19177171.183   102585020.923       -2968.650          50.000                                                                  
R24  18631848.505    99632678.294        1135.380          53.000    18631845.936    77492186.279         883.052          48.000  
R02  20755876.612   110757017.624        2271.799          49.000    20755879.994    86144418.228        1767.395          41.000  
R08  20611763.635   110375022.858       -4218.119          48.000    20611762.509    85847272.586       -3280.810          50.000  
G21  18704807.982    98294396.866       -1290.887          47.000                                                                  
S33  38758660.854   203678148.052        -724.562          42.000  
S31  37806212.507   198673026.600        -725.037          44.000  
E36  22696110.485   119268849.064         270.931          46.000    22696115.511    91387880.326         207.687          52.000  
E11  22575588.688   118635492.101       -1912.964          46.000    22575589.711    90902565.550       -1465.699          47.000  
R01  18373533.518    98217226.802        -882.875          49.000    18373534.386    76391023.302        -686.576          45.000  
R17  22467864.763   120229967.827        3353.398          37.000    22467853.555                3       2608.877          24.000  
G08  21757100.355   114334323.845       -4195.350          45.000    21757102.756    89091682.585       -3269.161          42.000  
E04  24860452.727   130642545.412       -2956.116          43.000    24860459.064   100102744.728       -2265.028          51.000  
G28  22608907.460   118810586.024        -239.393          39.000    22608912.492    92579684.453        -186.327          44.000  
E09  22482208.945   118144845.081        -625.327          48.000    22482213.037    90526541.655        -479.245          53.000  
E05  22940750.674   120554391.938        1788.605          45.000    22940757.379    92372859.899        1370.394          50.000  
G17  21904483.889                3       1788.602          29.000    21904485.403    89695210.027        1393.734          34.000  
G32  23684253.446   124461489.674       -4329.455          38.000    23684259.389    96982977.750       -3373.428          35.000  
E10  25721477.336   135167361.269       -2737.180          42.000    25721486.805   103569965.220       -2097.386          47.000  
E18  26925267.160   141493205.028       -1560.579          39.000                                                                  
E34                                                                  25902683.600   104299338.854        1277.943          36.000  
> 2024 04 16 12 10 00.4970000  0 25                     
G31  22736111.199   119479118.618        1055.445          47.000    22736110.562    93100587.021         822.326          38.000  
G02  19017885.522    99939670.591        -438.238          49.000                                                                  
G03  20303290.515   106694526.781         145.646          49.000    20303291.370    83138549.081         113.496          46.000  
G04  20943794.892   110060324.375        2329.364          47.000    20943796.429    85761263.259        1815.083          46.000  
R23  19193879.495   102674397.911       -2989.948          50.000                                                                  
R24  18625534.553    99598917.083        1115.225          52.000    18625532.757    77465927.526         867.384          49.000  
R02  20743146.874   110689084.190        2256.916          50.000    20743148.377    86091581.117        1755.287          42.000  
R08  20635411.903   110501657.222       -4224.347          48.000    20635410.856    85945765.766       -3285.548          50.000  
G21  18712234.197    98333421.625       -1310.951          47.000                                                                  
S33  38762800.687   203699903.641        -725.904          42.000  
S31  37810354.674   198694794.282        -726.133          44.000  
E36  22694583.658   119260824.375         263.689          46.000    22694588.409    91381731.486         202.007          52.000  
E11  22586534.220   118693014.564       -1921.818          45.000    22586535.571    90946641.107       -1472.638          46.000  
R01  18378543.202    98244005.374        -902.732          48.000    18378543.493    76411851.038        -702.068          45.000  
R17  22449071.255   120129386.597        3351.501          39.000    22449056.897                2       2606.954          27.000  
G08  21781071.131   114460291.039       -4202.609          45.000    21781073.636    89189838.623       -3274.840          42.000  
E04  24877351.576   130731341.896       -2963.940          44.000    24877356.086   100170783.445       -2271.056          51.000  
G28  22610326.162   118818030.899        -257.289          41.000    22610329.496    92585485.583        -200.349          44.000  
E09  22485819.319   118163816.218        -639.521          48.000    22485823.111    90541077.921        -490.022          53.000  
E05  22930564.334   120500860.353        1779.986          45.000    22930570.562    92331842.172        1363.964          50.000  
G17  21894328.724   115055443.3721       1771.760          33.000    21894321.477    89653601.522        1380.811          31.000  
G32  23708983.844   124591446.665       -4334.587          36.000    23708990.187    97084242.557       -3377.359          34.000  
E10  25737125.214   135249585.333       -2744.542          44.000    25737133.856   103632967.855       -2102.934          47.000  
E18  26934184.900   141540067.387       -1563.459          40.000                                                                  
E34                                                                  25893159.797   104260990.131        1278.263          37.000  
> 2024 04 16 12 10 30.4970000  0 25                     
G31  22730113.409   119447605.188        1045.185          46.000    22730116.096    93076031.128         814.293          41.000  
G02  19020437.491    99953080.972        -455.981          49.000                                                                  
G03  20302478.373   106690257.906         138.725          49.000    20302479.376    83135222.654         107.958          46.000  
G04  20930532.236   109990626.134        2316.885          46.000    20930533.464    85706952.908        1805.341          46.000  
R23  19210707.069   102764411.559       -3011.239          50.000    19211215.269                3      -2645.484          12.000  
R24  18619334.627    99565762.621        1094.897          52.000    18619333.290    77440140.684         851.600          49.000  
R02  20730497.702   110621596.283        2241.966          48.000    20730502.089    86039090.471        1743.712          44.000  
R08  20659092.808   110628470.669       -4230.363          47.000    20659092.553    86044398.263       -3290.202          50.000  
G21  18719774.676    98373046.218       -1330.935          48.000                                                                  
S33  38766946.529   203721688.964        -726.853          42.000  
S31  37814503.352   198716593.947        -727.305          44.000  
E36  22693097.599   119253016.581         256.488          46.000    22693102.575    91375748.819         196.581          52.000  
E11  22597531.990   118750808.529       -1931.084          45.000    22597533.890    90990924.687       -1479.656          47.000  
R01  18383663.089    98271376.191        -922.450          48.000    18383663.534    76433139.386        -717.387          44.000  
R17  22430287.478   120028868.562        3349.342          38.000    22430303.086                        2605.527          30.000  
G08  21805081.747   114586467.300       -4209.460          45.000    21805085.252    89288157.547       -3280.211          43.000  
E04  24894292.659   130820375.095       -2971.874          43.000    24894299.281   100239003.534       -2277.089          52.000  
G28  22611844.381   118826002.659        -274.813          40.000    22611845.667    92591697.316        -214.026          44.000  
E09  22489508.585   118183207.429        -653.424          48.000    22489513.089    90555936.083        -500.784          53.000  
E34  25883656.677                3       1668.161          25.000    25883636.942   104222645.796        1277.945          37.000  
E05  22920425.418   120447582.449        1771.519          45.000    22920431.984    92291018.815        1357.410          49.000  
G17  21884266.590                        1754.432          31.000    21884258.832    89612391.747        1367.557          34.000  
G32  23733740.498   124721550.526       -4339.967          34.000    23733748.385    97185621.750       -3381.352          33.000  
E10  25752812.520   135332023.679       -2751.717          44.000    25752821.614   103696134.681       -2108.522          48.000  
E18  26943118.942   141587006.730       -1566.123          41.000                                                                  
> 2024 04 16 12 11 00.4970000  0 25                     
G31  22724176.733   119416405.441        1034.570          46.000    22724177.939    93051719.652         805.967          40.000  
G02  19023090.485    99967024.514        -473.810          49.000                                                                  
G03  20301705.818   106686199.950         131.550          48.000    20301706.971    83132060.536         102.669          46.000  
G04  20917340.068   109921299.682        2304.514          46.000    20917341.999    85652932.273        1795.856          47.000  
R23  19227653.446   102855062.736       -3032.417          50.000                                                                  
R24  18613249.037    99533220.329        1074.327          52.000    18613248.069    77414829.974         835.619          49.000  
R02  20717934.544   110554557.097        2227.055          48.000    20717939.799    85986948.830        1732.117          46.000  
R08  20682808.284   110755462.166       -4236.067          47.000    20682807.276    86143169.224       -3294.842          49.000  
G21  18727429.243    98413273.109       -1351.030          48.000                                                                  
S33  38771098.768   203743508.008        -728.166          42.000  
S31  37818657.450   198738425.242        -728.350          44.000  
E36  22691654.080   119245428.792         249.184          47.000    22691658.611    91369934.741         190.818          51.000  
E11  22608582.803   118808876.155       -1940.241          46.000    22608583.945    91035417.935       -1486.622          47.000  
R01  18388894.038    98299339.421        -942.253          48.000    18388895.243    76454888.488        -732.739          45.000  
R17  22411515.717   119928418.962        3346.821          38.000    22411537.243                        2603.233          28.000  
G08  21829131.915   114712851.360       -4216.354          45.000    21829135.970    89386638.363       -3285.351          43.000  
E04  24911282.670   130909645.235       -2979.709          45.000    24911286.431   100307405.179       -2283.149          51.000  
G28  22613462.077   118834504.513        -292.179          40.000    22613463.024    92598322.148        -227.963          43.000  
E09  22493278.590   118203020.077        -667.493          48.000    22493283.311    90571117.154        -511.542          53.000  
E05  22910335.739   120394561.191        1762.954          45.000    22910342.412    92250392.109        1350.883          49.000  
G17  21874290.757   114950187.670        1736.857          33.000    21874295.584    89571583.744        1354.019          36.000  
G32  23758525.823   124851800.399       -4345.268          33.000    23758535.040    97287114.760       -3385.811          33.000  
E10  25768540.900   135414678.028       -2758.807          43.000    25768550.474   103759466.990       -2114.005          48.000  
E18  26952066.049   141634024.411       -1568.773          42.000                                                                  
E34                                                                  25874115.385   104184307.865        1277.608          37.000  
> 2024 04 16 12 11 30.4970000  0 25                     
G31  22718300.188   119385527.317        1023.975          47.000    22718303.413    93027658.822         797.901          42.000  
G02  19025846.510    99981507.972        -491.799          49.000                                                                  
G03  20300974.607   106682357.794         124.501          48.000    20300976.113    83129066.615          97.150          47.000  
G04  20904219.516   109852352.631        2291.877          46.000    20904221.254    85599207.308        1785.928          47.000  
R23  19244719.546   102946355.386       -3053.792          51.000                                                                  
R24  18607279.421    99501298.848        1053.733          52.000    18607278.498    77390002.106         819.587          49.000  
R02  20705457.613   110487973.445        2211.814          48.000    20705462.467    85935161.443        1720.398          47.000  
R08  20706557.570   110882633.944       -4241.981          47.000    20706555.213    86242080.352       -3299.222          49.000  
G21  18735200.603    98454108.372       -1371.290          48.000                                                                  
S33  38775258.051   203765364.284        -729.057          42.000  
S31  37822819.528   198760295.221        -729.620          44.000  
E36  22690253.733   119238067.743         241.661          47.000    22690257.883    91364294.391         185.263          51.000  
E11  22619686.175   118867223.364       -1949.536          46.000    22619686.960    91080125.429       -1493.858          47.000  
R01  18394236.889    98327898.824        -961.852          48.000    18394238.492    76477101.278        -748.042          45.000  
R17  22392758.178   119828046.127        3344.287          37.000    22392773.661                        2601.348          29.000  
G08  21853222.528   114839445.473       -4223.338          45.000    21853226.143    89485282.887       -3290.908          43.000  
E04  24928315.135   130999156.135       -2987.811          43.000    24928320.255   100375991.273       -2289.283          51.000  
G28  22615181.072   118843543.355        -310.279          39.000    22615181.549    92605365.359        -241.459          42.000  
E09  22497130.130   118223259.112        -681.709          48.000    22497134.802    90586624.938        -522.361          53.000  
E34  25864580.844                        1666.533          28.000    25864596.956   104145981.204        1277.109          37.000  
E05  22900295.872   120341803.217        1754.342          45.000    22900302.464    92209967.165        1344.136          48.000  
G17  21864432.838   114898341.048        1719.570          37.000    21864431.479    89531183.682        1339.667          36.000  
G32  23783339.823   124982199.185       -4348.795          32.000    23783349.794                       -3389.203          32.000  
E10  25784310.600   135497553.660       -2766.103          42.000    25784321.253   103822968.852       -2119.610          48.000  
E18  26961030.063   141681125.443       -1571.247          42.000                                                                  
> 2024 04 16 12 12 00.4970000  0 25                     
G31  22712486.796   119354971.282        1013.257          46.000    22712489.052    93003848.920         789.508          42.000  
G02  19028704.989    99996530.124        -509.464          49.000                                                                  
G03  20300283.387   106678728.525         117.626          47.000    20300285.884    83126238.589          91.640          47.000  
G04  20891171.671   109783784.749        2279.361          46.000    20891172.915    85545777.806        1776.138          47.000  
R23  19261905.808   103038285.624       -3074.736          51.000                                                                  
R24  18601426.248    99469999.089        1033.162          52.000    18601424.927    77365657.794         803.506          49.000  
R02  20693065.440   110421844.369        2196.853          47.000    20693068.407    85883727.656        1708.701          46.000  
R08  20730339.098   111009980.438       -4247.517          47.000    20730335.991    86341127.446       -3303.694          49.000  
G21  18743086.569    98495550.337       -1391.346          49.000                                                                  
S33  38779424.182   203787256.444        -729.922          42.000  
S31  37826988.277   198782201.572        -730.397          45.000  
E36  22688896.473   119230932.362         234.220          47.000    22688900.024    91358826.964         179.454          51.000  
E11  22630842.362   118925848.085       -1958.530          46.000    22630843.156    91125045.576       -1500.914          47.000  
R01  18399690.125    98357049.694        -981.404          48.000    18399691.682    76499774.142        -763.488          45.000  
R17  22374016.819   119727750.843        3342.012          36.000    22374020.165                        2599.697          29.000  
G08  21877351.760   114966244.170       -4229.688          45.000    21877355.090    89584086.849       -3295.919          42.000  
E04  24945391.323   131088903.634       -2995.060          42.000    24945398.249   100444758.704       -2295.100          51.000  
G28  22617003.969   118853118.006        -328.022          42.000    22617004.214    92612826.134        -255.548          43.000  
E09  22501062.588   118243921.666        -695.621          48.000    22501067.016    90602457.219        -532.984          53.000  
E34  25855072.293   135869321.1241       1666.229          29.000    25855081.631   104107664.683        1277.196          38.000  
E05  22890306.044   120289307.317        1745.626          45.000    22890313.080    92169743.015        1337.525          49.000  
G17  21854667.063   114847018.414        1702.498          35.000    21854664.331    89491191.921        1326.962          35.000  
G32  23808181.538   125112742.016       -4353.556          32.000    23808191.767                       -3393.069          32.000  
E10  25800124.268   135580648.043       -2773.425          43.000    25800133.935   103886638.318       -2124.987          48.000  
E18  26970009.206   141728307.006       -1573.838          43.000                                                                  
> 2024 04 16 12 12 30.4970000  0 25                     
G31  22706731.854   119324725.883        1003.231          47.000    22706734.218    92980281.062         781.715          43.000  
G02  19031663.658   100012078.611        -526.919          49.000                                                                  
G03  20299630.854   106675297.839         111.070          47.000    20299632.609    83123565.259          86.525          47.000  
G04  20878193.247   109715584.372        2267.260          47.000    20878194.721    85492634.658        1766.661          47.000  
R23  19279207.509   103130838.350       -3095.355          51.000                                                                  
R24  18595686.866    99439310.640        1012.770          52.000    18595685.858    77341788.970         787.823          48.000  
R02  20680756.089   110356157.306        2182.472          46.000    20680758.043    85832637.653        1697.290          45.000  
R08  20754149.315   111137484.114       -4252.699          45.000    20754147.487    86440296.760       -3307.614          49.000  
G21  18751086.067    98537585.887       -1410.972          49.000                                                                  
S33  38783594.657   203809171.618        -730.855          42.000  
S31  37831161.058   198804129.097        -731.346          44.000  
E36  22687578.801   119224010.249         227.185          47.000    22687582.928    91353522.950         174.077          52.000  
E11  22642048.155   118984737.050       -1967.436          46.000    22642049.637    91170168.176       -1507.525          47.000  
R01  18405251.777    98386776.212       -1000.421          48.000    18405252.715    76522894.725        -778.135          45.000  
R17  22355285.165   119627522.596        3340.247          34.000    22355290.801    93043666.9771       2596.772          32.000  
G08  21901516.279   115093230.651       -4236.008          44.000    21901520.369    89683037.156       -3301.012          43.000  
E04  24962512.400   131178872.361       -3002.440          43.000    24962518.893   100513695.629       -2300.706          50.000  
G28  22618924.915   118863215.990        -344.949          40.000    22618925.970    92620694.686        -269.092          43.000  
E09  22505073.089   118264993.467        -709.117          49.000    22505077.054    90618603.088        -543.341          53.000  
E34  25845556.410                        1666.673          30.000    25845566.764   104069348.552        1277.385          40.000  
E05  22880363.716   120237060.897        1737.523          45.000    22880370.769    92129710.051        1331.250          49.000  
G17  21844994.758                        1685.286          29.000    21844994.968    89451599.468        1313.061          34.000  
G32  23833048.335   125243412.599       -4357.311          32.000    23833059.946                       -3395.527          31.000  
E10  25815975.507   135663947.298       -2779.941          43.000    25815985.616   103950464.777       -2130.173          48.000  
E18  26979000.088   141775554.879       -1575.730          43.000                                                                  
> 2024 04 16 12 13 00.4970000  0 25                     
G31  22701037.703   119294803.746         991.992          46.000    22701039.282    92956965.132         772.879          41.000  
G02  19034724.989   100028164.856        -545.074          49.000                                                                  
G03  20299018.408   106672075.071         103.996          47.000    20299019.091    83121053.987          80.976          46.000  
G04  20865288.085   109647763.619        2254.328          47.000    20865288.470    85439787.319        1756.643          46.000  
R23  19296626.812   103224022.171       -3116.604          51.000    19296391.817                3      -2729.297          12.000  
R24  18590064.763    99409246.607         991.765          52.000    18590064.024    77318405.792         771.494          49.000  
R02  20668532.451   110290923.612        2166.869          47.000    20668533.345    85781900.284        1685.445          45.000  
R08  20777990.726   111265152.551       -4258.234          45.000    20777989.398    86539594.254       -3311.808          49.000  
G21  18759200.392    98580225.246       -1431.383          49.000                                                                  
S33  38787770.837   203831118.110        -732.122          42.000  
S31  37835339.884   198826089.348        -732.670          44.000  
E36  22686303.970   119217312.621         219.574          47.000    22686308.631    91348390.958         168.228          52.000  
E11  22653306.162   119043900.409       -1976.515          45.000    22653307.976    91215501.033       -1514.433          47.000  
R01  18410921.413    98417086.746       -1020.020          48.000    18410922.124    76546469.559        -793.350          44.000  
R17  22336568.417   119527374.684        3336.888          36.000    22336571.597    92965773.769        2595.410          29.000  
G08  21925718.626   115220411.601       -4242.501          44.000    21925722.770    89782138.981       -3305.969          44.000  
E04  24979677.017   131269070.611       -3010.310          43.000    24979683.214   100582808.413       -2306.567          50.000  
G28  22620947.100   118873848.509        -363.343          40.000    22620949.545    92628979.774        -283.100          43.000  
E09  22509162.457   118286483.915        -723.310          48.000    22509166.374    90635069.749        -554.225          53.000  
E34  25836052.442                        1666.157          29.000    25836053.978   104031041.136        1276.778          41.000  
E05  22870471.321   120185075.031        1728.653          46.000    22870478.670    92089876.720        1324.530          49.000  
G17  21835426.336   114745922.426        1667.749          28.000    21835426.200    89412415.836        1299.246          36.000  
G32  23857940.697                       -4362.652          30.000    23857951.100                       -3399.333          29.000  
E10  25831868.133   135747461.192       -2787.319          44.000    25831877.406   104014455.730       -2135.810          47.000  
E18  26988004.492   141822878.570       -1578.713          42.000                                                                  
> 2024 04 16 12 13 30.4970000  0 25                     
G31  22695404.704   119265200.599         981.493          44.000    22695405.542    92933897.743         764.793          42.000  
G02  19037887.490   100044783.146        -562.696          49.000                                                                  
G03  20298443.411   106669052.851          97.717          47.000    20298443.846    83118698.964          76.123          46.000  
G04  20852454.002   109580317.718        2242.122          48.000    20852453.911    85387232.122        1747.085          47.000  
R23  19314162.558   103317828.904       -3137.072          50.000                                                                  
R24  18584559.086    99379803.665         971.240          52.000    18584558.149    77295505.695         755.466          49.000  
R02  20656391.560   110226137.903        2152.212          47.000    20656392.307    85731511.369        1674.034          45.000  
R08  20801860.545   111392975.494       -4263.156          45.000    20801859.429    86639011.905       -3315.852          49.000  
G21  18767428.051    98623462.457       -1450.942          48.000                                                                  
S33  38791952.221   203853089.800        -732.866          42.000  
S31  37839523.488   198848075.562        -733.187          44.000  
E36  22685070.601   119210833.981         212.349          46.000    22685075.929    91343426.762         162.711          52.000  
E11  22664615.790   119103331.784       -1985.284          45.000    22664617.705    91261039.256       -1521.196          47.000  
R01  18416699.514    98447972.182       -1038.786          49.000    18416699.690    76570491.518        -808.132          44.000  
R17  22317864.891   119427303.317        3334.948          34.000    22317865.394    92887940.305        2593.297          33.000  
G08  21949955.755   115347777.175       -4248.318          43.000    21949960.409    89881384.626       -3310.414          45.000  
E04  24996883.771   131359489.873       -3017.482          42.000    24996889.610   100652090.541       -2312.134          50.000  
G28  22623071.943   118885010.040        -380.731          41.000    22623074.003    92637677.072        -296.692          44.000  
E09  22513329.726   118308385.677        -736.785          48.000    22513333.921    90651851.563        -564.537          52.000  
E34  25826529.067                        1666.463          28.000    25826541.914   103992737.825        1277.003          41.000  
E05  22860627.444   120133344.034        1720.211          46.000    22860634.871    92050238.684        1318.018          50.000  
G17  21825948.879   114696158.284        1650.219          29.000    21825956.863    89373638.382        1285.134          36.000  
G32  23882858.803                3      -4366.621          30.000    23882865.240                       -3402.788          28.000  
E10  25847799.075   135831182.784       -2793.771          43.000    25847809.655   104078605.823       -2140.949          47.000  
E18  26997023.068   141870270.783       -1580.955          42.000                                                                  
> 2024 04 16 12 14 00.4970000  0 25                     
G31  22689831.318   119235915.449         970.795          45.000    22689833.634    92911078.211         756.216          42.000  
G02  19041150.498   100061931.146        -580.563          49.000                                                                  
G03  20297904.940   106666227.143          90.961          47.000    20297906.416    83116497.069          70.854          46.000  
G04  20839689.762   109513245.320        2229.427          48.000    20839690.737    85334967.947        1737.335          47.000  
R23  19331814.504   103412253.061       -3157.863          50.000                                                                  
R24  18579169.837    99350981.363         950.289          52.000    18579168.120    77273088.314         739.101          49.000  
R02  20644335.307   110161797.755        2136.978          47.000    20644335.135    85681468.991        1662.130          45.000  
R08  20825759.693   111520945.705       -4268.125          45.000    20825757.201    86738544.103       -3319.613          48.000  
G21  18775769.000    98667294.360       -1470.971          48.000                                                                  
S33  38796137.533   203875084.504        -733.816          42.000  
S31  37843711.597   198870082.702        -733.894          44.000  
E36  22683879.601   119204572.159         204.876          46.000    22683884.375    91338628.675         157.126          52.000  
E11  22675975.475   119163028.091       -1994.470          45.000    22675977.411    91306780.466       -1528.194          47.000  
R01  18422582.787    98479426.805       -1057.875          48.000    18422583.688    76594956.181        -823.094          43.000  
R17  22299175.988   119327308.302        3331.258          37.000    22299182.204    92810166.104        2591.637          34.000  
G08  21974225.987   115475320.744       -4254.519          43.000    21974231.092    89980768.992       -3315.155          44.000  
E04  25014131.536   131450124.997       -3024.811          42.000    25014136.394   100721538.036       -2317.636          49.000  
G28  22625297.419   118896698.292        -398.419          41.000    22625298.940    92646784.745        -310.505          45.000  
E09  22517575.064   118330694.701        -750.587          48.000    22517578.830    90668945.434        -575.058          52.000  
E34  25817015.165                        1666.239          27.000    25817030.487   103954436.748        1276.623          42.000  
E05  22850831.853   120081865.514        1711.690          46.000    22850838.408    92010794.075        1311.498          50.000  
G17  21816576.373   114646913.900        1632.571          33.000    21816586.548    89335265.997        1272.679          37.000  
G32  23907797.668                1      -4370.130          27.000    23907805.765                       -3405.616          29.000  
E10  25863771.197   135915108.450       -2801.281          44.000    25863780.914   104142912.208       -2146.157          48.000  
E18  27006053.507   141917727.543       -1583.052          42.000                                                                  
> 2024 04 16 12 14 30.4970000  0 25                     
G31  22684320.174   119206954.391         960.064          45.000    22684322.005    92888511.157         747.812          42.000  
G02  19044515.856   100079613.313        -598.354          50.000                                                                  
G03  20297405.083   106663600.658          84.253          46.000    20297407.149    83114450.418          65.469          46.000  
G04  20826997.815   109446551.752        2216.737          47.000    20826999.984    85282998.985        1727.249          47.000  
R23  19349583.555   103507296.955       -3178.368          51.000                                                                  
R24  18573896.745    99322785.983         929.312          52.000    18573895.430    77251158.533         722.804          49.000  
R02  20632362.325   110097907.748        2122.213          49.000    20632363.762    85631776.744        1650.437          46.000  
R08  20849683.846   111649064.367       -4272.971          44.000    20849682.594    86838191.685       -3323.521          48.000  
G21  18784223.759    98711724.869       -1490.995          48.000                                                                  
S33  38800327.535   203897102.596        -734.391          42.000  
S31  37847904.125   198892114.733        -734.801          44.000  
E36  22682730.860   119198531.688         197.712          47.000    22682734.990    91334000.221         151.410          52.000  
E11  22687386.601   119222992.822       -2003.309          45.000    22687388.321    91352727.368       -1535.051          47.000  
R01  18428574.415    98511451.862       -1076.945          48.000    18428574.647    76619864.514        -837.650          44.000  
R17  22280506.547   119227396.001        3328.907          39.000    22280511.905    92732456.382        2589.569          35.000  
G08  21998530.703   115603042.447       -4260.429          43.000    21998535.992    90080292.174       -3319.732          44.000  
E04  25031419.850   131540977.533       -3032.007          42.000    25031426.036   100791152.172       -2323.238          49.000  
G28  22627622.045   118908917.611        -416.213          40.000    22627623.198    92656306.308        -324.314          43.000  
E09  22521898.853   118353413.672        -764.103          48.000    22521902.072    90686353.428        -585.451          51.000  
E34  25807523.260                        1666.154          28.000    25807519.328   103916141.126        1276.327          42.000  
E05  22841084.785   120030643.864        1703.252          46.000    22841091.429    91971546.280        1305.073          50.000  
G17  21807313.103   114598193.980        1615.053          37.000    21807315.825    89297302.322        1258.249          37.000  
G32  23932761.253                3      -4374.301          26.000    23932767.674                       -3408.264          28.000  
E10  25879780.476   135999241.198       -2807.719          44.000    25879790.588   104207377.330       -2151.480          47.000  
E18  27015096.683   141965251.671       -1585.302          41.000                                                                  
