     3.00           OBSERVATION DATA    M: Mixed            RINEX VERSION / TYPE
CONVBIN 2.4.3                           20240416 184442 UTC PGM / RUN BY / DATE 
format: u-blox UBX                                          COMMENT             
log: /home/regis/git/gnsspwv/obsdata/VERT00CHL/2024-04-16/VECOMMENT             
{self.marker}                                               MARKER NAME         
                                                            MARKER NUMBER       
GEODETIC                                                    MARKER TYPE         
{self.observer}     {self.institution}                      OBSERVER / AGENCY   
UNKNOWN             UBLOX-ZED-F9P                           REC # / TYPE / VERS 
UNKNOWN             TWIVSP6037L                             ANT # / TYPE        
  1713381.0000 -5047934.0000 -3490983.0000                  APPROX POSITION XYZ 
        0.0000        0.0000        0.0000                  ANTENNA: DELTA H/E/N
G    8 C1C L1C D1C S1C C2L L2L D2L S2L                      SYS / # / OBS TYPES 
R    8 C1C L1C D1C S1C C2C L2C D2C S2C                      SYS / # / OBS TYPES 
E    8 C1C L1C D1C S1C C7Q L7Q D7Q S7Q                      SYS / # / OBS TYPES 
S    4 C1C L1C D1C S1C                                      SYS / # / OBS TYPES 
  2024    04    16    18    30   00.0010000     GPS         TIME OF FIRST OBS   
  2024    04    16    18    44   30.0020000     GPS         TIME OF LAST OBS    
                                                            END OF HEADER       
> 2024 04 16 18 30 00.0010000  0 26                     
G13  23806495.048   125103990.6201       1462.211          44.000                                                                  
G07  21413063.420   112526540.5051      -3271.050          46.000    21413065.486    87683083.2141      -2549.035          47.000  
G09  22948506.790   120595144.8191      -2737.891          46.000    22948513.384    93970236.8441      -2133.457          43.000  
R05  22868329.895                3       2535.671          27.000    22868336.601                1       1971.853          32.000  
R04  20001403.442   107106774.3161        555.772          52.000    20001401.700    83305263.9921        432.214          49.000  
R14  19497711.071   103933883.9421      -1188.796          52.000    19497715.298    80837666.8721       -924.630          49.000  
G11  24158042.024   126951334.6091      -3246.985          37.000    24158053.005    98923142.5531      -2529.834          36.000  
E08  25882627.141   136014229.2731        844.468          44.000    25882634.419   104218748.6771        647.022          47.000  
S31  39112598.149   205538035.4341       -813.440          45.000  
S33  40063515.491   210535120.1171       -813.350          42.000  
G20  21138820.739   111085312.0401       -356.006          46.000                                                                  
E03  24054757.695   126408675.2291       -698.526          48.000    24054764.852    96858650.8321       -535.108          52.000  
R15  21255629.093   113583938.0081       2604.547          52.000    21255636.086    88342901.8641       2025.690          49.000  
R03  21053776.048   112702526.0521      -2609.808          52.000    21053778.575    87657540.7881      -2029.712          48.000  
R13  22902592.003   122298762.6771      -4737.954          37.000    22902596.689    95121237.7211      -3685.342          41.000  
E05  24927154.531   130992974.3831      -2310.167          44.000    24927166.222   100371233.7111      -1770.221          49.000  
E13  27283637.151   143376470.1261      -1403.394          41.000    27283650.259   109859906.3981      -1075.507          45.000  
G05  23130709.664   121552664.1081       1914.585          46.000    23130712.552    94716419.8171       1491.950          40.000  
E15  27041025.113   142101370.2771      -3232.045          35.000    27041038.664   108882893.4241      -2476.439          40.000  
G30  20612946.256   108321973.8201      -1237.097          49.000    20612948.693    84406856.0661       -963.896          46.000  
G14  21774876.872   114427918.1991       1843.384          47.000    21774881.956    89164761.1621       1436.354          47.000  
E02  25490153.524   133951818.8531       1814.159          47.000    25490163.745   102638566.5211       1390.156          49.000  
G22  23826063.012   125206988.3131       2807.444          47.000                                                                  
E24  27620889.831   145148702.8791      -2882.558          44.000    27620899.882   111218090.7811      -2208.692          45.000  
E25  24541477.758   128966575.1611       -489.448          47.000    24541485.104    98818674.8071       -375.062          49.000  
G06                                                                  25203784.868                3      -3040.860          18.000  
> 2024 04 16 18 30 30.0010000  0 25                     
G13  23798145.628   125060112.282        1463.005          45.000                                                                  
G07  21431760.078   112624790.599       -3278.649          46.000    21431761.852    87759641.625       -2554.730          47.000  
G09  22964154.404   120677367.788       -2743.255          47.000    22964159.464    94034306.513       -2137.722          42.000  
R05  22854113.566                3       2534.770          30.000    22854106.137                1       1972.161          32.000  
R04  19998322.853   107090279.504         544.054          53.000    19998321.056    83292434.696         423.070          49.000  
R14  19504470.219   103969916.077       -1213.187          52.000    19504474.581    80865691.852        -943.703          48.000  
G11  24176590.529   127048808.279       -3251.764          35.000    24176602.685    98999095.532       -2533.337          33.000  
E08  25877805.352   135988892.018         845.067          44.000    25877812.733   104199334.453         647.436          47.000  
S31  39117241.215   205562435.565        -812.962          44.000  
S33  40068158.007   210559519.424        -812.896          43.000  
G20  21140906.101   111096272.408        -374.548          46.000                                                                  
E03  24058753.309   126429671.146        -701.252          48.000    24058760.379    96874738.589        -537.300          53.000  
R15  21241049.948   113506030.032        2589.392          53.000    21241056.816    88282306.974        2014.014          49.000  
R03  21068441.678   112781030.685       -2623.584          52.000    21068443.939    87718599.772       -2040.589          48.000  
R13  22929227.710   122441000.257       -4744.318          38.000    22929233.972    95231866.725       -3690.136          42.000  
E05  24940352.293   131062328.952       -2312.910          44.000    24940364.187   100424375.336       -1772.357          50.000  
E13  27291685.301   143418767.139       -1415.931          40.000    27291699.549   109892315.663       -1085.102          45.000  
G05  23119808.567   121495378.536        1904.551          46.000    23119812.525    94671781.789        1483.866          41.000  
E15  27059482.467   142198384.953       -3235.651          35.000    27059500.275   108957228.758       -2479.276          40.000  
G30  20620041.723   108359266.103       -1249.069          48.000    20620045.286    84435914.990        -973.371          46.000  
G14  21764388.759   114372803.171        1830.986          46.000    21764393.384    89121814.488        1426.787          47.000  
E02  25479813.997   133897486.816        1808.260          47.000    25479824.464   102596935.661        1385.540          49.000  
G22  23810041.477   125122796.890        2805.480          47.000                                                                  
E24  27637371.512   145235312.321       -2891.176          44.000    27637381.561   111284453.778       -2215.198          45.000  
E25  24544310.816   128981464.532        -502.877          47.000    24544318.330    98830083.554        -385.273          49.000  
> 2024 04 16 18 31 00.0010000  0 25                     
G13  23789791.759   125016217.021        1463.379          44.000                                                                  
G07  21450501.524   112723273.950       -3286.808          48.000    21450502.644    87836381.774       -2561.016          47.000  
G09  22979833.059   120759762.341       -2749.603          46.000    22979840.145    94098509.902       -2142.563          42.000  
R05  22839919.527   122092307.6471       2537.097          32.000    22839873.227                        1974.427          32.000  
R04  19995308.903   107074145.265         531.702          52.000    19995307.526    83279885.819         413.551          49.000  
R14  19511369.843   104006692.315       -1238.338          53.000    19511373.506    80894295.622        -963.210          48.000  
G11  24195175.376   127146477.2831      -3257.062          32.000    24195186.184    99075187.521       -2538.654          36.000  
E08  25872981.674   135963545.233         844.831          43.000    25872989.531   104179912.882         647.502          48.000  
S31  39121881.915   205586822.877        -812.875          43.000  
S33  40072799.007   210583905.908        -812.722          42.000  
G20  21143100.086   111107798.461        -393.732          46.000                                                                  
E03  24062766.771   126450760.373        -704.697          48.000    24062773.371    96890897.851        -539.941          52.000  
R15  21226556.943   113428586.294        2573.626          53.000    21226562.802    88222073.221        2001.740          48.000  
R03  21083186.949   112859959.418       -2638.080          52.000    21083188.159    87779988.643       -2051.819          48.000  
R13  22955902.197   122583443.367       -4751.364          38.000    22955908.893    95342655.670       -3695.862          41.000  
E05  24953567.374   131131771.911       -2316.264          44.000    24953578.985   100477584.706       -1774.914          49.000  
E13  27299807.519   143461446.928       -1428.891          42.000    27299821.090   109925018.246       -1095.186          44.000  
G05  23108968.813   121438414.074        1893.237          45.000    23108972.972    94627393.950        1474.949          41.000  
E15  27077965.672   142295514.255       -3239.552          35.000    27077983.646   109031651.972       -2482.486          39.000  
G30  20627208.724   108396927.953       -1261.579          49.000    20627211.624    84465261.889        -982.896          45.000  
G14  21753972.526   114318066.280        1818.213          47.000    21753977.247    89079162.513        1416.732          47.000  
E02  25469511.056   133843346.677        1801.338          46.000    25469521.763   102555451.817        1380.148          49.000  
G22  23794033.795   125038680.517        2802.583          45.000                                                                  
E24  27653903.427   145322187.567       -2900.252          44.000    27653913.514   111351020.428       -2222.398          45.000  
E25  24547222.420   128996767.378        -517.122          47.000    24547230.645    98841809.157        -396.269          50.000  
> 2024 04 16 18 31 30.0010000  0 25                     
G13  23781434.381   124972297.543        1464.293          44.000                                                                  
G07  21469284.834   112821980.756       -3294.058          46.000    21469286.262    87913296.050       -2566.852          47.000  
G09  22995543.969   120842321.459       -2754.884          47.000    22995549.639    94162841.493       -2146.806          42.000  
R05  22825652.419                3       2538.818          23.000    22825629.042    94901377.5191       1974.258          33.000  
R04  19992363.293   107058367.046         519.902          51.000    19992361.511    83267613.877         404.346          49.000  
R14  19518406.209   104044203.739       -1262.825          52.000    19518411.009    80923471.196        -982.184          48.000  
G11  24213786.497   127244297.481       -3264.325          33.000    24213801.221    99151410.577       -2542.896          38.000  
E08  25868156.045   135938181.858         845.529          44.000    25868163.406   104160478.654         647.979          49.000  
S31  39126519.801   205611191.870        -812.375          44.000  
S33  40077435.951   210608273.946        -812.102          42.000  
G20  21145400.274   111119883.568        -412.244          47.000                                                                  
E03  24066796.428   126471936.271        -707.342          47.000    24066803.079    96907123.527        -542.089          52.000  
R15  21212150.024   113351602.426        2558.209          52.000    21212156.187    88162197.163        1989.764          48.000  
R03  21098009.078   112939305.308       -2651.941          52.000    21098010.754    87841701.970       -2062.738          47.000  
R13  22982614.013   122726080.609       -4757.883          39.000    22982620.953    95453595.564       -3700.496          43.000  
E05  24966796.870   131201296.456       -2318.881          43.000    24966809.277   100530856.582       -1776.757          48.000  
E13  27308000.652   143504501.346       -1441.407          41.000    27308014.905   109958007.830       -1104.597          46.000  
G05  23098189.467   121381765.945        1882.824          46.000    23098192.453    94583252.603        1467.071          40.000  
E15  27096469.312   142392748.703       -3242.433          34.000    27096486.527   109106155.803       -2484.908          39.000  
G30  20634444.148   108434950.835       -1273.620          48.000    20634446.780    84494890.087        -992.472          45.000  
G14  21743627.586   114263703.115        1805.680          47.000    21743633.150    89036801.716        1407.053          48.000  
E02  25459245.164   133789393.020        1795.148          47.000    25459255.464   102514110.847        1375.616          50.000  
G22  23778039.586   124954634.879        2800.193          45.000                                                                  
E24  27670484.026   145409319.838       -2908.718          42.000    27670493.953   111417783.984       -2228.741          47.000  
E25  24550212.346   129012476.718        -530.354          47.000    24550219.669    98853846.188        -406.445          50.000  
> 2024 04 16 18 32 00.0010000  0 25                     
G13  23773075.304   124928367.175        1464.305          46.000                                                                  
G07  21488113.680   112920921.563       -3302.068          49.000    21488113.656    87990392.707       -2573.141          46.000  
G09  23011288.148   120925058.014       -2760.968          47.000    23011293.797    94227311.320       -2151.502          42.000  
R05  22811382.252                        2539.027          32.000    22811379.861    94842149.755        1973.820          34.000  
R04  19989486.812   107042960.446         507.163          53.000    19989485.468    83255630.984         394.387          49.000  
R14  19525583.990   104082461.979       -1287.920          52.000    19525587.731    80953227.588       -1001.836          48.000  
G11  24232435.675   127342295.372       -3269.525          35.000    24232449.235    99227772.042       -2547.870          35.000  
E08  25863329.265   135912814.956         845.335          44.000    25863336.463   104141041.715         647.834          49.000  
S31  39131155.402   205635554.041        -812.042          43.000  
S33  40082071.957   210632635.269        -812.179          42.000  
G20  21147808.308   111132540.897        -431.610          46.000                                                                  
E03  24070845.432   126493212.165        -711.036          48.000    24070851.910    96923425.801        -544.935          53.000  
R15  21197832.808   113275094.291        2542.071          52.000    21197839.576    88102691.149        1977.209          49.000  
R03  21112911.160   113019081.574       -2666.455          52.000    21112913.313    87903749.991       -2074.060          48.000  
R13  23009363.681   122868920.888       -4764.762          41.000    23009370.518    95564693.392       -3706.017          43.000  
E05  24980045.881   131270915.647       -2322.263          43.000    24980057.342   100584200.982       -1779.503          48.000  
E13  27316267.445   143547942.064       -1454.842          41.000    27316280.400   109991293.362       -1114.646          44.000  
G05  23087472.880   121325449.694        1871.464          47.000    23087475.369    94539369.828        1458.349          41.000  
E15  27114992.336   142490099.017       -3246.943          32.000    27115012.724   109180748.293       -2487.979          39.000  
G30  20641750.538   108473345.862       -1286.215          47.000    20641753.383    84524808.261       -1002.284          45.000  
G14  21733356.491   114209728.999        1792.506          47.000    21733362.061    88994744.107        1396.675          48.000  
E02  25449015.925   133735640.335        1788.252          46.000    25449026.885   102472923.890        1370.242          51.000  
G22  23762062.733   124870675.413        2797.052          46.000                                                                  
E24  27687115.672   145496720.264       -2917.956          40.000    27687125.333   111484753.030       -2235.903          46.000  
E25  24553281.911   129028605.367        -544.800          48.000    24553288.709    98866204.527        -417.458          50.000  
> 2024 04 16 18 32 30.0010000  0 25                     
G13  23764714.649   124884434.559        1464.233          45.000                                                                  
G07  21506985.997   113020102.981       -3310.440          49.000    21506987.488    88067676.837       -2579.562          46.000  
G09  23027067.340   121007980.947       -2767.542          46.000    23027075.507    94291926.390       -2156.441          43.000  
R05  22797133.601   121863914.5371       2538.036          36.000    22797132.337    94782916.370        1974.324          36.000  
R04  19986681.508   107027937.182         494.062          53.000    19986680.077    83243946.207         384.272          50.000  
R14  19532902.026   104121473.744       -1313.278          52.000    19532905.664    80983570.075       -1021.449          47.000  
G11  24251118.029   127440476.477       -3276.251          36.000    24251133.339    99304276.240       -2552.924          37.000  
E08  25858502.598   135887453.601         845.024          43.000    25858509.693   104121608.998         647.440          48.000  
S31  39135791.842   205659918.071        -812.517          43.000  
S33  40086708.840   210657000.559        -812.584          42.000  
G20  21150327.469   111145779.807        -451.129          45.000                                                                  
E03  24074915.309   126514597.391        -715.057          48.000    24074921.393    96939811.863        -547.774          53.000  
R15  21183605.957   113199073.552        2525.507          52.000    21183612.492    88043564.174        1964.343          49.000  
R03  21127896.812   113099297.007       -2681.525          52.000    21127898.973    87966139.603       -2085.486          49.000  
R13  23036152.223   123011969.747       -4771.729          40.000    23036159.096    95675953.481       -3711.374          42.000  
E05  24993313.136   131340638.710       -2326.007          43.000    24993325.088   100637624.983       -1782.363          48.000  
E13  27324607.833   143591776.762       -1468.004          40.000    27324621.156   110024880.835       -1124.616          43.000  
G05  23076821.805   121269476.599        1859.734          47.000    23076824.252    94495754.460        1449.226          41.000  
E15  27133534.526   142587571.436       -3251.848          33.000    27133561.101   109255434.366       -2491.243          40.000  
G30  20649128.913   108512120.365       -1299.162          48.000    20649132.901    84555022.139       -1012.341          46.000  
G14  21723161.876   114156155.398        1778.760          47.000    21723167.386    88952998.564        1386.102          48.000  
E02  25438827.128   133682099.008        1780.927          46.000    25438837.996   102431898.902        1364.599          50.000  
G22  23746104.332   124786813.789        2793.419          46.000                                                                  
E24  27703799.440   145584395.873       -2927.524          38.000    27703809.625   111551932.941       -2243.024          47.000  
E25  24556433.057   129045162.149        -559.320          48.000    24556439.830    98878890.915        -428.575          50.000  
> 2024 04 16 18 33 00.0010000  0 25                     
G13  23756354.718   124840502.529        1464.361          45.000                                                                  
G07  21525905.419   113119525.493       -3318.178          48.000    21525906.506    88145148.806       -2585.564          46.000  
G09  23042884.855   121091093.541       -2773.633          47.000    23042891.795    94356689.235       -2161.347          44.000  
R05  22782886.019   121787755.114        2538.872          40.000    22782887.068    94723681.441        1974.386          38.000  
R04  19983948.725   107013302.957         481.334          52.000    19983947.136    83232564.050         374.268          51.000  
R14  19540362.893   104161240.598       -1338.203          53.000    19540365.456    81014499.862       -1040.994          47.000  
G11  24269838.441   127538840.757       -3282.098          37.000    24269850.145    99380923.112       -2557.147          37.000  
E08  25853679.165   135862101.026         844.926          44.000    25853684.861   104102183.016         647.511          47.000  
S31  39140429.433   205684288.726        -812.395          43.000  
S33  40091345.705   210681369.231        -812.254          43.000  
G20  21152958.151   111159603.698        -470.605          46.000                                                                  
E03  24079006.239   126536095.667        -718.539          48.000    24079012.474    96956284.558        -550.612          53.000  
R15  21169472.038   113123546.413        2509.271          52.000    21169478.683    87984821.095        1951.562          49.000  
R03  21142964.532   113179955.193       -2696.063          52.000    21142967.123    88028873.593       -2096.930          49.000  
R13  23062979.991   123155226.028       -4778.466          41.000    23062986.982    95787374.879       -3716.803          43.000  
E05  25006601.462   131410469.047       -2329.644          43.000    25006614.042   100691131.199       -1785.052          48.000  
E13  27333026.369   143636007.523       -1481.021          42.000    27333038.014   110058771.759       -1134.633          43.000  
G05  23066236.596   121213851.681        1848.267          46.000    23066238.752    94452410.365        1440.323          41.000  
E15  27152113.951   142685166.779       -3255.099          33.000    27152133.587   109330214.694       -2494.285          40.000  
G30  20656580.739   108551275.908       -1311.606          49.000    20656584.363    84585532.926       -1022.005          46.000  
G14  21713044.361   114102988.019        1765.425          46.000    21713048.677    88911569.560        1375.560          47.000  
E02  25428679.105   133628773.892        1773.787          46.000    25428689.779   102391039.597        1359.207          50.000  
G22  23730166.073   124703055.622        2790.124          46.000                                                                  
E24  27720537.546   145672348.200       -2936.428          40.000    27720546.395   111619324.882       -2249.909          47.000  
E25  24559664.955   129062150.278        -573.436          47.000    24559672.715    98891907.849        -439.508          50.000  
> 2024 04 16 18 33 30.0010000  0 25                     
G13  23747993.021   124796563.943        1464.573          44.000                                                                  
G07  21544869.032   113219178.888       -3325.790          48.000    21544869.689    88222800.697       -2591.440          45.000  
G09  23058734.558   121174388.081       -2779.626          46.000    23058742.416    94421593.859       -2165.948          44.000  
R05  22768634.544   121711587.493        2538.869          35.000    22768637.787    94664440.116        1974.558          40.000  
R04  19981286.711   106999052.448         468.497          52.000    19981286.142    83221480.313         364.347          50.000  
R14  19547962.904   104201752.878       -1362.982          53.000    19547966.406    81046009.401       -1060.180          48.000  
G11  24288592.388   127637377.140       -3287.315          39.000    24288602.429    99457704.141       -2561.496          39.000  
E08  25848854.700   135836749.650         844.993          44.000    25848860.086   104082757.980         647.492          47.000  
S31  39145066.581   205708655.351        -812.223          43.000  
S33  40095982.761   210705736.110        -812.548          42.000  
G20  21155698.630   111174005.135        -489.783          46.000                                                                  
E03  24083117.650   126557699.626        -722.077          48.000    24083123.631    96972838.222        -553.236          53.000  
R15  21155428.618   113048507.673        2493.017          51.000    21155435.702    87926457.834        1938.995          49.000  
R03  21158113.824   113261047.430       -2710.486          52.000    21158115.357    88091945.159       -2108.130          48.000  
R13  23089843.668   123298678.200       -4785.141          42.000    23089850.599    95898948.621       -3721.659          42.000  
E05  25019908.572   131480399.096       -2332.691          43.000    25019921.418   100744713.809       -1787.508          48.000  
E13  27341516.261   143680625.340       -1493.815          42.000    27341529.177   110092959.279       -1144.595          44.000  
G05  23055716.303   121158569.627        1836.818          47.000    23055718.676    94409333.438        1431.564          41.000  
E15  27170706.113   142782875.031       -3259.272          34.000    27170727.723   109405081.422       -2497.096          42.000  
G30  20664103.065   108590803.114       -1324.002          50.000    20664105.195    84616333.309       -1031.614          46.000  
G14  21703002.503   114050221.633        1751.903          45.000    21703008.447    88870453.032        1365.190          48.000  
E02  25418571.440   133575658.873        1766.749          46.000    25418581.992   102350341.224        1353.834          49.000  
G22  23714245.418   124619395.939        2786.796          46.000                                                                  
E24  27737326.902   145760567.582       -2945.530          38.000    27737333.944   111686921.470       -2256.641          47.000  
E25  24562978.442   129079561.928        -587.473          47.000    24562985.915    98905249.268        -450.236          50.000  
> 2024 04 16 18 34 00.0010000  0 25                     
G13  23739631.481   124752627.382        1464.386          44.000                                                                  
G07  21563878.419   113319069.742       -3333.632          50.000    21563878.771    88300637.605       -2597.546          45.000  
G09  23074621.125   121257873.424       -2785.912          46.000    23074627.941    94486647.180       -2170.742          43.000  
R05  22754383.657   121635422.660        2539.177          37.000    22754390.381    94605200.927        1974.718          40.000  
R04  19978698.762   106985196.903         455.278          52.000    19978698.814    83210703.754         354.092          50.000  
R14  19555704.090   104243017.735       -1387.958          53.000    19555707.139    81078104.301       -1079.548          47.000  
G11  24307377.110   127736091.180       -3293.565          38.000    24307387.449    99534623.659       -2566.523          41.000  
E08  25844031.993   135811408.471         844.661          43.000    25844037.943   104063340.758         647.108          47.000  
S31  39149704.603   205733028.531        -812.297          44.000  
S33  40100620.627   210730108.518        -812.176          42.000  
G20  21158550.561   111188993.439        -509.412          45.000                                                                  
E03  24087250.212   126579418.616        -725.958          48.000    24087256.599    96989480.037        -556.229          53.000  
R15  21141479.831   112973968.999        2476.306          52.000    21141487.041    87868483.558        1926.025          49.000  
R03  21173345.271   113342583.533       -2725.146          52.000    21173347.049    88155361.950       -2119.495          48.000  
R13  23116745.131   123442331.041       -4791.671          41.000    23116752.590    96010678.455       -3726.840          41.000  
E05  25033238.332   131550437.992       -2336.379          44.000    25033249.116   100798379.771       -1790.305          47.000  
E13  27350081.259   143725637.878       -1506.992          42.000    27350095.653   110127449.226       -1154.593          44.000  
G05  23045263.569   121103642.225        1824.959          46.000    23045266.404    94366532.866        1422.277          42.000  
E15  27189326.593   142880702.484       -3262.652          34.000    27189344.340   109480039.532       -2500.069          43.000  
G30  20671696.703   108630709.189       -1336.319          49.000    20671699.016    84647428.933       -1041.405          46.000  
G14  21693039.977   113997867.606        1738.176          45.000    21693045.970    88829657.781        1354.539          48.000  
E02  25408505.202   133522764.252        1759.504          46.000    25408515.923   102309811.731        1348.151          49.000  
G22  23698345.638   124535846.337        2783.260          45.000                                                                  
E24  27754165.488   145849061.148       -2954.003          36.000    27754173.965   111754728.154       -2263.569          48.000  
E25  24566373.324   129097405.870        -602.112          46.000    24566381.447    98918921.917        -461.299          50.000  
> 2024 04 16 18 34 30.0010000  0 25                     
G13  23731272.553   124708699.282        1463.981          45.000                                                                  
G07  21582933.100   113419201.912       -3341.891          50.000    21582934.050    88378662.547       -2603.956          46.000  
G09  23090545.770   121341556.110       -2792.657          46.000    23090552.597    94551854.259       -2176.050          43.000  
R05  22740136.306   121559269.193        2537.905          39.000    22740145.329    94545970.571        1974.270          44.000  
R04  19976187.304   106971745.877         441.515          52.000    19976186.820    83200241.825         343.492          50.000  
R14  19563586.911   104285039.799       -1413.490          53.000    19563589.731    81110788.127       -1099.275          46.000  
G11  24326195.844   127834986.068       -3298.867          39.000    24326209.085    99611684.036       -2571.177          43.000  
E08  25839211.774   135786084.119         843.835          42.000    25839218.793   104043936.410         646.683          47.000  
S31  39154345.167   205757414.546        -813.241          44.000  
S33  40105261.070   210754493.190        -813.156          42.000  
G20  21161515.505   111204575.260        -529.425          45.000                                                                  
E03  24091406.404   126601259.566        -730.181          48.000    24091412.912    97006215.288        -559.463          53.000  
R15  21127626.435   112899939.876        2459.027          53.000    21127633.562    87810905.562        1912.604          49.000  
R03  21188661.183   113424569.868       -2740.466          52.000    21188663.429    88219128.920       -2131.439          49.000  
R13  23143684.758   123586187.094       -4798.813          41.000    23143692.291    96122566.343       -3732.551          41.000  
E05  25046587.971   131620592.391       -2340.465          43.000    25046599.094   100852134.222       -1793.317          47.000  
E13  27358723.578   143771050.342       -1520.484          42.000    27358737.746   110162245.608       -1165.080          45.000  
G05  23034880.177   121049078.349        1812.459          45.000    23034883.026    94324015.552        1412.621          41.000  
E15  27207962.951   142978653.257       -3267.335          34.000    27207984.063   109555092.120       -2503.360          43.000  
G30  20679363.143   108670998.954       -1349.418          49.000    20679365.941    84678823.521       -1051.423          46.000  
G14  21683157.564   113945934.734        1723.988          47.000    21683161.996    88789190.755        1343.432          47.000  
E02  25398483.634   133470098.166        1751.676          46.000    25398493.794   102269457.329        1342.101          49.000  
G22  23682469.016   124452415.668        2778.840          45.000                                                                  
E24  27771057.012   145937833.685       -2963.541          33.000    27771067.221   111822748.533       -2270.890          48.000  
E25  24569852.251   129115688.498        -616.838          46.000    24569861.057    98932930.713        -472.588          51.000  
> 2024 04 16 18 35 00.0010000  0 25                     
G13  23722916.229   124664786.245        1463.114          44.000                                                                  
G07  21602034.030   113519579.749       -3350.447          49.000    21602034.734    88456878.948       -2610.768          46.000  
G09  23106509.371   121425442.662       -2799.925          46.000    23106515.920    94617220.179       -2181.863          42.000  
R05  22725896.590   121483135.631        2537.039          43.000    22725902.896    94486755.740        1973.086          43.000  
R04  19973753.158   106958708.370         427.300          52.000    19973751.751    83190101.541         332.322          50.000  
R14  19571612.967   104327823.632       -1439.304          52.000    19571615.290    81144064.434       -1119.534          46.000  
G11  24345051.002   127934064.986       -3305.947          38.000    24345062.537    99688887.756       -2575.974          42.000  
E08  25834397.578   135760783.206         842.414          42.000    25834404.460   104024550.037         645.658          47.000  
S31  39158989.036   205781818.475        -814.165          43.000  
S33  40109905.216   210778896.489        -814.052          43.000  
G20  21164595.891   111220757.494        -549.701          47.000                                                                  
E03  24095587.285   126623229.439        -734.882          48.000    24095593.479    97023049.326        -563.052          53.000  
R15  21113869.647   112826429.501        2441.266          52.000    21113876.362    87753731.001        1898.853          49.000  
R03  21204062.923   113507012.851       -2756.042          53.000    21204064.826    88283251.065       -2143.591          49.000  
R13  23170662.748   123730249.325       -4805.796          41.000    23170670.527    96234614.573       -3737.733          40.000  
E05  25059961.016   131690868.966       -2344.970          44.000    25059972.667   100905982.368       -1796.778          47.000  
E13  27367441.667   143816868.037       -1534.345          41.000    27367456.307   110197352.470       -1175.749          44.000  
G05  23024568.106   120994886.275        1799.745          46.000    23024570.357    94281787.987        1402.364          41.000  
E15  27226629.208   143076731.392       -3271.840          36.000    27226649.071   109630242.319       -2506.913          45.000  
G30  20687104.582   108711677.250       -1362.826          49.000    20687106.685    84710520.885       -1061.927          45.000  
G14  21673357.453   113894432.299        1709.119          48.000    21673361.739    88749059.103        1331.852          48.000  
E02  25388506.459   133417668.564        1743.422          47.000    25388516.448   102229284.154        1335.877          49.000  
G22  23666617.179   124369113.436        2774.191          45.000                                                                  
E24  27788002.006   146026889.709       -2973.760          34.000    27788014.266   111890986.204       -2278.501          48.000  
E25  24573416.610   129134416.194        -631.938          45.000    24573424.724    98947280.510        -484.277          51.000  
> 2024 04 16 18 35 30.0010000  0 25                     
G13  23714564.229   124620899.275        1462.390          43.000                                                                  
G07  21621183.329   113620211.481       -3358.639          50.000    21621184.960    88535293.183       -2617.083          47.000  
G09  23122512.336   121509544.136       -2807.089          45.000    23122519.322    94682753.613       -2187.307          42.000  
R05  22711659.613   121407035.233        2536.136          41.000    22711664.871    94427566.647        1972.713          43.000  
R04  19971398.069   106946097.838         413.190          52.000    19971397.032    83180293.351         321.431          49.000  
R14  19579783.638   104371378.448       -1464.694          52.000    19579786.102    81177940.375       -1139.250          46.000  
G11  24363942.147   128033335.791       -3312.635          39.000    24363952.992    99766240.952       -2580.752          41.000  
E08  25829590.214   135735516.859         841.554          43.000    25829596.534   104005190.175         644.866          48.000  
S31  39163638.163   205806251.447        -814.953          43.000  
S33  40114554.662   210803330.047        -814.906          42.000  
G20  21167791.768   111237551.065        -569.910          46.000                                                                  
E03  24099794.977   126645339.758        -739.472          48.000    24099801.021    97039990.985        -566.586          53.000  
R15  21100211.982   112753451.556        2423.681          51.000    21100220.246    87696970.592        1885.028          50.000  
R03  21219551.321   113589923.132       -2771.509          53.000    21219552.779    88347736.687       -2155.621          49.000  
R13  23197681.082   123874524.972       -4812.806          42.000    23197688.838    96346828.796       -3742.964          41.000  
E05  25073357.602   131761279.105       -2349.555          42.000    25073371.280   100959932.799       -1800.092          47.000  
E13  27376239.950   143863100.650       -1547.978          42.000    27376253.858   110232777.290       -1186.242          44.000  
G05  23014329.477   120941079.824        1787.106          47.000    23014330.405    94239860.900        1392.583          41.000  
E15  27245320.259   143174945.587       -3276.251          36.000    27245338.955   109705496.732       -2510.309          45.000  
G30  20694920.983   108752753.467       -1375.812          50.000    20694923.229    84742528.292       -1072.095          46.000  
G14  21663641.222   113843373.685        1694.424          47.000    21663645.389    88709273.316        1320.424          47.000  
E02  25378577.555   133365488.127        1735.159          47.000    25378587.211   102189301.868        1329.501          49.000  
G22  23650791.888   124285952.731        2769.580          45.000                                                                  
E24  27805004.036   146116238.585       -2983.715          33.000    27805016.443   111959448.256       -2285.747          47.000  
E25  24577066.462   129153599.884        -647.249          45.000    24577075.102    98961979.695        -495.766          51.000  
> 2024 04 16 18 36 00.0010000  0 25                     
G13  23706217.617   124577036.984        1461.480          45.000                                                                  
G07  21640380.673   113721093.522       -3366.987          49.000    21640382.334    88613902.453       -2623.811          47.000  
G09  23138557.662   121593859.064       -2814.118          46.000    23138564.662    94748453.281       -2192.811          43.000  
R05  22697428.227   121330968.738        2534.831          43.000    22697433.403    94368403.981        1971.387          43.000  
R04  19969123.227   106933915.757         398.808          52.000    19969122.318    83170818.409         310.115          50.000  
R14  19588097.514   104415700.645       -1490.432          51.000    19588100.523    81212413.199       -1159.184          46.000  
G11  24382869.770   128132793.540       -3318.394          37.000    24382878.034    99843739.959       -2585.776          37.000  
E08  25824788.233   135710283.942         840.298          42.000    25824795.012   103985855.928         643.949          48.000  
S31  39168293.318   205830713.050        -815.966          43.000  
S33  40119209.800   210827791.051        -816.119          42.000  
G20  21171103.336   111254955.139        -590.436          46.000                                                                  
E03  24104029.083   126667589.587        -744.263          48.000    24104034.935    97057039.520        -570.271          53.000  
R15  21086655.500   112681007.468        2405.609          51.000    21086662.205    87640625.401        1870.923          48.000  
R03  21235127.038   113673299.491       -2787.152          53.000    21235129.066    88412584.786       -2167.853          49.000  
R13  23224738.920   124019008.696       -4819.587          42.000    23224746.438    96459204.882       -3748.611          38.000  
E05  25086781.598   131831821.519       -2353.589          42.000    25086795.508   101013984.654       -1803.626          47.000  
E13  27385116.557   143909745.571       -1561.678          41.000    27385130.248   110268518.010       -1196.717          43.000  
G05  23004163.815   120887659.649        1773.866          47.000    23004165.082    94198234.825        1382.297          41.000  
E15  27264035.508   143273292.038       -3280.800          37.000    27264053.665   109780852.471       -2513.930          44.000  
G30  20702812.359   108794224.570       -1389.039          49.000    20702815.211    84774843.421       -1082.349          45.000  
G14  21654009.602   113792759.857        1679.464          47.000    21654013.683    88669834.117        1308.627          47.000  
E02  25368695.061   133313556.948        1726.697          47.000    25368705.210   102149510.613        1323.017          50.000  
G22  23634994.153   124202935.234        2764.728          46.000                                                                  
E24  27822064.438   146205876.938       -2992.824          36.000    27822074.329   112028132.187       -2293.283          47.000  
E25  24580803.341   129173237.973        -662.381          45.000    24580811.966    98977027.113        -507.537          51.000  
> 2024 04 16 18 36 30.0010000  0 25                     
G13  23697874.182   124533188.610        1461.309          45.000                                                                  
G07  21659623.759   113822212.717       -3374.546          50.000    21659625.183    88692696.509       -2629.476          47.000  
G09  23154641.438   121678376.770       -2820.682          46.000    23154648.724    94814311.012       -2198.037          43.000  
R05  22683202.862   121254926.714        2534.133          42.000    22683208.340    94309260.326        1971.171          44.000  
R04  19966925.950   106922153.438         385.075          52.000    19966925.551    83161669.948         299.409          50.000  
R14  19596553.486   104460777.065       -1515.226          52.000    19596557.129    81247472.650       -1178.506          47.000  
G11  24401828.793   128232424.263       -3324.115          39.000    24401837.495    99921373.723       -2590.026          36.000  
E08  25819990.118   135685073.746         839.860          42.000    25819997.912   103966539.096         643.593          48.000  
S31  39172951.697   205855191.689        -816.260          43.000  
S33  40123867.639   210852268.995        -816.171          42.000  
G20  21174529.521   111272959.173        -610.217          46.000                                                                  
E03  24108287.430   126689968.602        -748.095          48.000    24108293.489    97074187.042        -573.231          53.000  
R15  21073196.775   112609088.822        2388.482          51.000    21073202.214    87584688.874        1857.696          47.000  
R03  21250787.780   113757130.862       -2802.045          53.000    21250789.747    88477786.749       -2179.334          49.000  
R13  23251832.538   124163685.464       -4825.779          41.000    23251839.474    96571731.108       -3753.471          39.000  
E05  25100228.722   131902485.753       -2357.605          43.000    25100242.760   101068129.730       -1806.430          47.000  
E13  27394070.146   143956790.741       -1574.733          41.000    27394082.955   110304565.408       -1206.787          43.000  
G05  22994070.280   120834617.695        1761.708          46.000    22994072.108    94156903.479        1372.739          42.000  
E15  27282773.867   143371757.506       -3284.130          37.000    27282790.974   109856299.394       -2516.513          43.000  
G30  20710776.772   108836078.079       -1401.656          49.000    20710779.264    84807456.536       -1092.183          45.000  
G14  21644460.257   113742582.514        1665.347          47.000    21644464.629    88630735.032        1297.567          47.000  
E02  25358858.469   133261865.795        1719.056          47.000    25358868.395   102109903.247        1317.169          50.000  
G22  23619222.418   124120052.946        2760.503          45.000                                                                  
E24  27839175.575   146295792.494       -3001.742          34.000    27839184.654   112097028.406       -2300.099          47.000  
E25  24584625.626   129193319.600        -676.784          46.000    24584633.283    98992414.363        -518.601          51.000  
> 2024 04 16 18 37 00.0010000  0 25                     
G13  23689530.407   124489347.378        1461.423          43.000                                                                  
G07  21678909.112   113923559.029       -3381.932          50.000    21678910.629    88771667.565       -2635.387          47.000  
G09  23170761.622   121763090.224       -2827.074          45.000    23170768.727    94880321.319       -2203.148          43.000  
R05  22668981.771   121178904.391        2533.686          42.000    22668987.565    94250132.031        1970.643          45.000  
R04  19964807.401   106910806.452         371.219          52.000    19964807.071    83152844.520         288.670          50.000  
R14  19605150.549   104506598.888       -1539.917          52.000    19605153.419    81283111.871       -1197.677          47.000  
G11  24420818.200   128332217.640       -3329.450          38.000    24420827.633    99999134.162       -2594.314          35.000  
E08  25815196.367   135659879.452         839.411          43.000    25815203.686   103947234.472         643.174          49.000  
S31  39177611.890   205879678.852        -816.721          43.000  
S33  40128527.591   210876756.588        -816.406          42.000  
G20  21178068.173   111291555.855        -629.761          46.000                                                                  
E03  24112569.384   126712470.270        -752.178          48.000    24112575.449    97091428.534        -576.361          52.000  
R15  21059835.939   112537691.159        2371.118          52.000    21059841.715    87529157.527        1844.324          48.000  
R03  21266531.439   113841409.989       -2816.791          52.000    21266533.645    88543337.018       -2190.851          49.000  
R13  23278960.330   124308544.013       -4831.478          41.000    23278967.017    96684398.720       -3757.940          37.000  
E05  25113699.156   131973264.841       -2361.205          44.000    25113711.597   101122362.821       -1809.196          47.000  
E13  27403097.235   144004227.847       -1587.812          41.000    27403109.944   110340913.115       -1216.640          43.000  
G05  22984048.055   120781949.607        1749.074          46.000    22984049.738    94115863.439        1363.099          42.000  
E15  27301531.403   143470332.494       -3287.721          37.000    27301550.212   109931830.302       -2519.001          44.000  
G30  20718812.440   108878305.275       -1413.905          49.000    20718815.020    84840360.827       -1101.734          45.000  
G14  21634993.930   113692837.113        1650.820          47.000    21634998.696    88591972.504        1286.273          48.000  
E02  25349065.534   133210409.155        1711.385          47.000    25349076.688   102070475.582        1311.196          50.000  
G22  23603474.612   124037301.508        2756.210          46.000                                                                  
E24  27856335.687   146385976.200       -3010.795          34.000    27856345.775   112166130.119       -2306.888          45.000  
E25  24588529.962   129213837.538        -691.216          46.000    24588537.788    99008135.933        -529.753          51.000  
> 2024 04 16 18 37 30.0010000  0 25                     
G13  23681187.515   124445506.269        1461.325          44.000                                                                  
G07  21698236.399   114025123.794       -3389.163          50.000    21698237.764    88850808.829       -2640.875          46.000  
G09  23186918.421   121847992.666       -2833.290          46.000    23186926.620    94946478.839       -2207.594          44.000  
R05  22654762.824   121102896.678        2533.207          45.000    22654768.742    94191015.074        1970.360          45.000  
R04  19962764.903   106899870.059         357.646          51.000    19962764.805    83144338.421         278.162          51.000  
R14  19613884.585   104553157.166       -1564.154          52.000    19613887.696    81319323.850       -1216.597          48.000  
G11  24439835.659   128432163.571       -3334.062          39.000    24439849.255   100077013.514       -2597.933          37.000  
E08  25810403.013   135634694.521         839.370          42.000    25810410.973   103927937.021         643.188          49.000  
S31  39182272.080   205904169.630        -816.372          43.000  
S33  40133188.144   210901246.468        -816.502          42.000  
G20  21181718.471   111310738.565        -649.237          45.000                                                                  
E03  24116873.962   126735088.290        -755.759          48.000    24116879.512    97108759.181        -579.093          52.000  
R15  21046570.199   112466810.019        2354.028          51.000    21046577.424    87474027.942        1830.817          49.000  
R03  21282357.907   113926129.456       -2831.385          52.000    21282360.593    88609229.740       -2202.143          49.000  
R13  23306119.893   124453573.889       -4837.018          40.000    23306126.244    96797199.559       -3761.965          38.000  
E05  25127188.450   132044152.329       -2364.718          45.000    25127201.663   101176678.992       -1811.833          48.000  
E13  27412197.477   144052048.744       -1600.120          41.000    27412210.121   110377554.956       -1226.165          43.000  
G05  22974095.120   120729650.442        1737.199          46.000    22974098.338    94075110.881        1353.589          42.000  
E15  27320308.724   143569007.990       -3290.486          35.000    27320328.543   110007438.174       -2521.476          44.000  
G30  20726917.344   108920897.758       -1425.819          48.000    20726921.300    84873549.752       -1111.086          46.000  
G14  21625608.907   113643519.227        1636.698          47.000    21625614.443    88553543.131        1275.363          48.000  
E02  25339317.535   133159181.849        1703.854          47.000    25339328.062   102031223.624        1305.489          49.000  
G22  23587751.113   123954676.408        2751.868          45.000                                                                  
E24  27873546.744   146476419.523       -3018.806          36.000    27873557.140   112235430.733       -2313.327          46.000  
E25  24592515.911   129234784.873        -705.470          45.000    24592524.150    99024186.501        -540.394          51.000  
> 2024 04 16 18 38 00.0010000  0 25                     
G13  23672844.954   124401666.103        1461.170          44.000                                                                  
G07  21717605.284   114126905.637       -3396.552          50.000    21717606.235    88930119.270       -2646.482          45.000  
G09  23203111.223   121933084.711       -2839.603          46.000    23203118.177    95012784.128       -2212.707          43.000  
R05  22640547.981   121026906.481        2532.534          47.000    22640553.526    94131911.747        1969.672          46.000  
R04  19960800.427   106889347.463         343.633          52.000    19960800.029    83136154.187         267.296          50.000  
R14  19622756.901   104600450.043       -1588.797          52.000    19622760.241    81356107.161       -1235.758          48.000  
G11  24458884.138   128532259.397       -3339.143          40.000    24458898.072   100155009.640       -2602.114          38.000  
E08  25805612.409   135609519.658         838.907          43.000    25805620.060   103908647.278         642.640          49.000  
S31  39186932.862   205928663.180        -816.731          43.000  
S33  40137849.023   210925739.767        -816.476          42.000  
G20  21185480.759   111330508.181        -669.043          45.000                                                                  
E03  24121199.966   126757823.746        -760.083          48.000    24121205.973    97126179.824        -582.304          52.000  
R15  21033403.349   112396448.864        2336.426          51.000    21033409.897    87419302.753        1817.310          48.000  
R03  21298266.532   114011290.034       -2846.228          52.000    21298268.735    88675465.515       -2213.652          48.000  
R13  23333311.054   124598771.751       -4843.085          40.000    23333317.259    96910131.048       -3766.758          37.000  
E05  25140699.265   132115149.101       -2368.525          45.000    25140712.114   101231078.896       -1814.887          48.000  
E13  27421370.047   144100252.822       -1613.528          40.000    27421383.719   110414490.356       -1236.118          45.000  
G05  22964213.533   120677723.448        1724.379          45.000    22964216.531    94034648.347        1343.594          42.000  
E15  27339104.012   143667782.123       -3294.525          34.000    27339125.935   110083121.559       -2524.293          44.000  
G30  20735092.379   108963854.412       -1438.265          49.000    20735095.607    84907022.411       -1120.563          46.000  
G14  21616305.891   113594631.862        1622.271          47.000    21616310.765    88515449.239        1264.039          48.000  
E02  25329613.812   133108185.991        1695.726          47.000    25329623.695   101992149.008        1299.290          50.000  
G22  23572052.521   123872181.116        2747.373          45.000                                                                  
E24  27890804.577   146567121.165       -3028.350          35.000    27890817.042   112304929.294       -2319.987          46.000  
E25  24596583.658   129256161.954        -720.009          46.000    24596592.051    99040566.387        -551.746          51.000  
> 2024 04 16 18 38 30.0010000  0 25                     
G13  23664504.224   124357834.124        1460.773          43.000                                                                  
G07  21737016.041   114228908.973       -3403.989          50.000    21737016.991    89009602.277       -2652.418          46.000  
G09  23219341.467   122018373.692       -2846.467          47.000    23219348.732    95079242.890       -2218.093          43.000  
R05  22626337.954   120950943.229        2531.271          47.000    22626342.675    94072829.357        1969.099          46.000  
R04  19958913.857   106879248.777         329.325          51.000    19958912.757    83128299.645         256.264          50.000  
R14  19631768.021   104648482.652       -1613.603          53.000    19631771.432    81393465.834       -1254.988          48.000  
G11  24477961.828   128632509.115       -3344.517          42.000    24477977.416   100233125.655       -2606.190          41.000  
E08  25800824.896   135584362.372         838.052          43.000    25800832.773   103889370.998         642.136          49.000  
S31  39191596.512   205953166.922        -816.884          44.000  
S33  40142511.839   210950243.370        -816.952          41.000  
G20  21189355.522   111350872.091        -688.855          45.000                                                                  
E03  24125549.879   126780684.437        -764.278          48.000    24125556.222    97143696.418        -585.630          53.000  
R15  21020334.605   112326617.219        2318.652          49.000    21020342.434    87364989.468        1803.357          49.000  
R03  21314259.067   114096898.667       -2861.273          53.000    21314260.263    88742049.795       -2225.376          48.000  
R13  23360534.314   124744141.198       -4848.445          41.000    23360540.794    97023196.021       -3771.268          38.000  
E05  25154231.756   132186262.588       -2372.635          45.000    25154244.455   101285568.255       -1817.981          48.000  
E13  27430616.862   144148845.993       -1626.444          40.000    27430631.657   110451723.854       -1246.141          46.000  
G05  22954405.425   120626177.909        1711.653          45.000    22954407.043    93994483.027        1333.680          41.000  
E15  27357921.516   143766659.644       -3298.060          36.000    27357941.945   110158884.232       -2526.914          44.000  
G30  20743336.400   109007180.798       -1450.605          48.000    20743340.138    84940783.227       -1130.274          46.000  
G14  21607086.361   113546184.698        1607.581          47.000    21607090.956    88477698.345        1252.515          47.000  
E02  25319954.902   133057430.363        1687.599          47.000    25319965.072   101953258.457        1293.056          50.000  
G22  23556380.261   123789825.346        2742.733          45.000                                                                  
E24  27908114.642   146658086.621       -3036.477          36.000    27908127.050   112374630.027       -2326.794          45.000  
E25  24600734.691   129277975.958        -734.586          46.000    24600742.878    99057281.027        -562.932          51.000  
> 2024 04 16 18 39 00.0010000  0 25                     
G13  23656165.044   124314008.455        1460.727          44.000                                                                  
G07  21756467.911   114331129.281       -3410.846          50.000    21756469.606    89089254.365       -2658.031          47.000  
G09  23235607.991   122103857.476       -2852.705          45.000    23235616.590    95145853.413       -2222.785          44.000  
R05  22612131.984   120875006.972        2530.775          47.000    22612137.106    94013767.954        1968.502          47.000  
R04  19957107.745   106869574.397         315.423          52.000    19957106.466    83120775.117         245.363          50.000  
R14  19640916.575   104697250.893       -1637.899          52.000    19640919.916    81431396.677       -1273.867          48.000  
G11  24497068.042   128732907.415       -3349.042          43.000    24497082.177   100311357.425       -2609.714          41.000  
E08  25796040.235   135559220.833         837.643          43.000    25796048.220   103870106.775         642.016          49.000  
S31  39196260.378   205977678.203        -817.067          43.000  
S33  40147176.291   210974755.123        -817.196          42.000  
G20  21193343.286   111371828.324        -708.313          45.000                                                                  
E03  24129923.487   126803668.839        -768.133          48.000    24129930.009    97161307.789        -588.531          52.000  
R15  21007365.926   112257316.055        2301.239          50.000    21007372.822    87311088.731        1789.825          48.000  
R03  21330334.683   114182953.281       -2875.982          52.000    21330336.584    88808980.991       -2236.876          48.000  
R13  23387788.651   124889676.070       -4854.078          38.000    23387795.006    97136389.641       -3775.137          38.000  
E05  25167786.911   132257490.931       -2376.234          45.000    25167798.626   101340145.617       -1820.670          47.000  
E13  27439937.262   144197824.862       -1638.977          40.000    27439952.380   110489252.915       -1255.850          46.000  
G05  22944669.857   120575014.158        1699.032          46.000    22944670.144    93954615.278        1323.793          42.000  
E15  27376755.387   143865636.220       -3300.699          36.000    27376777.107   110234722.800       -2529.354          44.000  
G30  20751651.153   109050873.275       -1462.434          49.000    20751654.151    84974829.270       -1139.496          45.000  
G14  21597951.799   113498178.114        1592.721          47.000    21597955.460    88440290.740        1241.199          47.000  
E02  25310341.730   133006914.469        1679.890          47.000    25310351.995   101914551.630        1287.150          50.000  
G22  23540734.402   123707609.930        2738.112          45.000                                                                  
E24  27925477.004   146749312.163       -3045.376          39.000    27925487.034   112444529.979       -2333.273          45.000  
E25  24604968.300   129300224.599        -748.892          46.000    24604976.732    99074328.702        -573.811          51.000  
> 2024 04 16 18 39 30.0010000  0 25                     
G13  23647823.319   124270168.355        1461.293          44.000                                                                  
G07  21775956.634   114433543.488       -3417.374          50.000    21775958.182    89169057.555       -2662.650          46.000  
G09  23251909.218   122189515.125       -2858.266          46.000    23251916.312    95212599.392       -2227.051          43.000  
R05  22597928.528   120799078.472        2530.603          48.000    22597932.480    93954712.607        1968.138          47.000  
R04  19955376.619   106860305.255         301.940          52.000    19955375.299    83113565.793         234.882          50.000  
R14  19650198.953   104746731.226       -1661.431          52.000    19650201.818    81469881.364       -1292.150          48.000  
G11  24516197.264   128833430.025       -3352.888          42.000    24516211.901   100389686.079       -2612.854          42.000  
E08  25791255.937   135534074.299         838.087          44.000    25791263.045   103850838.724         642.115          49.000  
S31  39200922.723   206002176.740        -816.714          44.000  
S33  40151838.289   210999252.999        -816.637          42.000  
G20  21197440.434   111393355.964        -727.313          45.000                                                                  
E03  24134316.653   126826756.522        -771.499          47.000    24134323.738    97178998.305        -591.133          53.000  
R15  20994492.944   112188526.564        2284.229          50.000    20994499.441    87257585.971        1776.624          48.000  
R03  21346489.737   114269431.746       -2889.877          53.000    21346491.937    88876241.812       -2247.810          48.000  
R13  23415068.101   125035351.503       -4858.416          38.000    23415075.521    97249692.539       -3778.440          39.000  
E05  25181357.645   132328813.500       -2379.036          42.000    25181371.298   101394795.202       -1822.985          48.000  
E13  27449327.295   144247167.116       -1651.190          40.000    27449341.072   110527060.412       -1265.226          44.000  
G05  22935002.225   120524213.570        1687.052          46.000    22935003.892    93915030.474        1314.821          42.000  
E15  27395603.000   143964688.546       -3303.456          35.000    27395626.620   110310619.370       -2530.975          44.000  
G30  20760030.908   109094909.176       -1473.750          49.000    20760033.514    85009142.945       -1148.445          45.000  
G14  21588896.439   113450593.493        1578.844          46.000    21588900.803    88403211.951        1230.170          47.000  
E02  25300771.566   132956618.888        1672.629          48.000    25300780.983   101876013.608        1281.625          50.000  
G22  23525113.006   123625516.808        2734.115          45.000                                                                  
E24  27942881.014   146840774.849       -3052.802          40.000    27942891.831   112514611.728       -2339.188          44.000  
E25  24609281.050   129322886.654        -762.547          46.000    24609289.298    99091693.156        -584.190          51.000  
> 2024 04 16 18 40 00.0010000  0 25                     
G13  23639476.774   124226315.757        1461.655          43.000                                                                  
G07  21795482.082   114536151.025       -3423.806          50.000    21795483.063    89249011.390       -2667.931          45.000  
G09  23268242.275   122275348.643       -2864.166          45.000    23268250.173    95279482.496       -2231.808          44.000  
R05  22583725.204   120723161.837        2529.900          46.000    22583729.847    93895666.501        1967.686          46.000  
R04  19953722.884   106851446.019         288.057          52.000    19953721.737    83106675.250         224.033          51.000  
R14  19659614.867   104796922.995       -1685.284          53.000    19659617.964    81508919.421       -1310.674          49.000  
G11  24535349.813   128934075.609       -3356.859          42.000    24535364.943   100468110.566       -2616.311          40.000  
E08  25786470.338   135508924.860         837.993          44.000    25786476.956   103831568.455         642.242          48.000  
S31  39205582.356   206026663.670        -816.397          44.000  
S33  40156497.909   211023740.631        -816.447          42.000  
G20  21201645.980   111415457.115        -746.612          45.000                                                                  
E03  24138730.657   126849949.911        -775.162          48.000    24138737.672    97196769.809        -593.912          53.000  
R15  20981716.484   112120252.992        2266.837          51.000    20981722.713    87204484.457        1763.152          48.000  
R03  21362725.019   114356336.328       -2904.257          52.000    21362726.871    88943834.062       -2258.642          47.000  
R13  23442374.399   125181165.722       -4863.211          36.000    23442382.015    97363103.405       -3782.527          38.000  
E05  25194949.140   132400232.473       -2382.455          42.000    25194962.325   101449518.609       -1825.652          48.000  
E13  27458786.839   144296873.357       -1663.375          41.000    27458800.186   110565146.825       -1274.495          45.000  
G05  22925404.802   120473780.707        1674.609          46.000    22925407.655    93875732.225        1305.021          44.000  
E15  27414466.648   144063816.086       -3305.941          36.000    27414491.004   110386573.599       -2533.027          44.000  
G30  20768475.916   109139288.741       -1485.428          49.000    20768478.383    85043724.405       -1157.392          45.000  
G14  21579922.423   113403435.141        1564.446          47.000    21579926.710    88366465.353        1219.184          47.000  
E02  25291242.405   132906547.111        1665.031          47.000    25291252.064   101837647.046        1275.776          49.000  
G22  23509515.644   123543550.337        2729.876          46.000                                                                  
E24  27960329.477   146932474.920       -3060.810          40.000    27960341.779   112584875.318       -2345.286          45.000  
E25  24613672.204   129345963.858        -776.492          46.000    24613680.752    99109375.719        -594.947          51.000  
> 2024 04 16 18 40 30.0010000  0 25                     
G13  23631130.517   124182458.473        1461.907          43.000                                                                  
G07  21815045.568   114638957.657       -3430.383          50.000    21815047.345    89329120.369       -2672.955          46.000  
G09  23284611.091   122361365.984       -2870.368          44.000    23284618.623    95346508.791       -2236.703          43.000  
R05  22569528.672   120647267.445        2529.289          47.000    22569532.381    93836637.657        1967.125          47.000  
R04  19952147.144   106843007.069         274.148          52.000    19952146.616    83100111.630         213.096          51.000  
R14  19669165.607   104847832.416       -1709.132          52.000    19669168.421    81548515.603       -1329.282          49.000  
G11  24554526.669   129034848.864       -3361.497          43.000    24554541.643   100546634.486       -2619.019          40.000  
E08  25781686.221   135483780.747         837.699          45.000    25781691.719   103812302.256         642.094          48.000  
S31  39210241.459   206051146.611        -816.231          43.000  
S33  40161157.386   211048223.622        -816.434          42.000  
G20  21205962.380   111438139.186        -765.869          45.000                                                                  
E03  24143165.416   126873257.477        -778.971          47.000    24143172.847    97214628.795        -596.880          53.000  
R15  20969038.387   112052505.996        2249.235          51.000    20969045.619    87151792.494        1749.400          49.000  
R03  21379040.952   114443674.524       -2918.652          53.000    21379042.462    89011763.541       -2270.003          47.000  
R13  23469706.443   125327122.801       -4867.927          35.000    23469715.309    97476625.403       -3785.868          37.000  
E05  25208560.101   132471755.842       -2385.834          42.000    25208573.493   101504322.044       -1828.226          48.000  
E13  27468313.694   144346950.119       -1675.483          39.000    27468329.666   110603517.132       -1283.688          44.000  
G05  22915880.574   120423725.607        1662.125          46.000    22915882.993    93836728.303        1294.929          43.000  
E15  27433347.389   144163024.457       -3308.687          38.000    27433369.958   110462589.729       -2534.965          44.000  
G30  20776987.311   109184018.205       -1496.974          49.000    20776990.822    85078578.496       -1166.438          46.000  
G14  21571031.531   113356713.327        1549.865          47.000    21571035.501    88330058.884        1207.702          47.000  
E02  25281758.513   132856708.528        1657.318          47.000    25281768.062   101799459.179        1269.833          49.000  
G22  23493944.018   123461721.163        2725.194          46.000                                                                  
E24  27977826.393   147024418.416       -3068.965          41.000    27977838.038   112655325.450       -2351.564          44.000  
E25  24618143.806   129369463.928        -790.627          45.000    24618152.425    99127382.291        -605.770          51.000  
> 2024 04 16 18 41 00.0010000  0 25                     
G13  23622784.651   124138601.725        1461.766          42.000                                                                  
G07  21834647.726   114741965.619       -3437.166          50.000    21834648.650    89409386.222       -2678.341          45.000  
G09  23301015.749   122447571.786       -2876.975          44.000    23301023.831    95413681.957       -2241.725          44.000  
R05  22555335.651   120571402.138        2528.115          47.000    22555340.100    93777631.442        1966.424          47.000  
R04  19950650.680   106834996.012         259.641          52.000    19950650.259    83093880.798         201.781          51.000  
R14  19678850.515   104899461.631       -1733.200          52.000    19678854.314    81588671.622       -1348.041          49.000  
G11  24573728.501   129135751.204       -3365.802          43.000    24573743.664   100625258.993       -2622.123          40.000  
E08  25776903.377   135458646.924         837.209          44.000    25776908.588   103793043.955         641.617          47.000  
S31  39214901.158   206075630.898        -816.433          44.000  
S33  40165816.627   211072708.204        -816.224          42.000  
G20  21210390.090   111461407.214        -785.675          45.000                                                                  
E03  24147624.423   126896684.473        -783.188          47.000    24147630.899    97232579.302        -600.036          53.000  
R15  20956461.007   111985292.715        2231.222          51.000    20956466.898    87099515.653        1735.453          48.000  
R03  21395438.325   114531450.964       -2933.474          52.000    21395441.028    89080033.893       -2281.588          48.000  
R13  23497064.872   125473223.944       -4873.008          36.000    23497074.960    97590259.481       -3790.285          38.000  
E05  25222191.922   132543388.697       -2389.832          42.000    25222204.472   101559209.351       -1831.309          48.000  
E13  27477913.890   144397400.865       -1688.077          39.000    27477930.248   110642173.978       -1293.435          43.000  
G05  22906428.921   120374055.691        1648.907          47.000    22906431.110    93798024.549        1284.851          43.000  
E15  27452242.017   144262315.975       -3311.365          37.000    27452264.892   110538669.564       -2537.018          44.000  
G30  20785566.569   109229100.730       -1508.735          49.000    20785569.827    85113707.702       -1175.796          46.000  
G14  21562225.052   113310435.185        1534.952          47.000    21562228.683    88293998.132        1196.053          47.000  
E02  25272319.996   132807109.446        1648.982          47.000    25272329.634   101761454.818        1263.548          49.000  
G22  23478398.523   123380036.624        2720.131          43.000                                                                  
E24  27995369.961   147116608.319       -3077.376          42.000    27995381.434   112725964.366       -2357.928          45.000  
E25  24622697.603   129393391.327        -804.999          45.000    24622705.494    99145716.302        -616.786          51.000  
> 2024 04 16 18 41 30.0010000  0 25                     
G13  23614440.123   124094749.526        1461.763          42.000                                                                  
G07  21854288.526   114845176.820       -3443.606          51.000    21854289.121    89489810.453       -2683.185          45.000  
G09  23317456.236   122533970.005       -2882.980          42.000    23317465.655    95481005.038       -2246.502          43.000  
R05  22541149.372   120495572.160        2527.162          47.000    22541155.229    93718652.718        1965.568          48.000  
R04  19949235.020   106827419.306         245.441          51.000    19949235.378    83087987.763         190.895          51.000  
R14  19688670.637   104951812.329       -1756.881          53.000    19688675.482    81629388.789       -1366.538          50.000  
G11  24592954.955   129236783.435       -3369.568          43.000    24592969.643   100703984.687       -2625.481          39.000  
E08  25772121.862   135433527.616         837.054          43.000    25772128.265   103773796.754         641.450          47.000  
S31  39219560.948   206100119.726        -816.215          44.000  
S33  40170477.178   211097196.867        -816.321          42.000  
G20  21214930.666   111485265.037        -804.950          47.000                                                                  
E03  24152105.893   126920235.359        -786.844          48.000    24152112.450    97250624.752        -603.045          53.000  
R15  20943984.929   111918619.525        2213.446          51.000    20943988.922    87047658.872        1721.581          48.000  
R03  21411917.394   114619669.451       -2947.838          52.000    21411920.272    89148648.074       -2292.689          46.000  
R13  23524453.780   125619469.418       -4876.736          36.000    23524462.402    97704005.791       -3792.994          39.000  
E05  25235844.043   132615135.169       -2393.472          41.000    25235856.884   101614183.730       -1833.870          47.000  
E13  27487587.515   144448228.095       -1700.435          40.000    27487602.279   110681119.339       -1302.909          42.000  
G05  22897051.393   120324776.875        1636.154          46.000    22897053.153    93759625.553        1274.925          43.000  
E15  27471152.373   144361692.306       -3314.002          36.000    27471176.454   110614814.351       -2539.057          44.000  
G30  20794213.738   109274538.489       -1520.448          49.000    20794215.971    85149113.691       -1184.545          45.000  
G14  21553503.821   113264606.997        1520.126          46.000    21553508.018    88258287.988        1184.568          47.000  
E02  25262927.262   132757755.284        1641.057          47.000    25262937.972   101723638.149        1257.403          50.000  
G22  23462883.182   123298503.651        2715.338          44.000                                                                  
E24  28012960.614   147209046.745       -3085.309          43.000    28012971.841   112796793.700       -2364.151          44.000  
E25  24627332.934   129417749.713        -819.130          45.000    24627340.542    99164380.548        -627.575          51.000  
> 2024 04 16 18 42 00.0010000  0 25                     
G13  23606096.159   124050896.883        1461.676          41.000                                                                  
G07  21873966.094   114948584.035       -3450.341          50.000    21873967.393    89570387.434       -2688.603          46.000  
G09  23333932.176   122620555.688       -2889.524          42.000    23333941.933    95548474.149       -2251.598          43.000  
R05  22526970.480   120419774.646        2525.847          47.000    22526975.624    93659699.224        1964.441          48.000  
R04  19947900.767   106820274.107         230.742          51.000    19947900.344    83082430.362         179.437          50.000  
R14  19698626.811   105004876.911       -1780.924          53.000    19698630.382    81670661.238       -1385.082          50.000  
G11  24612205.345   129337937.100       -3373.838          43.000    24612219.367   100782804.974       -2628.929          39.000  
E08  25767343.345   135408417.952         836.646          43.000    25767350.248   103754556.950         640.963          48.000  
S31  39224220.883   206124607.728        -816.486          43.000  
S33  40175137.141   211121685.657        -816.501          42.000  
G20  21219582.263   111509707.427        -824.683          47.000                                                                  
E03  24156610.590   126943905.619        -791.057          47.000    24156616.861    97268761.656        -606.146          53.000  
R15  20931607.816   111852484.153        2195.342          52.000    20931612.623    86996220.418        1707.506          48.000  
R03  21428480.200   114708324.167       -2962.675          52.000    21428481.630    89217601.545       -2304.261          47.000  
R13  23551867.934   125765849.779       -4881.382          36.000    23551875.791    97817857.028       -3797.165          38.000  
E05  25249518.155   132686990.413       -2396.994          42.000    25249531.255   101669241.457       -1836.867          48.000  
E13  27497330.892   144499425.389       -1712.900          40.000    27497344.653   110720348.183       -1312.566          41.000  
G05  22887746.995   120275886.344        1622.991          45.000    22887749.243    93721529.092        1264.524          42.000  
E15  27490080.047   144461145.869       -3316.833          38.000    27490102.811   110691018.304       -2541.182          44.000  
G30  20802926.243   109320324.691       -1532.241          49.000    20802928.938    85184791.240       -1193.879          45.000  
G14  21544867.942   113219225.936        1505.098          46.000    21544871.580    88222926.248        1172.689          46.000  
E02  25253581.481   132708642.490        1632.932          47.000    25253591.742   101686006.430        1251.158          49.000  
G22  23447396.578   123217119.678        2709.967          45.000                                                                  
E24  28030597.771   147301726.797       -3093.506          44.000    28030608.189   112867808.171       -2370.586          43.000  
E25  24632049.503   129442533.735        -833.411          45.000    24632057.093    99183370.919        -638.617          51.000  
> 2024 04 16 18 42 30.0010000  0 25                     
G13  23597751.141   124007046.631        1461.088          42.000                                                                  
G07  21893680.873   115052186.687       -3456.930          51.000    21893682.122    89651116.710       -2693.684          46.000  
G09  23350445.838   122707331.219       -2896.028          43.000    23350455.048    95616091.277       -2256.635          43.000  
R05  22512797.835   120344014.324        2524.433          47.000    22512802.509    93600774.625        1963.520          48.000  
R04  19946648.323   106813565.384         216.079          52.000    19946647.524    83077212.451         168.121          50.000  
R14  19708715.788   105058655.228       -1804.801          53.000    19708719.365    81712488.795       -1403.725          50.000  
G11  24631477.909   129439211.482       -3378.163          42.000    24631491.808   100861719.357       -2632.057          39.000  
E08  25762567.819   135383320.714         836.201          43.000    25762574.456   103735326.653         640.736          48.000  
S31  39228881.287   206149097.980        -816.501          44.000  
S33  40179797.865   211146175.603        -816.732          43.000  
G20  21224344.673   111534736.887        -844.318          47.000                                                                  
E03  24161138.177   126967698.258        -795.325          47.000    24161144.565    97286992.348        -609.406          53.000  
R15  20919333.382   111786891.263        2177.079          51.000    20919337.735    86945203.899        1693.240          47.000  
R03  21445123.213   114797417.845       -2977.347          52.000    21445126.312    89286896.403       -2315.750          47.000  
R13  23579307.335   125912364.412       -4886.202          37.000    23579313.807    97931812.654       -3800.329          39.000  
E05  25263213.549   132758957.204       -2400.869          42.000    25263225.966   101724384.632       -1839.647          47.000  
E13  27507144.890   144550993.781       -1725.502          42.000    27507157.929   110759861.412       -1322.136          43.000  
G05  22878517.577   120227388.936        1609.668          44.000    22878520.831    93683738.945        1254.513          43.000  
E15  27509021.661   144560676.821       -3319.230          41.000    27509043.797   110767281.580       -2543.234          44.000  
G30  20811705.278   109366460.136       -1543.910          49.000    20811707.520    85220740.921       -1203.029          44.000  
G14  21536317.706   113174296.788        1490.007          46.000    21536321.048    88187916.635        1160.942          46.000  
E02  25244282.961   132659775.100        1624.580          48.000    25244292.141   101648562.715        1244.787          49.000  
G22  23431940.495   123135889.871        2704.774          47.000                                                                  
E24  28048279.557   147394649.136       -3101.810          43.000    28048290.611   112939008.301       -2376.884          42.000  
E25  24636845.798   129467745.606        -847.822          44.000    24636855.257    99202689.119        -649.531          52.000  
> 2024 04 16 18 43 00.0010000  0 25                     
G13  23589408.473   123963205.437        1461.231          42.000                                                                  
G07  21913433.892   115155989.470       -3463.527          50.000    21913435.047    89732001.905       -2698.812          46.000  
G09  23366997.103   122794303.297       -2902.587          45.000    23367005.185    95683861.470       -2261.587          42.000  
R05  22498633.171   120268300.063        2522.853          47.000    22498638.283    93541885.820        1962.307          48.000  
R04  19945479.006   106807302.425         201.221          51.000    19945478.243    83072341.265         156.501          50.000  
R14  19718939.028   105113152.170       -1828.570          53.000    19718942.198    81754875.275       -1422.311          50.000  
G11  24650773.275   129540609.973       -3382.170          41.000    24650787.830   100940730.526       -2635.209          39.000  
E08  25757795.597   135358242.862         835.526          44.000    25757803.067   103716111.220         640.213          49.000  
S31  39233542.790   206173595.731        -816.728          43.000  
S33  40184459.638   211170673.984        -816.834          42.000  
G20  21229221.019   111560360.036        -863.910          48.000                                                                  
E03  24165689.619   126991620.568        -799.553          47.000    24165696.589    97305322.398        -612.630          52.000  
R15  20907160.238   111721850.227        2158.789          51.000    20907165.488    86894616.577        1678.972          48.000  
R03  21461849.938   114886956.669       -2992.092          52.000    21461852.459    89356537.486       -2327.150          47.000  
R13  23606770.524   126059015.981       -4890.393          35.000    23606777.125    98045874.837       -3804.219          41.000  
E05  25276930.519   132831042.457       -2404.918          43.000    25276943.240   101779618.620       -1842.759          48.000  
E13  27517030.369   144602938.501       -1737.944          44.000    27517043.354   110799662.997       -1331.715          43.000  
G05  22869364.835   120179293.926        1596.424          44.000    22869369.250    93646262.375        1243.848          44.000  
E15  27527977.368   144660289.567       -3321.973          40.000    27527999.855   110843607.516       -2545.356          44.000  
G30  20820551.978   109412949.919       -1555.592          49.000    20820554.667    85256966.717       -1212.369          44.000  
G14  21527855.970   113129828.631        1474.579          45.000    21527859.539    88153266.215        1148.986          47.000  
E02  25235032.128   132611161.322        1616.134          47.000    25235041.053   101611313.314        1238.285          49.000  
G22  23416513.749   123054823.746        2699.264          46.000                                                                  
E24  28066009.747   147487818.648       -3109.868          44.000    28066020.847   113010397.890       -2382.738          42.000  
E25  24641726.981   129493391.719        -862.104          44.000    24641735.600    99222340.041        -660.701          52.000  
> 2024 04 16 18 43 30.0010000  0 25                     
G13  23581065.852   123919367.840        1461.276          42.000                                                                  
G07  21933223.662   115259984.886       -3469.643          51.000    21933224.711    89813037.214       -2703.553          45.000  
G09  23383583.332   122881466.300       -2908.453          44.000    23383590.580    95751780.508       -2266.443          41.000  
R05  22484477.137   120192628.554        2521.717          49.000    22484482.808    93483030.321        1961.346          48.000  
R04  19944391.967   106801482.250         186.716          51.000    19944391.303    83067814.451         145.212          51.000  
R14  19729295.906   105168358.848       -1851.969          53.000    19729298.820    81797813.780       -1440.421          50.000  
G11  24670090.852   129642123.867       -3385.862          40.000    24670104.975   101019831.545       -2637.726          37.000  
E08  25753026.461   135333179.101         835.275          44.000    25753033.489   103696906.572         639.978          49.000  
S31  39238206.170   206198097.037        -816.801          44.000  
S33  40189122.303   211195175.361        -816.969          41.000  
G20  21234208.336   111586571.115        -883.270          47.000                                                                  
E03  24170265.725   127015667.535        -803.508          47.000    24170272.714    97323747.950        -615.710          53.000  
R15  20895090.829   111657357.409        2140.734          50.000    20895096.855    86844455.684        1665.008          48.000  
R03  21478658.878   114976934.510       -3006.518          52.000    21478661.289    89426520.031       -2338.425          47.000  
R13  23634257.088   126205795.650       -4894.580          35.000    23634263.752    98160036.612       -3806.746          41.000  
E05  25290669.973   132903240.835       -2408.399          43.000    25290682.815   101834939.282       -1845.460          48.000  
E13  27526983.712   144655252.647       -1749.871          41.000    27526999.790   110839747.675       -1340.888          45.000  
G05  22860288.813   120131598.077        1583.497          45.000    22860292.790    93609096.777        1233.970          44.000  
E15  27546948.396   144759976.019       -3324.070          42.000    27546970.590   110919989.952       -2546.923          44.000  
G30  20829464.020   109459786.692       -1566.883          48.000    20829467.530    85293462.892       -1220.960          45.000  
G14  21519480.789   113085818.177        1459.288          45.000    21519485.081    88118972.461        1137.283          48.000  
E02  25225828.580   132562797.012        1608.115          47.000    25225837.713   101574255.101        1232.136          49.000  
G22  23401117.443   122973918.527        2694.169          46.000                                                                  
E24  28083784.519   147581227.938       -3117.666          44.000    28083795.005   113081971.154       -2388.760          40.000  
E25  24646686.568   129519466.196        -876.141          42.000    24646696.911    99242319.153        -671.320          52.000  
> 2024 04 16 18 44 00.0020000  0 25                     
G13  23572724.545   123875532.253        1460.910          43.000                                                                  
G07  21953050.082   115364173.403       -3476.208          50.000    21953050.433    89894222.996       -2708.705          44.000  
G09  23400206.817   122968822.851       -2915.109          44.000    23400214.731    95819850.307       -2271.589          41.000  
R05  22470330.443   120116999.311        2519.863          49.000    22470334.418    93424207.647        1959.898          46.000  
R04  19943388.350   106796106.495         171.558          51.000    19943387.472    83063633.314         133.422          51.000  
R14  19739785.253   105224274.783       -1875.754          53.000    19739789.128    81841303.933       -1458.926          51.000  
G11  24689430.817   129743752.783       -3389.482          41.000    24689445.676   101099022.204       -2641.244          37.000  
E08  25748260.285   135308128.486         834.671          44.000    25748266.575   103677712.004         639.539          49.000  
S31  39242868.485   206222599.855        -816.944          43.000  
S33  40193785.457   211219679.193        -816.978          43.000  
G20  21239308.518   111613370.354        -903.311          47.000                                                                  
E03  24174865.872   127039840.115        -807.950          47.000    24174872.858    97342269.752        -619.033          53.000  
R15  20883124.723   111593413.098        2121.974          50.000    20883130.696    86794721.402        1650.380          48.000  
R03  21495550.362   115067353.419       -3021.478          52.000    21495551.637    89496845.590       -2349.908          47.000  
R13  23661768.382   126352703.754       -4899.114          36.000    23661774.969    98274298.317       -3810.293          41.000  
E05  25304429.586   132975554.483       -2412.404          42.000    25304443.730   101890348.244       -1848.492          48.000  
E13  27537008.700   144707936.204       -1762.329          41.000    27537025.216   110880115.354       -1350.337          44.000  
G05  22851289.009   120084301.388        1569.513          46.000    22851292.109    93572242.277        1223.054          44.000  
E15  27565933.026   144859736.852       -3326.345          43.000    27565954.831   110996429.347       -2548.874          44.000  
G30  20838442.761   109506969.957       -1578.683          49.000    20838445.762    85330229.059       -1230.086          44.000  
G14  21511191.856   113042265.721        1443.823          45.000    21511197.308    88085035.614        1125.092          48.000  
E02  25216671.057   132514681.682        1599.464          46.000    25216681.895   101537387.662        1225.594          50.000  
G22  23385751.677   122893173.800        2688.454          46.000                                                                  
E24  28101606.153   147674877.901       -3125.664          45.000    28101616.783   113153728.850       -2394.810          40.000  
E25  24651728.997   129545969.139        -890.671          42.000    24651740.063    99262626.618        -682.532          51.000  
> 2024 04 16 18 44 30.0020000  0 25                     
G13  23564383.739   123831702.447        1460.767          42.000                                                                  
G07  21972911.491   115468546.651       -3482.560          50.000    21972911.943    89975552.739       -2713.682          44.000  
G09  23416866.994   123056367.664       -2921.688          45.000    23416875.053    95888066.799       -2276.781          43.000  
R05  22456191.297   120041419.873        2518.167          48.000    22456196.109    93365423.739        1958.524          47.000  
R04  19942468.043   106791178.972         156.475          51.000    19942467.230    83059800.781         121.726          50.000  
R14  19750407.011   105280894.049       -1899.274          52.000    19750411.366    81885341.125       -1477.250          52.000  
G11  24708791.564   129845487.400       -3393.082          42.000    24708804.999   101178295.246       -2643.723          36.000  
E08  25743496.377   135283093.617         834.044          44.000    25743502.657   103658529.500         639.049          49.000  
S31  39247531.497   206247105.480        -817.208          44.000  
S33  40198448.528   211244184.312        -817.311          42.000  
G20  21244519.749   111640756.491        -922.816          47.000                                                                  
E03  24179489.682   127064137.812        -812.150          47.000    24179496.667    97360887.448        -622.314          53.000  
R15  20871261.612   111530024.093        2103.556          51.000    20871268.042    86745418.987        1636.000          48.000  
R03  21512523.007   115158208.052       -3035.974          53.000    21512525.738    89567510.096       -2361.243          48.000  
R13  23689300.136   126499727.361       -4902.691          35.000    23689307.616    98388649.837       -3813.461          40.000  
E05  25318212.566   133047979.496       -2416.225          43.000    25318226.207   101945842.498       -1851.462          49.000  
E13  27547104.709   144760984.736       -1774.527          40.000    27547120.432   110920762.715       -1359.573          42.000  
G05  22842365.363   120037410.292        1556.224          46.000    22842369.112    93535703.804        1212.531          44.000  
E15  27584930.282   144959563.686       -3328.809          43.000    27584951.685   111072919.315       -2550.644          43.000  
G30  20847487.022   109554495.520       -1590.233          49.000    20847489.786    85367261.975       -1239.065          44.000  
G14  21502993.509   112999177.190        1428.296          46.000    21502997.723    88051460.237        1112.988          48.000  
E02  25207563.745   132466820.683        1591.026          47.000    25207573.940   101500715.107        1218.989          50.000  
G22  23370418.519   122812598.075        2682.800          47.000                                                                  
E24  28119471.983   147768761.166       -3133.649          44.000    28119483.265   113225665.286       -2401.137          43.000  
E25  24656853.798   129572899.164        -904.984          43.000    24656864.905    99283261.277        -693.441          52.000  
