     3.00           OBSERVATION DATA    M: Mixed            RINEX VERSION / TYPE
CONVBIN 2.4.3                           20240416 165942 UTC PGM / RUN BY / DATE 
format: u-blox UBX                                          COMMENT             
log: /home/regis/git/gnsspwv/obsdata/VERT00CHL/2024-04-16/VECOMMENT             
{self.marker}                                               MARKER NAME         
                                                            MARKER NUMBER       
GEODETIC                                                    MARKER TYPE         
{self.observer}     {self.institution}                      OBSERVER / AGENCY   
UNKNOWN             UBLOX-ZED-F9P                           REC # / TYPE / VERS 
UNKNOWN             TWIVSP6037L                             ANT # / TYPE        
  1713381.0000 -5047934.0000 -3490983.0000                  APPROX POSITION XYZ 
        0.0000        0.0000        0.0000                  ANTENNA: DELTA H/E/N
G    8 C1C L1C D1C S1C C2L L2L D2L S2L                      SYS / # / OBS TYPES 
R    8 C1C L1C D1C S1C C2C L2C D2C S2C                      SYS / # / OBS TYPES 
E    8 C1C L1C D1C S1C C7Q L7Q D7Q S7Q                      SYS / # / OBS TYPES 
S    4 C1C L1C D1C S1C                                      SYS / # / OBS TYPES 
  2024    04    16    16    45   00.4980000     GPS         TIME OF FIRST OBS   
  2024    04    16    16    59   30.4980000     GPS         TIME OF LAST OBS    
                                                            END OF HEADER       
> 2024 04 16 16 45 00.4980000  0 25                     
G03  23254520.113   122203131.3351      -3913.287          45.000    23254533.165    95223183.2511      -3049.158          39.000  
G04  22633523.189   118939872.6741      -3134.674          42.000    22633529.391    92680485.5621      -2442.465          38.000  
G06  20853579.814   109586315.3551      -2590.403          47.000    20853584.241    85391961.2351      -2018.650          46.000  
G07  19187676.423   100832077.5121          9.763          49.000    19187676.614    78570520.5391          7.539          46.000  
G09  20342747.388   106901863.8391      -1660.822          47.000    20342749.524    83300166.8981      -1294.012          46.000  
R02  21313543.050   113733064.0721      -2638.573          47.000    21313550.060    88459045.5951      -2052.175          44.000  
R18  21595424.895   115277776.4301      -4100.609          47.000    21595435.812    89660495.3761      -3189.295          47.000  
R12  21501464.996   114857003.1431      -3780.896          46.000    21501471.813    89333265.8591      -2940.654          48.000  
R04  21480402.851   115026700.1241       1509.292          42.000    21480404.609    89465193.2891       1173.733          41.000  
R14  21042244.899   112167016.6271       3212.643          52.000    21042252.553    87241189.5841       2498.826          47.000  
G11  21858887.252   114869242.5681       -123.846          46.000    21858889.950    89508655.5861        -96.532          45.000  
S31  38130235.423   200375729.9881       -826.889          44.000  
S33  39081347.043   205373843.6771       -826.609          42.000  
G20  22656565.288   119061059.0311       2352.652          34.000                                                                  
E03  23529846.874   123650249.3901       -215.019          47.000    23529853.215    94745052.7251       -164.824          51.000  
R03  19504680.391   104410138.9541       -344.996          52.000    19504679.852    81207917.7361       -268.268          49.000  
R13  19316935.289   103151621.2671       -589.055          41.000    19316937.940    80229030.9171       -458.333          41.000  
R19  21319501.825   114045079.4751      -1628.308          38.000    21319507.356    88701700.4701      -1266.682          48.000  
E05  22447203.152   117960817.9681      -1906.223          48.000    22447208.770    90385576.0831      -1460.610          50.000  
G16  24320241.709   127803720.5151      -1706.904          35.000                                                                  
E15  24282724.798   127606605.1901       -987.526          45.000    24282733.804    97776559.4631       -756.676          51.000  
G30  20967093.383   110182996.0961       1837.590          48.000    20967097.702    85856994.6821       1431.931          43.000  
E34  24594744.805   129246185.2991      -3376.025          47.000    24594753.947    99032797.5901      -2586.892          49.000  
E24  25660242.922   134845633.3061       -255.804          38.000    25660251.454   103323393.2141       -196.117          45.000  
E25  25465401.533   133821750.4451       1670.203          44.000    25465416.108   102538852.2951       1279.723          50.000  
> 2024 04 16 16 45 30.4980000  0 25                     
G03  23276880.558   122320633.897       -3920.880          44.000    23276893.783    95314743.223       -3055.139          41.000  
G04  22651421.129   119033924.912       -3135.621          42.000    22651428.388    92753772.826       -2443.686          38.000  
G06  20868415.401   109664278.977       -2607.496          47.000    20868420.417    85452712.005       -2031.771          46.000  
G07  19187679.106   100832084.906         -10.661          50.000    19187677.086    78570526.340          -8.331          46.000  
G09  20352242.514   106951756.432       -1665.802          49.000    20352243.378    83339044.233       -1298.010          46.000  
R02  21328391.242   113812299.688       -2644.201          46.000    21328398.599    88520673.186       -2056.563          42.000  
R18  21618501.420   115400953.736       -4111.810          48.000    21618510.496    89756299.616       -3198.042          45.000  
R12  21522749.748   114970702.778       -3799.482          47.000    21522757.809    89421698.745       -2955.256          49.000  
R04  21471947.863   114981422.463        1509.134          43.000    21471950.186    89429977.511        1173.494          43.000  
R14  21024190.210   112070777.506        3202.819          52.000    21024198.497    87166337.312        2491.022          48.000  
G11  21859647.997   114873241.933        -143.301          45.000    21859651.650    89511772.036        -111.648          46.000  
S31  38134954.523   200400533.498        -827.003          43.000  
S33  39086065.248   205398638.902        -826.726          42.000  
G20  22643148.640   118990548.340        2347.625          38.000                                                                  
E03  23531081.791   123656736.285        -217.832          47.000    23531087.470    94750023.250        -166.854          51.000  
R03  19506630.795   104420578.012        -351.387          52.000    19506629.859    81216037.055        -273.373          49.000  
R13  19320321.368   103169697.905        -616.484          42.000    19320323.308    80243090.523        -479.421          41.000  
R19  21328704.188   114094301.052       -1653.154          40.000    21328708.904    88739983.895       -1285.720          47.000  
E05  22458088.659   118018020.720       -1907.654          49.000    22458093.958    90429406.734       -1461.626          49.000  
G16  24330025.155   127855147.475       -1722.059          35.000                                                                  
E15  24288403.577   127636449.505       -1002.546          45.000    24288412.828    97799427.191        -768.110          51.000  
G30  20956638.314   110128053.062        1824.713          47.000    20956642.498    85814182.085        1421.726          43.000  
E34  24614039.365   129347575.291       -3383.567          48.000    24614048.304    99110485.858       -2592.698          49.000  
E24  25661739.086   134853502.721        -269.042          38.000    25661748.623   103329423.138        -206.176          45.000  
E25  25455877.850   133771706.667        1665.790          43.000    25455892.611   102500507.340        1276.366          50.000  
> 2024 04 16 16 46 00.4980000  0 25                     
G03  23299284.727   122438367.097       -3928.320          43.000    23299298.734    95406482.867       -3060.938          41.000  
G04  22669326.028   119128016.250       -3137.513          41.000    22669330.899    92827090.600       -2444.506          36.000  
G06  20883350.630   109742761.226       -2624.917          48.000    20883355.059    85513866.913       -2045.320          44.000  
G07  19187798.301   100832711.895         -31.474          50.000    19187796.277    78571014.937         -24.623          45.000  
G09  20361766.789   107001808.750       -1671.417          48.000    20361768.420    83378046.035       -1302.411          46.000  
R02  21343275.236   113891720.918       -2650.714          47.000    21343280.294    88582445.175       -2061.660          41.000  
R18  21641640.375   115524473.749       -4123.225          46.000    21641650.489    89852370.415       -3206.870          42.000  
R12  21544142.656   115084971.423       -3818.825          49.000    21544148.438    89510574.302       -2969.948          48.000  
R04  21463495.344   114936151.750        1508.731          43.000    21463495.210    89394767.028        1173.356          43.000  
R14  21006194.538   111974844.490        3192.410          53.000    21006202.423    87091723.090        2482.998          48.000  
G11  21860519.843   114877826.222        -162.844          46.000    21860524.192    89515344.266        -126.954          46.000  
S31  38139676.915   200425348.652        -827.692          44.000  
S33  39090785.682   205423445.101        -827.470          42.000  
G20  22629760.473   118920196.311        2342.206          38.000                                                                  
E03  23532332.528   123663308.344        -220.695          48.000    23532337.979    94755059.033        -169.149          51.000  
R03  19508618.170   104431213.912        -358.010          52.000    19508616.206    81224309.406        -278.345          50.000  
R13  19323862.001   103188603.817        -644.348          43.000    19323863.694    80257795.168        -501.241          41.000  
R19  21338045.865   114144268.966       -1678.271          39.000    21338049.425    88778847.781       -1305.296          48.000  
E05  22468983.489   118075273.498       -1909.525          49.000    22468988.855    90473275.726       -1463.076          49.000  
G16  24339899.884   127907038.547       -1737.583          35.000                                                                  
E15  24294170.525   127666750.733       -1017.843          46.000    24294178.967    97822645.019        -779.845          51.000  
G30  20946259.514   110073511.132        1811.154          48.000    20946263.421    85771682.007        1411.478          44.000  
E34  24633377.333   129449197.887       -3391.456          47.000    24633386.538    99188352.358       -2598.665          49.000  
E24  25663314.505   134861772.113        -282.690          40.000    25663322.821   103335759.516        -216.415          46.000  
E25  25446382.819   133721805.410        1660.766          44.000    25446396.281   102462271.590        1272.602          49.000  
> 2024 04 16 16 46 30.4980000  0 25                     
G03  23321731.468   122556330.646       -3936.023          42.000    23321746.322    95498402.064       -3066.742          40.000  
G04  22687238.385   119222147.324       -3138.542          39.000    22687244.358    92900439.348       -2445.476          37.000  
G06  20898383.838   109821760.637       -2641.736          48.000    20898388.153    85575424.789       -2058.551          44.000  
G07  19188035.024   100833959.645         -51.927          49.000    19188034.330    78571987.264         -40.452          46.000  
G09  20371322.163   107052021.422       -1676.459          49.000    20371323.770    83417172.725       -1306.134          46.000  
R02  21358193.241   113971329.264       -2656.698          47.000    21358199.079    88644362.647       -2066.545          40.000  
R18  21664843.844   115648332.608       -4134.233          45.000    21664853.724    89948704.740       -3215.526          43.000  
R12  21565640.702   115199806.528       -3837.220          50.000    21565645.585    89599890.351       -2984.415          46.000  
R04  21455042.086   114890889.375        1508.744          43.000    21455043.247    89359563.106        1173.179          45.000  
R14  20988255.084   111879223.334        3182.100          52.000    20988265.309    87017351.418        2474.816          49.000  
G11  21861504.598   114882996.891        -182.197          46.000    21861508.509    89519373.404        -141.926          47.000  
S31  38144401.778   200450176.401        -827.915          44.000  
S33  39095508.594   205448265.090        -827.648          42.000  
G20  22616403.413   118850006.473        2337.115          38.000                                                                  
E03  23533599.394   123669966.251        -223.429          47.000    23533604.671    94760160.599        -171.212          51.000  
R03  19510640.582   104442048.433        -364.487          51.000    19510640.702    81232736.288        -283.523          49.000  
R13  19327557.705   103208340.222        -671.581          42.000    19327559.515    80273145.751        -522.426          41.000  
R19  21347526.766   114194982.431       -1702.879          40.000    21347529.142    88818291.543       -1324.459          47.000  
E05  22479888.157   118132577.257       -1910.989          49.000    22479893.356    90517183.760       -1464.274          49.000  
G16  24349862.801   127959394.184       -1753.145          32.000                                                                  
E15  24300023.580   127697509.606       -1032.813          46.000    24300032.130    97846213.507        -791.389          51.000  
G30  20935957.041   110019372.889        1797.828          48.000    20935960.774    85729496.523        1400.737          43.000  
E34  24652757.804   129551052.093       -3398.942          45.000    24652768.968    99266396.314       -2604.442          49.000  
E24  25664963.384   134870443.259        -296.201          38.000    25664972.502   103342403.683        -226.671          46.000  
E25  25436914.475   133672049.755        1656.098          44.000    25436927.791   102424147.375        1268.942          50.000  
> 2024 04 16 16 47 00.4980000  0 25                     
G03  23344221.725   122674514.381       -3943.341          45.000    23344235.950    95590492.812       -3072.711          41.000  
G04  22705156.778   119316309.126       -3139.705          40.000    22705162.049    92973812.033       -2446.499          36.000  
G06  20913513.235   109901265.766       -2658.824          48.000    20913518.235    85637376.747       -2071.655          44.000  
G07  19188388.470   100835819.202         -72.328          48.000    19188389.093    78573436.332         -56.460          47.000  
G09  20380905.662   107102385.274       -1681.433          48.000    20380908.202    83456417.265       -1310.162          47.000  
R02  21373146.062   114051116.366       -2662.752          47.000    21373152.245    88706419.137       -2070.939          41.000  
R18  21688109.166   115772516.536       -4144.984          45.000    21688117.261    90045291.939       -3223.895          40.000  
R12  21587241.069   115315195.225       -3855.500          50.000    21587247.739    89689636.993       -2998.706          48.000  
R04  21446590.127   114845626.483        1508.692          45.000    21446590.181    89324358.774        1173.232          42.000  
R14  20970373.180   111783908.943        3171.856          51.000    20970383.576    86943218.371        2466.937          49.000  
G11  21862598.551   114888745.289        -201.241          47.000    21862601.309    89523852.710        -156.899          46.000  
S31  38149127.160   200475008.359        -827.709          43.000  
S33  39100232.332   205473088.750        -827.456          43.000  
G20  22603075.743   118779971.839        2331.625          38.000                                                                  
E03  23534880.344   123676700.626        -225.893          47.000    23534885.695    94765320.767        -173.080          51.000  
R03  19512700.710   104453073.740        -370.845          52.000    19512699.937    81241311.520        -288.347          49.000  
R13  19331407.318   103228898.524        -699.155          41.000    19331409.892    80289135.589        -543.922          42.000  
R19  21357143.957   114246429.948       -1727.064          40.000    21357147.629    88858306.267       -1343.463          47.000  
E05  22490800.492   118189922.972       -1912.404          49.000    22490805.949    90561123.946       -1465.349          49.000  
G16  24359910.146   128012204.214       -1767.886          33.000                                                                  
E15  24305963.106   127728716.945       -1047.874          47.000    24305970.955    97870125.611        -802.922          51.000  
G30  20925729.761   109965630.915        1784.620          47.000    20925733.824    85687619.795        1390.553          43.000  
E34  24672182.204   129653126.913       -3406.262          45.000    24672192.914    99344609.263       -2610.057          48.000  
E24  25666689.918   134879508.045        -308.955          40.000    25666697.037   103349349.509        -236.742          45.000  
E25  25427471.670   133622432.815        1651.369          44.000    25427485.719   102386129.463        1265.336          49.000  
> 2024 04 16 16 47 30.4980000  0 25                     
G03  23366753.416   122792917.899       -3950.537          43.000    23366767.677    95682754.833       -3078.308          40.000  
G04  22723081.475   119410502.526       -3140.394          39.000    22723087.368    93047209.272       -2447.157          38.000  
G06  20928738.375   109981275.077       -2675.341          48.000    20928743.582    85699721.554       -2084.640          45.000  
G07  19188859.578   100838291.684         -92.667          49.000    19188859.504    78575362.969         -72.212          47.000  
G09  20390518.191   107152901.088       -1686.444          48.000    20390520.822    83495780.200       -1314.184          46.000  
R02  21388131.201   114131084.086       -2668.629          46.000    21388138.517    88768616.063       -2075.329          40.000  
R18  21711433.282   115897021.817       -4155.396          45.000    21711442.167    90142128.975       -3232.143          41.000  
R12  21608945.261   115431134.612       -3873.892          51.000    21608950.842    89779811.972       -3012.843          45.000  
R04  21438137.009   114800364.643        1508.592          43.000    21438137.776    89289155.273        1173.411          43.000  
R14  20952550.790   111688906.677        3161.458          52.000    20952560.606    86869328.073        2458.959          49.000  
G11  21863802.837   114895072.860        -220.689          47.000    21863805.220    89528783.332        -171.788          46.000  
S31  38153853.125   200499845.073        -827.997          43.000  
S33  39104956.930   205497916.653        -827.621          43.000  
G20  22589778.784   118710096.155        2326.723          38.000                                                                  
E03  23536176.284   123683512.163        -228.482          47.000    23536182.015    94770540.042        -174.966          51.000  
R03  19514795.316   104464291.923        -377.224          52.000    19514795.353    81250036.786        -293.423          50.000  
R13  19335411.682   103250279.719        -726.335          42.000    19335414.030    80305765.431        -565.165          41.000  
R19  21366897.863   114298610.775       -1751.649          39.000    21366902.826    88898891.312       -1362.153          46.000  
E05  22501721.323   118247311.596       -1913.634          49.000    22501726.802    90605096.993       -1466.272          49.000  
G16  24370047.867   128065469.822       -1783.057          34.000                                                                  
E15  24311986.475   127760373.407       -1062.641          46.000    24311994.931    97894381.851        -814.228          51.000  
G30  20915578.289   109912287.753        1771.355          47.000    20915582.713    85646053.826        1380.125          44.000  
E34  24691647.872   129755421.296       -3413.424          45.000    24691658.887    99422990.502       -2615.470          48.000  
E24  25668490.049   134888968.343        -322.151          39.000    25668498.352   103356598.316        -246.679          47.000  
E25  25418056.035   133572957.692        1646.719          44.000    25418070.917   102348220.182        1261.794          50.000  
> 2024 04 16 16 48 00.4980000  0 25                     
G03  23389327.703   122911542.700       -3957.845          43.000    23389342.333    95775189.261       -3084.230          41.000  
G04  22741013.055   119504729.985       -3141.469          39.000    22741018.081    93120633.156       -2448.582          38.000  
G06  20944059.698   110061788.708       -2692.408          49.000    20944064.270    85762459.322       -2098.160          44.000  
G07  19189446.774   100841379.780        -113.315          49.000    19189446.485    78577769.319         -88.425          46.000  
G09  20400161.293   107203571.240       -1691.790          49.000    20400163.235    83535263.371       -1318.105          47.000  
R02  21403151.545   114211235.738       -2675.030          47.000    21403158.648    88830956.115       -2080.483          41.000  
R18  21734816.769   116021846.222       -4166.223          44.000    21734826.390    90239214.289       -3240.748          40.000  
R12  21630752.752   115547624.104       -3892.378          51.000    21630760.523    89870414.764       -3027.298          47.000  
R04  21429684.659   114755107.111        1508.127          43.000    21429685.813    89253955.081        1173.097          43.000  
R14  20934788.718   111594223.355        3150.615          52.000    20934798.235    86795685.826        2450.513          49.000  
G11  21865116.791   114901982.499        -240.221          47.000    21865119.224    89534167.522        -187.216          45.000  
S31  38158581.134   200524689.256        -828.318          44.000  
S33  39109682.715   205522752.034        -828.056          42.000  
G20  22576512.655   118640384.137        2320.635          39.000                                                                  
E03  23537488.434   123690403.187        -231.336          48.000    23537493.361    94775820.213        -177.178          51.000  
R03  19516928.241   104475706.712        -384.090          52.000    19516927.899    81258914.960        -298.644          51.000  
R13  19339569.723   103272486.955        -754.252          41.000    19339571.844    80323037.768        -586.576          40.000  
R19  21376789.308   114351525.132       -1776.483          40.000    21376793.747    88940046.871       -1381.649          46.000  
E05  22512650.585   118304745.671       -1915.470          49.000    22512656.640    90649104.880       -1467.655          50.000  
G16  24380272.842   128119192.995       -1798.334          31.000                                                                  
E15  24318094.655   127792481.369       -1078.030          45.000    24318103.957    97918984.062        -825.920          50.000  
G30  20905503.858   109859347.554        1757.739          47.000    20905508.839    85604801.866        1369.691          44.000  
E34  24711155.398   129857935.878       -3421.024          45.000    24711167.213    99501540.455       -2621.245          48.000  
E24  25670362.351   134898827.507        -335.590          36.000    25670374.173   103364152.776        -257.166          47.000  
E25  25408670.104   133523629.068        1641.558          44.000    25408683.781   102310423.182        1257.805          50.000  
> 2024 04 16 16 48 30.4980000  0 25                     
G03  23411944.107   123030390.690       -3965.087          43.000    23411959.550    95867797.562       -3089.447          42.000  
G04  22758950.546   119598994.854       -3142.955          38.000    22758957.394    93194086.095       -2448.659          40.000  
G06  20959477.025   110142807.477       -2708.866          48.000    20959482.172    85825590.710       -2110.803          45.000  
G07  19190152.846   100845086.727        -133.744          48.000    19190152.502    78580657.859        -104.182          47.000  
G09  20409833.657   107254398.859       -1696.664          49.000    20409834.863    83574869.293       -1322.032          46.000  
R02  21418207.339   114291575.763       -2680.796          46.000    21418216.251    88893442.620       -2085.137          43.000  
R18  21758259.286   116146988.686       -4176.507          41.000    21758269.414    90336546.977       -3248.191          40.000  
R12  21652663.771   115664663.023       -3910.193          52.000    21652669.240    89961445.017       -3041.232          46.000  
R04  21421234.419   114709857.934        1508.341          43.000    21421236.123    89218761.437        1173.147          43.000  
R14  20917087.432   111499866.852        3139.929          53.000    20917096.487    86722297.776        2442.096          49.000  
G11  21866543.503   114909477.925        -259.332          47.000    21866545.761    89540008.149        -202.149          46.000  
S31  38163310.818   200549544.533        -828.383          44.000  
S33  39114411.171   205547599.699        -828.368          43.000  
G20  22563278.400   118570841.532        2315.131          39.000                                                                  
E03  23538815.566   123697376.703        -233.657          48.000    23538820.715    94781163.598        -178.955          51.000  
R03  19519099.040   104487323.363        -390.428          51.000    19519098.372    81267950.125        -303.673          50.000  
R13  19343883.844   103295523.518        -781.403          41.000    19343885.340    80340955.123        -608.068          40.000  
R19  21386819.450   114405174.402       -1800.450          41.000    21386823.146    88981774.052       -1400.151          47.000  
E05  22523589.573   118362228.550       -1916.666          49.000    22523595.384    90693150.158       -1468.663          50.000  
G16  24390587.080                       -1813.431          29.000                                                                  
E15  24324293.234   127825043.913       -1092.725          45.000    24324300.319    97943934.559        -837.229          50.000  
G30  20895507.157   109806815.276        1744.374          47.000    20895512.643    85563867.735        1359.446          44.000  
E34  24730706.554   129960671.983       -3427.846          45.000    24730717.370    99580260.130       -2626.627          48.000  
E24  25672318.110   134909089.665        -348.680          37.000    25672326.414   103372016.008        -267.024          46.000  
E25  25399312.669   133474452.418        1636.993          45.000    25399325.200   102272742.652        1254.293          50.000  
> 2024 04 16 16 49 00.4980000  0 25                     
G03  23434597.391   123149429.564       -3970.860          45.000    23434612.120    95960554.596       -3094.338          41.000  
G04  22776890.631   119693265.814       -3142.056          38.000    22776898.021    93267543.854       -2448.391          41.000  
G06  20974984.018   110224297.750       -2723.930          48.000    20974989.709    85889089.536       -2122.505          45.000  
G07  19190969.518   100849381.042        -152.652          48.000    19190970.038    78584004.124        -118.879          46.000  
G09  20419529.828   107305352.631       -1700.245          49.000    20419530.616    83614573.516       -1324.825          45.000  
R02  21433292.401   114372072.962       -2685.598          46.000    21433300.725    88956051.382       -2088.945          39.000  
R18  21781754.677   116272412.635       -4185.061          40.000    21781765.938    90434098.505       -3254.995          40.000  
R12  21674669.043   115782216.301       -3926.766          52.000    21674675.917    90052875.236       -3054.188          46.000  
R04  21412781.750   114664585.602        1509.805          45.000    21412781.877    89183549.813        1174.208          44.000  
R14  20899441.282   111405809.938        3130.538          52.000    20899451.427    86649142.722        2434.854          49.000  
G11  21868075.728   114917528.368        -277.232          47.000    21868077.301    89546281.249        -216.324          45.000  
S31  38168036.976   200574379.606        -827.417          44.000  
S33  39119135.439   205572425.891        -826.961          42.000  
G20  22550071.392   118501439.627        2311.319          39.000                                                                  
E03  23540151.747   123704401.334        -234.841          47.000    23540157.614    94786546.135        -179.853          52.000  
R03  19521300.761   104499110.651        -395.450          53.000    19521299.521    81277118.056        -307.634          49.000  
R13  19348347.354   103319358.388        -807.536          41.000    19348349.367    80359493.357        -628.025          40.000  
R19  21396980.344   114459524.497       -1823.115          40.000    21396983.486    89024046.298       -1417.881          47.000  
E05  22534531.063   118419729.097       -1916.763          49.000    22534537.597    90737208.974       -1468.735          50.000  
G16  24400975.086                       -1827.432          28.000                                                                  
E15  24330569.830   127858029.574       -1106.345          45.000    24330577.349    97969209.284        -847.722          49.000  
G30  20885581.755   109754661.286        1732.457          46.000    20885587.278    85523228.394        1349.861          44.000  
E34  24750292.642   130063596.495       -3433.618          45.000    24750303.506    99659124.205       -2631.025          48.000  
E24  25674340.174   134919724.575        -360.127          37.000    25674351.043   103380164.886        -276.234          47.000  
E25  25389978.412   133425398.734        1633.335          45.000    25389990.062   102235156.329        1251.492          50.000  
> 2024 04 16 16 49 30.4980000  0 25                     
G03  23457286.387   123268655.373       -3977.678          46.000    23457300.610    96053457.294       -3099.471          39.000  
G04  22794830.268   119787540.207       -3142.865          37.000    22794838.252    93341004.230       -2448.925          40.000  
G06  20990580.069   110306254.340       -2740.000          48.000    20990586.008    85952951.715       -2134.914          45.000  
G07  19191898.155   100854260.453        -172.837          49.000    19191898.555    78587806.304        -134.626          47.000  
G09  20429248.577   107356429.714       -1704.967          48.000    20429250.172    83654373.825       -1328.427          45.000  
R02  21448408.066   114452725.545       -2691.371          48.000    21448415.210    89018781.015       -2093.279          42.000  
R18  21805304.753   116398110.768       -4194.790          44.000    21805314.205    90531863.348       -3262.979          38.000  
R12  21696770.545   115900277.431       -3944.222          52.000    21696776.504    90144700.530       -3067.590          47.000  
R04  21404321.022   114619288.277        1509.694          44.000    21404322.717    89148318.607        1174.622          44.000  
R14  20881851.650   111312054.170        3119.773          51.000    20881862.968    86576221.952        2426.514          49.000  
G11  21869712.909   114926131.430        -296.311          46.000    21869713.680    89552984.955        -230.823          44.000  
S31  38172758.581   200599191.456        -826.833          44.000  
S33  39123855.550   205597229.835        -826.751          42.000  
G20  22536890.854   118432177.766        2306.421          40.000                                                                  
E03  23541497.264   123711474.098        -237.071          47.000    23541503.588    94791965.569        -181.627          52.000  
R03  19523534.255   104511067.749        -401.776          52.000    19523533.639    81286418.057        -312.418          48.000  
R13  19352959.971   103343988.581        -834.643          41.000    19352962.160    80378650.199        -649.178          41.000  
R19  21407269.889   114514570.686       -1846.647          40.000    21407274.413    89066859.927       -1436.373          47.000  
E05  22545475.812   118477244.632       -1917.843          49.000    22545482.340    90781279.256       -1469.425          50.000  
G16  24411449.329   128283027.910       -1842.287          30.000                                                                  
E15  24336926.661   127891435.393       -1120.940          46.000    24336934.501    97994805.949        -858.867          50.000  
G30  20875729.625   109702884.474        1719.246          47.000    20875734.167    85482882.902        1339.663          44.000  
E34  24769913.384   130166704.772       -3440.431          45.000    24769924.781    99738129.063       -2636.025          48.000  
E24  25676433.641   134930730.278        -373.199          37.000    25676444.592   103388597.878        -286.126          46.000  
E25  25380667.488   133376467.545        1628.464          45.000    25380678.609   102197663.847        1247.854          50.000  
> 2024 04 16 16 50 00.4980000  0 25                     
G03  23480012.688   123388084.621       -3984.051          44.000    23480027.080    96146518.547       -3104.382          38.000  
G04  22812774.591   119881835.810       -3143.273          36.000    22812782.229    93414481.145       -2449.409          41.000  
G06  21006267.932   110388692.527       -2755.660          49.000    21006273.280    86017189.147       -2147.297          45.000  
G07  19192941.869   100859742.656        -192.523          50.000    19192940.481    78592078.176        -150.081          45.000  
G09  20438995.345   107407647.778       -1709.362          49.000    20438996.674    83694283.948       -1331.877          45.000  
R02  21463554.248   114533552.495       -2696.943          48.000    21463562.637    89081646.162       -2097.461          41.000  
R18  21828906.480   116524096.681       -4204.007          46.000    21828916.837    90629851.987       -3269.656          42.000  
R12  21718969.009   116018860.851       -3961.351          51.000    21718976.348    90236931.943       -3080.893          47.000  
R04  21395861.364   114573984.450        1510.375          45.000    21395862.768    89113082.444        1174.728          45.000  
R14  20864325.679   111218621.824        3109.277          53.000    20864334.803    86503552.699        2418.195          49.000  
G11  21871458.425   114935305.221        -315.244          46.000    21871460.082    89560133.401        -245.429          45.000  
S31  38177479.353   200623998.569        -826.514          44.000  
S33  39128574.746   205622028.915        -826.292          42.000  
G20  22523741.420   118363076.479        2300.361          41.000                                                                  
E03  23542854.591   123718612.558        -238.921          46.000    23542861.919    94797435.329        -183.044          52.000  
R03  19525803.637   104523213.514        -407.757          52.000    19525801.975    81295864.783        -317.206          48.000  
R13  19357724.820   103369432.458        -861.240          41.000    19357727.214    80398439.911        -669.939          41.000  
R19  21417693.427   114570328.475       -1870.113          41.000    21417697.020    89110227.068       -1454.655          47.000  
E05  22556427.347   118534792.992       -1918.659          49.000    22556433.347    90825374.687       -1470.064          49.000  
G16  24422004.091   128338509.473       -1856.765          33.000                                                                  
E15  24343366.951   127925278.878       -1135.206          46.000    24343374.958    98020737.952        -869.882          50.000  
G30  20865952.409   109651504.153        1706.376          48.000    20865956.961    85442846.412        1329.623          44.000  
E34  24789572.581   130270012.625       -3446.668          45.000    24789583.827    99817286.835       -2641.014          48.000  
E24  25678604.531   134942125.468        -385.951          40.000    25678612.951   103397329.356        -295.929          46.000  
E25  25371381.361   133327678.640        1624.139          44.000    25371393.965   102160280.417        1244.491          49.000  
> 2024 04 16 16 50 30.4980000  0 25                     
G03  23502774.915   123507699.600       -3990.583          44.000    23502787.979    96239724.512       -3109.572          36.000  
G04  22830715.458                       -3143.413          29.000    22830726.075    93487961.634       -2449.648          39.000  
G06  21022043.137   110471593.151       -2771.213          48.000    21022048.612    86081786.908       -2159.338          46.000  
G07  19194096.576   100865811.030        -212.227          49.000    19194094.278    78596806.827        -165.447          44.000  
G09  20448765.469   107458990.063       -1713.544          47.000    20448767.893    83734290.881       -1335.435          47.000  
R02  21478731.214   114614537.664       -2702.267          47.000    21478739.132    89144634.432       -2101.678          35.000  
R18  21852557.164   116650348.710       -4212.914          43.000    21852569.355    90728047.587       -3276.770          43.000  
R12  21741261.848   116137945.781       -3977.989          52.000    21741267.611    90329553.485       -3094.140          44.000  
R04  21387395.052   114528657.919        1510.844          44.000    21387398.058    89077828.619        1175.285          46.000  
R14  20846854.962   111125500.681        3098.641          52.000    20846864.246    86431125.460        2410.066          48.000  
G11  21873308.979   114945033.368        -333.644          45.000    21873312.136    89567713.803        -260.095          46.000  
S31  38182195.225   200648784.426        -826.174          43.000  
S33  39133289.914   205646806.372        -825.776          42.000  
G20  22510620.395   118294121.755        2295.861          41.000                                                                  
E03  23544223.787   123725799.894        -240.731          48.000    23544229.703    94802942.504        -184.399          52.000  
R03  19528105.844   104535533.025        -413.689          53.000    19528103.356    81305446.601        -321.733          48.000  
R13  19362637.738   103395673.390        -888.360          39.000    19362641.054    80418849.572        -690.538          40.000  
R19  21428246.240   114626778.931       -1893.277          41.000    21428250.244    89154132.944       -1472.665          47.000  
E05  22567381.309   118592357.585       -1919.374          48.000    22567387.472    90869482.577       -1470.655          49.000  
G16  24432645.258   128394417.342       -1870.903          31.000                                                                  
E15  24349886.470   127959543.163       -1149.349          45.000    24349895.194    98046992.346        -880.623          50.000  
G30  20856247.870   109600505.330        1693.455          48.000    20856252.700    85403107.187        1319.640          45.000  
E34  24809266.040   130373501.502       -3452.870          45.000    24809277.216    99896583.309       -2645.634          48.000  
E24  25680844.773   134953894.257        -398.641          40.000    25680852.543   103406347.035        -305.425          46.000  
E25  25362121.582   133279017.716        1619.651          44.000    25362133.543   102122995.020        1241.084          48.000  
> 2024 04 16 16 51 00.4980000  0 25                     
G03  23525572.216   123627497.952       -3996.126          44.000    23525586.755    96333073.365       -3113.539          37.000  
G06  21037906.487   110554952.736       -2786.080          49.000    21037911.269    86146742.307       -2171.085          46.000  
G07  19195362.555   100872464.187        -231.213          49.000    19195360.417    78601991.109        -180.257          45.000  
G09  20458559.007   107510455.541       -1717.240          47.000    20458561.497    83774393.807       -1338.096          47.000  
R02  21493938.120   114695680.667       -2707.174          47.000    21493944.848    89207745.470       -2105.722          36.000  
R18  21876257.303   116776861.141       -4221.133          40.000    21876269.535    90826445.699       -3282.923          42.000  
R12  21763648.144   116257527.673       -3993.929          52.000    21763654.335    90422561.523       -3106.420          48.000  
R04  21378926.992   114483308.495        1512.280          45.000    21378929.363    89042557.019        1176.201          47.000  
R14  20829444.480   111032694.465        3088.524          52.000    20829454.208    86358943.183        2402.162          49.000  
G11  21875266.154   114955315.290        -351.568          46.000    21875267.830    89575725.670        -274.217          45.000  
S31  38186907.696   200673548.069        -824.714          44.000  
S33  39138000.143   205671561.311        -824.456          41.000  
G20  22497526.471   118225315.102        2291.357          42.000                                                                  
E03  23545600.532   123733034.869        -241.777          47.000    23545606.659    94808486.222        -185.259          52.000  
R03  19530439.532   104548025.810        -419.054          53.000    19530437.876    81315163.256        -325.978          49.000  
R13  19367700.883   103422710.272        -914.252          40.000    19367703.857    80439878.277        -710.964          40.000  
R19  21438926.602   114683918.762       -1915.741          40.000    21438931.317    89198574.961       -1490.295          45.000  
E05  22578338.463   118649937.528       -1919.403          48.000    22578344.367    90913602.205       -1470.542          49.000  
G16  24443364.652   128450749.367       -1884.937          32.000                                                                  
E15  24356486.766   127994226.925       -1162.887          45.000    24356495.328    98073568.197        -890.967          50.000  
G30  20846616.272   109549888.517        1681.071          48.000    20846620.240    85363665.651        1309.886          45.000  
E34  24828992.776   130477168.461       -3458.284          45.000    24829004.439    99976016.224       -2649.849          48.000  
E24  25683154.922   134966036.486        -410.674          41.000    25683162.682   103415650.899        -314.635          45.000  
E25  25352885.573   133230485.906        1615.929          44.000    25352898.452   102085808.544        1238.103          49.000  
G04                                                                  22848669.925    93561444.850       -2449.195          39.000  
> 2024 04 16 16 51 30.4980000  0 25                     
G03  23548404.505   123747477.698       -4002.495          44.000    23548419.704    96426563.530       -3118.737          39.000  
G04  22866606.139   120164815.0001      -3143.762          29.000    22866616.642    93634930.236       -2449.721          38.000  
G06  21053855.346   110638767.952       -2801.614          47.000    21053861.702    86212052.725       -2183.021          46.000  
G07  19196739.450   100879701.572        -251.179          49.000    19196738.445    78607630.677        -195.744          45.000  
G09  20468376.186   107562043.299       -1721.817          48.000    20468378.070    83814592.012       -1341.854          46.000  
R02  21509173.491   114776981.889       -2712.860          45.000    21509183.644    89270979.460       -2110.370          36.000  
R18  21900005.370   116903628.618       -4229.904          42.000    21900017.090    90925042.203       -3290.033          40.000  
R12  21786126.428   116377602.103       -4010.699          51.000    21786132.371    90515952.687       -3119.429          47.000  
R04  21370455.228   114437935.974        1512.642          48.000    21370456.960    89007267.431        1176.604          46.000  
R14  20812093.541   110940206.356        3077.547          52.000    20812103.583    86287008.311        2393.591          49.000  
G11  21877327.829   114966150.389        -370.279          46.000    21877330.619    89584168.643        -288.689          46.000  
S31  38191615.467   200698287.983        -824.295          44.000  
S33  39142706.271   205696294.207        -823.970          42.000  
G20  22484460.836   118156658.093        2286.071          42.000                                                                  
E03  23546986.033   123740316.586        -243.563          48.000    23546991.505    94814065.737        -186.664          51.000  
R03  19532805.150   104560693.093        -425.283          53.000    19532804.619    81325015.571        -330.776          50.000  
R13  19372913.701   103450542.166        -941.224          40.000    19372916.368    80461525.323        -732.001          41.000  
R19  21449737.522   114741745.123       -1938.786          40.000    21449741.961    89243550.964       -1508.162          46.000  
E05  22589298.038   118707532.148       -1920.136          49.000    22589304.178    90957733.137       -1471.373          49.000  
G16  24454166.425   128507504.957       -1898.909          34.000                                                                  
E15  24363166.863   128029329.092       -1176.912          46.000    24363174.869    98100464.658        -901.929          50.000  
G30  20837057.290   109499654.511        1667.919          49.000    20837059.807    85324522.403        1299.738          43.000  
E34  24848754.699   130581010.821       -3464.513          45.000    24848764.947   100055583.537       -2654.516          48.000  
E24  25685536.077   134978552.227        -423.449          40.000    25685544.157   103425240.992        -324.430          46.000  
E25  25343675.062   133182084.575        1611.215          45.000    25343687.952   102048722.042        1234.529          49.000  
> 2024 04 16 16 52 00.4980000  0 25                     
G03  23571269.463   123867634.424       -4008.024          43.000    23571285.774    96520191.614       -3122.900          40.000  
G04  22884556.893   120259121.189       -3143.182          34.000    22884563.844    93708415.468       -2449.372          38.000  
G06  21069890.989   110723033.084       -2816.043          47.000    21069896.233    86277713.743       -2194.427          45.000  
G07  19198226.982   100887520.377        -270.216          48.000    19198227.068    78613723.302        -210.544          46.000  
G09  20478216.315   107613750.116       -1725.434          48.000    20478217.777    83854882.992       -1344.308          47.000  
R02  21524438.496   114858438.826       -2717.627          45.000    21524448.439    89334334.802       -2113.635          34.000  
R18  21923799.855   117030643.304       -4237.755          39.000    21923812.668    91023830.952       -3296.060          41.000  
R12  21808696.248   116498162.037       -4026.577          52.000    21808702.039    90609721.403       -3131.726          48.000  
R04  21361977.096   114392537.816        1513.904          46.000    21361978.603    88971957.866        1177.557          46.000  
R14  20794803.142   110848037.349        3067.161          52.000    20794813.369    86215321.646        2385.548          50.000  
G11  21879494.436   114977535.832        -388.595          45.000    21879496.795    89593040.403        -302.625          46.000  
S31  38196318.482   200723002.553        -823.167          44.000  
S33  39147407.982   205720999.808        -822.791          43.000  
G20  22471423.344   118088150.109        2281.492          41.000                                                                  
E03  23548379.644   123747641.643        -244.702          47.000    23548385.175    94819678.464        -187.462          51.000  
R03  19535203.455   104573533.048        -430.642          52.000    19535203.075    81335002.211        -334.863          51.000  
R13  19378273.692   103479165.992        -967.010          41.000    19378276.465    80483788.325        -752.201          41.000  
R19  21460674.893   114800251.838       -1961.077          41.000    21460679.040    89289056.145       -1525.645          45.000  
E05  22600260.990   118765138.412       -1920.094          49.000    22600266.473    91001872.924       -1471.167          49.000  
G16  24465047.934                       -1912.856          28.000                                                                  
E15  24369925.691   128064846.273       -1190.512          46.000    24369933.356    98127679.105        -912.208          50.000  
G30  20827569.415   109449801.690        1655.758          48.000    20827572.964    85285676.182        1290.305          43.000  
E34  24868548.015   130685023.420       -3469.523          45.000    24868558.516   100135281.301       -2658.462          48.000  
E24  25687987.121   134991439.059        -435.534          39.000    25687996.413   103435115.408        -333.825          46.000  
E25  25334489.842   133133812.826        1607.197          45.000    25334502.099   102011734.824        1231.463          49.000  
> 2024 04 16 16 52 30.4980000  0 25                     
G03  23594165.859   123987956.107       -4013.093          43.000    23594183.550    96613948.215       -3127.289          41.000  
G04  22902500.628   120353416.293       -3142.771          34.000    22902507.502    93781891.985       -2448.841          37.000  
G06  21086008.620   110807734.775       -2830.319          47.000    21086014.223    86343714.953       -2205.481          45.000  
G07  19199822.851   100895909.240        -288.999          48.000    19199823.775    78620260.103        -225.064          46.000  
G09  20488075.829   107665565.081       -1728.758          47.000    20488078.000    83895258.261       -1347.003          47.000  
R02  21539732.738   114940041.225       -2722.197          47.000    21539736.484    89397803.202       -2117.123          37.000  
R18  21947636.552   117157889.450       -4244.975          40.000    21947650.626    91122799.808       -3301.534          39.000  
R12  21831353.382   116619192.841       -4041.942          51.000    21831360.234    90703856.398       -3143.657          49.000  
R04  21353492.577   114347103.731        1515.300          47.000    21353494.173    88936620.381        1178.667          46.000  
R14  20777570.712   110756181.145        3056.851          51.000    20777581.491    86143878.225        2377.622          50.000  
G11  21881763.333   114989460.932        -406.198          46.000    21881766.465    89602332.712        -316.473          46.000  
S31  38201014.447   200747679.562        -821.669          43.000  
S33  39152102.804   205745669.612        -821.424          43.000  
G20  22458413.549   118019782.330        2277.069          41.000                                                                  
E03  23549779.658   123754999.079        -245.499          47.000    23549785.335    94825315.986        -188.208          51.000  
R03  19537633.064   104586535.705        -435.910          53.000    19537632.331    81345115.406        -339.059          50.000  
R13  19383780.832   103508570.660        -992.876          41.000    19383782.794    80506658.649        -772.216          41.000  
R19  21471737.231   114859426.122       -1983.215          41.000    21471740.998    89335080.494       -1542.522          46.000  
E05  22611222.549   118822745.591       -1919.953          49.000    22611228.905    91046013.439       -1471.198          49.000  
G16  24476004.060   128622243.8951      -1924.852          30.000                                                                  
E15  24376760.923   128100767.271       -1203.898          45.000    24376769.372    98155202.981        -922.415          51.000  
G30  20818153.814   109400320.839        1643.309          48.000    20818157.168    85247119.781        1280.656          44.000  
E34  24888370.941   130789193.548       -3474.757          46.000    24888381.388   100215099.791       -2662.372          48.000  
E24  25690507.110   135004687.003        -447.339          39.000    25690517.776   103445266.522        -342.699          47.000  
E25  25325327.338   133085662.047        1603.086          45.000    25325338.557   101974840.264        1228.447          48.000  
> 2024 04 16 16 53 00.4980000  0 25                     
G03  23617092.336   124108434.437       -4018.576          43.000    23617109.955    96707826.907       -3131.410          41.000  
G04  22920438.750   120447693.317       -3142.334          36.000    22920449.575    93855354.443       -2448.578          38.000  
G06  21102209.229   110892863.364       -2844.476          47.000    21102213.699    86410048.755       -2216.474          44.000  
G07  19201525.947   100904860.991        -307.767          48.000    19201526.698    78627235.518        -239.813          46.000  
G09  20497955.171   107717481.122       -1732.146          48.000    20497957.356    83935712.271       -1349.788          47.000  
R02  21555050.515   115021782.633       -2726.918          45.000    21555058.196    89461379.662       -2120.848          40.000  
R18  21971516.427   117285355.595       -4252.440          41.000    21971529.670    91221939.593       -3307.485          42.000  
R12  21854097.071   116740683.587       -4057.334          50.000    21854103.025    90798349.112       -3155.632          49.000  
R04  21344997.799   114301627.331        1516.566          45.000    21345000.727    88901249.986        1179.684          45.000  
R14  20760395.970   110664635.312        3046.360          50.000    20760407.281    86072676.232        2369.360          49.000  
G11  21884134.635   115001918.896        -424.064          46.000    21884136.936    89612040.174        -330.509          46.000  
S31  38205701.927   200772314.091        -820.552          44.000  
S33  39156788.523   205770295.402        -820.094          42.000  
G20  22445428.172   117951550.922        2272.057          41.000                                                                  
E03  23551184.911   123762381.644        -246.566          47.000    23551190.430    94830972.762        -188.865          51.000  
R03  19540090.371   104599695.135        -441.230          52.000    19540089.876    81355350.525        -343.153          51.000  
R13  19389431.519   103538748.681       -1018.869          39.000    19389434.851    80530130.441        -792.185          42.000  
R19  21482922.468   114919258.303       -2005.446          43.000    21482927.006    89381616.505       -1559.623          47.000  
E05  22622182.745   118880346.689       -1919.897          48.000    22622189.739    91090149.297       -1471.012          48.000  
G16  24487036.854                       -1939.645          29.000                                                                  
E15  24383672.824   128137084.653       -1217.106          47.000    24383680.572    98183030.560        -932.607          51.000  
G30  20808806.953   109351206.302        1631.088          47.000    20808811.148    85208848.835        1270.839          44.000  
E34  24908222.452   130893512.175       -3479.722          46.000    24908233.140   100295032.033       -2666.307          48.000  
E24  25693097.998   135018289.725        -459.458          42.000    25693106.239   103455689.461        -351.937          47.000  
E25  25316185.760   133037627.243        1599.126          44.000    25316198.145   101938034.607        1225.330          49.000  
> 2024 04 16 16 53 30.4980000  0 26                     
G03  23640054.498   124229099.473       -4025.433          43.000    23640072.032    96801851.068       -3136.717          41.000  
G04  22938384.560   120541983.559       -3143.075          34.000    22938394.010    93928827.216       -2449.581          39.000  
G06  21118495.188   110978447.641       -2860.643          47.000    21118500.069    86476737.652       -2228.975          44.000  
G07  19203342.971   100914406.760        -328.286          48.000    19203342.524    78634673.760        -255.862          45.000  
G09  20507860.127   107769529.479       -1737.343          48.000    20507861.925    83976269.411       -1353.896          47.000  
R02  21570401.065   115103695.662       -2733.558          44.000    21570409.402    89525089.658       -2126.003          39.000  
R18  21995442.850   117413068.581       -4261.460          41.000    21995453.666    91321271.526       -3314.520          41.000  
R12  21876931.797   116862662.564       -4074.247          50.000    21876937.395    90893221.501       -3168.875          48.000  
R04  21336502.836   114256141.281        1516.103          46.000    21336506.630    88865872.093        1179.106          45.000  
R14  20743287.019   110573435.107        3033.992          52.000    20743296.553    86001743.040        2359.666          49.000  
G11  21886613.046   115014941.206        -443.717          47.000    21886614.552    89622187.427        -345.710          45.000  
E08  26803720.158   140854488.0931        864.334          30.000                                                                  
S31  38210388.061   200796935.741        -820.590          44.000  
S33  39161472.480   205794909.391        -820.596          42.000  
G20  22432476.454   117883489.543        2265.883          42.000                                                                  
E03  23552600.160   123769820.473        -249.204          47.000    23552605.816    94836672.677        -190.972          51.000  
R03  19542584.431   104613045.067        -448.420          51.000    19542583.036    81365733.808        -348.785          50.000  
R13  19395233.372   103569731.967       -1046.522          39.000    19395236.881    80554228.603        -813.802          41.000  
R19  21494236.220   114979776.963       -2028.823          43.000    21494240.223    89428686.506       -1578.000          46.000  
E05  22633149.260   118937973.202       -1921.537          48.000    22633156.213    91134304.648       -1472.374          49.000  
G16  24498154.496   128738643.633       -1954.185          34.000                                                                  
E15  24390665.264   128173829.472       -1232.161          46.000    24390672.844    98211185.647        -944.116          51.000  
G30  20799536.356   109302490.982        1616.816          47.000    20799541.103    85170888.983        1259.996          44.000  
E34  24928107.138   130998008.698       -3486.299          46.000    24928118.582   100375100.584       -2671.420          49.000  
E24  25695758.345   135032279.251        -473.094          40.000    25695767.822   103466408.834        -362.433          45.000  
E25  25307073.569   132989742.036        1593.289          45.000    25307085.823   101901343.566        1220.865          49.000  
> 2024 04 16 16 54 00.4980000  0 26                     
G03  23663054.983   124349966.487       -4032.168          43.000    23663072.326    96896032.595       -3141.836          41.000  
G04  22956333.789   120636303.802       -3144.428          37.000    22956341.893    94002323.299       -2449.795          36.000  
G06  21134871.002   111064501.549       -2876.171          47.000    21134875.737    86543792.515       -2241.273          44.000  
G07  19205276.014   100924562.947        -348.628          48.000    19205275.464    78642587.695        -271.623          45.000  
G09  20517792.579   107821726.773       -1742.299          48.000    20517795.038    84016942.570       -1357.710          48.000  
R02  21585784.010   115185798.400       -2739.677          40.000    21585797.137    89588947.173       -2130.831          41.000  
R18  22019416.509   117541040.940       -4269.874          41.000    22019427.248    91420805.056       -3320.931          43.000  
R12  21899859.642   116985142.731       -4091.000          48.000    21899865.847    90988483.724       -3181.725          48.000  
R04  21328012.282   114210663.145        1515.967          49.000    21328014.212    88830500.323        1179.129          47.000  
R14  20726247.853   110482602.551        3021.653          52.000    20726256.374    85931095.814        2350.249          49.000  
G11  21889201.931   115028544.658        -462.969          47.000    21889203.665    89632787.505        -360.790          46.000  
E08  26798783.978                         863.467          30.000    26798796.679   107907648.4051        661.204          35.000  
S31  38215073.627   200821561.765        -820.599          43.000  
S33  39166157.097   205819527.092        -820.426          42.000  
G20  22419560.921   117815617.288        2259.390          42.000                                                                  
E03  23554029.832   123777332.048        -251.396          47.000    23554035.226    94842428.310        -192.566          51.000  
R03  19545117.284   104626603.705        -455.326          52.000    19545116.308    81376279.408        -354.141          50.000  
R13  19401189.251   103601537.213       -1074.022          38.000    19401192.150    80578966.041        -835.514          41.000  
R19  21505680.608   115040997.370       -2052.271          41.000    21505684.291    89476302.284       -1596.055          45.000  
E05  22644124.205   118995641.850       -1922.917          49.000    22644130.522    91178492.256       -1473.270          49.000  
G16  24509354.986   128797506.970       -1969.267          34.000                                                                  
E15  24397741.706   128211017.892       -1246.815          46.000    24397749.707    98239680.630        -955.255          51.000  
G30  20790345.810   109254192.974        1603.080          47.000    20790349.891    85133254.276        1249.169          44.000  
E34  24948030.055   131102697.769       -3492.642          47.000    24948040.435   100455316.664       -2676.148          49.000  
E24  25698499.484   135046673.053        -486.279          42.000    25698506.407   103477437.961        -372.605          44.000  
E25  25297993.313   132942025.180        1587.823          45.000    25298005.457   101864781.531        1216.767          49.000  
> 2024 04 16 16 54 30.4980000  0 26                     
G03  23686092.981   124471028.541       -4038.387          43.000    23686109.640    96990366.080       -3146.555          41.000  
G04  22974287.023   120730648.472       -3145.217          38.000    22974293.628    94075838.439       -2451.057          33.000  
G06  21151334.268   111151016.835       -2891.458          47.000    21151339.318    86611206.891       -2253.041          44.000  
G07  19207323.461   100935323.749        -368.647          48.000    19207323.698    78650972.781        -287.262          46.000  
G09  20527752.517   107874067.246       -1746.928          46.000    20527755.071    84057727.297       -1361.202          48.000  
R02  21601205.607   115268085.572       -2745.861          43.000    21601216.120    89652948.103       -2135.568          40.000  
R18  22043438.370   117669262.158       -4278.062          42.000    22043448.368    91520532.230       -3327.410          44.000  
R12  21922880.912   117108114.644       -4107.037          47.000    21922885.701    91084128.410       -3194.341          47.000  
R04  21319520.559   114165188.100        1515.950          49.000    21319522.399    88795130.978        1179.059          47.000  
R14  20709276.869   110392135.673        3009.583          53.000    20709285.144    85860733.002        2340.708          50.000  
G11  21891899.847   115042723.687        -482.012          46.000    21891901.920    89643836.068        -375.691          46.000  
E08  26793858.309   140802708.230         862.492          34.000    26793872.267   107887821.576         660.545          37.000  
S31  38219760.391   200846187.062        -820.661          44.000  
S33  39170841.565   205844144.139        -820.438          42.000  
G20  22406680.488   117747930.865        2253.167          42.000                                                                  
E03  23555470.959   123784910.536        -253.619          46.000    23555477.392    94848235.225        -194.352          51.000  
R03  19547688.714   104640366.508        -462.076          52.000    19547687.206    81386983.847        -359.477          50.000  
R13  19407298.685   103634158.172       -1100.964          38.000    19407301.199    80604337.896        -856.220          41.000  
R19  21517254.212   115102910.826       -2075.223          41.000    21517259.162    89524457.113       -1614.048          46.000  
E05  22655105.471   119053347.059       -1923.847          49.000    22655111.534    91222707.898       -1474.184          49.000  
G16  24520640.989   128856811.880       -1984.155          35.000                                                                  
E15  24404901.599   128248643.941       -1261.385          45.000    24404909.560    98268510.913        -966.406          51.000  
G30  20781233.620   109206308.019        1589.359          48.000    20781237.166    85095941.470        1238.168          44.000  
E34  24967986.557   131207571.777       -3498.610          47.000    24967997.246   100535674.446       -2680.785          49.000  
E24  25701315.181   135061466.152        -499.476          43.000    25701320.904   103488773.024        -382.682          43.000  
E25  25288944.960   132894473.166        1582.481          46.000    25288956.149   101828345.809        1212.562          49.000  
> 2024 04 16 16 55 00.4980000  0 26                     
G03  23709166.566   124592279.348       -4044.885          42.000    23709184.093    97084846.660       -3151.844          40.000  
G04  22992243.638   120825012.365       -3145.715          39.000    22992250.709    94149368.508       -2451.301          32.000  
G06  21167884.262   111237985.781       -2906.596          47.000    21167890.408    86678974.745       -2264.735          45.000  
G07  19209485.891   100946683.918        -388.728          49.000    19209484.257    78659824.918        -302.979          45.000  
G09  20537738.779   107926545.771       -1751.576          47.000    20537741.418    84098619.609       -1364.891          48.000  
R02  21616662.282   115350553.108       -2752.056          45.000    21616669.196    89717089.448       -2140.100          41.000  
R18  22067504.239   117797722.456       -4285.942          42.000    22067513.010    91620445.297       -3333.554          43.000  
R12  21945992.078   117231569.276       -4123.289          45.000    21945996.864    91180148.533       -3206.905          48.000  
R04  21311028.686   114119711.727        1515.820          49.000    21311029.861    88759760.630        1179.021          48.000  
R14  20692373.233   110302034.419        2997.217          53.000    20692382.205    85790654.559        2331.055          49.000  
G11  21894705.849   115057473.296        -501.274          45.000    21894709.074    89655329.282        -390.620          46.000  
E08  26788939.977   140776854.856         861.119          38.000    26788952.228   107868012.099         659.792          40.000  
S31  38224444.943   200870806.534        -820.594          44.000  
S33  39175524.885   205868755.574        -820.458          42.000  
G20  22393834.885   117680427.798        2246.779          42.000                                                                  
E03  23556924.573   123792550.704        -255.932          46.000    23556931.418    94854089.406        -195.959          52.000  
R03  19550296.576   104654330.289        -468.895          51.000    19550295.438    81397844.561        -364.626          50.000  
R13  19413558.816   103667589.733       -1127.920          38.000    19413561.843    80630340.269        -877.580          41.000  
R19  21528955.954   115165509.685       -2097.887          40.000    21528961.496    89573145.021       -1631.943          45.000  
E05  22666091.845   119111083.916       -1925.159          49.000    22666098.705    91266947.757       -1475.159          50.000  
G16  24532009.103   128916552.448       -1998.637          34.000                                                                  
E15  24412143.279   128286702.096       -1275.783          45.000    24412152.125    98297672.312        -977.578          51.000  
G30  20772199.721   109158832.563        1575.637          48.000    20772203.101    85058947.726        1227.676          44.000  
E34  24987977.294   131312623.702       -3504.829          46.000    24987987.910   100616168.538       -2685.345          48.000  
E24  25704203.987   135076654.157        -513.005          42.000    25704211.382   103500410.678        -393.055          43.000  
E25  25279926.297   132847083.197        1576.930          46.000    25279937.609   101792034.232        1208.216          48.000  
> 2024 04 16 16 55 30.4980000  0 26                     
G03  23732277.273   124713724.185       -4051.301          41.000    23732293.554    97179478.369       -3156.813          39.000  
G04  23010206.877   120919402.157       -3146.790          39.000    23010212.197    94222918.678       -2451.720          33.000  
G06  21184521.295   111325412.204       -2921.914          47.000    21184527.022    86747099.095       -2276.757          44.000  
G07  19211763.256   100958649.648        -409.003          49.000    19211761.068    78669148.885        -318.571          45.000  
G09  20547752.169   107979168.825       -1756.542          47.000    20547755.523    84139624.564       -1368.742          47.000  
R02  21632150.944   115433208.256       -2758.344          45.000    21632159.943    89781376.611       -2145.645          43.000  
R18  22091613.509   117926423.963       -4293.874          41.000    22091624.456    91720545.965       -3339.820          44.000  
R12  21969194.724   117355509.277       -4139.434          45.000    21969199.407    91276546.156       -3219.601          48.000  
R04  21302536.119   114074241.213        1515.565          48.000    21302538.604    88724394.812        1178.920          47.000  
R14  20675540.916   110212309.301        2984.453          52.000    20675548.381    85720868.650        2321.176          48.000  
G11  21897622.465   115072800.048        -520.671          45.000    21897625.687    89667272.183        -405.623          47.000  
E08  26784026.063   140751030.210         860.342          42.000    26784037.581   107848224.668         659.050          43.000  
S31  38229129.707   200895425.872        -820.838          43.000  
S33  39180208.745   205893367.567        -820.176          42.000  
G20  22381026.589   117613117.331        2240.394          42.000                                                                  
E03  23558392.183   123800258.817        -258.155          46.000    23558398.331    94859995.656        -197.788          52.000  
R03  19552944.422   104668502.336        -476.001          52.000    19552943.217    81408867.252        -370.272          50.000  
R13  19419972.955   103701837.931       -1155.597          39.000    19419975.625    80656977.727        -898.422          41.000  
R19  21540787.078   115228797.841       -2121.252          39.000    21540792.759    89622369.062       -1649.621          46.000  
E05  22677085.854   119168858.984       -1926.489          48.000    22677092.688    91311216.912       -1476.169          49.000  
G16  24543460.617   128976733.951       -2013.926          33.000                                                                  
E15  24419469.224   128325198.407       -1290.762          45.000    24419478.031    98327169.432        -988.895          52.000  
G30  20763244.820   109111774.466        1561.713          49.000    20763247.835    85022279.218        1216.792          44.000  
E34  25008002.733   131417858.051       -3511.080          45.000    25008013.578   100696802.388       -2690.111          48.000  
E24  25707170.164   135092244.209        -526.530          42.000    25707177.914   103512356.403        -403.411          43.000  
E25  25270941.259   132799863.839        1570.933          46.000    25270951.683   101755853.355        1203.800          48.000  
> 2024 04 16 16 56 00.4980000  0 26                     
G03  23755425.496   124835365.737       -4057.961          41.000    23755441.715    97274263.406       -3162.031          38.000  
G04  23028174.450   121013822.036       -3147.546          39.000    23028182.232                       -2452.858          26.000  
G06  21201245.529   111413297.606       -2936.968          47.000    21201249.971    86815581.096       -2288.617          44.000  
G07  19214155.655   100971224.692        -429.234          49.000    19214153.800    78678947.632        -334.388          44.000  
G09  20557794.628   108031940.560       -1761.292          47.000    20557797.883    84180745.330       -1372.514          48.000  
R02  21647676.728   115516055.950       -2764.660          46.000    21647684.722    89845813.492       -2150.331          41.000  
R18  22115769.320   118055366.128       -4301.911          41.000    22115781.438    91820833.742       -3346.003          45.000  
R12  21992487.564   117479935.443       -4155.480          44.000    21992492.401    91373321.968       -3232.161          48.000  
R04  21294046.554   114028781.944        1515.344          49.000    21294048.262    88689037.758        1178.612          46.000  
R14  20658780.751   110122968.856        2971.712          53.000    20658788.098    85651381.900        2311.261          47.000  
G11  21900649.880   115088708.170        -539.888          46.000    21900652.976    89679668.121        -420.657          47.000  
E08  26779117.969   140725238.154         859.518          44.000    26779129.329   107828462.184         658.456          45.000  
S31  38233815.894   200920050.519        -820.983          44.000  
S33  39184892.858   205917984.223        -820.556          42.000  
G20  22368255.973   117546006.036        2234.024          43.000                                                                  
E03  23559872.770   123808038.949        -260.348          46.000    23559878.658    94865957.078        -199.480          52.000  
R03  19555631.636   104682888.556        -483.035          51.000    19555631.365    81420056.543        -375.630          51.000  
R13  19426540.064   103736906.542       -1182.606          40.000    19426543.025    80684253.352        -919.793          42.000  
R19  21552748.265   115292777.271       -2143.982          41.000    21552752.556    89672130.747       -1667.673          45.000  
E05  22688088.210   119226676.658       -1927.767          48.000    22688094.934    91355518.702       -1477.164          49.000  
G16  24554997.265   129037360.874       -2028.593          33.000                                                                  
E15  24426879.486   128364136.660       -1305.188          46.000    24426887.676    98357005.184       -1000.103          51.000  
G30  20754370.541   109065139.356        1547.554          48.000    20754373.212    84985940.292        1206.133          44.000  
E34  25028064.398   131523276.988       -3516.924          46.000    25028074.562   100777577.726       -2694.828          48.000  
E24  25710214.353   135108241.196        -540.016          42.000    25710222.178   103524613.947        -413.907          43.000  
E25  25261988.521   132752821.424        1565.319          45.000    25261999.930   101719808.108        1199.346          48.000  
> 2024 04 16 16 56 30.4980000  0 26                     
G03  23778609.386   124957195.368       -4063.827          43.000    23778625.102    97369194.966       -3166.816          38.000  
G04  23046145.328   121108264.785       -3148.117          38.000    23046159.342                1      -2452.694          30.000  
G06  21218055.248   111501631.930       -2951.718          47.000    21218059.869    86884412.880       -2300.012          45.000  
G07  19216662.920   100984401.418        -449.042          49.000    19216661.683    78689215.238        -349.839          45.000  
G09  20567863.427   108084853.567       -1765.991          46.000    20567866.687    84221976.214       -1376.102          48.000  
R02  21663235.865   115599089.456       -2770.679          46.000    21663245.703    89910394.960       -2155.152          42.000  
R18  22139968.391   118184536.701       -4309.140          40.000    22139979.118    91921299.326       -3351.671          44.000  
R12  22015868.961   117604836.168       -4170.916          46.000    22015875.498    91470466.815       -3244.133          49.000  
R04  21285557.528   113983327.173        1515.329          47.000    21285559.518    88653684.224        1178.502          46.000  
R14  20642091.872   110034010.118        2959.007          52.000    20642100.065    85582192.009        2301.531          49.000  
G11  21903786.453   115105190.223        -558.794          46.000    21903788.773    89692511.288        -435.398          46.000  
E08  26774214.593   140699471.062         858.903          43.000    26774225.587   107808718.851         657.753          45.000  
S31  38238501.242   200944672.778        -820.674          43.000  
S33  39189576.911   205942599.371        -820.203          42.000  
G20  22355522.685   117479088.843        2227.492          43.000                                                                  
E03  23561365.284   123815883.570        -262.383          46.000    23561371.492    94871967.924        -201.059          52.000  
R03  19558358.567   104697483.262        -489.813          52.000    19558357.847    81431407.981        -381.050          50.000  
R13  19433259.148   103772787.963       -1209.329          39.000    19433262.079    80712161.121        -940.426          42.000  
R19  21564836.525   115357437.714       -2166.361          41.000    21564839.904    89722422.126       -1685.124          45.000  
E05  22699097.197   119284529.632       -1928.760          48.000    22699103.787    91399847.558       -1477.916          49.000  
G16  24566618.294   129098424.613       -2042.721          34.000                                                                  
E15  24434371.703   128403509.010       -1319.439          45.000    24434379.719    98387173.566       -1011.066          51.000  
G30  20745575.380   109018921.294        1533.934          49.000    20745578.376    84949926.343        1195.150          44.000  
E34  25048157.506   131628871.240       -3522.521          44.000    25048169.058   100858487.353       -2699.145          48.000  
E24  25713332.785   135124638.368        -552.981          40.000    25713343.262   103537178.054        -423.711          44.000  
E25  25253068.829   132705950.749        1559.775          45.000    25253080.006   101683894.442        1194.988          48.000  
> 2024 04 16 16 57 00.4980000  0 26                     
G03  23801827.990   125079206.702       -4070.270          42.000    23801844.113    97464268.111       -3171.371          38.000  
G04  23064119.984   121202725.347       -3149.172          38.000    23064131.362                       -2453.513          31.000  
G06  21234949.190   111590407.363       -2966.658          48.000    21234953.175    86953588.375       -2311.598          45.000  
G07  19219283.855   100998174.405        -469.282          49.000    19219282.138    78699947.437        -365.647          45.000  
G09  20577958.037   108137902.701       -1770.825          46.000    20577961.866    84263313.165       -1379.859          47.000  
R02  21678832.353   115682304.876       -2777.048          48.000    21678840.654    89975117.875       -2159.870          42.000  
R18  22164206.756   118313926.289       -4316.684          40.000    22164218.898    92021935.084       -3357.413          42.000  
R12  22039337.315   117730202.792       -4186.730          45.000    22039344.258    91567974.036       -3256.386          48.000  
R04  21277069.329   113937872.376        1514.902          48.000    21277070.835    88618330.650        1178.358          45.000  
R14  20625473.966   109945432.190        2946.060          49.000    20625483.428    85513298.351        2291.443          50.000  
G11  21907031.263   115122241.144        -578.044          46.000    21907033.951    89705797.710        -450.269          46.000  
E08  26769313.403   140673723.430         858.023          39.000    26769325.392   107788990.480         657.220          44.000  
S31  38243184.941   200969287.521        -820.597          43.000  
S33  39194259.491   205967205.405        -819.921          42.000  
G20  22342825.238   117412363.387        2220.764          44.000                                                                  
E03  23562868.303   123823787.459        -264.671          45.000    23562875.546    94878024.168        -202.721          52.000  
R03  19561122.875   104712282.219        -496.859          52.000    19561122.698    81442918.322        -386.465          51.000  
R13  19440129.961   103809476.107       -1236.369          41.000    19440132.573    80740696.375        -961.766          42.000  
R19  21577050.412   115422770.766       -2188.994          42.000    21577053.691    89773236.602       -1702.701          46.000  
E05  22710112.343   119342413.005       -1930.033          49.000    22710118.415    91444199.716       -1478.951          48.000  
G16  24578320.461   129159919.548       -2057.288          34.000                                                                  
E15  24441946.085   128443309.899       -1333.991          46.000    24441953.685    98417670.309       -1022.158          51.000  
G30  20736859.227   108973116.532        1519.774          50.000    20736862.466    84914234.463        1184.347          44.000  
E34  25068283.914   131734633.702       -3528.326          45.000    25068295.082   100939525.886       -2703.500          48.000  
E24  25716530.043   135141431.379        -566.557          42.000    25716539.041   103550045.440        -434.058          44.000  
E25  25244181.586   132659248.910        1553.832          44.000    25244192.415   101648110.112        1190.635          47.000  
> 2024 04 16 16 57 30.4980000  0 26                     
G03  23825083.308   125201413.113       -4077.194          41.000    23825099.773    97559493.310       -3176.855          39.000  
G04  23082102.579   121297218.601       -3150.255          40.000    23082114.565    94517418.2701      -2455.020          33.000  
G06  21251928.263   111679636.052       -2982.083          47.000    21251932.404    87023117.040       -2323.650          44.000  
G07  19222021.620   101012558.227        -489.817          50.000    19222020.226    78711155.637        -381.700          46.000  
G09  20588081.722   108191102.856       -1775.820          46.000    20588084.714    84304767.796       -1383.891          47.000  
R02  21694462.964   115765717.563       -2783.922          47.000    21694471.606    90039994.254       -2164.913          40.000  
R18  22188488.898   118443545.238       -4324.738          40.000    22188501.664    92122749.298       -3363.685          41.000  
R12  22062895.010   117856046.413       -4202.744          46.000    22062902.218    91665852.294       -3268.914          46.000  
R04  21268584.609   113892433.576        1514.250          47.000    21268585.110    88582989.531        1177.662          46.000  
R14  20608931.520   109857254.235        2932.398          51.000    20608942.028    85444715.780        2280.679          50.000  
G11  21910386.425   115139875.795        -597.620          45.000    21910389.536    89719539.004        -465.922          46.000  
E08  26764420.606   140648009.898         856.105          39.000    26764431.619   107769288.183         656.363          42.000  
S31  38247870.887   200993909.798        -821.046          45.000  
S33  39198942.761   205991820.666        -820.903          42.000  
G20  22330168.115   117345847.181        2213.539          44.000                                                                  
E03  23564387.715   123831765.236        -267.240          46.000    23564393.559    94884137.041        -204.865          52.000  
R03  19563928.771   104727302.286        -504.530          52.000    19563928.118    81454600.594        -392.353          51.000  
R13  19447155.409   103846985.594       -1264.096          41.000    19447157.207    80769870.422        -983.349          43.000  
R19  21589391.371   115488789.560       -2212.071          40.000    21589396.040    89824584.422       -1720.731          47.000  
E05  22721135.807   119400341.727       -1931.885          49.000    22721142.107    91488586.615       -1480.205          49.000  
G16  24590107.555   129221859.904       -2072.511          33.000                                                                  
E15  24449602.855   128483553.682       -1348.883          45.000    24449611.885    98448506.410       -1033.775          51.000  
G30  20728223.315   108927741.323        1505.178          48.000    20728227.319    84878877.307        1172.808          44.000  
E34  25088444.568   131840577.279       -3534.785          46.000    25088455.740   101020703.155       -2708.303          48.000  
E24  25719802.654   135158635.716        -580.765          42.000    25719812.881   103563228.075        -444.799          45.000  
E25  25235331.610   132612732.878        1547.253          47.000    25235340.653   101612468.154        1185.590          48.000  
> 2024 04 16 16 58 00.4980000  0 26                     
G03  23848375.353   125323815.608       -4082.757          41.000    23848392.732    97654871.231       -3181.766          40.000  
G04  23100090.738   121391746.830       -3151.062          41.000    23100099.503                3      -2455.167          25.000  
G06  21268994.523   111769317.392       -2996.628          47.000    21268998.499    87092998.456       -2334.927          45.000  
G07  19224874.829   101027554.528        -509.743          49.000    19224873.900    78722841.120        -397.201          46.000  
G09  20598235.040   108244456.166       -1780.632          46.000    20598237.909    84346341.766       -1387.607          47.000  
R02  21710131.594   115849330.502       -2790.132          46.000    21710142.202    90105026.404       -2170.223          42.000  
R18  22212813.096   118573391.045       -4331.770          40.000    22212826.738    92223739.949       -3369.191          41.000  
R12  22086542.905   117982365.165       -4218.144          48.000    22086549.195    91764100.085       -3280.922          46.000  
R04  21260103.526   113847013.947        1513.940          49.000    21260103.464    88547663.315        1177.588          46.000  
R14  20592466.270   109769483.303        2919.154          52.000    20592475.515    85376449.793        2270.445          49.000  
G11  21913854.033   115158096.198        -616.987          46.000    21913856.281    89733736.703        -480.658          45.000  
E08  26759533.114   140622332.337         855.767          39.000    26759545.996   107749613.419         655.730          43.000  
S31  38252558.698   201018542.274        -820.966          44.000  
S33  39203629.043   206016445.118        -820.794          42.000  
G20  22317551.325   117279544.952        2206.771          44.000                                                                  
E03  23565919.214   123839818.951        -269.266          45.000    23565926.116    94890308.103        -206.397          52.000  
R03  19566776.215   104742547.055        -511.648          52.000    19566776.245    81466457.606        -397.939          51.000  
R13  19454333.575   103885318.282       -1291.075          41.000    19454335.741    80799684.736       -1004.220          43.000  
R19  21601860.508   115555492.863       -2234.566          41.000    21601864.654    89876464.575       -1737.937          46.000  
E05  22732168.520   119458318.114       -1932.943          49.000    22732174.586    91533010.049       -1481.172          49.000  
G16  24601974.775   129284246.975       -2086.765          30.000                                                                  
E15  24457346.408   128524242.007       -1363.262          45.000    24457354.088    98479683.120       -1044.656          51.000  
G30  20719671.415   108882799.207        1491.051          49.000    20719675.038    84843857.566        1161.858          45.000  
E34  25108639.920   131946702.056       -3540.134          46.000    25108650.096   101102019.347       -2712.589          47.000  
E24  25723156.686   135176254.064        -593.719          43.000    25723165.822   103576727.918        -454.880          44.000  
E25  25226515.381   132566406.989        1541.445          46.000    25226525.391   101576971.871        1181.028          48.000  
> 2024 04 16 16 58 30.4980000  0 26                     
G03  23871702.465   125446393.307       -4088.556          42.000    23871719.634    97750385.659       -3185.895          40.000  
G04  23118082.226   121486290.697       -3151.489          42.000    23118087.856                3      -2454.532          23.000  
G06  21286141.788   111859429.189       -3010.608          47.000    21286146.844    87163215.287       -2345.698          44.000  
G07  19227841.444   101043143.429        -529.194          49.000    19227840.192    78734988.345        -412.291          46.000  
G09  20608413.270   108297943.157       -1784.884          47.000    20608416.206    84388019.900       -1390.765          48.000  
R02  21725835.927   115933124.981       -2796.002          48.000    21725844.733    90170199.638       -2174.503          40.000  
R18  22237175.106   118703439.238       -4338.159          38.000    22237189.149    92324888.114       -3374.021          40.000  
R12  22110275.284   118109135.836       -4232.826          49.000    22110281.161    91862699.366       -3292.267          46.000  
R04  21251621.094   113801594.497        1514.335          48.000    21251621.460    88512337.248        1177.875          47.000  
R14  20576073.988   109682103.669        2906.372          52.000    20576081.972    85308488.079        2260.523          49.000  
G11  21917429.565   115176882.830        -635.476          45.000    21917431.202    89748375.609        -495.081          46.000  
E08  26754651.297   140596671.052         855.357          42.000    26754662.312   107729951.113         655.381          45.000  
S31  38257243.650   201043165.189        -820.413          44.000  
S33  39208313.342   206041060.172        -820.066          42.000  
G20  22304970.632   117213439.374        2200.556          44.000                                                                  
E03  23567463.972   123847929.039        -270.884          46.000    23567469.439    94896522.355        -207.635          52.000  
R03  19569662.860   104757998.155        -518.159          52.000    19569663.404    81478475.166        -403.010          51.000  
R13  19461662.468   103924453.731       -1317.720          42.000    19461664.626    80830123.430       -1024.746          44.000  
R19  21614453.876   115622858.031       -2256.224          41.000    21614457.684    89928859.606       -1754.843          45.000  
E05  22743206.164   119516322.931       -1933.699          49.000    22743212.607    91577455.236       -1481.700          49.000  
G16  24613931.256                       -2100.489          30.000                                                                  
E15  24465169.616   128565354.929       -1377.088          45.000    24465177.846    98511185.166       -1055.242          51.000  
G30  20711197.994   108838272.037        1477.468          49.000    20711202.077    84809161.188        1151.469          45.000  
E34  25128865.405   132052986.666       -3545.162          46.000    25128875.734   101183457.969       -2716.397          47.000  
E24  25726584.289   135194267.626        -606.775          42.000    25726593.285   103590530.562        -464.822          44.000  
E25  25217731.011   132520253.933        1535.871          45.000    25217742.504   101541608.034        1176.774          48.000  
> 2024 04 16 16 59 00.4980000  0 25                     
G03  23895060.787   125569138.000       -4094.263          42.000    23895078.394    97846030.251       -3190.163          40.000  
G04  23136074.982   121580843.433       -3151.727          42.000    23136079.194                3      -2469.607          23.000  
G06  21303369.022   111949961.774       -3024.808          47.000    21303374.956    87233760.021       -2356.914          45.000  
G07  19230919.680   101059317.680        -548.788          50.000    19230917.512    78747591.664        -427.740          46.000  
G09  20618615.567   108351556.931       -1789.174          47.000    20618618.644    84429796.845       -1394.188          48.000  
R02  21741571.702   116017094.726       -2801.967          49.000    21741580.229    90235509.191       -2179.248          41.000  
R18  22261573.960   118833678.437       -4344.589          40.000    22261589.024    92426184.786       -3379.121          44.000  
R12  22134089.041   118236347.267       -4247.698          50.000    22134094.875    91961641.450       -3303.841          44.000  
R04  21243137.990   113756169.168        1514.281          47.000    21243138.108    88477006.600        1177.677          47.000  
R14  20559754.299   109595112.625        2893.226          52.000    20559763.484    85240828.638        2250.065          50.000  
G11  21921110.335   115196228.667        -654.154          45.000    21921112.569    89763450.290        -509.771          45.000  
E08  26749769.210   140571018.667         854.877          41.000    26749780.647   107710295.717         655.073          46.000  
S31  38261926.332   201067771.297        -819.920          44.000  
S33  39212994.099   206065659.033        -819.636          42.000  
G20  22292427.514   117147526.277        2193.815          43.000                                                                  
E03  23569016.141   123856088.436        -272.879          46.000    23569022.431    94902774.406        -209.035          53.000  
R03  19572587.194   104773650.013        -525.097          52.000    19572586.873    81490648.834        -408.460          51.000  
R13  19469140.491   103964384.186       -1344.527          42.000    19469142.379    80861180.441       -1045.483          44.000  
R19  21627168.880   115690875.551       -2278.000          39.000    21627172.805    89981762.053       -1771.873          44.000  
E05  22754249.187   119574349.395       -1934.676          49.000    22754254.882    91621917.013       -1482.387          49.000  
E15  24473072.672   128606885.028       -1391.398          44.000    24473080.999    98543006.872       -1066.092          51.000  
G30  20702801.730   108794154.220        1463.577          48.000    20702806.012    84774783.796        1140.530          45.000  
E34  25149119.755   132159422.197       -3550.501          46.000    25149130.109   101265012.235       -2720.494          48.000  
E24  25730087.237   135212670.096        -619.895          43.000    25730094.744   103604631.166        -474.956          44.000  
E25  25208980.072   132474268.954        1529.834          45.000    25208991.572   101506372.974        1172.295          48.000  
> 2024 04 16 16 59 30.4980000  0 26                     
G03  23918451.579   125692056.973       -4100.208          43.000    23918470.228    97941810.662       -3194.929          40.000  
G04  23154071.641   121675413.753       -3152.734          42.000    23154078.510                       -2456.366          26.000  
G06  21320678.473   112040921.025       -3038.940          46.000    21320683.436    87304637.238       -2368.252          43.000  
G07  19234109.678   101076085.638        -568.788          49.000    19234108.424    78760657.595        -443.159          46.000  
G09  20628843.586   108405306.187       -1793.948          47.000    20628847.004    84471679.342       -1397.911          48.000  
R02  21757343.036   116101249.086       -2808.175          47.000    21757350.988    90300962.352       -2184.201          42.000  
R18  22286010.111   118964112.725       -4351.061          38.000    22286023.669    92527633.125       -3384.086          42.000  
R12  22157988.152   118364004.609       -4262.560          51.000    22157992.988    92060930.323       -3315.512          43.000  
R04  21234655.866   113710747.360        1514.007          48.000    21234656.352    88441678.693        1177.526          47.000  
R14  20543510.336   109508523.501        2879.632          53.000    20543519.260    85173481.799        2239.761          49.000  
G11  21924899.741   115216142.207        -673.126          45.000    21924902.591    89778967.289        -524.622          45.000  
E08  26744890.530   140545383.653         854.560          42.000    26744901.913   107690653.595         654.635          45.000  
S31  38266607.603   201092370.789        -820.069          45.000  
S33  39217673.296   206090249.841        -819.377          42.000  
G20  22279922.247   117081817.097        2186.879          42.000                                                                  
E03  23570579.186   123864305.657        -274.627          45.000    23570586.174    94909070.755        -210.617          53.000  
R03  19575550.151   104789512.944        -532.137          51.000    19575549.749    81502986.667        -413.968          51.000  
R13  19476768.798   104005117.678       -1371.282          42.000    19476770.722    80892862.044       -1066.518          45.000  
R19  21640007.069   115759551.204       -2300.144          40.000    21640012.049    90035176.331       -1788.987          46.000  
E05  22765296.688   119632406.273       -1935.724          49.000    22765302.708    91666402.100       -1483.171          49.000  
G16  24638073.208   129473996.4171      -2129.400          28.000                                                                  
E15  24481056.513   128648840.341       -1405.476          44.000    24481064.717    98575154.400       -1076.989          51.000  
G30  20694486.387   108750455.771        1449.650          48.000    20694490.630    84740733.163        1129.689          45.000  
E34  25169403.926   132266015.332       -3555.587          46.000    25169414.619   101346687.230       -2724.459          48.000  
E24  25733664.829   135231470.733        -633.353          43.000    25733672.337   103619036.841        -485.241          44.000  
E25  25200263.131   132428462.828        1523.949          44.000    25200274.473   101471274.964        1167.643          48.000  
