     3.00           OBSERVATION DATA    M: Mixed            RINEX VERSION / TYPE
CONVBIN 2.4.3                           20240416 204441 UTC PGM / RUN BY / DATE 
format: u-blox UBX                                          COMMENT             
log: /home/regis/git/gnsspwv/obsdata/VERT00CHL/2024-04-16/VECOMMENT             
{self.marker}                                               MARKER NAME         
                                                            MARKER NUMBER       
GEODETIC                                                    MARKER TYPE         
{self.observer}     {self.institution}                      OBSERVER / AGENCY   
UNKNOWN             UBLOX-ZED-F9P                           REC # / TYPE / VERS 
UNKNOWN             TWIVSP6037L                             ANT # / TYPE        
  1713381.0000 -5047934.0000 -3490983.0000                  APPROX POSITION XYZ 
        0.0000        0.0000        0.0000                  ANTENNA: DELTA H/E/N
G    8 C1C L1C D1C S1C C2L L2L D2L S2L                      SYS / # / OBS TYPES 
R    8 C1C L1C D1C S1C C2C L2C D2C S2C                      SYS / # / OBS TYPES 
E    8 C1C L1C D1C S1C C7Q L7Q D7Q S7Q                      SYS / # / OBS TYPES 
S    4 C1C L1C D1C S1C                                      SYS / # / OBS TYPES 
  2024    04    16    20    30   00.0050000     GPS         TIME OF FIRST OBS   
  2024    04    16    20    44   30.0050000     GPS         TIME OF LAST OBS    
                                                            END OF HEADER       
> 2024 04 16 20 30 00.0050000  0 25                     
G13  22059163.750   115921784.6331        728.209          49.000                                                                  
G15  24206311.888   127205037.0321       1991.506          46.000    24206314.996    99120842.8471       1551.902          44.000  
G19  25283025.944   132863312.4801       2178.925          45.000                                                                  
R05  20585451.276   110041292.1871       -182.229          51.000    20585452.397    85587559.0941       -141.827          50.000  
R16  22308262.985   119166799.5611       1309.760          53.000    22308268.630    92685655.6991       1018.665          49.000  
R04  22113612.750   118417499.8201      -3920.875          51.000    22113616.662    92102478.1531      -3049.494          50.000  
R06  24519142.532                3       3226.023          26.000                                                                  
R14  23969113.731   127768923.2071      -4350.733          47.000    23969122.788    99376015.3271      -3383.990          48.000  
E08  25018996.846   131475860.0121        125.791          49.000    25019000.665   100741307.9131         96.427          52.000  
S31  40230115.937   211410616.6561       -806.344          44.000  
S33  41181240.746   216408787.2321       -806.618          42.000  
G20  24454334.751   128508290.0801      -3854.019          43.000                                                                  
E03  25902530.978   136118745.4471      -2200.041          46.000    25902539.548   104298824.7641      -1685.708          54.000  
R15  20967711.842   112045483.0701      -2118.033          51.000    20967713.433    87146347.9231      -1647.270          48.000  
E07  28301131.610   148723433.8511       1659.078          31.000    28301140.054   113956979.2181       1270.723          34.000  
G05  23166034.737   121738274.0421      -2216.206          49.000    23166038.010    94861045.9891      -1726.987          42.000  
G30  23761274.307   124866519.9281      -2932.134          43.000    23761280.205    97298701.1721      -2284.715          44.000  
E30  26687163.961   140242309.1771       1539.300          45.000    26687176.303   107458622.2251       1179.390          48.000  
G14  22118804.678   116235332.3901      -2447.253          46.000    22118807.085    90573150.4471      -1907.007          50.000  
E02  24702572.075   129813137.2811       -887.499          48.000    24702577.181    99467392.3191       -680.047          52.000  
G22  21626078.826   113646156.0191       -286.725          47.000                                                                  
G17  24640913.272   129489069.2931       1903.245          46.000    24640922.648   100900735.5731       1483.025          43.000  
E25  27298958.485   143457214.5121      -3153.672          44.000    27298967.082   109921887.2111      -2416.498          48.000  
E18  22337854.628   117386348.2541       2077.029          43.000                                                                  
G07                                                                  26472850.602                3      -2900.280          21.000  
> 2024 04 16 20 30 30.0050000  0 24                     
G13  22055031.916   115900074.613         719.349          49.000                                                                  
G15  24194956.547   127145365.567        1986.760          46.000    24194960.024    99074345.703        1548.163          44.000  
G19  25270588.775   132797957.473        2178.461          44.000                                                                  
R05  20586541.495   110047120.962        -206.156          51.000    20586542.787    85592092.588        -160.415          49.000  
R16  22300950.689   119127743.833        1294.141          52.000    22300956.663    92655279.225        1006.726          48.000  
R04  22135628.681   118535386.363       -3938.087          52.000    22135631.976    92194167.488       -3062.953          51.000  
R06  24501004.705                3       3222.306          26.000                                                                  
R14  23993602.251   127899456.530       -4351.272          46.000    23993609.813    99477541.155       -3384.304          49.000  
E08  25018300.620   131472200.450         118.376          49.000    25018304.224   100738503.867          90.623          52.000  
S31  40234718.966   211434804.692        -806.242          44.000  
S33  41185845.911   216432986.037        -806.588          42.000  
G20  24476350.995   128623989.461       -3858.817          42.000                                                                  
E03  25915113.969   136184872.798       -2208.420          45.000    25915123.114   104349493.707       -1692.167          53.000  
R15  20979644.871   112109248.589       -2132.849          52.000    20979646.102    87195943.306       -1658.917          48.000  
G05  23178734.753   121805014.254       -2233.016          48.000    23178738.911    94913051.216       -1740.196          43.000  
G30  23778023.234   124954532.306       -2935.200          43.000    23778027.114    97367282.154       -2287.242          41.000  
E30  26678399.602   140196256.603        1531.098          45.000    26678412.524   107423335.424        1173.188          48.000  
G14  22132821.508   116308989.851       -2462.983          46.000    22132823.409    90630545.859       -1919.160          49.000  
E02  24707674.010   129839948.150        -899.806          48.000    24707679.016    99487935.756        -689.481          52.000  
G22  21627771.981   113655051.501        -306.083          48.000                                                                  
G17  24630068.143   129432076.967        1896.292          46.000    24630077.193   100856326.369        1477.361          43.000  
E25  27316978.357   143551911.886       -3159.233          44.000    27316987.848   109994447.476       -2420.703          48.000  
E18  22326056.813   117324355.851        2055.776          42.000                                                                  
E07                                                                  28291669.594   113918850.316        1271.271          33.000  
> 2024 04 16 20 31 00.0050000  0 24                     
G13  22050954.177   115878642.606         709.777          49.000                                                                  
G15  24183629.903   127085843.336        1981.650          45.000    24183632.984    99027964.853        1544.181          44.000  
G19  25258156.245   132732629.031        2177.002          43.000                                                                  
R05  20587767.716   110053676.421        -230.562          51.000    20587769.705    85597191.291        -179.249          50.000  
R16  22293727.851   119089159.636        1278.388          52.000    22293733.988    92625269.487         994.226          50.000  
R04  22157741.255   118653797.585       -3955.671          52.000    22157744.619    92286264.889       -3076.631          51.000  
R06  24482905.120                1       3216.437          28.000                                                                  
R14  24018092.824   128030007.344       -4351.912          48.000    24018101.311    99579080.499       -3384.951          50.000  
E08  25017648.145   131468770.469         110.632          49.000    25017651.420   100735875.699          84.732          52.000  
S31  40239323.237   211458999.699        -806.647          44.000  
S33  41190451.869   216457190.322        -806.719          42.000  
G20  24498396.638   128739837.092       -3863.841          44.000                                                                  
E03  25927747.219   136251259.074       -2217.204          45.000    25927755.849   104400361.046       -1698.920          53.000  
R15  20991662.112   112173466.024       -2147.980          51.000    20991663.658    87245890.191       -1670.802          49.000  
G05  23191531.842   121872262.818       -2249.975          47.000    23191534.930    94965452.539       -1753.552          43.000  
G30  23794788.908   125042635.109       -2938.303          44.000    23794793.721    97435933.629       -2289.455          43.000  
E30  26669682.305   140150451.401        1522.748          45.000    26669695.735   107388238.201        1166.726          49.000  
G14  22146928.323   116383121.092       -2478.908          45.000    22146929.928    90688310.440       -1931.562          49.000  
E02  24712847.214   129867134.784        -912.343          48.000    24712852.795    99508767.107        -699.130          52.000  
G22  21629576.586   113664531.802        -325.641          48.000                                                                  
G17  24619264.370   129375302.785        1888.829          47.000    24619272.134   100812087.113        1471.918          43.000  
E25  27335032.046   143646779.325       -3165.000          45.000    27335040.255   110067138.039       -2425.140          48.000  
E18  22314385.448   117263019.698        2033.594          42.000                                                                  
E07                                                                  28282203.232   113880727.590        1270.535          35.000  
> 2024 04 16 20 31 30.0050000  0 24                     
G13  22046930.365   115857497.864         699.999          49.000                                                                  
G15  24172333.085   127026479.466        1976.271          45.000    24172335.849    98981707.371        1539.998          43.000  
G19  25245730.920   132667337.233        2175.897          43.000                                                                  
R05  20589132.490   110060967.983        -255.194          52.000    20589134.109    85602862.492        -198.458          50.000  
R16  22286593.763   119051054.298        1262.262          52.000    22286600.117    92595632.219         981.818          49.000  
R04  22179952.450   118772738.484       -3973.451          51.000    22179955.957    92378774.240       -3090.443          51.000  
R06  24464837.854                        3210.616          27.000                                                                  
R14  24042589.605   128160580.569       -4352.661          48.000    24042596.924    99680637.310       -3385.445          49.000  
E08  25017040.085   131465578.709         102.498          49.000    25017044.380   100733430.084          78.523          52.000  
S31  40243929.769   211483207.644        -807.101          44.000  
S33  41195060.433   216481408.252        -807.726          43.000  
G20  24520470.462   128855836.969       -3869.115          42.000                                                                  
E03  25940431.380   136317911.702       -2226.231          46.000    25940439.905   104451432.458       -1705.715          53.000  
R15  21003764.784   112238140.437       -2163.351          52.000    21003766.330    87296192.457       -1682.635          48.000  
G05  23204427.737   121940025.261       -2267.272          49.000    23204430.006    95018254.273       -1766.718          44.000  
G30  23811572.527   125130835.194       -2941.563          44.000    23811577.578    97504660.857       -2292.162          43.000  
E30  26661014.985   140104901.882        1514.083          45.000    26661027.844   107353336.848        1160.111          49.000  
G14  22161126.713   116457731.223       -2494.898          46.000    22161128.091    90746448.209       -1944.012          49.000  
E02  24718093.418   129894703.789        -925.239          48.000    24718098.616    99529891.456        -708.949          52.000  
G22  21631492.688   113674604.287        -345.540          48.000                                                                  
G17  24608503.643   129318757.233        1881.090          46.000    24608511.766   100768026.047        1465.772          42.000  
E25  27353117.711   143741822.493       -3170.993          45.000    27353127.216   110139963.244       -2429.605          49.000  
E18  22302839.783   117202352.501        2011.020          42.000                                                                  
E07                                                                  28272736.546   113842617.520        1270.852          33.000  
> 2024 04 16 20 32 00.0050000  0 24                     
G13  22042961.121   115836641.437         690.839          48.000                                                                  
G15  24161066.415   126967274.535        1971.248          45.000    24161069.171    98935573.733        1536.017          44.000  
G19  25233313.058   132602084.039        2174.811          43.000                                                                  
R05  20590634.300   110068995.774        -279.464          51.000    20590635.410    85609106.340        -217.336          50.000  
R16  22279548.935   119013427.274        1246.576          51.000    22279555.944    92566366.956         969.635          49.000  
R04  22202261.433   118892205.328       -3990.662          51.000    22202265.569    92471692.650       -3103.858          50.000  
R06  24446802.573                        3205.189          26.000                                                                  
R14  24067087.912   128291172.881       -4352.945          46.000    24067096.062    99782208.944       -3385.664          49.000  
E08  25016477.916   131462625.136          94.788          48.000    25016481.970   100731166.963          72.682          52.000  
S31  40248538.710   211507427.604        -807.104          44.000  
S33  41199671.339   216505639.257        -807.455          42.000  
G20  24542574.043   128971985.075       -3873.558          44.000                                                                  
E03  25953165.170   136384829.581       -2234.748          46.000    25953173.918   104502707.106       -1712.367          53.000  
R15  21015952.173   112303267.229       -2178.043          51.000    21015953.840    87346846.644       -1694.141          48.000  
E07  28263285.818                1       1657.224          26.000    28263274.386   113804519.888        1270.382          32.000  
G05  23217419.235   122008298.212       -2283.904          49.000    23217422.135    95071453.808       -1779.716          43.000  
G30  23828375.490   125219130.772       -2944.470          46.000    23828379.785    97573462.526       -2294.284          43.000  
E30  26652396.747   140059607.716        1505.925          46.000    26652408.421   107318631.170        1153.729          49.000  
G14  22175414.783   116532816.795       -2510.389          46.000    22175416.584    90804956.432       -1956.190          49.000  
E02  24723411.897   129922653.198        -937.497          48.000    24723417.111    99551307.284        -718.505          51.000  
G22  21633521.097   113685267.625        -364.994          48.000                                                                  
G17  24597786.276   129262442.548        1873.520          45.000    24597794.244   100724144.852        1459.941          42.000  
E25  27371236.068   143837038.458       -3176.415          44.000    27371245.676   110212920.875       -2433.857          47.000  
E18  22291421.995   117142358.271        1988.923          43.000                                                                  
> 2024 04 16 20 32 30.0050000  0 24                     
G13  22039044.031   115816058.113         681.427          48.000                                                                  
G15  24149827.451   126908214.178        1966.125          44.000    24149830.141    98889552.772        1532.028          44.000  
G19  25220899.074   132536855.120        2173.871          44.000                                                                  
R05  20592270.341   110077744.848        -303.744          52.000    20592272.080    85615911.140        -236.329          50.000  
R16  22272591.533   118976261.152        1231.085          51.000    22272597.954    92537460.183         957.550          49.000  
R04  22224665.849   119012178.083       -4007.562          52.000    22224669.603    92565004.534       -3116.907          51.000  
R06  24428794.646                        3200.384          29.000                                                                  
R14  24091587.038   128421764.642       -4353.157          45.000    24091593.681    99883780.187       -3385.828          47.000  
E08  25015957.962   131459893.853          87.259          48.000    25015962.297   100729074.186          66.819          52.000  
S31  40253146.812   211531643.091        -807.113          44.000  
S33  41204281.553   216529865.773        -807.380          42.000  
G20  24564700.499   129088261.128       -3878.045          42.000                                                                  
E03  25965946.996   136451995.639       -2243.176          47.000    25965955.273   104554171.950       -1718.885          53.000  
R15  21028220.726   112368826.320       -2192.562          52.000    21028222.427    87397837.031       -1705.394          48.000  
E07  28253821.907                3       1658.587          25.000    28253814.316   113766422.458        1270.176          34.000  
G05  23230504.642   122077062.182       -2300.389          49.000    23230507.730    95125035.976       -1792.574          43.000  
G30  23845192.232   125307504.113       -2947.056          46.000    23845197.169    97642324.816       -2296.182          43.000  
E30  26643823.121   140014552.687        1497.746          47.000    26643834.634   107284108.725        1147.580          50.000  
G14  22189789.767   116608358.458       -2525.732          46.000    22189791.645    90863820.047       -1968.115          49.000  
E02  24728799.860   129950965.169        -949.923          48.000    24728804.315    99573000.906        -727.857          51.000  
G22  21635659.815   113696504.986        -384.230          47.000                                                                  
G17  24587110.661   129206345.179        1866.237          45.000    24587120.234   100680433.012        1454.144          44.000  
E25  27389385.682   143932408.348       -3181.595          46.000    27389394.517   110285996.452       -2437.861          48.000  
E18  22280131.360   117083025.146        1966.715          43.000                                                                  
> 2024 04 16 20 33 00.0050000  0 24                     
G13  22035181.896   115795762.356         671.643          49.000                                                                  
G15  24138618.594   126849313.116        1960.571          44.000    24138621.827    98843655.929        1527.630          44.000  
G19  25208493.755   132471666.909        2172.009          44.000                                                                  
R05  20594045.039   110087230.013        -328.607          52.000    20594046.524    85623288.465        -255.555          50.000  
R16  22265723.191   118939569.035        1215.033          52.000    22265729.987    92508922.058         945.038          50.000  
R04  22247167.200   119132667.195       -4024.945          52.000    22247170.489    92658718.037       -3130.463          51.000  
R06  24410818.101                        3195.639          31.000                                                                  
R14  24116086.745   128552366.191       -4353.708          43.000    24116094.798    99985359.004       -3386.119          47.000  
E08  25015483.487   131457399.071          79.029          48.000    25015487.597   100727162.586          60.638          52.000  
S31  40257755.938   211555865.590        -807.455          44.000  
S33  41208893.267   216554099.517        -807.842          43.000  
G20  24586853.125   129204675.126       -3882.955          41.000                                                                  
E03  25978776.713   136519422.897       -2252.059          46.000    25978786.564   104605836.934       -1725.651          54.000  
R15  21040571.760   112434827.949       -2207.548          51.000    21040573.808    87449171.597       -1716.895          48.000  
E07  28244378.845                        1656.730          26.000    28244354.932   113728335.860        1269.480          35.000  
G05  23243685.703   122146328.244       -2317.296          50.000    23243688.849    95179009.382       -1805.758          43.000  
G30  23862025.736   125395967.705       -2950.310          45.000    23862030.774    97711257.407       -2299.148          44.000  
E30  26635297.520   139969750.613        1489.001          47.000    26635308.858   107249780.121        1140.875          50.000  
G14  22204252.966   116684366.830       -2541.516          46.000    22204255.326    90923047.339       -1980.298          48.000  
E02  24734258.698   129979651.790        -962.650          48.000    24734263.027    99594981.589        -737.533          51.000  
G22  21637909.983   113708329.107        -404.036          47.000                                                                  
G17  24576480.615   129150481.468        1858.030          46.000    24576488.544   100636903.218        1447.887          43.000  
E25  27407564.558   144027943.538       -3187.380          45.000    27407573.665   110359198.669       -2442.245          47.000  
E18  22268969.692   117024371.264        1943.795          44.000                                                                  
> 2024 04 16 20 33 30.0050000  0 24                     
G13  22031376.149   115775760.168         661.975          49.000                                                                  
G15  24127441.239   126790576.851        1955.314          44.000    24127444.448    98797887.510        1523.603          44.000  
G19  25196097.622   132406526.078        2170.526          45.000                                                                  
R05  20595958.461   110097456.902        -353.123          52.000    20595959.340    85631242.697        -274.634          49.000  
R16  22258943.853   118903355.047        1199.438          52.000    22258950.187    92480755.769         932.959          49.000  
R04  22269764.200   119253673.834       -4041.962          52.000    22269768.370    92752834.083       -3143.701          50.000  
R06  24392872.784                        3189.503          29.000                                                                  
R14  24140590.945   128682978.866       -4353.866          44.000    24140598.144   100086946.540       -3386.130          48.000  
E08  25015054.827   131455145.662          71.247          48.000    25015058.831   100725435.947          54.628          52.000  
S31  40262367.531   211580099.942        -808.019          44.000  
S33  41213506.795   216578345.422        -807.988          43.000  
G20  24609032.547   129321227.578       -3887.238          40.000                                                                  
E03  25991658.079   136587115.099       -2260.665          46.000    25991667.902   104657704.900       -1732.204          53.000  
R15  21053005.678   112501272.814       -2222.049          51.000    21053008.487    87500850.927       -1728.224          48.000  
E07  28234895.407                1       1655.678          28.000    28234900.545   113690263.737        1268.981          36.000  
G05  23256962.350   122216097.626       -2333.786          49.000    23256965.621    95233374.962       -1818.664          43.000  
G30  23878878.092   125484524.733       -2953.354          46.000    23878883.378    97780262.785       -2301.335          43.000  
E30  26626820.959   139925206.113        1480.736          47.000    26626831.711   107215648.854        1134.526          49.000  
G14  22218806.452   116760843.403       -2556.854          47.000    22218807.618    90982639.436       -1992.316          48.000  
E02  24739788.964   130008716.024        -974.843          48.000    24739793.735    99617251.627        -746.924          51.000  
G22  21640272.565   113720743.430        -423.485          48.000                                                                  
G17  24565896.121   129094857.788        1850.355          47.000    24565903.687   100593560.463        1441.879          43.000  
E25  27425775.480   144123645.912       -3192.808          45.000    27425786.155   110432528.976       -2446.348          48.000  
E18  22257938.659   116966405.559        1920.876          45.000                                                                  
> 2024 04 16 20 34 00.0050000  0 24                     
G13  22027625.936   115756052.017         652.214          49.000                                                                  
G15  24116295.803   126732005.916        1949.714          44.000    24116298.827    98752247.885        1519.261          43.000  
G19  25183710.223   132341433.988        2169.080          45.000                                                                  
R05  20598009.901   110108425.626        -377.875          52.000    20598011.956    85639773.918        -293.836          50.000  
R16  22252253.088   118867617.614        1183.435          52.000    22252259.757    92452960.175         920.471          50.000  
R04  22292457.665   119375194.007       -4059.076          52.000    22292461.918    92847349.519       -3157.093          50.000  
R06  24374958.449                        3184.471          30.000                                                                  
R14  24165094.633   128813599.043       -4354.139          41.000    24165101.604   100188539.861       -3386.288          47.000  
E08  25014671.259   131453133.318          63.221          48.000    25014675.987   100723894.035          48.390          52.000  
S31  40266981.599   211604344.945        -808.113          44.000  
S33  41218122.761   216602601.244        -808.407          43.000  
G20  24631237.593   129437913.987       -3891.517          40.000                                                                  
E03  26004589.379   136655070.716       -2269.362          46.000    26004599.394   104709774.691       -1738.899          53.000  
R15  21065523.259   112568157.087       -2236.625          52.000    21065524.416    87552872.049       -1739.668          48.000  
E07  28225427.975                        1655.593          28.000    28225448.718   113652205.711        1268.469          36.000  
G05  23270333.891   122286366.490       -2350.575          48.000    23270337.923    95288129.745       -1831.277          44.000  
G30  23895747.548   125573173.037       -2956.375          45.000    23895752.145    97849339.321       -2303.660          43.000  
E30  26618393.126   139880918.477        1472.203          47.000    26618403.778   107181714.422        1127.982          49.000  
G14  22233448.528   116837784.302       -2572.260          47.000    22233448.901    91042593.344       -2004.419          48.000  
E02  24745390.962   130038155.526        -987.295          47.000    24745395.719    99639809.210        -756.555          50.000  
G22  21642746.653   113733746.210        -442.950          47.000                                                                  
G17  24555357.230   129039475.655        1842.281          46.000    24555364.448   100550405.898        1435.427          43.000  
E25  27444020.317   144219512.292       -3198.064          47.000    27444028.311   110505984.972       -2450.648          47.000  
E18  22247038.914   116909131.545        1897.718          44.000                                                                  
> 2024 04 16 20 34 30.0050000  0 25                     
G13  22023941.235   115736688.408         640.509          49.000                                                                  
G15  24105191.365   126673651.495        1942.353          45.000    24105194.326    98706776.990        1513.472          44.000  
G19  25171342.000   132276442.764        2165.515          45.000                                                                  
R05  20600211.030   110120188.004        -404.465          52.000    20600212.617    85648922.418        -314.652          51.000  
R16  22245661.650   118832406.418        1165.747          52.000    22245666.735    92425573.884         906.610          49.000  
R04  22315255.766   119497274.859       -4077.808          52.000    22315259.577    92942300.995       -3171.594          50.000  
R06  24357088.830                        3176.358          30.000                                                                  
R14  24189603.263   128944274.280       -4356.528          38.000    24189616.673   100290175.926       -3387.922          47.000  
G07  26663529.694                3      -3707.179          23.000                                                                  
E08  25014344.274   131451412.238          53.254          48.000    25014348.404   100722575.275          40.817          52.000  
S31  40271606.160   211628647.864        -810.154          44.000  
S33  41222749.619   216626916.254        -810.666          42.000  
G20  24653476.779   129554780.228       -3897.636          40.000                                                                  
E03  26017580.634   136723338.771       -2280.147          45.000    26017590.548   104762083.849       -1747.104          53.000  
R15  21078131.346   112635527.023       -2252.874          52.000    21078131.392    87605270.883       -1752.255          47.000  
E07  28215997.401   148276136.3891       1652.737          31.000    28216009.815   113614200.019        1266.696          37.000  
G05  23283809.382   122357182.033       -2368.682          48.000    23283814.258    95343310.537       -1845.917          44.000  
G30  23912643.658   125661961.045       -2961.116          45.000    23912648.168    97918524.682       -2307.283          44.000  
E30  26610023.211   139836937.547        1461.684          47.000    26610033.974   107148014.992        1120.034          49.000  
G14  22248187.613   116915236.220       -2589.301          46.000    22248187.945    91102945.461       -2017.749          49.000  
E02  24751074.227   130068018.455       -1001.684          48.000    24751078.360    99662691.221        -767.585          50.000  
G22  21645342.439   113747386.173        -464.516          48.000                                                                  
G17  24544874.136   128984387.710        1832.053          48.000    24544880.514   100507480.622        1427.562          43.000  
E25  27462302.166   144315589.983       -3205.372          45.000    27462312.261   110579602.855       -2456.039          48.000  
E18  22236281.957   116852603.336        1872.599          44.000                                                                  
> 2024 04 16 20 35 00.0050000  0 24                     
G13  22020315.377   115717635.270         629.894          49.000                                                                  
G15  24094121.699   126615479.338        1935.963          45.000    24094124.832    98661448.107        1508.652          44.000  
G19  25158986.538   132211518.947        2163.055          44.000                                                                  
R05  20602552.861   110132708.218        -429.971          52.000    20602554.992    85658660.336        -334.391          50.000  
R16  22239161.719   118797684.783        1149.182          53.000    22239166.451    92398568.372         893.884          48.000  
R04  22338151.708   119619876.423       -4095.307          53.000    22338154.268    93037657.498       -3185.291          50.000  
R06  24339252.339                        3169.373          29.000                                                                  
R14  24214124.302   129074964.905       -4356.525          42.000    24214134.444   100391824.119       -3388.505          48.000  
E08  25014065.040   131449947.090          44.538          47.000    25014069.676   100721452.635          34.140          52.000  
S31  40276235.090   211652973.731        -811.344          44.000  
S33  41227380.914   216651254.622        -811.522          42.000  
G20  24675744.447   129671786.639       -3902.592          42.000                                                                  
E03  26030624.266   136791882.733       -2289.495          46.000    26030634.356   104814604.437       -1754.213          54.000  
R15  21090821.174   112703343.123       -2267.931          51.000    21090822.288    87658016.708       -1763.926          48.000  
E07  28206568.475   148226568.475        1650.830          32.000    28206577.506   113576219.591        1265.504          38.000  
G05  23297382.129   122428505.239       -2386.009          48.000    23297385.628    95398886.882       -1859.022          42.000  
G30  23929558.260   125750851.772       -2964.749          44.000    23929563.247    97987790.117       -2310.281          44.000  
E30  26601705.807   139793227.678        1452.474          47.000    26601715.810   107114523.250        1112.935          48.000  
G14  22263015.359   116993160.294       -2605.316          46.000    22263016.806    91163665.512       -2030.103          49.000  
E02  24756830.175   130098267.422       -1014.725          48.000    24756834.679    99685869.026        -777.502          50.000  
G22  21648051.291   113761626.759        -484.689          47.000                                                                  
G17  24534440.562   128929560.702        1823.139          48.000    24534446.669   100464758.657        1420.655          43.000  
E25  27480617.875   144411840.676       -3211.125          45.000    27480626.882   110653353.323       -2460.571          46.000  
E18  22225659.950   116796789.536        1848.468          44.000                                                                  
> 2024 04 16 20 35 30.0050000  0 25                     
G13  22016747.857   115698888.033         620.087          50.000                                                                  
G15  24083085.936   126557485.073        1930.433          43.000    24083089.149    98616257.853        1504.120          45.000  
G19  25146643.065   132146659.370        2161.336          43.000                                                                  
R05  20605035.578   110145981.852        -454.679          51.000    20605037.612    85668984.264        -353.699          50.000  
R16  22232752.606   118763446.341        1133.521          52.000    22232756.971    92371938.699         881.665          49.000  
R04  22361142.573   119742989.705       -4111.951          52.000    22361145.244    93133412.028       -3198.108          50.000  
R06  24321454.840                        3163.517          31.000                                                                  
R14  24238643.127   129205662.517       -4356.293          39.000    24238653.098   100493477.589       -3388.292          48.000  
E08  25013833.733   131448732.875          36.438          47.000    25013839.029   100720522.257          28.013          52.000  
S31  40280867.313   211677315.580        -811.605          43.000  
S33  41232015.230   216675608.197        -811.816          42.000  
G20  24698034.721   129788923.949       -3906.568          41.000                                                                  
E03  26043719.337   136860696.497       -2297.985          46.000    26043729.360   104867331.776       -1760.780          54.000  
R15  21103593.818   112771595.528       -2282.061          52.000    21103595.016    87711101.920       -1774.984          48.000  
E07  28197140.399   148177028.316        1651.081          32.000    28197149.947   113538260.372        1265.038          39.000  
G05  23311048.629   122500328.113       -2402.069          48.000    23311052.942    95454852.636       -1871.885          42.000  
G30  23946491.615   125839838.447       -2967.566          43.000    23946497.042    98057130.288       -2312.532          43.000  
E30  26593438.460   139749783.437        1444.016          47.000    26593448.686   107081235.049        1106.436          49.000  
G14  22277931.930   117071548.009       -2620.367          47.000    22277933.048    91224746.843       -2041.913          49.000  
E02  24762658.186   130128895.392       -1026.993          47.000    24762663.141    99709337.239        -786.885          50.000  
G22  21650873.826   113776461.365        -504.176          46.000                                                                  
G17  24524056.299   128874991.147        1814.791          48.000    24524062.528   100422237.268        1414.325          44.000  
E25  27498965.226   144508256.627       -3216.422          45.000    27498975.253   110727230.379       -2464.378          48.000  
E18  22215173.925   116741688.897        1825.011          44.000                                                                  
G24                                                                  26219183.157                3       1032.112          25.000  
> 2024 04 16 20 36 00.0050000  0 25                     
G13  22013238.155   115680444.469         609.398          49.000                                                                  
G15  24072083.829   126499666.972        1924.078          44.000    24072086.563    98571204.842        1499.462          44.000  
G19  25134312.858   132081863.025        2158.538          45.000                                                                  
R05  20607658.749   110160006.112        -480.212          51.000    20607660.905    85679892.011        -373.532          50.000  
R16  22226432.339   118729686.990        1117.102          53.000    22226437.175    92345681.630         868.872          48.000  
R04  22384227.157   119866607.725       -4129.211          52.000    22384230.480    93229559.111       -3211.573          50.000  
R06  24303692.934                        3156.314          30.000                                                                  
R14  24263163.031   129336360.286       -4356.790          38.000    24263171.499   100595131.358       -3388.687          48.000  
E08  25013649.637   131447766.720          27.926          47.000    25013655.060   100719781.973          21.354          52.000  
S31  40285501.736   211701669.414        -812.466          43.000  
S33  41236652.031   216699974.022        -812.874          42.000  
G20  24720349.235   129906185.100       -3911.043          43.000                                                                  
E03  26056864.218   136929775.951       -2307.449          46.000    26056874.533   104920262.694       -1767.903          54.000  
R15  21116446.302   112840277.637       -2296.805          51.000    21116447.914    87764521.316       -1786.373          48.000  
E07  28187712.789                        1648.119          30.000    28187727.349   113500320.082        1263.905          39.000  
G05  23324809.967   122572644.226       -2418.877          48.000    23324814.689    95511202.724       -1885.059          43.000  
G30  23963442.614   125928916.458       -2971.040          44.000    23963448.312    98126541.616       -2315.248          44.000  
E30  26585219.594   139706601.614        1434.832          47.000    26585231.350   107048147.929        1099.377          49.000  
G14  22292935.632   117150392.923       -2635.950          47.000    22292936.529    91286184.401       -2053.992          48.000  
E02  24768557.665   130159897.458       -1039.875          47.000    24768562.863    99733092.110        -796.781          51.000  
G22  21653809.105   113791885.724        -524.195          46.000                                                                  
G17  24513719.661   128820678.329        1805.909          47.000    24513726.818   100379915.939        1407.411          44.000  
E25  27517343.025   144604831.881       -3222.063          44.000    27517351.731   110801229.486       -2468.816          46.000  
E18  22204823.103   116687302.462        1800.843          43.000                                                                  
G24                                                                  26211616.337   107332174.6611       1032.104          29.000  
> 2024 04 16 20 36 30.0050000  0 25                     
G13  22009787.699   115662312.617         599.216          49.000                                                                  
G15  24061116.421   126442032.806        1918.219          45.000    24061119.218    98526295.200        1494.538          44.000  
G19  25121995.832   132017138.914        2156.370          45.000                                                                  
G24  26204046.491                1       1324.135          28.000    26204058.694                        1031.589          29.000  
R05  20610424.189   110174788.815        -505.183          51.000    20610426.261    85691389.637        -392.948          50.000  
R16  22220202.671   118696412.526        1101.245          53.000    22220208.047    92319801.689         856.537          49.000  
R04  22407406.460   119990733.902       -4145.813          52.000    22407410.595    93326101.429       -3224.512          51.000  
R06  24285965.655                        3149.759          31.000                                                                  
R14  24287680.510   129467062.320       -4356.026          35.000    24287690.961   100696788.274       -3388.568          48.000  
E08  25013514.701   131447055.661          19.637          47.000    25013519.796   100719237.152          15.050          53.000  
S31  40290139.123   211726040.430        -812.850          43.000  
S33  41241292.088   216724357.603        -812.914          42.000  
G20  24742688.184   130023573.050       -3914.922          43.000                                                                  
E03  26070061.987   136999126.884       -2316.065          47.000    26070071.502   104973401.650       -1774.617          53.000  
R15  21129379.771   112909392.331       -2310.859          51.000    21129382.580    87818277.181       -1797.314          49.000  
E07  28178297.900   148078028.832        1649.329          30.000    28178311.002   113462403.985        1263.547          40.000  
G05  23338665.874   122645456.795       -2435.171          48.000    23338671.879    95567939.644       -1897.656          44.000  
G30  23980412.186   126018091.164       -2973.819          44.000    23980417.461    98196028.346       -2317.529          43.000  
E30  26577054.626   139663688.909        1426.197          48.000    26577065.269   107015266.987        1092.718          49.000  
G14  22308027.012   117229698.557       -2651.068          46.000    22308028.132    91347980.980       -2065.778          48.000  
E02  24774529.091   130191278.576       -1052.172          47.000    24774534.469    99757137.409        -806.189          51.000  
G22  21656857.949   113807905.362        -543.755          47.000                                                                  
G17  24503433.992   128766631.789        1797.274          46.000    24503442.731   100337802.096        1400.622          44.000  
E25  27535752.569   144701570.686       -3227.156          45.000    27535761.965   110875353.954       -2472.742          48.000  
E18  22194610.842   116633641.154        1776.744          42.000                                                                  
> 2024 04 16 20 37 00.0050000  0 25                     
G13  22006396.498   115644489.533         589.154          50.000                                                                  
G15  24050183.067   126384579.867        1912.145          44.000    24050186.454    98481526.772        1489.926          44.000  
G19  25109691.491   131952485.298        2154.003          43.000                                                                  
G24  26196492.364   137663480.1251       1323.018          32.000    26196504.314                1       1031.352          31.000  
R05  20613331.679   110190326.749        -530.317          51.000    20613332.512    85703474.684        -412.474          50.000  
R16  22214063.685   118663617.977        1085.321          53.000    22214069.347    92294294.994         844.153          49.000  
R04  22430679.900   120115360.619       -4162.213          52.000    22430683.684    93423033.038       -3237.305          50.000  
R06  24268274.444                        3143.470          30.000                                                                  
R14  24312193.802   129597761.515       -4356.185          38.000    24312210.218   100798443.100       -3388.337          49.000  
E08  25013427.424   131446596.154          11.385          47.000    25013432.231   100718885.098           8.655          52.000  
S31  40294779.324   211750424.651        -812.699          44.000  
S33  41245934.722   216748755.174        -813.172          43.000  
G20  24765048.908   130141079.729       -3918.654          42.000                                                                  
E03  26083309.520   137068744.619       -2324.950          46.000    26083319.409   105026745.029       -1781.366          53.000  
R15  21142393.948   112978932.006       -2324.799          52.000    21142395.726    87872363.598       -1808.293          49.000  
E07  28168884.197   148028572.824        1648.176          31.000    28168898.972   113424509.300        1262.967          39.000  
G05  23352615.477   122718758.771       -2451.326          48.000    23352620.269    95625057.909       -1910.043          44.000  
G30  23997398.822   126107357.324       -2976.683          44.000    23997405.935    98265586.268       -2319.578          45.000  
E30  26568939.473   139621041.391        1417.340          47.000    26568949.379   106982589.227        1086.067          49.000  
G14  22323204.126   117309457.850       -2665.900          47.000    22323206.145    91410131.045       -2077.295          48.000  
E02  24780571.547   130223033.117       -1064.532          47.000    24780576.827    99781468.851        -815.589          51.000  
G22  21660018.501   113824515.133        -563.294          46.000                                                                  
G17  24493200.492   128712850.184        1788.619          47.000    24493207.729   100295894.669        1393.757          44.000  
E25  27554190.246   144798466.642       -3232.253          44.000    27554199.548   110949598.789       -2476.696          47.000  
E18  22184537.014   116580705.071        1752.682          43.000                                                                  
> 2024 04 16 20 37 30.0050000  0 25                     
G13  22003063.705   115626976.716         578.325          49.000                                                                  
G15  24039284.610   126327310.311        1905.782          44.000    24039287.891    98436901.234        1485.075          44.000  
G19  25097401.424   131887905.392        2150.931          43.000                                                                  
G24  26188941.096   137623809.860        1321.911          36.000    26188954.428   107239390.5311       1029.593          35.000  
R05  20616379.723   110206621.167        -555.997          51.000    20616381.125    85716148.115        -432.511          50.000  
R16  22208015.322   118631303.680        1068.848          54.000    22208020.459    92269161.862         831.317          50.000  
R04  22454046.123   120240484.935       -4179.242          52.000    22454049.948    93520351.671       -3250.647          50.000  
R06  24250618.806                        3136.234          29.000                                                                  
R14  24336712.186   129728455.477       -4356.836          36.000    24336729.157   100900093.785       -3388.554          49.000  
E08  25013388.224   131446389.279           2.554          47.000    25013392.544   100718726.611           1.916          52.000  
S31  40299422.073   211774821.861        -813.525          44.000  
S33  41250579.875   216773165.394        -814.143          42.000  
G20  24787432.952   130258702.138       -3922.970          42.000                                                                  
E03  26096607.822   137138628.943       -2334.253          46.000    26096618.249   105080292.638       -1788.456          53.000  
R15  21155486.168   113048893.392       -2339.368          52.000    21155487.604    87926777.999       -1819.544          48.000  
E07  28159482.577   147979145.727        1647.041          32.000    28159493.147   113386636.696        1261.846          40.000  
G05  23366657.386   122792548.153       -2467.951          48.000    23366661.880    95682555.979       -1923.104          43.000  
G30  24014403.359   126196714.356       -2980.464          43.000    24014409.238    98335215.022       -2322.128          44.000  
E30  26560873.212   139578659.677        1408.162          46.000    26560883.924   106950115.179        1078.771          48.000  
G14  22338468.337   117389668.261       -2681.372          47.000    22338469.852    91472632.649       -2089.514          49.000  
E02  24786686.215   130255160.139       -1077.388          48.000    24786690.273    99806085.685        -825.534          50.000  
G22  21663291.398   113841714.870        -583.382          46.000                                                                  
G17  24483016.047   128659335.708        1779.067          47.000    24483024.106   100254195.395        1386.249          44.000  
E25  27572659.682   144895517.847       -3237.859          46.000    27572668.726   111023962.644       -2481.005          48.000  
E18  22174602.408   116528499.229        1727.692          44.000                                                                  
> 2024 04 16 20 38 00.0050000  0 25                     
G13  21999790.756   115609779.826         568.083          48.000                                                                  
G15  24028421.804   126270229.348        1899.752          43.000    24028425.527    98392422.644        1480.254          44.000  
G19  25085126.782   131823405.292        2148.773          43.000                                                                  
G24  26181399.387   137584173.482        1320.374          39.000    26181411.213   107208505.308        1029.821          35.000  
R05  20619569.530   110223676.995        -581.046          51.000    20619571.911    85729413.718        -451.920          50.000  
R16  22202055.761   118599472.336        1053.107          52.000    22202061.347    92244404.316         819.080          50.000  
R04  22477505.524   120366107.425       -4195.520          52.000    22477510.033    93618057.756       -3263.202          50.000  
R06  24233004.871                        3129.347          29.000                                                                  
R14  24361235.407   129859145.204       -4356.156          38.000    24361245.862   101001741.291       -3388.014          48.000  
E08  25013397.478   131446439.504          -5.863          47.000    25013402.067   100718765.121          -4.422          52.000  
S31  40304067.596   211799234.619        -813.975          44.000  
S33  41255227.851   216797590.762        -814.440          42.000  
G20  24809837.899   130376440.187       -3926.532          41.000                                                                  
E03  26109958.159   137208783.077       -2342.746          46.000    26109968.048   105134046.981       -1795.162          53.000  
R15  21168656.714   113119276.949       -2352.963          51.000    21168659.179    87981520.747       -1830.200          49.000  
E07  28150077.827   147929751.664        1645.977          33.000    28150094.017   113348789.525        1261.182          41.000  
G05  23380791.661   122866825.638       -2483.876          48.000    23380795.780    95740434.340       -1935.532          43.000  
G30  24031426.213   126286164.943       -2983.159          44.000    24031431.066    98404916.722       -2324.541          44.000  
E30  26552860.320   139536547.917        1399.381          47.000    26552870.050   106917847.919        1072.228          48.000  
G14  22353818.058   117470330.686       -2696.112          47.000    22353819.284    91535486.464       -2101.007          49.000  
E02  24792871.738   130287661.967       -1089.505          48.000    24792875.038    99830989.700        -834.721          50.000  
G22  21666677.702   113859507.364        -602.885          46.000                                                                  
G17  24472884.186   128606095.105        1770.129          46.000    24472893.219   100212709.523        1379.411          44.000  
E25  27591157.947   144992725.970       -3242.794          46.000    27591166.322   111098446.662       -2484.536          48.000  
E18  22164808.218   116477031.690        1703.395          44.000                                                                  
> 2024 04 16 20 38 30.0050000  0 26                     
G13  21996578.878   115592903.193         556.871          48.000                                                                  
G15  24017596.682   126213341.651        1892.707          44.000    24017600.098    98348094.645        1474.686          44.000  
G19  25072868.500   131758990.312        2145.447          43.000                                                                  
G24  26173862.924   137544572.769        1319.318          39.000    26173873.855   107177647.984        1027.958          35.000  
R24  26239719.890                3        894.703          12.000    26242422.434                3       1038.836          11.000  
R05  20622904.095   110241497.946        -607.000          51.000    20622904.941    85743274.449        -472.181          49.000  
R16  22196187.707   118568126.701        1036.658          52.000    22196192.691    92220024.593         806.262          50.000  
R04  22501057.439   120492227.683       -4212.473          51.000    22501062.188    93716150.995       -3276.344          50.000  
R06  24215432.287                        3120.664          31.000                                                                  
R14  24385751.638   129989831.098       -4356.221          37.000    24385761.774   101103385.551       -3388.163          48.000  
E08  25013457.349   131446750.317         -14.937          48.000    25013460.977   100719003.306         -11.422          52.000  
S31  40308716.548   211823665.635        -814.794          44.000  
S33  41259879.463   216822035.417        -815.326          42.000  
G20  24832264.678   130494293.569       -3930.480          41.000                                                                  
E03  26123359.948   137279209.349       -2352.228          46.000    26123370.002   105188009.860       -1802.424          53.000  
R15  21181908.131   113190082.372       -2367.353          52.000    21181909.429    88036591.643       -1841.273          48.000  
E07  28140683.435   147880394.313        1644.177          32.000    28140700.965   113310970.355        1260.054          41.000  
G05  23395019.494   122941591.134       -2500.341          48.000    23395023.439    95798693.032       -1948.400          42.000  
G30  24048465.565   126375710.957       -2986.523          42.000    24048471.698    98474692.788       -2327.485          44.000  
E30  26544898.273   139494709.160        1389.753          47.000    26544908.289   106885789.874        1064.960          48.000  
G14  22369253.930   117551445.066       -2711.603          48.000    22369255.052    91598692.461       -2112.872          49.000  
E02  24799127.358   130320540.053       -1102.406          48.000    24799131.565    99856182.019        -844.708          50.000  
G22  21670176.803   113877894.766        -622.948          47.000                                                                  
G17  24462805.801   128553133.930        1760.379          46.000    24462813.847   100171441.400        1371.744          44.000  
E25  27609685.806   145090091.586       -3248.261          45.000    27609694.367   111173051.410       -2489.020          48.000  
E18  22155155.291   116426309.739        1677.896          44.000                                                                  
> 2024 04 16 20 39 00.0050000  0 26                     
G13  21993429.771   115576354.689         546.209          48.000                                                                  
G15  24006810.024   126156655.654        1886.292          44.000    24006813.167    98303923.819        1469.626          43.000  
G19  25060628.257   131694670.046        2142.480          43.000                                                                  
G24  26166334.003   137505013.814        1317.848          39.000    26166346.166   107146823.136        1026.881          37.000  
R24  26233693.196                3        880.954          11.000                                                                  
R05  20626383.422   110260091.899        -632.610          51.000    20626383.741    85757736.414        -492.068          50.000  
R16  22190411.419   118537272.907        1020.282          52.000    22190416.423    92196027.435         793.591          49.000  
R04  22524703.266   120618849.162       -4229.003          51.000    22524707.952    93814634.066       -3289.182          50.000  
R06  24197904.145                1       3114.140          31.000                                                                  
R14  24410268.635   130120517.148       -4356.091          43.000    24410278.494   101205030.193       -3388.111          48.000  
E08  25013566.905   131447329.324         -23.726          48.000    25013570.946   100719447.007         -18.201          52.000  
S31  40313370.633   211848121.530        -815.578          44.000  
S33  41264535.609   216846504.585        -815.931          42.000  
G20  24854714.486   130612265.719       -3934.270          41.000                                                                  
E03  26136815.059   137349914.172       -2361.398          46.000    26136824.674   105242186.175       -1809.458          53.000  
R15  21195238.326   113261312.929       -2381.439          52.000    21195239.246    88091993.169       -1852.169          49.000  
E07  28131307.736   147831080.930        1643.218          35.000    28131316.938   113273184.949        1259.079          41.000  
G05  23409340.532   123016848.356       -2516.668          48.000    23409343.923    95857334.891       -1961.121          41.000  
G30  24065524.504   126465358.357       -2989.818          42.000    24065530.802    98544547.800       -2329.881          44.000  
E30  26536988.676   139453150.619        1380.719          46.000    26537000.022   106853946.532        1057.907          48.000  
G14  22384775.080   117633015.404       -2726.422          46.000    22384777.751    91662253.758       -2124.658          50.000  
E02  24805456.667   130353799.876       -1114.968          48.000    24805460.732    99881666.861        -854.408          50.000  
G22  21673790.186   113896882.888        -642.960          47.000                                                                  
G17  24452782.605   128500461.933        1750.995          46.000    24452790.054   100130398.617        1364.304          43.000  
E25  27628244.176   145187619.480       -3253.729          46.000    27628253.926   111247780.485       -2492.994          49.000  
E18  22145646.396   116376344.559        1652.896          44.000                                                                  
> 2024 04 16 20 39 30.0050000  0 25                     
G13  21990341.091   115560122.890         535.580          48.000                                                                  
G15  23996059.501   126100160.262        1879.904          45.000    23996062.407    98259901.515        1464.921          44.000  
G19  25048404.559   131630434.703        2139.597          44.000                                                                  
G24  26158811.235   137465482.877        1316.954          39.000    26158823.336   107116020.211        1025.656          36.000  
R05  20630003.325   110279446.671        -657.881          51.000    20630004.331    85772790.067        -511.571          49.000  
R16  22184724.634   118506897.209        1004.496          52.000    22184729.505    92172402.065         781.315          50.000  
R04  22548440.092   120745955.537       -4244.991          52.000    22548444.675    93913494.300       -3301.635          50.000  
R06  24180411.068                        3107.509          31.000                                                                  
R14  24434783.271   130251187.699       -4355.399          44.000    24434792.284   101306662.694       -3387.528          48.000  
E08  25013726.073   131448164.329         -32.085          48.000    25013729.920   100720086.850         -24.556          52.000  
S31  40318026.383   211872588.033        -815.873          44.000  
S33  41269194.290   216870984.978        -816.312          43.000  
G20  24877183.174   130730339.845       -3937.329          40.000                                                                  
E03  26150319.746   137420884.114       -2370.141          46.000    26150329.932   105296565.658       -1816.038          53.000  
R15  21208644.470   113332951.943       -2394.866          52.000    21208645.133    88147712.385       -1862.674          49.000  
E07  28121929.413   147781799.277        1642.479          35.000    28121939.096   113235423.861        1258.287          42.000  
G05  23423752.576   123092582.019       -2532.447          48.000    23423756.040    95916347.949       -1973.326          42.000  
G30  24082600.671   126555093.190       -2992.661          42.000    24082607.306    98614470.963       -2332.101          43.000  
E30  26529132.031   139411859.702        1371.903          48.000    26529142.289   106822308.260        1051.191          49.000  
G14  22400380.694   117715025.994       -2741.009          45.000    22400383.562    91726158.045       -2135.895          50.000  
E02  24811855.931   130387427.147       -1127.020          49.000    24811859.654    99907433.244        -863.586          50.000  
G22  21677514.871   113916457.815        -662.259          47.000                                                                  
G17  24442811.710   128448069.111        1741.585          47.000    24442820.204   100089573.352        1357.078          44.000  
E25  27646831.340   145285294.545       -3258.315          46.000    27646840.427   111322622.341       -2496.563          49.000  
E18  22136279.784   116327127.729        1628.052          44.000                                                                  
> 2024 04 16 20 40 00.0050000  0 26                     
G13  21987311.598   115544203.916         525.666          48.000                                                                  
G15  23985344.779   126043851.238        1873.856          45.000    23985346.602    98216024.447        1460.069          43.000  
G19  25036194.797   131566280.751        2137.416          43.000                                                                  
G24  26151291.997   137425973.364        1316.807          40.000    26151304.680   107085233.868        1026.119          38.000  
R24  26220135.442                3        814.289          14.000                                                                  
R05  20633765.560   110299557.216        -682.733          51.000    20633766.110    85788431.568        -531.000          49.000  
R16  22179126.589   118476993.497         989.117          53.000    22179132.069    92149143.808         769.311          50.000  
R04  22572265.471   120873537.691       -4260.342          53.000    22572269.944    94012724.559       -3313.563          49.000  
R06  24162960.299                        3100.759          29.000                                                                  
R14  24459294.116   130381834.468       -4354.273          45.000    24459301.262   101408276.762       -3386.577          48.000  
E08  25013932.476   131449250.292         -40.226          48.000    25013936.780   100720919.019         -30.825          52.000  
S31  40322682.921   211897059.809        -815.650          44.000  
S33  41273853.612   216895471.009        -816.004          43.000  
G20  24899670.465   130848506.876       -3940.123          40.000                                                                  
E03  26163874.927   137492112.862       -2378.335          47.000    26163884.177   105351143.466       -1822.399          53.000  
R15  21222125.167   113404990.443       -2407.747          52.000    21222126.142    88203742.346       -1872.709          48.000  
E07  28112556.945   147732544.276        1641.717          35.000    28112566.318   113197683.196        1257.759          42.000  
G05  23438253.248   123168783.723       -2547.761          47.000    23438257.495    95975725.714       -1985.080          43.000  
G30  24099692.822   126644908.910       -2994.906          43.000    24099698.400    98684457.165       -2333.697          43.000  
E30  26521324.424   139370831.005        1363.443          47.000    26521335.122   106790870.892        1044.739          49.000  
G14  22416069.089   117797468.170       -2755.084          45.000    22416071.416    91790398.663       -2146.698          50.000  
E02  24818323.160   130421414.744       -1138.714          48.000    24818327.206    99933475.721        -872.521          50.000  
G22  21681349.733   113936612.763        -681.275          47.000                                                                  
G17  24432894.639   128395952.283        1732.928          47.000    24432901.860   100048963.171        1350.126          43.000  
E25  27665445.121   145383108.952       -3262.464          46.000    27665454.468   111397570.937       -2499.863          50.000  
E18  22127056.123   116278657.778        1603.501          44.000                                                                  
> 2024 04 16 20 40 30.0050000  0 25                     
G13  21984341.775   115528598.779         515.032          47.000                                                                  
G15  23974664.940   125987729.944        1867.755          45.000    23974667.255    98172293.647        1455.073          42.000  
G19  25024001.336   131502210.505        2134.251          41.000                                                                  
G24  26143777.509   137386484.214        1316.107          38.000    26143790.091   107054463.402        1025.672          38.000  
R05  20637668.616   110320423.990        -708.064          51.000    20637669.713    85804661.250        -550.710          49.000  
R16  22173616.011   118447560.455         973.332          52.000    22173621.312    92126251.608         756.944          50.000  
R04  22596177.881   121001591.783       -4276.215          51.000    22596183.413    94112321.867       -3325.988          50.000  
R06  24145549.942                        3093.090          30.000                                                                  
R14  24483798.066   130512454.488       -4353.446          46.000    24483804.974   101509869.968       -3385.969          47.000  
E08  25014187.167   131450587.641         -48.681          48.000    25014191.368   100721943.773         -37.342          52.000  
S31  40327340.265   211921534.769        -815.873          43.000  
S33  41278513.959   216919960.702        -816.331          43.000  
G20  24922174.732   130966763.007       -3943.257          41.000                                                                  
E03  26177478.807   137563599.551       -2387.079          47.000    26177487.742   105405918.866       -1829.102          53.000  
R15  21235680.718   113477424.754       -2420.917          52.000    21235681.579    88260080.121       -1882.895          48.000  
E07  28103188.308   147683316.298        1640.104          36.000    28103198.353   113159963.184        1257.035          43.000  
G05  23452843.052   123245449.566       -2563.096          47.000    23452846.839    96035465.142       -1997.319          43.000  
G30  24116799.340   126734804.215       -2997.580          42.000    24116804.491    98754505.338       -2335.755          43.000  
E30  26513566.105   139330064.471        1354.565          47.000    26513577.115   106759634.403        1037.927          49.000  
G14  22431839.455   117880338.747       -2769.592          46.000    22431841.830    91854973.091       -2157.904          50.000  
E02  24824858.411   130455760.937       -1150.805          48.000    24824863.152    99959792.967        -881.774          50.000  
G22  21685295.809   113957346.800        -700.712          48.000                                                                  
G17  24423030.962   128344113.840        1723.256          48.000    24423037.116   100008569.830        1342.839          43.000  
E25  27684083.426   145481060.159       -3267.291          45.000    27684093.591   111472624.365       -2503.533          50.000  
E18  22117974.690   116230938.752        1578.008          44.000                                                                  
> 2024 04 16 20 41 00.0050000  0 25                     
G13  21981431.132   115513301.767         504.533          48.000                                                                  
G15  23964020.292   125931790.872        1861.339          46.000    23964022.120    98128704.834        1450.457          43.000  
G19  25011824.578   131438219.691        2131.530          42.000                                                                  
G24  26136264.686   137347007.317        1315.578          39.000    26136277.420   107023702.471        1025.090          39.000  
R05  20641712.714   110342040.662        -733.244          51.000    20641713.840    85821474.197        -570.317          49.000  
R16  22168193.424   118418590.387         957.756          52.000    22168197.358    92103719.509         745.007          49.000  
R04  22620177.987   121130107.341       -4291.763          52.000    22620183.299    94212278.097       -3337.948          50.000  
R06  24128176.920   128752595.5021       3085.860          32.000                                                                  
R14  24508294.920   130643037.648       -4352.468          46.000    24508302.342   101611434.497       -3385.289          47.000  
E08  25014488.177   131452169.819         -57.098          48.000    25014492.348   100723156.119         -43.634          52.000  
S31  40331997.219   211946006.892        -815.636          44.000  
S33  41283173.717   216944447.325        -816.528          42.000  
G20  24944694.418   131085097.865       -3945.886          42.000                                                                  
E03  26191128.544   137635336.457       -2395.549          46.000    26191139.135   105460885.974       -1835.553          53.000  
R15  21249307.437   113550243.718       -2433.918          52.000    21249309.370    88316717.083       -1893.028          49.000  
E07  28093823.911   147634108.548        1640.086          35.000    28093834.020   113122258.763        1256.371          43.000  
G05  23467519.058   123322569.743       -2578.395          49.000    23467523.099    96095558.623       -2009.229          44.000  
G30  24133918.702   126824770.978       -3000.251          40.000    24133923.297    98824609.245       -2337.990          41.000  
E30  26505856.677   139289553.121        1345.976          46.000    26505867.849   106728593.473        1031.335          50.000  
G14  22447689.240   117963627.530       -2783.441          47.000    22447691.296    91919873.440       -2168.878          51.000  
E02  24831460.352   130490457.058       -1162.611          47.000    24831465.378    99986378.344        -890.807          50.000  
G22  21689350.250   113978651.555        -719.882          48.000                                                                  
G17  24413218.009   128292549.415        1713.967          48.000    24413224.050    99968390.063        1335.564          43.000  
E25  27702747.907   145579138.882       -3271.721          45.000    27702758.033   111547775.476       -2506.799          50.000  
E18  22109036.686   116183967.670        1552.805          44.000                                                                  
> 2024 04 16 20 41 30.0050000  0 26                     
G13  21978580.731   115498324.406         493.925          47.000                                                                  
G15  23953412.626   125876046.123        1854.999          47.000    23953414.057    98085267.473        1445.396          42.000  
G19  24999665.198   131374321.228        2128.251          44.000                                                                  
G24  26128757.473   137307552.297        1314.817          39.000    26128768.847   106992958.565        1024.319          38.000  
R05  20645898.708   110364418.478        -758.635          51.000    20645900.320    85838879.155        -590.119          49.000  
R16  22162858.280   118390092.860         942.076          52.000    22162862.240    92081554.951         732.787          49.000  
R04  22644265.307   121259091.252       -4307.137          52.000    22644270.830    94312598.584       -3349.983          50.000  
R06  24110846.009   128660127.501        3078.400          32.000                                                                  
R14  24532787.297   130773592.145       -4351.347          50.000    24532794.792   101712976.775       -3384.360          48.000  
E08  25014838.193   131454007.917         -65.496          48.000    25014842.153   100724564.559         -50.156          52.000  
S31  40336655.130   211970484.424        -815.936          44.000  
S33  41287834.379   216968940.492        -816.494          43.000  
G20  24967229.265   131203517.696       -3948.615          41.000                                                                  
E03  26204829.685   137707333.401       -2404.038          46.000    26204839.796   105516052.336       -1842.131          53.000  
R15  21263007.387   113623455.019       -2446.799          51.000    21263009.767    88373659.199       -1903.137          48.000  
E07  28084463.302   147584932.246        1639.389          35.000    28084475.906   113084578.395        1255.639          43.000  
G05  23482282.549   123400151.957       -2593.749          48.000    23482287.032    96156012.112       -2021.122          44.000  
G30  24151055.288   126914818.707       -3002.936          41.000    24151059.821    98894776.189       -2339.968          42.000  
E30  26498197.307   139249307.655        1337.258          46.000    26498209.065   106697756.265        1024.642          50.000  
G14  22463619.940   118047342.084       -2797.528          48.000    22463621.771    91985105.556       -2179.895          50.000  
E02  24838131.322   130525512.091       -1174.271          48.000    24838136.361   100013238.721        -899.855          50.000  
G22  21693514.751   114000536.592        -739.259          47.000                                                                  
G17  24403460.655   128241271.919        1704.432          48.000    24403466.388    99928433.839        1328.190          43.000  
E25  27721437.639   145677353.371       -3275.974          45.000    27721446.934   111623030.619       -2510.139          49.000  
E18  22100242.245   116137759.126        1527.747          42.000                                                                  
R24                                                                  26207067.171                3        911.000          11.000  
> 2024 04 16 20 42 00.0050000  0 25                     
G13  21975792.684   115483671.026         482.896          47.000                                                                  
G15  23942842.240   125820499.754        1848.080          47.000    23942843.817    98041984.701        1439.840          42.000  
G19  24987523.928   131310520.421        2124.937          44.000                                                                  
G24  26121254.611   137268121.140        1313.900          40.000    26121265.596   106962233.268        1023.339          40.000  
R05  20650228.909   110387560.945        -784.322          52.000    20650230.250    85856878.841        -610.027          50.000  
R16  22157612.813   118362070.396         926.029          53.000    22157616.537    92059759.889         720.281          49.000  
R04  22668439.819   121388543.199       -4322.970          52.000    22668445.165    94413283.101       -3362.212          49.000  
R06  24093563.911   128567891.316        3069.807          33.000                                                                  
R14  24557273.569   130904118.131       -4350.510          49.000    24557281.337   101814496.917       -3383.652          47.000  
E08  25015237.530   131456105.462         -74.293          48.000    25015241.301   100726171.775         -56.931          52.000  
S31  40341314.806   211994971.052        -816.589          44.000  
S33  41292496.958   216993441.493        -816.818          43.000  
G20  24989779.730   131322021.985       -3951.606          41.000                                                                  
E03  26218579.576   137779592.579       -2412.893          46.000    26218589.947   105571419.645       -1848.943          52.000  
R15  21276781.447   113697057.919       -2460.161          52.000    21276782.654    88430905.940       -1913.399          48.000  
E07  28075113.735   147535790.835        1637.142          36.000    28075124.491   113046924.704        1254.553          43.000  
G05  23497132.945   123478196.270       -2609.181          47.000    23497138.176    96216825.690       -2033.198          44.000  
G30  24168206.455   127004949.181       -3005.797          42.000    24168211.672    98965007.602       -2342.075          42.000  
E30  26490591.004   139209331.131        1327.887          46.000    26490601.640   106667125.122        1017.513          50.000  
G14  22479631.305   118131482.316       -2811.798          48.000    22479633.224    92050669.368       -2191.095          50.000  
E02  24844871.007   130560927.450       -1186.518          47.000    24844875.852   100040375.165        -909.197          50.000  
G22  21697789.248   114023003.559        -758.845          47.000                                                                  
G17  24393756.756   128190287.015        1694.427          47.000    24393764.182    99888705.633        1320.610          43.000  
E25  27740153.485   145775704.260       -3280.786          45.000    27740163.121   111698390.294       -2513.793          50.000  
E18  22091594.539   116092320.167        1501.783          43.000                                                                  
> 2024 04 16 20 42 30.0050000  0 25                     
G13  21973066.952   115469347.938         471.720          47.000                                                                  
G15  23932310.915   125765158.503        1840.990          47.000    23932312.982    97998861.739        1434.597          42.000  
G19  24975403.322   131246824.764        2121.083          46.000                                                                  
G24  26113755.914   137228717.529        1312.742          39.000    26113767.289   106931529.467        1022.712          41.000  
R05  20654701.508   110411473.142        -810.093          50.000    20654703.532    85875477.195        -630.016          50.000  
R16  22152455.644   118334526.741         910.008          52.000    22152460.303    92038337.279         707.731          49.000  
R04  22692701.701   121518464.159       -4338.738          51.000    22692705.553    94514332.440       -3374.545          47.000  
R06  24076321.772   128475894.299        3062.805          33.000                                                                  
R14  24581754.697   131034617.627       -4349.819          49.000    24581763.448   101915996.453       -3383.230          49.000  
E08  25015686.557   131458467.701         -83.302          48.000    25015690.489   100727981.802         -63.786          51.000  
S31  40345976.573   212019469.550        -816.985          44.000  
S33  41297161.861   217017955.841        -817.501          43.000  
G20  25012346.882   131440611.833       -3954.728          42.000                                                                  
E03  26232381.187   137852118.065       -2422.029          46.000    26232391.423   105626991.000       -1855.833          52.000  
R15  21290629.152   113771053.293       -2473.237          52.000    21290629.936    88488457.893       -1923.698          48.000  
E07  28065769.845   147486689.411        1636.109          35.000    28065780.929   113009301.671        1253.520          44.000  
G05  23512072.320   123556703.327       -2624.839          47.000    23512078.409    96277999.827       -2045.364          44.000  
G30  24185374.413   127095166.085       -3008.771          42.000    24185378.489    99035306.411       -2344.295          42.000  
E30  26483036.036   139169628.312        1318.708          47.000    26483046.266   106636703.710        1010.383          50.000  
G14  22495724.192   118216049.815       -2826.185          47.000    22495725.953    92116566.097       -2202.285          50.000  
E02  24851679.142   130596706.141       -1198.851          47.000    24851684.229   100067790.018        -918.620          50.000  
G22  21702176.191   114046056.031        -778.387          47.000                                                                  
G17  24384111.504   128139601.771        1684.168          47.000    24384119.281    99849210.936        1312.421          44.000  
E25  27758895.869   145874193.936       -3285.439          45.000    27758905.009   111773856.345       -2517.456          50.000  
E18  22083094.551   116047659.478        1475.355          43.000                                                                  
> 2024 04 16 20 43 00.0050000  0 25                     
G13  21970403.958   115455354.004         461.237          47.000                                                                  
G15  23921817.932   125710021.305        1834.767          46.000    23921820.512    97955897.769        1429.779          42.000  
G19  24963301.697   131183234.442        2117.980          45.000                                                                  
G24  26106262.076   137189338.244        1312.258          40.000    26106272.141   106900844.548        1023.056          39.000  
R05  20659318.358   110436153.529        -835.347          51.000    20659320.229    85894673.034        -649.576          49.000  
R16  22147387.880   118307458.468         894.512          52.000    22147392.544    92017284.355         695.770          50.000  
R04  22717049.456   121648848.450       -4353.613          50.000    22717053.576    94615742.125       -3386.055          47.000  
R06  24059127.966   128384137.678        3055.172          34.000                                                                  
R14  24606228.560   131165085.774       -4348.162          48.000    24606238.435   102017471.596       -3381.915          47.000  
E08  25016186.060   131461092.842         -91.741          47.000    25016190.233   100729993.298         -70.272          52.000  
S31  40350640.128   212043977.510        -817.015          43.000  
S33  41301828.404   217042478.955        -817.214          42.000  
G20  25034929.021   131559281.440       -3957.003          41.000                                                                  
E03  26246233.463   137924906.779       -2430.499          47.000    26246242.908   105682764.095       -1862.304          53.000  
R15  21304548.632   113845435.358       -2485.617          51.000    21304549.613    88546310.603       -1933.154          48.000  
E07  28056433.560   147437626.154        1634.879          36.000    28056444.227   112971707.903        1252.628          43.000  
G05  23527098.817   123635668.159       -2639.504          47.000    23527105.045    96339530.685       -2056.692          44.000  
G30  24202556.989   127185466.099       -3011.025          40.000    24202561.997    99105669.994       -2346.357          41.000  
E30  26475531.951   139130197.028        1310.008          47.000    26475542.424   106606490.363        1003.754          50.000  
G14  22511897.211   118301039.178       -2839.764          47.000    22511898.803    92182791.546       -2212.821          50.000  
E02  24858555.854   130632844.280       -1210.466          47.000    24858561.505   100095480.301        -927.413          51.000  
G22  21706673.915   114069690.338        -797.378          47.000                                                                  
G17  24374523.494   128089216.495        1674.693          47.000    24374530.155    99809949.980        1304.893          43.000  
E25  27777662.924   145972817.875       -3289.492          46.000    27777672.903   111849425.200       -2520.526          50.000  
E18  22074744.245   116003778.763        1449.643          44.000                                                                  
> 2024 04 16 20 43 30.0050000  0 25                     
G13  21967803.118   115441684.225         450.259          48.000                                                                  
G15  23911363.440   125655083.769        1827.988          46.000    23911366.063    97913089.386        1424.620          41.000  
G19  24951218.688   131119745.408        2114.783          44.000                                                                  
G24  26098771.344   137149975.932        1312.090          38.000    26098782.281   106870172.924        1022.328          40.000  
R05  20664078.428   110461595.898        -860.654          52.000    20664079.258    85914461.517        -669.349          49.000  
R16  22142407.937   118280858.391         879.051          51.000    22142413.014    91996595.605         683.726          50.000  
R04  22741483.020   121779685.667       -4368.608          51.000    22741487.624    94717504.105       -3397.912          49.000  
R06  24041977.571   128292618.102        3047.131          34.000                                                                  
R14  24630696.549   131295513.409       -4346.730          48.000    24630706.445   102118915.201       -3380.626          48.000  
E08  25016734.069   131463975.091        -100.116          47.000    25016738.634   100732201.795         -76.802          51.000  
S31  40355304.780   212068488.591        -816.867          44.000  
S33  41306495.730   217067005.667        -817.584          42.000  
G20  25057525.707   131678021.115       -3959.072          43.000                                                                  
E03  26260132.928   137997951.597       -2438.775          46.000    26260143.055   105738733.387       -1868.763          53.000  
R15  21318538.707   113920194.250       -2498.023          52.000    21318540.138    88604456.444       -1942.886          48.000  
E07  28047102.399   147388595.302        1634.460          35.000    28047114.019   112934138.930        1251.881          44.000  
G05  23542211.175   123715081.664       -2654.423          48.000    23542216.878    96401411.161       -2068.489          44.000  
G30  24219755.804   127275841.826       -3013.381          40.000    24219760.221    99176092.544       -2348.264          42.000  
E30  26468079.172   139091031.035        1301.229          47.000    26468088.964   106576480.283         997.054          50.000  
G14  22528148.292   118386440.995       -2853.373          46.000    22528150.165    92249338.395       -2223.500          50.000  
E02  24865499.820   130669333.940       -1222.096          47.000    24865505.040   100123439.915        -936.271          50.000  
G22  21711281.411   114093899.048        -816.398          47.000                                                                  
G17  24364991.543   128039127.424        1664.701          47.000    24364998.293    99770919.853        1297.100          42.000  
E25  27796453.823   146071567.394       -3293.602          45.000    27796464.139   111925090.341       -2523.624          50.000  
E18  22066542.981   115960675.586        1423.918          46.000                                                                  
> 2024 04 16 20 44 00.0050000  0 26                     
G13  21965263.773   115428337.689         439.573          49.000                                                                  
G15  23900947.012   125600345.371        1821.455          46.000    23900949.599    97870436.202        1419.314          42.000  
G19  24939155.984   131056358.112        2111.240          44.000                                                                  
G24  26091283.387   137110627.597        1311.473          38.000    26091294.676   106839512.133        1022.060          41.000  
R24  26178421.237                3        616.320          11.000                                                                  
R05  20668979.523   110487798.821        -885.929          51.000    20668981.768    85934841.549        -689.073          50.000  
R16  22137515.199   118254723.385         863.542          51.000    22137520.178    91976268.561         671.604          50.000  
R04  22766000.578   121910970.230       -4383.284          51.000    22766005.079    94819613.975       -3409.220          49.000  
R06  24024868.648   128201336.592        3039.427          34.000                                                                  
R14  24655156.468   131425895.499       -4345.057          47.000    24655165.479   102220323.427       -3379.524          48.000  
E08  25017331.318   131467112.928        -108.655          48.000    25017335.315   100734606.124         -83.243          51.000  
S31  40359969.000   212092998.479        -816.868          43.000  
S33  41311162.941   217091531.624        -817.478          42.000  
G20  25080134.319   131796824.440       -3960.944          43.000                                                                  
E03  26274081.297   138071249.763       -2447.065          46.000    26274091.331   105794896.807       -1875.095          53.000  
R15  21332598.044   113995324.085       -2510.288          52.000    21332600.140    88662890.755       -1952.501          48.000  
E07  28037779.218   147339595.284        1632.863          38.000    28037789.249   112896593.572        1251.089          44.000  
G05  23557407.307   123794937.986       -2668.953          48.000    23557413.867    96463636.693       -2079.809          43.000  
G30  24236966.514   127366290.064       -3015.955          39.000    24236972.946    99246571.633       -2350.264          42.000  
E30  26460675.662   139052128.263        1292.662          47.000    26460686.024   106546671.888         990.484          50.000  
G14  22544476.518   118472250.036       -2866.941          45.000    22544479.007    92316202.563       -2233.922          50.000  
E02  24872509.165   130706171.365       -1233.540          47.000    24872514.857   100151666.019        -945.227          50.000  
G22  21715996.343   114118678.930        -835.286          47.000                                                                  
G17  24355516.208   127989335.063        1654.979          48.000    24355522.426    99732120.903        1289.438          43.000  
E25  27815267.997   146170438.173       -3297.514          45.000    27815278.898   112000848.394       -2526.660          51.000  
E18  22058487.387   115918351.754        1398.180          45.000                                                                  
> 2024 04 16 20 44 30.0050000  0 26                     
G13  21962785.968   115415317.372         428.416          48.000                                                                  
G15  23890569.228   125545809.386        1814.403          47.000    23890571.175    97827940.706        1414.037          41.000  
G19  24927112.835   130993076.955        2107.365          45.000                                                                  
G24  26083798.203   137071294.186        1310.557          38.000    26083808.571   106808862.984        1021.448          41.000  
R05  20674024.417   110514764.167        -911.622          52.000    20674025.621    85955814.584        -709.056          49.000  
R16  22132709.475   118229054.436         847.770          51.000    22132714.490    91956304.005         659.386          50.000  
R04  22790599.811   122042700.380       -4398.505          51.000    22790606.109    94922070.448       -3421.176          50.000  
R06  24007807.592   128110298.444        3030.257          33.000                                                                  
R14  24679606.571   131556231.740       -4343.925          48.000    24679615.958   102321695.918       -3378.549          47.000  
E08  25017976.836   131470508.756        -117.681          47.000    25017981.593   100737208.116         -90.050          51.000  
S31  40364632.860   212117509.224        -817.245          44.000  
S33  41315830.211   217116058.778        -817.753          43.000  
G20  25102754.224   131915690.082       -3963.227          43.000                                                                  
E03  26288078.506   138144802.367       -2455.952          47.000    26288087.806   105851255.189       -1881.816          53.000  
R15  21346726.979   114070823.395       -2522.806          52.000    21346727.737    88721612.424       -1962.124          48.000  
E07  28028460.549   147290628.484        1631.732          38.000    28028471.371   112859073.635        1250.230          45.000  
G05  23572687.521   123875236.265       -2683.972          48.000    23572693.568    96526206.593       -2091.504          42.000  
G30  24254193.730   127456811.742       -3018.790          40.000    24254197.328    99317107.881       -2352.305          41.000  
E30  26453322.474   139013490.652        1283.450          47.000    26453333.428   106517066.683         983.365          50.000  
G14  22560882.314   118558465.125       -2880.592          44.000    22560885.050    92383383.128       -2244.618          50.000  
E02  24879585.474   130743356.824       -1245.337          47.000    24879591.065   100180158.803        -954.240          50.000  
G22  21720820.201   114144030.404        -854.698          47.000                                                                  
G17  24346097.993   127939844.030        1644.552          47.000    24346105.239    99693556.743        1281.467          43.000  
E25  27834105.613   146269429.786       -3301.719          45.000    27834116.348   112076699.007       -2529.878          50.000  
E18  22050581.305   115876813.029        1371.270          43.000                                                                  
R24                                                                  26171276.313                3        801.672          15.000  
