     3.00           OBSERVATION DATA    M: Mixed            RINEX VERSION / TYPE
CONVBIN 2.4.3                           20240416 021442 UTC PGM / RUN BY / DATE 
format: u-blox UBX                                          COMMENT             
log: /home/regis/git/gnsspwv/obsdata/VERT00CHL/2024-04-16/VECOMMENT             
{self.marker}                                               MARKER NAME         
                                                            MARKER NUMBER       
GEODETIC                                                    MARKER TYPE         
{self.observer}     {self.institution}                      OBSERVER / AGENCY   
UNKNOWN             UBLOX-ZED-F9P                           REC # / TYPE / VERS 
UNKNOWN             TWIVSP6037L                             ANT # / TYPE        
  1713381.0000 -5047934.0000 -3490983.0000                  APPROX POSITION XYZ 
        0.0000        0.0000        0.0000                  ANTENNA: DELTA H/E/N
G    8 C1C L1C D1C S1C C2L L2L D2L S2L                      SYS / # / OBS TYPES 
R    8 C1C L1C D1C S1C C2C L2C D2C S2C                      SYS / # / OBS TYPES 
E    8 C1C L1C D1C S1C C7Q L7Q D7Q S7Q                      SYS / # / OBS TYPES 
S    4 C1C L1C D1C S1C                                      SYS / # / OBS TYPES 
  2024    04    16    02    00   00.0030000     GPS         TIME OF FIRST OBS   
  2024    04    16    02    14   30.0030000     GPS         TIME OF LAST OBS    
                                                            END OF HEADER       
> 2024 04 16 02 00 00.0030000  0 25                     
G25  21751946.200   114307289.4541        226.862          48.000    21751946.586    89070633.5661        176.843          46.000  
G24  22765160.875   119631687.1111      -3568.171          43.000    22765163.089    93219479.6911      -2780.564          38.000  
G32  24168941.483   127008557.1571      -1929.436          43.000    24168950.203    98967665.8811      -1503.151          44.000  
E09  27349801.713   143724153.7881      -1004.312          46.000    27349811.404   110126287.5391       -769.570          50.000  
R16  21135488.345   112901972.2961      -1726.755          51.000    21135489.649    87812638.2081      -1342.872          51.000  
R09  21069690.084   112510984.8071       1356.052          51.000    21069689.083    87508639.3881       1054.721          51.000  
R15  24813534.880   132595758.2481      -3635.968          39.000    24813550.231   103129972.3151      -2828.058          37.000  
R20  23200049.493                3       3573.736          34.000    23200057.932    96491994.5391       2779.023          45.000  
G29  22009594.908   115661196.7111        955.885          48.000    22009597.211    90125633.6861        744.879          43.000  
S33  40500502.352   212831576.4351       -715.789          44.000  
S31  39547394.618   207822962.5791       -714.980          44.000  
G28  24362764.546   128027176.3091       2487.813          35.000    24362758.930    99761409.0661       1938.749          35.000  
G06  25161568.791   132224986.4521      -3326.257          37.000    25161568.371   103032491.8611      -2591.588          38.000  
G11  23250117.998   122180444.0091      -1490.173          47.000    23250116.078    95205643.7091      -1161.202          44.000  
R18  21631684.072   115471453.3311      -3598.150          52.000    21631683.475    89811157.1011      -2798.566          48.000  
R19  20167089.473   107880642.2171       -216.940          41.000    20167088.730    83907337.2011       -168.552          48.000  
E04  26902513.009   141373657.1891      -2938.946          39.000    26902525.483   108325321.6901      -2252.079          44.000  
G12  22142286.833   116358505.7541      -1332.407          47.000    22142284.663    90668958.3961      -1038.260          48.000  
E33  26173857.909   137544936.2511       2016.610          47.000    26173861.686   105391793.2751       1545.240          52.000  
E31  25968481.881   136465385.0641        689.670          46.000    25968488.377   104564447.7781        528.396          50.000  
G20  25861469.936   135902996.4241       1310.510          38.000                                                                  
E13  27971900.627   146993345.1571      -2627.861          32.000    27971908.595   112631341.0751      -2013.593          47.000  
E14  20265357.383   106495231.5911       -310.317          52.000    20265364.644    81600280.2441       -237.790          55.000  
E26  25203334.527   132444746.3631       -118.879          46.000    25203336.916   101483823.8651        -91.011          52.000  
E21  27468650.429   144348693.0281      -2270.191          40.000    27468653.757   110604842.1281      -1739.395          43.000  
> 2024 04 16 02 00 30.0030000  0 25                     
G25  21750661.705   114300543.764         222.614          48.000    21750662.609    89065377.623         173.383          46.000  
G24  22785563.113   119738904.362       -3579.958          47.000    22785565.221    93303026.189       -2789.562          45.000  
G32  24179996.316   127066658.088       -1944.361          39.000    24180005.184    99012940.572       -1514.824          31.000  
E09  27355573.943   143754480.033       -1017.742          46.000    27355582.244   110149524.343        -779.911          50.000  
R16  21145221.180   112953962.301       -1739.695          51.000    21145221.639    87853074.833       -1353.084          51.000  
R09  21062090.615   112470403.701        1348.931          51.000    21062089.729    87477076.469        1049.137          51.000  
R15  24833967.324   132704931.865       -3642.786          38.000    24833981.973                       -2832.165          32.000  
R20  23180010.121   123953930.5433       3566.093          38.000    23180027.378    96408684.3893       2775.004          42.000  
G29  22004176.691   115632721.429         942.034          49.000    22004178.347    90103445.245         733.948          43.000  
S33  40504587.958   212853044.754        -716.068          39.000  
S31  39551475.988   207844411.002        -715.162          41.000  
G28  24348576.293   127952623.427        2481.380          35.000    24348575.385    99703315.946        1934.195          37.000  
G06  25180594.282   132324960.991       -3338.981          35.000    25180592.449   103110394.205       -2602.039          38.000  
G11  23258678.456   122225432.367       -1509.329          47.000    23258676.496    95240699.641       -1176.072          42.000  
R18  21651956.054   115579670.824       -3616.687          50.000    21651956.864    89895326.301       -2813.043          49.000  
R19  20168381.392   107887553.640        -244.689          41.000    20168380.650    83912713.461        -190.208          48.000  
E04  26919307.244   141461898.883       -2944.373          39.000    26919318.442   108392934.488       -2256.199          45.000  
G12  22149906.261   116398545.726       -1337.378          47.000    22149904.264    90700158.371       -1042.086          48.000  
E33  26162362.421   137484530.312        2010.003          48.000    26162366.188   105345509.089        1540.146          53.000  
E31  25964545.216   136444699.587         689.071          46.000    25964552.099   104548597.970         528.001          51.000  
G20  25853998.079   135863732.812        1306.875          36.000                                                                  
E13  27986932.038   147072342.536       -2639.344          33.000    27986941.566   112691871.625       -2021.893          47.000  
E14  20267222.224   106505028.061        -343.223          46.000    20267229.192    81607786.666        -262.984          51.000  
E26  25204051.962   132448522.211        -133.218          46.000    25204055.343   101486717.083        -102.088          52.000  
E21  27481615.421   144416821.871       -2272.172          40.000    27481617.859   110657044.730       -1740.936          43.000  
> 2024 04 16 02 01 00.0030000  0 25                     
G25  21749402.451   114293926.507         218.292          48.000    21749403.483    89060221.417         170.136          45.000  
G24  22806034.399   119846480.749       -3591.792          48.000    22806036.567    93386852.467       -2798.828          45.000  
G32  24191137.865   127125208.506       -1959.251          42.000    24191146.453    99058701.0131      -1526.633          39.000  
E09  27361420.588   143785205.330       -1030.890          46.000    27361429.465   110173066.900        -789.890          50.000  
R16  21155027.662   113006341.596       -1752.561          52.000    21155027.227    87893814.236       -1363.082          51.000  
R09  21054531.346   112430037.944        1341.944          52.000    21054530.201    87445680.947        1043.668          51.000  
R15  24854437.012   132814313.848       -3649.444          34.000    24854451.636                       -2838.373          29.000  
R20  23160030.882   123847090.940        3556.871          39.000    23160039.707    96325536.835        2766.435          41.000  
G29  21998837.681   115604662.081         928.334          49.000    21998838.693    90081580.988         723.315          44.000  
S33  40508673.944   212874523.0881       -715.581          38.000  
S31  39555557.397   207865859.360        -714.987          43.000  
G28  24334424.934   127878266.313        2474.316          34.000    24334426.482    99645375.392        1928.994          38.000  
G06  25199691.340                       -3351.846          33.000    25199690.638   103188598.764       -2611.616          35.000  
G11  23267349.044   122270997.357       -1528.303          47.000    23267347.833    95276204.909       -1190.962          43.000  
R18  21672332.682   115688445.794       -3635.059          50.000    21672334.240    89979929.087       -2827.222          51.000  
R19  20169828.022   107895292.840        -271.816          41.000    20169826.969    83918732.923        -211.474          48.000  
E04  26936134.114   141550322.510       -2950.567          44.000    26936144.924   108460687.347       -2260.855          48.000  
G12  22157554.250   116438734.829       -1341.995          47.000    22157551.897    90731474.568       -1045.870          48.000  
E33  26150904.428   137424310.560        2004.216          46.000    26150907.810   105298865.5761       1535.670          51.000  
E31  25960612.198   136424029.553         688.712          46.000    25960618.503   104532759.989         527.750          50.000  
G20  25846548.729   135824592.064        1302.571          38.000                                                                  
E13  28002032.950   147151664.718       -2649.578          39.000    28002035.479   112752651.051       -2030.153          47.000  
E14  20269274.194   106515812.734        -376.033          47.000    20269281.228    81616050.474        -288.095          48.000  
E26  25204851.834   132452730.490        -147.554          45.000    25204855.942   101489941.643        -113.095          52.000  
E21  27494588.632   144485007.878       -2274.035          38.000    27494592.919   110709291.144       -1742.434          42.000  
> 2024 04 16 02 01 30.0030000  0 25                     
G25  21748166.004   114287427.119         214.227          48.000    21748166.974    89055156.844         167.053          46.000  
G24  22826570.955   119954402.901       -3603.564          48.000    22826572.413    93470948.168       -2808.199          45.000  
G32  24202363.676   127184194.053       -1973.929          39.000    24202370.928    99104663.552       -1537.944          36.000  
E09  27367340.110   143816317.611       -1043.902          45.000    27367350.153   110196905.958        -799.788          50.000  
R16  21164903.605   113059099.813       -1765.235          51.000    21164903.571    87934848.343       -1372.919          51.000  
R09  21047010.268   112389877.895        1334.887          51.000    21047009.412    87414445.338        1038.221          50.000  
R15  24874944.809                       -3656.232          31.000    24874955.188                1      -2843.585          28.000  
R20  23140091.188   123740460.4143       3549.239          36.000    23140102.905    96242626.7513       2758.931          42.000  
G29  21993575.003   115577007.122         914.691          50.000    21993576.875    90060031.731         712.695          45.000  
S33  40512756.972   212895981.186        -715.562          47.000  
S31  39559636.740   207887296.874        -714.774          44.000  
G28  24320310.237   127804096.062        2469.220          35.000    24320311.760    99587580.404        1923.666          38.000  
G06  25218860.497   132526059.343       -3363.951          33.000    25218859.955   103267094.557       -2621.667          36.000  
G11  23276126.892   122317126.933       -1547.457          46.000    23276127.625    95312150.071       -1205.807          43.000  
R18  21692811.198   115797762.445       -3653.277          51.000    21692812.378    90064953.190       -2841.388          50.000  
R19  20171427.175   107903850.212        -299.352          41.000    20171426.935    83925388.939        -232.675          50.000  
E04  26952992.200   141638914.223       -2955.759          41.000    26953002.362   108528569.453       -2265.299          40.000  
G12  22165227.869   116479062.169       -1346.981          47.000    22165225.838    90762898.448       -1049.502          47.000  
E33  26139479.652   137364273.274        1997.801          40.000    26139483.136   105252862.926        1531.027          45.000  
E31  25956680.581   136403363.566         688.508          47.000    25956685.806   104516925.108         527.548          50.000  
G20  25839122.687   135785566.173        1298.424          38.000                                                                  
E13  28017186.100   147231298.685       -2659.758          40.000    28017188.846   112813669.394       -2038.031          45.000  
E14  20271511.307   106527571.685        -408.561          45.000    20271518.711    81625060.886        -312.996          50.000  
E26  25205733.746   132457360.297        -161.766          45.000    25205737.118   101493489.174        -123.887          52.000  
E21  27507571.747   144553240.099       -2275.718          37.000    27507577.351   110761572.949       -1743.358          42.000  
> 2024 04 16 02 02 00.0030000  0 25                     
G25  21746951.966   114281049.413         210.199          48.000    21746952.976    89050187.546         163.696          46.000  
G24  22847172.947   120062670.453       -3615.089          46.000    22847174.701    93555312.912       -2816.711          44.000  
G32  24213672.027   127243618.569       -1988.415          48.000    24213678.058    99150963.4891      -1549.362          45.000  
E09  27373335.164   143847817.971       -1056.665          45.000    27373344.682   110221042.393        -809.705          49.000  
R16  21174850.543   113112239.338       -1777.913          50.000    21174851.859    87976179.055       -1382.839          51.000  
R09  21039528.307   112349928.758        1327.804          51.000    21039527.910    87383374.108        1032.823          51.000  
R15  24895489.019                       -3662.833          29.000    24895495.209                3      -2849.284          26.000  
R20  23120198.867                3       3541.562          36.000    23120204.592                3       2757.218          28.000  
G29  21988389.698   115549758.887         901.299          49.000    21988391.335    90038799.524         702.371          46.000  
S33  40516839.031   212917429.879        -715.068          45.000  
S31  39563714.227   207908724.272        -714.564          46.000  
G28  24306232.115   127730116.976        2462.586          37.000    24306233.416    99529934.370        1918.735          38.000  
G06  25238101.729                       -3376.236          30.000    25238100.243   103345881.165       -2631.400          35.000  
G11  23285013.104   122363822.208       -1566.247          48.000    23285010.125    95348536.083       -1220.411          42.000  
R18  21713391.055   115907618.785       -3671.100          51.000    21713391.972    90150397.033       -2855.298          50.000  
R19  20173180.699   107913228.551        -326.729          41.000    20173180.178    83932684.169        -253.956          48.000  
E04  26969881.435   141727671.196       -2961.916          38.000    26969892.939   108596585.0231      -2269.155          40.000  
G12  22172929.074   116519529.973       -1351.554          46.000    22172926.324    90794431.787       -1053.165          47.000  
E33  26128089.815   137304422.923        1991.847          45.000    26128092.465   105207004.809        1526.170          48.000  
E31  25952748.224   136382703.422         688.297          46.000    25952754.129   104501094.709         527.454          50.000  
G20  25831718.492   135746659.815        1294.768          39.000                                                                  
E13  28032399.792   147311244.775       -2670.383          41.000    28032402.567   112874926.891       -2045.973          45.000  
E14  20273933.961   106540304.949        -440.972          52.000    20273941.109    81634818.150        -337.829          55.000  
E26  25206696.552   132462413.956        -175.877          46.000    25206698.766   101497361.472        -134.594          52.000  
E21  27520567.015   144621520.690       -2277.070          38.000    27520570.956   110813891.791       -1744.671          43.000  
> 2024 04 16 02 02 30.0030000  0 25                     
G25  21745763.413   114274803.491         205.798          48.000    21745764.113    89045320.615         160.260          45.000  
G24  22867842.772   120171292.571       -3626.699          48.000    22867844.232    93639953.970       -2826.029          46.000  
G32  24225063.769   127303486.764       -2002.908          44.000    24225067.920    99197603.5251      -1561.079          40.000  
E09  27379404.747   143879716.765       -1070.233          45.000    27379415.245   110245484.092        -819.908          50.000  
R16  21184872.514   113165772.951       -1791.101          50.000    21184873.940    88017816.263       -1393.109          51.000  
R09  21032089.748   112310202.603        1320.549          51.000    21032088.238    87352475.970        1027.047          50.000  
R15  24916072.533                       -3670.014          29.000    24916080.707                       -2853.569          26.000  
R20  23100357.744   123527993.2953       3533.069          37.000    23100361.911    96077354.0581       2748.522          48.000  
G29  21983283.193   115522928.043         887.374          49.000    21983284.889    90017892.626         691.425          45.000  
S33  40520920.846   212938879.695        -715.226          47.000  
S31  39567791.664   207930152.549        -713.956          39.000  
G28  24292193.703   127656342.539        2455.700          38.000    24292194.492    99472447.813        1913.605          38.000  
G11  23294008.422   122411093.587       -1585.306          47.000    23294007.459    95385371.037       -1235.228          43.000  
R18  21734073.769   116018021.843       -3689.160          52.000    21734073.513    90236266.106       -2869.342          50.000  
R19  20175089.138   107923438.283        -354.192          42.000    20175086.963    83940626.168        -275.575          49.000  
E04  26986806.645   141816604.562       -2967.441          41.000    26986816.896   108664724.121       -2273.565          43.000  
G12  22180658.646   116560149.398       -1356.674          46.000    22180656.112    90826083.262       -1056.896          47.000  
E33  26116738.674   137244767.380        1985.174          46.000    26116740.338   105161294.675        1521.107          50.000  
E31  25948819.161   136362060.196         687.787          46.000    25948826.035   104485277.255         526.913          51.000  
G20  25824340.188   135707886.697        1290.113          36.000                                                                  
E13  28047672.757   147391512.311       -2681.037          41.000    28047676.574   112936430.743       -2054.324          44.000  
E14  20276543.463   106554020.506        -473.631          43.000    20276550.661    81645327.934        -362.976          52.000  
E26  25207740.720   132467902.909        -190.290          46.000    25207743.245   101501567.355        -145.909          53.000  
E21  27533572.781   144689861.000       -2279.523          39.000    27533575.941   110866256.444       -1746.263          43.000  
G06                                                                  25257412.506   103424965.098       -2641.566          36.000  
> 2024 04 16 02 03 00.0030000  0 26                     
G25  21744598.470   114268683.092         201.776          47.000    21744599.226    89040551.469         157.336          46.000  
G24  22888578.461   120280258.924       -3637.893          47.000    22888578.833    93724863.063       -2834.633          43.000  
G32  24236537.704   127363791.123       -2017.452          47.000    24236543.984    99244602.790       -1572.557          41.000  
E09  27385549.505   143912005.585       -1082.856          45.000    27385559.895   110270224.641        -829.628          50.000  
R16  21194967.373   113219693.513       -1803.749          51.000    21194967.182    88059754.409       -1402.875          50.000  
R09  21024691.497   112270694.984        1313.348          51.000    21024689.863    87321747.729        1021.508          51.000  
R10  24239857.516                        2550.033          30.000                                                                  
R15  24936692.937                       -3675.733          28.000    24936713.648                3      -2858.992          23.000  
R20  23080569.019   123422147.9631       3525.881          31.000    23080584.994                3       2743.136          29.000  
G29  21978255.307   115496507.266         873.937          48.000    21978257.191    89997305.184         680.944          45.000  
S33  40525001.617   212960322.9491       -714.818          44.000  
S31  39571868.072   207951575.348        -713.844          41.000  
G28  24278192.732   127582767.689        2449.414          40.000    24278193.651    99415116.813        1908.535          40.000  
G06  25276799.802                1      -3401.708          30.000    25276795.540   103504338.448       -2649.584          34.000  
G11  23303111.929   122458932.653       -1604.108          47.000    23303109.134    95422648.300       -1250.009          43.000  
R18  21754856.867   116128959.954       -3706.677          53.000    21754856.182    90322551.360       -2882.983          50.000  
R19  20177150.373   107934468.703        -381.361          41.000    20177148.756    83949205.349        -296.585          49.000  
E04  27003762.920   141905702.498       -2972.365          45.000    27003773.341   108732992.208       -2277.083          40.000  
G12  22188415.271   116600913.408       -1361.108          45.000    22188413.442    90857847.386       -1060.652          48.000  
E33  26105422.376   137184917.6351       1979.190          39.000    26105424.537   105115732.556        1516.430          40.000  
E31  25944892.776   136341426.249         687.659          46.000    25944899.420   104469466.906         526.951          51.000  
G20  25816985.566   135669242.097        1286.165          38.000                                                                  
E13  28063007.760   147472092.088       -2691.021          41.000    28063010.543   112998173.790       -2061.950          45.000  
E14  20279338.297   106568708.216        -505.810          47.000    20279345.236    81656582.290        -387.570          51.000  
E26  25208866.646   132473820.039        -204.295          46.000    25208869.061   101506101.294        -156.551          53.000  
E21  27546586.592   144758253.805       -2280.622          39.000    27546591.110   110918661.306       -1747.288          44.000  
> 2024 04 16 02 03 30.0030000  0 26                     
G25  21743457.753   114262685.666         197.607          47.000    21743458.093    89035877.757         154.022          43.000  
G24  22909378.530   120389565.483       -3649.345          48.000    22909379.035    93810037.278       -2843.692          45.000  
G32  24248095.477   127424524.469       -2031.693          48.000    24248102.221    99291928.7281      -1583.202          46.000  
E09  27391767.856   143944681.272       -1095.789          45.000    27391778.124   110295261.614        -839.499          50.000  
R16  21205134.300   113273999.723       -1816.855          51.000    21205133.575    88101992.505       -1413.089          51.000  
R09  21017333.825   112231405.531        1305.838          51.000    21017332.583    87291189.083        1015.709          50.000  
R10  24225500.381                        2553.165          29.000                                                                  
R15  24957349.392                3      -3674.911          24.000    24957367.936                3      -2857.316          12.000  
R20  23060817.493                1       3515.218          26.000    23060837.358    95912951.8111       2734.420          47.000  
G29  21973304.666   115470494.325         860.250          48.000    21973306.838    89977035.556         670.240          44.000  
S33  40529080.544   212981756.832        -714.815          40.000  
S31  39575942.849   207972987.694        -713.700          41.000  
G28  24264230.885   127509392.501        2442.407          40.000    24264230.172    99357941.363        1902.931          39.000  
G06  25296252.979                1      -3413.481          30.000    25296248.793   103583997.387       -2659.908          34.000  
G11  23312322.530   122507336.294       -1622.828          46.000    23312321.192    95460365.527       -1264.782          44.000  
R18  21775738.240   116240426.400       -3724.475          52.000    21775737.707    90409247.490       -2896.826          49.000  
R19  20179364.824   107946318.102        -408.852          41.000    20179364.689    83958420.924        -317.992          49.000  
E04  27020749.211   141994959.752       -2978.238          40.000    27020761.532   108801381.480       -2282.684          40.000  
G12  22196199.271   116641820.116       -1366.030          44.000    22196198.234    90889722.717       -1064.487          48.000  
E33  26094143.339   137125639.310        1972.820          50.000    26094147.467   105070302.9651       1512.457          44.000  
E31  25940967.578   136320799.191         687.345          46.000    25940974.136   104453661.856         526.653          50.000  
G20  25809656.128   135630726.558        1281.589          40.000                                                                  
E13  28078400.282   147552980.112       -2701.522          42.000    28078402.603   113060153.042       -2070.040          44.000  
E14  20282317.596   106584363.877        -538.151          48.000    20282324.297    81668578.358        -412.339          51.000  
E26  25210073.339   132480163.346        -218.691          46.000    25210076.007   101510961.806        -167.582          52.000  
E21  27559608.739   144826697.050       -2282.179          37.000    27559615.886   110971104.846       -1748.887          45.000  
> 2024 04 16 02 04 00.0030000  0 24                     
G25  21742341.056   114256817.115         193.524          48.000    21742341.121    89031304.978         150.745          46.000  
G24  22930242.352   120499213.334       -3660.446          45.000    22930244.403    93895477.432       -2852.711          43.000  
G32  24259734.658   127485771.3511      -2045.815          45.000    24259738.854    99339593.584       -1593.986          41.000  
E09  27398060.262   143977746.484       -1108.640          45.000    27398070.599   110320597.042        -849.594          50.000  
R16  21215373.221   113328695.996       -1829.734          51.000    21215373.007    88144534.001       -1423.212          50.000  
R09  21010018.045   112192340.720        1298.446          52.000    21010017.005    87260805.482        1009.846          51.000  
R20  23041124.731   123211243.1861       3506.585          41.000    23041139.336    95831034.4401       2727.011          44.000  
G29  21968432.530   115444892.626         846.508          47.000    21968434.416    89957086.435         659.464          43.000  
S33  40533158.398   213003186.757        -714.310          41.000  
S31  39580016.820   207994395.792        -713.595          49.000  
G28  24250307.475   127436222.832        2435.287          40.000    24250306.329    99300926.074        1897.960          39.000  
G11  23321641.400   122556307.072       -1641.765          47.000    23321640.878    95498524.631       -1279.344          46.000  
R18  21796718.783   116352420.605       -3741.968          53.000    21796718.052    90496354.182       -2910.388          50.000  
R19  20181734.775   107958992.469        -436.389          41.000    20181733.991    83968278.831        -339.269          49.000  
E04  27037766.922   142084385.106       -2983.577          39.000    27037778.505   108869902.087       -2286.359          42.000  
G12  22204011.349   116682872.895       -1370.963          45.000    22204010.340    90921711.869       -1068.315          48.000  
E33  26082903.159   137066572.1681       1965.996          41.000    26082907.831   105025045.550        1506.399          42.000  
E31  25937044.415   136300182.407         686.935          46.000    25937050.708   104437864.660         526.447          50.000  
G20  25802352.589   135592346.268        1277.482          41.000                                                                  
E13  28093851.448   147634178.072       -2711.765          42.000    28093853.974   113122369.780       -2077.805          44.000  
E14  20285479.610   106600989.050        -570.313          49.000    20285487.997    81681317.580        -437.011          53.000  
E26  25211361.533   132486936.611        -232.925          46.000    25211364.799   101516151.752        -178.440          52.000  
E21  27572645.934   144895194.587       -2284.027          40.000    27572649.950   111023589.908       -1750.250          45.000  
G06                                                                  25315771.942   103663942.568       -2669.392          34.000  
> 2024 04 16 02 04 30.0030000  0 25                     
G25  21741247.903   114251075.808         189.185          48.000    21741248.396    89026831.309         147.339          45.000  
G24  22951171.938   120609199.515       -3671.942          49.000    22951173.751    93981181.261       -2861.248          50.000  
G32  24271455.729   127547363.311       -2060.310          49.000    24271458.496    99387560.3831      -1605.551          40.000  
E09  27404426.317   144011199.137       -1121.561          45.000    27404436.281   110346229.319        -859.442          49.000  
R16  21225684.651   113383781.837       -1842.900          50.000    21225685.525    88187378.499       -1433.222          50.000  
R09  21002744.389   112153501.619        1290.739          51.000    21002742.913    87230597.632        1003.930          51.000  
R20  23021478.510   123106190.1313       3496.845          35.000    23021491.955    95749326.3591       2719.979          40.000  
G29  21963638.708   115419701.432         832.723          47.000    21963639.936    89937457.432         648.904          43.000  
S33  40537234.758   213024609.095        -713.801          35.000  
S31  39584089.359   208015794.995        -713.264          43.000  
G28  24236422.878   127363259.931        2428.506          41.000    24236421.893    99244071.906        1892.257          40.000  
G11  23331067.098   122605842.964       -1660.587          46.000    23331065.268    95537124.100       -1293.903          43.000  
R18  21817796.705   116464937.166       -3759.302          53.000    21817796.042    90583867.109       -2923.901          49.000  
R19  20184257.285   107972488.684        -463.839          40.000    20184256.780    83978776.051        -360.646          49.000  
E04  27054813.679   142173972.986       -2989.009          42.000    27054825.315   108938548.785       -2290.213          44.000  
G12  22211851.306   116724071.403       -1375.857          45.000    22211849.863    90953814.600       -1072.186          47.000  
E33  26071698.955   137007688.228        1959.127          43.000    26071704.948   104979924.196        1501.186          45.000  
E31  25933122.379   136279574.698         686.583          46.000    25933129.037   104422074.435         526.137          50.000  
G20  25795075.305   135554102.856        1272.219          40.000                                                                  
E13  28109361.302   147715683.116       -2722.100          42.000    28109363.945   113184821.825       -2085.669          43.000  
E14  20288826.265   106618579.618        -602.484          51.000    20288835.081    81694796.705        -461.621          58.000  
E26  25212732.290   132494139.019        -247.428          45.000    25212735.405   101521670.531        -189.553          52.000  
E21  27585691.243   144963745.415       -2286.227          41.000    27585694.205   111076115.845       -1751.607          44.000  
R15                                                                  24998796.495                3      -2874.816          17.000  
G06                                                                  25335364.913   103744171.082       -2679.535          33.000  
> 2024 04 16 02 05 00.0030000  0 26                     
G25  21740179.415   114245462.793         185.022          48.000    21740179.705    89022458.131         144.159          46.000  
G24  22972165.143   120719519.590       -3682.204          38.000    22972166.868    94067144.888       -2869.604          37.000  
G32  24283255.847   127609374.1381      -2074.532          41.000    24283260.557    99435893.0931      -1616.511          38.000  
E09  27410866.146   144045037.675       -1134.511          45.000    27410875.641   110372157.248        -869.218          49.000  
R16  21236069.633   113439257.449       -1855.702          51.000    21236070.817    88230526.118       -1443.347          50.000  
R09  20995513.155   112114889.513        1283.164          50.000    20995511.858    87200566.242         998.028          50.000  
R10  24182306.003                3       2561.930          25.000                                                                  
R20  23001881.557   123001401.1702       3487.982          40.000    23001895.183    95667820.155        2712.891          46.000  
G29  21958923.007   115394919.715         819.288          49.000    21958924.452    89918147.593         638.318          45.000  
S33  40541310.032   213046024.674        -713.812          42.000  
S31  39588160.626   208037187.390        -713.193          38.000  
G28  24222578.183   127290505.584        2421.669          41.000    24222577.958    99187380.219        1887.109          41.000  
G06  25355037.911                3      -3450.198          25.000    25355025.562   103824680.102       -2688.077          32.000  
G11  23340601.679   122655942.385       -1679.547          47.000    23340600.277    95576162.682       -1308.653          46.000  
R18  21838971.998   116577971.149       -3776.434          53.000    21838971.342    90671782.506       -2937.207          49.000  
R19  20186934.029   107986805.800        -491.216          41.000    20186933.471    83989911.519        -381.891          48.000  
E04  27071891.264   142263714.377       -2994.156          40.000    27071902.865   109007311.475       -2293.793          41.000  
G12  22219719.484   116765414.825       -1380.570          46.000    22219717.302    90986030.237       -1075.829          48.000  
E33  26060532.695   136949007.520        1952.611          43.000    26060538.698   104934960.980        1495.739          45.000  
E31  25929202.265   136258975.354         686.532          46.000    25929208.914   104406290.625         526.039          50.000  
G20  25787823.946   135515998.636        1267.604          41.000                                                                  
E13  28124929.170   147797492.807       -2731.983          43.000    28124931.997   113247507.344       -2093.250          44.000  
E14  20292355.604   106637131.632        -634.440          48.000    20292364.932    81709012.250        -486.118          54.000  
E26  25214184.927   132501770.164        -261.414          47.000    25214187.814   101527517.839        -200.396          53.000  
E21  27598745.983   145032349.179       -2287.762          41.000    27598749.270   111128682.353       -1752.842          45.000  
R15                                                                  25019559.909                3      -2877.080          20.000  
> 2024 04 16 02 05 30.0030000  0 26                     
G25  21739134.075   114239972.165         180.627          47.000    21739134.224    89018180.589         141.040          43.000  
G24  22993220.714   120830167.116       -3693.930          50.000    22993222.418    94153364.025       -2878.359          47.000  
G32  24295136.252   127671806.882       -2088.431          45.000    24295142.833    99484549.2351      -1626.970          43.000  
E09  27417378.058   144079255.015       -1147.281          45.000    27417387.072   110398375.399        -878.916          49.000  
R16  21246527.517   113495117.475       -1868.715          50.000    21246527.376    88273972.765       -1453.406          50.000  
R09  20988323.177   112076501.239        1275.529          51.000    20988321.487    87170709.312         992.206          50.000  
R10  24167907.045                3       2564.338          24.000                                                                  
R20  22982337.560   122896889.5081       3479.526          33.000    22982343.694    95586500.5441       2705.818          40.000  
G29  21954284.021   115370540.462         805.597          49.000    21954285.567    89899151.057         627.728          45.000  
S33  40545382.168   213067425.015        -713.571          43.000  
S31  39592229.124   208058567.763        -712.482          44.000  
G28  24208772.276   127217956.032        2414.654          42.000    24208772.797    99130848.143        1881.699          42.000  
G11  23350240.384   122706598.171       -1697.717          45.000    23350239.046    95615634.848       -1323.213          45.000  
R18  21860241.401   116691512.067       -3793.475          53.000    21860241.466    90760092.159       -2950.464          48.000  
R19  20189763.416   108001938.473        -518.121          42.000    20189762.553    84001681.866        -403.115          49.000  
E04  27088994.832   142353604.145       -2999.203          38.000    27089009.091   109076187.873       -2297.838          45.000  
G12  22227613.839   116806897.374       -1385.349          47.000    22227610.930    91018354.285       -1079.377          47.000  
E33  26049402.948   136890519.925        1945.876          47.000    26049409.424   104890172.4081       1490.866          50.000  
E31  25925283.013   136238378.108         686.122          47.000    25925289.075   104390508.433         525.870          50.000  
G20  25780598.096   135478029.783        1263.042          42.000                                                                  
E13  28140553.177   147879599.266       -2742.229          43.000    28140556.590   113310420.190       -2101.092          44.000  
E14  20296067.761   106656636.485        -666.200          45.000    20296076.327    81723957.935        -510.416          48.000  
E26  25215717.195   132509824.200        -275.900          46.000    25215720.613   101533689.168        -211.330          53.000  
E21  27611809.029   145100999.989       -2289.228          39.000    27611813.839   111181284.891       -1754.354          47.000  
R15                                                                  25040282.069                3      -2873.470          15.000  
G06                                                                  25374754.206                       -2697.386          32.000  
> 2024 04 16 02 06 00.0030000  0 25                     
G25  21738112.873   114234609.522         176.312          46.000    21738112.748    89014002.276         137.488          42.000  
G24  23014338.449   120941145.374       -3705.002          47.000    23014341.003    94239840.631       -2886.851          42.000  
G32  24307096.666   127734655.8351      -2102.311          42.000    24307100.888    99533519.000       -1638.089          33.000  
E09  27423962.205   144113857.269       -1160.183          45.000    27423972.142   110424888.478        -888.822          48.000  
R16  21257056.842   113551369.668       -1882.062          49.000    21257057.960    88317724.385       -1463.730          49.000  
R09  20981177.814   112038344.165        1267.547          51.000    20981176.491    87141031.593         985.908          52.000  
R10  24153441.436                1       2568.019          31.000                                                                  
R20  22962842.395   122792651.076        3469.392          39.000    22962850.894    95505418.195        2698.582          44.000  
G29  21949722.041   115346571.023         791.744          48.000    21949724.080    89880473.793         616.944          45.000  
S33  40549453.169   213088817.419        -713.166          41.000  
S31  39596295.435   208079939.217        -712.756          39.000  
G28  24195007.159   127145620.693        2406.961          43.000    24195007.971    99074482.986        1875.666          41.000  
G11  23359987.269   122757816.433       -1717.039          46.000    23359986.039    95655545.235       -1337.911          45.000  
R18  21881606.226   116805562.777       -3810.571          53.000    21881606.845    90848798.336       -2963.696          49.000  
R19  20192746.273   108017891.737        -545.846          42.000    20192744.319    84014090.213        -424.477          48.000  
E04  27106130.282   142443646.033       -3004.237          40.000    27106143.954   109145180.325       -2302.178          45.000  
G12  22235535.420   116848526.422       -1390.419          47.000    22235533.183    91050792.469       -1083.357          48.000  
E33  26038312.634   136832261.8171       1938.897          47.000    26038318.101   104845519.8741       1485.330          50.000  
E31  25921365.169   136217789.887         685.860          47.000    25921371.207   104374733.154         525.446          50.000  
G20  25773400.037   135440206.230        1258.199          41.000                                                                  
E13  28156234.822   147962007.665       -2752.258          43.000    28156238.034   113373564.455       -2108.817          43.000  
E14  20299961.962   106677098.094        -698.284          49.000    20299969.606    81739636.297        -535.025          53.000  
E26  25217331.124   132518308.331        -290.314          47.000    25217334.825   101540190.052        -222.391          53.000  
E21  27624882.367   145169705.092       -2291.510          38.000    27624888.403   111233929.006       -1755.721          48.000  
G06                                                                  25394550.103   103986522.855       -2705.933          31.000  
> 2024 04 16 02 06 30.0030000  0 25                     
G25  21737118.553   114229384.801         171.484          47.000    21737118.354    89009931.052         133.856          44.000  
G24  23035521.675   121052461.062       -3716.630          42.000    23035522.777    94326630.0821      -2895.924          38.000  
G32  24319137.913   127797936.698       -2117.117          45.000    24319143.564    99582828.511       -1649.518          42.000  
E09  27430621.236   144148852.354       -1173.322          45.000    27430631.933   110451702.591        -899.131          48.000  
R16  21267663.059   113608023.724       -1895.535          50.000    21267664.324    88361788.590       -1474.313          49.000  
R09  20974078.197   112000430.362        1259.309          51.000    20974076.726    87111542.959         979.475          51.000  
R10  24138977.314                1       2570.957          31.000                                                                  
R20  22943403.359   122688706.720        3459.392          44.000    22943412.993    95424572.521        2690.521          47.000  
G29  21945239.864   115323020.035         777.736          48.000    21945242.894    89862122.552         605.985          46.000  
S33  40553524.638   213110212.173        -713.488          40.000  
S31  39600362.891   208101312.486        -712.798          45.000  
G28  24181285.196   127073510.691        2399.567          44.000    24181285.536    99018293.404        1869.606          41.000  
G11  23369843.018   122809604.856       -1736.190          45.000    23369840.650    95695899.898       -1352.909          45.000  
R18  21903068.572   116920127.950       -3827.743          52.000    21903069.012    90937904.612       -2977.031          48.000  
R19  20195882.631   108034673.919        -573.596          42.000    20195881.207    84027143.112        -446.013          48.000  
E04  27123295.566   142533848.153       -3009.478          39.000    27123309.081   109214295.915       -2306.079          45.000  
G12  22243486.737   116890311.165       -1395.821          48.000    22243484.998    91083351.983       -1087.645          48.000  
E33  26027261.427   136774196.159        1931.675          52.000    26027266.085   104801018.500        1480.085          56.000  
E31  25917450.608   136197219.422         685.138          47.000    25917456.714   104358971.474         524.914          50.000  
G20  25766232.196   135402539.666        1252.639          42.000                                                                  
E13  28171975.988   148044725.074       -2762.572          44.000    28171978.651   113436945.448       -2116.748          44.000  
E14  20304039.242   106698522.799        -730.491          49.000    20304046.272    81756052.758        -559.790          51.000  
E26  25219030.158   132527231.577        -305.137          47.000    25219032.986   101547027.368        -233.748          53.000  
E21  27637967.614   145238473.453       -2293.415          39.000    27637974.442   111286621.631       -1757.437          48.000  
G06                                                                  25414417.192                       -2716.737          30.000  
> 2024 04 16 02 07 00.0030000  0 25                     
G25  21736151.523   114224301.243         167.230          50.000    21736151.342    89005969.903         130.377          47.000  
G24  23056768.984   121164113.843       -3727.584          36.000    23056770.206                       -2904.226          28.000  
G32  24331260.167   127861631.7191      -2130.275          44.000    24331268.603    99632469.3841      -1660.090          44.000  
E09  27437355.869   144184241.302       -1186.009          44.000    27437366.351   110478818.596        -908.598          48.000  
R16  21278344.651   113665081.992       -1908.490          51.000    21278345.571    88406167.164       -1484.419          49.000  
R09  20967024.607   111962764.364        1251.442          51.000    20967023.518    87082247.179         973.520          51.000  
R10  24124498.259                        2573.392          28.000                                                                  
R20  22924020.355   122585053.793        3450.055          41.000    22924030.927    95343950.3481       2683.573          43.000  
G29  21940838.653   115299889.299         764.138          48.000    21940840.722    89844098.729         595.544          45.000  
S33  40557596.066   213131608.448        -713.023          46.000  
S31  39604430.130   208122688.318        -712.603          46.000  
G28  24167606.429   127001630.215        2392.316          43.000    24167606.567    98962282.661        1864.222          41.000  
G11  23379805.288   122861964.113       -1754.745          43.000    23379804.130    95736699.407       -1367.349          45.000  
R18  21924626.161   117035205.199       -3844.345          52.000    21924626.412    91027409.214       -2989.859          48.000  
R19  20199174.576   108052286.123        -600.523          42.000    20199172.962    84040841.280        -467.332          47.000  
E04  27140490.355   142624210.385       -3014.252          37.000    27140504.130   109283534.764       -2310.251          37.000  
G12  22251467.390   116932253.313       -1400.537          48.000    22251465.877    91116034.166       -1091.515          48.000  
E33  26016252.044   136716322.8071       1923.989          41.000    26016257.324   104756687.511        1475.305          48.000  
E31  25913539.389   136176668.335         684.745          47.000    25913545.615   104343224.635         524.790          49.000  
G20  25759095.080   135365034.354        1247.457          42.000                                                                  
E13  28187775.313   148127751.376       -2772.522          44.000    28187778.016   113500563.115       -2124.219          44.000  
E14  20308298.759   106720909.790        -762.221          49.000    20308305.785    81773206.665        -583.969          54.000  
E26  25220811.210   132536595.839        -319.364          47.000    25220814.556   101554202.627        -244.691          53.000  
E21  27651065.797   145307307.133       -2295.675          39.000    27651072.570   111339364.296       -1758.733          47.000  
G06                                                                  25434347.960                       -2725.281          28.000  
> 2024 04 16 02 07 30.0030000  0 25                     
G25  21735209.463   114219349.352         162.836          49.000    21735209.791    89002111.355         126.941          44.000  
G24  23078078.092   121276091.706       -3737.970          46.000    23078078.186    94500873.9871      -2912.756          41.000  
G32  24343461.368   127925754.274       -2144.381          41.000    24343466.765    99682427.531       -1670.757          41.000  
E09  27444163.032   144220012.717       -1199.015          43.000    27444173.759   110506227.646        -918.691          47.000  
R16  21289100.792   113722535.215       -1921.803          51.000    21289100.759    88450852.947       -1494.752          49.000  
R09  20960015.551   111925338.146        1243.449          50.000    20960015.005    87053137.808         967.118          52.000  
R10  24110003.442                        2576.814          28.000                                                                  
R20  22904693.163   122481687.880        3440.704          43.000    22904705.538    95263548.180        2676.194          40.000  
G29  21936514.791   115277168.339         750.500          48.000    21936516.161    89826394.129         584.818          44.000  
S33  40561666.559   213152997.984        -712.983          37.000  
S31  39608496.824   208144056.327        -711.841          38.000  
G28  24153970.269   126929971.683        2384.812          43.000    24153970.365    98906444.861        1858.188          42.000  
G11  23389875.322   122914883.159       -1773.363          44.000    23389874.704    95777935.132       -1381.769          45.000  
R18  21946277.479   117150779.855       -3860.833          52.000    21946276.882    91117300.651       -3002.793          48.000  
R19  20202620.718   108070718.241        -628.151          42.000    20202619.247    84055177.288        -488.636          47.000  
E04  27157712.976   142714722.342       -3019.380          41.000    27157726.231   109352889.773       -2313.761          44.000  
G12  22259477.294   116974343.133       -1405.471          49.000    22259475.470    91148831.388       -1095.194          48.000  
E33  26005282.933   136658677.169        1918.030          43.000    26005288.029   104712517.842        1469.833          45.000  
E31  25909630.932   136156126.610         684.629          47.000    25909636.491   104327484.978         524.499          49.000  
G20  25751986.477   135327683.164        1242.410          41.000                                                                  
E13  28203631.369   148211074.784       -2782.294          45.000    28203633.046   113564408.496       -2132.003          43.000  
E14  20312739.850   106744245.691        -793.685          48.000    20312746.095    81791087.480        -608.170          50.000  
E26  25222675.211   132546391.389        -333.807          46.000    25222678.773   101561708.357        -255.762          53.000  
E21  27664176.251   145376196.362       -2297.151          40.000    27664181.506   111392149.529       -1760.365          47.000  
G06                                                                  25454339.698                3      -2732.058          21.000  
> 2024 04 16 02 08 00.0030000  0 25                     
G25  21734292.208   114214528.174         158.081          49.000    21734292.519    88998354.288         123.248          45.000  
G24  23099447.967   121388390.794       -3749.028          43.000    23099447.913    94588379.838       -2921.392          41.000  
G32  24355739.018   127990276.4741      -2157.537          39.000    24355740.034    99732694.522       -1682.225          44.000  
E09  27451043.425   144256164.992       -1211.746          46.000    27451053.285   110533928.517        -928.419          50.000  
R16  21299929.371   113780383.628       -1935.219          51.000    21299930.036    88495846.044       -1505.172          49.000  
R09  20953052.323   111888153.866        1235.146          51.000    20953051.859    87024216.877         960.722          53.000  
R10  24095500.929                3       2579.716          25.000                                                                  
R20  22885421.318   122378621.451        3430.592          39.000    22885433.761    95183385.568        2667.692          45.000  
G29  21932268.827   115254856.207         736.633          47.000    21932270.321    89809008.005         574.003          44.000  
S33  40565735.622   213174379.254        -713.024          43.000  
S31  39612561.373   208165416.643        -712.034          43.000  
G28  24140376.799   126858536.711        2377.109          43.000    24140376.410    98850781.263        1852.188          43.000  
G11  23400052.617   122968360.186       -1792.078          44.000    23400049.990    95819605.589       -1396.655          44.000  
R18  21968020.689   117266846.957       -3877.468          51.000    21968019.669    91207575.128       -3015.653          47.000  
R19  20206219.552   108089969.200        -655.555          43.000    20206217.331    84070150.291        -510.044          48.000  
E04  27174964.198   142805378.531       -3024.742          43.000    27174975.599   109422355.673       -2317.738          45.000  
G12  22267514.680   117016580.283       -1410.610          48.000    22267512.934    91181743.428       -1099.298          48.000  
E33  25994353.714   136601242.795        1910.478          45.000    25994358.134   104668515.3001       1463.664          50.000  
E31  25905723.620   136135593.397         683.980          47.000    25905729.102   104311751.845         524.063          49.000  
G20  25744908.076   135290488.131        1237.046          40.000                                                                  
E13  28219543.265   148294692.750       -2792.592          45.000    28219545.171   113628479.551       -2139.696          43.000  
E14  20317360.358   106768527.331        -825.439          48.000    20317366.444    81809693.178        -632.452          49.000  
E26  25224621.923   132556617.607        -348.318          47.000    25224624.608   101569544.088        -266.952          53.000  
E21  27677296.621   145445140.552       -2299.415          41.000    27677301.087   111444976.887       -1761.828          48.000  
G06                                                                  25474410.346                3      -2746.927          22.000  
> 2024 04 16 02 08 30.0030000  0 25                     
G25  21733400.608   114209844.822         153.711          47.000    21733400.846    88994705.160         119.818          43.000  
G24  23120879.176   121501014.114       -3759.999          39.000    23120878.860    94676138.400       -2929.954          35.000  
G32  24368096.534   128055218.391       -2171.564          49.000    24368099.850    99783292.916       -1692.435          46.000  
E09  27457995.918   144292702.013       -1224.517          44.000    27458005.954   110561924.391        -937.982          46.000  
R16  21310834.068   113838632.559       -1948.500          50.000    21310834.298    88541150.716       -1515.468          49.000  
R09  20946135.970   111851217.354        1226.853          51.000    20946134.696    86995488.188         954.208          50.000  
R10  24080953.408                3       2581.302          19.000                                                                  
R20  22866204.352   122275866.360        3419.769          41.000    22866216.496    95103467.867        2659.804          42.000  
G29  21928101.773   115232957.587         722.871          47.000    21928103.086    89791944.216         563.013          44.000  
S33  40569803.691                        -714.006          31.000  
S31  39616625.805   208186773.125        -711.891          45.000  
G28  24126827.576   126787332.472        2369.294          44.000    24126826.971    98795297.427        1846.325          43.000  
G11  23410335.016   123022398.704       -1810.714          42.000    23410334.300    95861713.598       -1410.957          46.000  
R18  21989856.002   117383406.976       -3893.710          51.000    21989855.031    91298232.954       -3028.422          47.000  
R19  20209972.418   108110042.065        -683.229          44.000    20209970.741    84085762.150        -531.127          49.000  
E04  27192242.708   142896177.377       -3028.905          44.000    27192254.191   109491928.877       -2320.883          41.000  
G12  22275581.389   117058969.956       -1415.581          49.000    22275579.518    91214774.329       -1103.218          47.000  
E33  25983464.441   136544027.978        1903.260          46.000    25983468.082   104624667.978        1458.125          51.000  
E31  25901818.315   136115073.374         683.495          46.000    25901824.231   104296028.837         523.725          49.000  
G20  25737861.556   135253456.404        1231.383          43.000                                                                  
E13  28235511.706   148378608.157       -2802.237          45.000    28235513.571   113692778.505       -2147.178          44.000  
E14  20322161.483   106793755.748        -856.825          51.000    20322167.149    81829024.216        -656.594          52.000  
E26  25226650.459   132567279.383        -362.866          46.000    25226653.559   101577713.544        -278.039          53.000  
E21  27690426.848   145514144.754       -2301.258          40.000    27690432.090   111497850.220       -1763.435          47.000  
G06                                                                  25494538.491                3      -2757.074          21.000  
> 2024 04 16 02 09 00.0030000  0 25                     
G25  21732534.066   114205290.741         149.347          48.000    21732534.172    88991156.077         116.461          43.000  
G24  23142370.128   121613952.497       -3770.153          44.000    23142370.681    94764142.552       -2937.486          40.000  
G32  24380529.628   128120547.6381      -2185.398          43.000    24380535.134    99834213.3981      -1702.521          46.000  
E09  27465019.733   144329616.066       -1237.069          40.000    27465030.597   110590209.343        -947.235          42.000  
R16  21321811.789   113897275.518       -1961.537          49.000    21321812.974    88586761.837       -1525.728          50.000  
R09  20939265.050   111814525.222        1218.725          51.000    20939263.077    86966949.880         947.859          50.000  
R10  24066424.524                3       2585.770          24.000                                                                  
R20  22847043.130   122173409.568        3410.128          42.000    22847052.342    95023809.6061       2651.464          37.000  
G29  21924011.537   115211466.995         709.274          48.000    21924012.703    89775198.984         552.539          45.000  
S33  40573869.500   213217120.8531       -712.167          42.000  
S31  39620687.875   208208118.884        -711.698          43.000  
G28  24113321.616   126716354.396        2361.829          44.000    24113320.720    98739989.863        1840.431          43.000  
G11  23420723.951   123076990.745       -1829.064          44.000    23420721.773    95904252.903       -1425.182          45.000  
R18  22011781.962   117500448.565       -3909.588          51.000    22011781.453    91389265.353       -3040.790          48.000  
R19  20213877.375   108130928.891        -710.028          43.000    20213875.977    84102006.987        -552.348          47.000  
E04  27209547.314   142987113.249       -3033.629          45.000    27209558.876   109561607.155       -2324.656          48.000  
G12  22283676.182   117101505.514       -1420.508          49.000    22283673.418    91247918.890       -1106.874          47.000  
E33  25972615.176   136487022.047        1896.273          47.000    25972618.672   104580989.392        1453.445          37.000  
E31  25897915.228   136094559.568         683.378          46.000    25897920.733   104280310.580         523.731          50.000  
G20  25730844.449   135216583.883        1225.979          42.000                                                                  
E13  28251535.319   148462812.286       -2811.663          45.000    28251536.837   113757298.699       -2154.370          44.000  
E14  20327140.485   106819921.604        -888.015          51.000    20327146.331    81849073.689        -680.442          49.000  
E26  25228760.469   132578369.893        -377.128          47.000    25228764.056   101586211.515        -288.980          53.000  
E21  27703570.443   145583202.264       -2303.132          42.000    27703572.985   111550764.410       -1764.769          47.000  
G06                                                                  25514745.160                3      -2770.007          20.000  
> 2024 04 16 02 09 30.0030000  0 25                     
G25  21731694.225   114200873.523         144.519          49.000    21731693.286    88987714.003         112.561          44.000  
G24  23163920.797   121727207.537       -3780.803          45.000    23163922.682    94852393.535       -2946.030          48.000  
G32  24393040.152   128186291.0511      -2199.175          43.000    24393044.656    99885439.3121      -1713.772          41.000  
E09  27472116.649   144366911.452       -1249.787          44.000    27472127.328   110618786.888        -957.877          47.000  
R16  21332865.409   113956318.375       -1975.185          50.000    21332866.658    88632683.990       -1536.306          50.000  
R09  20932440.222   111778085.089        1210.017          51.000    20932438.724    86938607.794         941.110          50.000  
R10  24051871.125                        2587.517          30.000                                                                  
R20  22827939.835   122071258.973        3399.401          42.000    22827948.655    94944360.677        2643.744          43.000  
G29  21920000.156   115190386.028         695.341          49.000    21920000.998    89758772.211         541.871          44.000  
S33  40577934.151   213238482.026        -712.604          43.000  
S31  39624748.464   208229458.112        -711.691          43.000  
G28  24099859.517   126645609.943        2353.749          44.000    24099858.463    98684864.355        1834.228          43.000  
G11  23431219.234   123132140.125       -1847.877          43.000    23431216.365    95947226.520       -1439.936          45.000  
R18  22033798.092   117617972.506       -3925.916          50.000    22033798.100    91480672.944       -3053.460          49.000  
R19  20217935.227   108152636.876        -737.689          43.000    20217932.959    84118891.646        -573.797          48.000  
E04  27226878.106   143078187.913       -3038.643          43.000    27226889.954   109631391.085       -2328.197          47.000  
G12  22291798.860   117144192.217       -1425.795          48.000    22291796.980    91281181.254       -1111.068          47.000  
E33  25961806.729   136430233.527        1889.029          44.000    25961810.460                1       1447.412          48.000  
E31  25894013.137   136074056.911         682.779          46.000    25894019.186   104264600.864         523.253          50.000  
G20  25723860.059   135179878.318        1220.120          40.000                                                                  
E13  28267614.341   148547308.344       -2821.800          45.000    28267616.035   113822042.576       -2162.182          45.000  
E14  20332297.224   106847026.864        -919.563          48.000    20332303.601    81869843.403        -704.578          51.000  
E26  25230953.846   132589894.333        -391.670          47.000    25230956.873   101595041.977        -300.121          53.000  
E21  27716722.807   145652318.313       -2305.403          43.000    27716725.416   111603723.461       -1766.252          47.000  
G06                                                                  25535001.984                3      -2769.375          15.000  
> 2024 04 16 02 10 00.0030000  0 25                     
G25  21730882.521   114196607.305         139.630          47.000    21730881.174    88984390.007         108.563          40.000  
G24  23185535.177   121840790.775       -3791.969          41.000    23185537.189    94940899.927       -2954.707          41.000  
G32  24405630.512   128252456.3313      -2212.279          47.000    24405636.372    99937001.881       -1723.944          48.000  
E09  27479288.466   144404600.013       -1262.976          42.000    27479298.118   110647665.729        -967.946          45.000  
R16  21343996.167   114015775.666       -1988.991          51.000    21343996.366    88678928.512       -1546.924          49.000  
R09  20925666.114   111741911.425        1201.187          52.000    20925664.838    86910472.624         934.231          52.000  
R10  24037303.366                        2589.819          28.000                                                                  
R20  22808898.251   121969431.406        3388.390          34.000    22808906.264    94865140.0721       2635.514          36.000  
G29  21916069.714   115169730.496         681.363          49.000    21916070.001    89742677.363         530.850          44.000  
S33  40582000.250   213259853.8201       -712.429          39.000  
S31  39628810.426   208250805.304        -711.699          42.000  
G28  24086444.742   126575115.047        2345.612          44.000    24086443.459    98629933.299        1827.753          43.000  
G11  23441822.911   123187859.179       -1866.934          44.000    23441819.062    95990644.020       -1454.720          45.000  
R18  22055905.786   117735988.270       -3942.133          49.000    22055906.543    91572463.039       -3066.217          49.000  
R19  20222147.471   108175175.686        -765.271          43.000    20222146.398    84136422.129        -595.236          48.000  
E04  27244238.639   143169415.670       -3043.629          46.000    27244249.630   109701302.4841      -2332.060          47.000  
G12  22299953.040   117187043.643       -1431.300          48.000    22299951.157    91314571.928       -1115.352          47.000  
E33  25951044.347   136373673.110        1878.158          33.000    25951049.473   104494112.2121       1441.930          39.000  
E31  25890116.128   136053578.912         682.030          46.000    25890122.428   104248910.050         522.552          50.000  
G20  25716909.942   135143356.284        1214.161          39.000                                                                  
E13  28283751.266   148632107.964       -2831.900          44.000    28283752.732   113887019.041       -2170.004          45.000  
E14  20337635.730   106875082.408        -951.178          49.000    20337641.781    81891341.977        -728.858          54.000  
E26  25233231.450   132601866.266        -406.624          47.000    25233234.895   101604215.306        -311.641          53.000  
E21  27729888.122   145721506.671       -2307.452          42.000    27729892.045   111656737.922       -1768.196          48.000  
G06                                                                  25555320.770                3      -2776.218          13.000  
> 2024 04 16 02 10 30.0030000  0 24                     
G25  21730098.081   114192487.531         134.930          48.000    21730097.267    88981179.488         105.145          44.000  
G24  23207211.397   121954695.264       -3802.156          42.000    23207212.183    95029656.841       -2962.555          43.000  
G32  24418298.945   128319025.624       -2225.679          46.000    24418303.316    99988873.486       -1734.278          43.000  
E09  27486533.172   144442678.443       -1275.405          42.000    27486542.847   110676844.109        -977.393          46.000  
R16  21355202.109   114075644.370       -2002.370          49.000    21355204.714    88725493.011       -1557.355          50.000  
R09  20918941.941   111706003.951        1192.533          51.000    20918940.743    86882544.545         927.569          51.000  
R10  24022727.144                3       2597.859          19.000                                                                  
R20  22789914.620   121867930.572        3378.280          36.000    22789922.964    94786196.076        2627.572          42.000  
G29  21912219.069   115149495.511         667.636          49.000    21912219.224    89726910.136         520.379          45.000  
S33  40586066.689   213281226.045        -712.340          37.000  
S31  39632873.244   208272155.946        -711.682          48.000  
G28  24073076.622   126504868.625        2337.661          44.000    24073075.672    98575195.852        1821.417          43.000  
G11  23452532.978   123244143.162       -1885.406          42.000    23452528.738    96034501.731       -1469.309          45.000  
R18  22078104.564   117854487.963       -3957.898          49.000    22078105.111    91664629.488       -3078.275          49.000  
R19  20226515.321   108198542.724        -792.576          44.000    20226514.538    84154597.159        -616.528          49.000  
E04  27261627.084   143260787.820       -3048.223          44.000    27261637.027   109771315.046       -2335.644          42.000  
G12  22308138.764   117230057.045       -1436.317          47.000    22308136.657    91348088.820       -1119.310          48.000  
E33  25940325.435   136317344.166        1873.839          46.000    25940331.539   104450962.1791       1435.557          53.000  
E31  25886223.006   136033122.004         681.613          46.000    25886229.394   104233235.391         522.254          50.000  
G20  25709993.048   135107016.746        1208.243          39.000                                                                  
E13  28299944.864   148717205.831       -2841.598          44.000    28299946.454   113952224.000       -2177.182          46.000  
E14  20343152.907   106904079.000        -982.044          52.000    20343158.981    81913470.4321       -752.373          47.000  
E26  25235594.266   132614282.335        -421.182          46.000    25235597.540   101613728.940        -322.672          53.000  
E21  27743067.544   145790764.075       -2309.399          42.000    27743071.524   111709805.248       -1769.725          48.000  
> 2024 04 16 02 11 00.0030000  0 24                     
G25  21729341.632   114188512.427         129.938          50.000    21729341.084    88978081.747         101.160          47.000  
G24  23228948.085   122068917.523       -3812.854          46.000    23228948.073    95118670.1401      -2970.885          34.000  
G32  24431043.838   128385998.529       -2239.159          44.000    24431049.306   100041050.7001      -1745.749          35.000  
E09  27493852.054   144481138.520       -1288.619          45.000    27493861.454   110706313.708        -987.323          49.000  
R16  21366486.730   114135921.549       -2016.428          50.000    21366488.393    88772375.198       -1568.108          49.000  
R09  20912267.382   111670361.028        1183.471          52.000    20912266.355    86854822.063         920.477          52.000  
R10  24008123.292                3       2595.758          22.000                                                                  
R20  22770993.096   121766739.0961       3367.521          35.000    22771001.555    94707492.7981       2618.303          36.000  
G29  21908447.269   115129677.503         653.502          47.000    21908447.767    89711467.721         509.182          44.000  
S33  40590134.316   213302594.7831       -712.504          44.000  
S31  39636935.094                3       -692.773          28.000  
G28  24059756.260   126434869.653        2328.998          44.000    24059754.987    98520651.211        1814.727          43.000  
G11  23463348.828   123300987.375       -1904.523          43.000    23463346.984    96078795.997       -1484.004          46.000  
R18  22100392.091   117973463.591       -3973.954          47.000    22100393.426    91757166.114       -3090.876          49.000  
R19  20231037.576   108222733.337        -820.287          44.000    20231034.998    84173413.259        -637.970          47.000  
E04  27279040.139   143352300.068       -3052.659          44.000    27279050.653   109841435.230       -2339.232          45.000  
G12  22316354.295   117273228.900       -1441.897          48.000    22316351.994    91381729.208       -1123.539          48.000  
E33  25929651.282   136261244.091        1866.202          45.000    25929657.754   104407974.638        1430.247          45.000  
E31  25882333.689   136012682.738         680.766          47.000    25882339.762   104217574.243         521.671          50.000  
G20  25703112.527   135070858.977        1201.956          39.000                                                                  
E13  28316193.865   148802596.643       -2851.417          44.000    28316195.318   114017653.480       -2184.782          45.000  
E14  20348847.125   106934011.281       -1013.685          47.000    20348854.335    81936406.059        -776.712          50.000  
E26  25238041.678   132627139.158        -436.215          47.000    25238044.260   101623580.271        -334.165          53.000  
E21  27756258.924   145860087.284       -2312.005          43.000    27756263.155   111762923.025       -1771.579          48.000  
> 2024 04 16 02 11 30.0030000  0 25                     
G25  21728613.270   114184680.027         125.513          48.000    21728612.312    88975094.970          97.662          41.000  
G24  23250742.970   122183452.021       -3822.569          44.000    23250743.822    95207896.1071      -2978.823          41.000  
G32  24443865.053   128453365.6581      -2252.135          47.000    24443870.212   100093553.870       -1754.963          49.000  
E09  27501243.524   144519978.885       -1300.974          42.000    27501253.009   110736074.316        -996.302          44.000  
R16  21377847.648   114196605.636       -2029.314          51.000    21377848.828    88819573.884       -1578.424          50.000  
R09  20905642.412   111634983.967        1175.082          52.000    20905641.520    86827306.504         913.981          50.000  
R10  23993511.637                2       2596.775          26.000                                                                  
R20  22752133.107   121665879.5791       3356.092          39.000    22752141.310    94629058.010        2610.546          36.000  
G29  21904753.959   115110274.680         640.175          49.000    21904755.396    89696349.145         498.872          46.000  
S33  40594199.913   213323963.731        -711.996          40.000  
S31  39640998.341   208314846.1791       -711.353          44.000  
G28  24046482.364   126365118.463        2321.295          43.000    24046481.277    98466299.655        1808.704          42.000  
G11  23474272.492   123358388.563       -1922.617          41.000    23474270.015    96123524.259       -1498.070          45.000  
R18  22122768.125   118092908.834       -3988.984          50.000    22122769.470    91850067.998       -3102.516          49.000  
R19  20235711.804   108247743.895        -847.112          44.000    20235708.465    84192867.144        -658.934          47.000  
E04  27296480.345   143443947.263       -3057.117          45.000    27296490.655   109911658.582       -2342.546          45.000  
G12  22324599.064   117316557.512       -1446.630          48.000    22324597.339    91415491.718       -1127.299          47.000  
E33  25919021.501   136205374.664        1858.896          41.000    25919026.442   104365164.855        1424.106          45.000  
E31  25878447.312   135992259.002         680.741          47.000    25878453.174   104201924.993         521.557          50.000  
G20  25696267.478   135034883.728        1196.274          40.000                                                                  
E13  28332498.241   148888276.489       -2860.700          43.000    28332499.850   114083304.401       -2191.891          45.000  
E14  20354719.402   106964875.642       -1043.982          49.000    20354726.092    81960057.031        -799.884          51.000  
E26  25240570.885   132640434.664        -450.364          46.000    25240574.230   101633767.739        -345.062          53.000  
E21  27769461.550   145929474.470       -2313.791          42.000    27769467.028   111816089.835       -1772.973          48.000  
R15                                                                  24394487.409                3      -3082.897          11.000  
> 2024 04 16 02 12 00.0030000  0 25                     
G25  21727910.707   114180988.143         120.599          49.000    21727910.055    88972218.236          93.951          43.000  
G24  23272595.969   122298290.111       -3832.999          42.000    23272596.230    95297379.668       -2986.865          34.000  
G32  24456759.990   128521125.930       -2265.389          44.000    24456765.051   100146357.7561      -1764.811          41.000  
E09  27508706.337   144559195.381       -1313.670          43.000    27508715.329   110766123.730       -1006.320          44.000  
R16  21389284.445   114257692.909       -2043.067          52.000    21389283.977    88867086.119       -1588.866          49.000  
R09  20899066.943   111599869.915        1165.960          52.000    20899065.481    86799995.585         906.758          50.000  
R10  23978907.189                1       2599.457          29.000                                                                  
R20  22733332.540   121565344.321        3345.217          44.000    22733339.426    94550850.7721       2601.682          41.000  
G29  21901139.640   115091281.691         626.266          48.000    21901140.884    89681549.940         487.960          44.000  
S33  40598265.403                3       -704.297          29.000  
S31  39645059.477   208336187.161        -711.302          45.000  
G28  24033255.968   126295612.957        2312.720          44.000    24033255.188    98412139.553        1801.954          42.000  
G11  23485300.276   123416340.809       -1940.970          43.000    23485298.032    96168681.888       -1512.385          45.000  
R18  22145231.096   118212814.721       -4004.526          49.000    22145232.267    91943328.190       -3114.706          49.000  
R19  20240538.492   108273567.804        -874.432          43.000    20240535.723    84212953.383        -680.532          45.000  
E04  27313943.082   143535725.108       -3061.318          48.000    27313953.545   109981983.365       -2345.711          52.000  
G12  22332873.592   117360038.745       -1452.010          48.000    22332871.249    91449373.158       -1131.464          47.000  
E33  25908434.087   136149730.380        1851.142          47.000    25908439.129   104322526.556        1418.700          51.000  
E31  25874562.279   135971846.243         680.143          46.000    25874568.721   104186284.136         521.220          50.000  
G20  25689455.579   134999089.329        1190.047          39.000                                                                  
E13  28348855.396   148974238.895       -2870.012          41.000    28348857.558   114149171.849       -2199.090          45.000  
E14  20360769.040   106996659.003       -1074.880          46.000    20360774.405    81984410.239        -823.551          48.000  
E26  25243183.349   132654164.403        -464.842          46.000    25243186.914   101644287.938        -356.304          54.000  
E21  27782677.677   145998921.344       -2315.782          43.000    27782682.143   111869302.343       -1774.562          48.000  
R15                                                                  24415047.171                3      -3086.551          12.000  
> 2024 04 16 02 12 30.0030000  0 24                     
G25  21727236.279   114177441.519         115.582          48.000    21727235.813    88969454.430          90.167          43.000  
G24  23294507.168   122413436.463       -3843.356          45.000    23294508.247    95387103.734       -2994.806          43.000  
G32  24469730.638   128589314.5981      -2278.634          47.000    24469735.687   100199467.597       -1775.482          45.000  
E09  27516241.052   144598790.370       -1326.181          42.000    27516250.386   110796462.529       -1016.062          41.000  
R16  21400796.026   114319189.897       -2056.715          51.000    21400796.058    88914917.077       -1599.690          49.000  
R09  20892542.201   111565027.462        1156.925          52.000    20892540.770    86772896.077         899.915          50.000  
R10  23964273.712                3       2599.853          22.000                                                                  
R20  22714597.658   121465169.0141       3333.916          43.000    22714603.576    94472929.484        2592.376          38.000  
G29  21897604.693   115072703.805         612.254          49.000    21897604.929    89667074.128         477.005          44.000  
S33  40602329.646   213366680.5141       -711.917          43.000  
S31  39649120.271   208357526.693        -711.453          42.000  
G28  24020077.755   126226361.233        2304.073          44.000    24020077.012    98358177.209        1795.575          43.000  
G11  23496432.958   123474848.608       -1959.322          41.000    23496431.748    96214272.432       -1526.860          46.000  
R18  22167780.545   118333182.660       -4019.985          50.000    22167780.849    92036947.751       -3126.577          48.000  
R19  20245518.886   108300208.518        -901.760          42.000    20245515.904    84233673.987        -701.164          44.000  
E04  27331432.290   143627634.320       -3065.357          41.000    27331442.362   110052409.619       -2349.092          44.000  
G12  22341178.515   117403678.722       -1457.343          49.000    22341175.458    91483378.297       -1135.691          47.000  
E33  25897889.849   136094324.192        1843.048          46.000    25897894.702   104280097.4051       1412.147          49.000  
E31  25870681.325   135951450.119         679.485          46.000    25870687.435   104170656.039         520.747          50.000  
G20  25682679.557   134963483.525        1183.454          39.000                                                                  
E13  28365267.342   149060487.836       -2879.669          40.000    28365270.412   114215258.843       -2206.505          45.000  
E14  20366992.440   107029369.115       -1105.687          48.000    20366997.536    82009474.856        -847.201          51.000  
E26  25245879.201   132668334.166        -479.663          46.000    25245883.311   101655145.265        -367.486          54.000  
E21  27795905.857   146068433.833       -2318.150          44.000    27795910.238   111922565.153       -1776.229          48.000  
> 2024 04 16 02 13 00.0030000  0 24                     
G25  21726588.753   114174039.938         110.846          49.000    21726587.880    88966804.015          86.456          45.000  
G24  23316476.582   122528910.1751      -3853.363          47.000    23316477.458    95477064.372       -3002.877          36.000  
G32  24482773.706   128657843.119       -2291.740          44.000    24482778.258   100252884.345       -1785.330          41.000  
E09  27523846.972   144638764.473       -1338.785          44.000    27523855.707   110827093.235       -1025.771          46.000  
R16  21412385.388   114381094.697       -2070.406          51.000    21412385.046    88963065.179       -1610.299          49.000  
R09  20886068.050   111530456.674        1147.679          52.000    20886066.078    86746007.835         892.689          50.000  
R10  23949630.569                3       2601.891          20.000                                                                  
R20  22695921.216   121365300.8401       3322.536          41.000    22695929.753    94395269.4011       2583.974          41.000  
G29  21894147.501   115054539.969         598.430          48.000    21894147.977    89652921.344         466.477          43.000  
S33  40606393.618   213388036.146        -711.875          42.000  
S31  39653180.132   208378862.951        -711.285          44.000  
G28  24006948.141   126157363.646        2295.727          43.000    24006947.585    98304412.877        1788.678          44.000  
G11  23507671.086   123533908.443       -1977.753          41.000    23507669.881    96260293.147       -1541.295          46.000  
R18  22190414.427   118454006.215       -4035.005          49.000    22190414.802    92130921.678       -3138.439          48.000  
R19  20250651.549   108327664.799        -929.074          43.000    20250648.312    84254574.9271       -722.332          46.000  
E04  27348945.467   143719672.128       -3070.191          42.000    27348955.364   110122910.8481      -2352.618          44.000  
G12  22349512.700   117447475.519       -1462.625          49.000    22349509.500    91517505.643       -1139.628          47.000  
E33  25887389.765   136039150.347        1835.007          43.000    25887394.675                1       1406.665          45.000  
E31  25866802.732   135931068.507         678.994          46.000    25866808.733   104155039.070         520.301          50.000  
G20  25675939.675   134928067.557        1177.260          40.000                                                                  
E13  28381734.569   149147019.217       -2889.067          41.000    28381736.584   114281562.239       -2213.765          44.000  
E14  20373391.329   107062996.466       -1136.358          50.000    20373396.882    82035241.297        -870.668          54.000  
E26  25248658.999   132682941.762        -494.258          46.000    25248662.981   101666338.095        -378.781          54.000  
E21  27809145.977   146138010.029       -2320.337          44.000    27809150.348   111975876.750       -1777.905          48.000  
> 2024 04 16 02 13 30.0030000  0 24                     
G25  21725968.148   114170778.795         106.244          50.000    21725967.475    88964263.052          82.776          47.000  
G24  23338503.011   122644641.888       -3863.570          46.000    23338503.329    95567256.283       -3010.562          48.000  
G32  24495890.346   128726771.301       -2304.250          47.000    24495894.712   100306598.6791      -1795.221          44.000  
E09  27531524.089   144679108.107       -1351.241          41.000    27531532.285   110858006.381       -1035.127          45.000  
R16  21424049.146   114443403.180       -2084.012          50.000    21424050.019    89011527.265       -1620.926          49.000  
R09  20879643.935   111496154.614        1138.643          52.000    20879642.516    86719328.433         885.509          50.000  
R20  22677309.426   121265755.6633       3311.556          37.000    22677317.685    94317852.8911       2575.554          46.000  
G29  21890768.065   115036782.825         584.675          48.000    21890768.383    89639085.127         455.607          43.000  
S33  40610456.076   213409383.829        -711.775          41.000  
S31  39657238.710   208400190.411        -711.074          40.000  
G28  23993866.222   126088617.970        2287.205          43.000    23993865.864    98250844.851        1782.001          43.000  
G11  23519013.485   123593514.327       -1996.290          41.000    23519013.805    96306739.340       -1555.398          45.000  
R18  22213131.594   118575276.180       -4050.044          49.000    22213132.031    92225242.818       -3149.944          47.000  
R19  20255934.743   108355930.751        -956.043          41.000    20255932.264    84276559.821        -743.288          44.000  
E04  27366479.546   143811827.3991      -3074.196          41.000    27366490.268   110193531.047       -2355.453          48.000  
G12  22357875.244   117491424.848       -1467.733          48.000    22357872.767    91551751.881       -1143.842          46.000  
E33  25876935.288   135984205.510        1827.408          48.000    25876940.623   104195710.0241       1398.614          43.000  
E31  25862926.387   135910696.817         678.434          46.000    25862932.077   104139429.701         520.042          50.000  
G20  25669235.507   134892839.881        1170.670          38.000                                                                  
E13  28398253.166   149233826.633       -2898.673          39.000    28398255.012   114348077.134       -2220.911          43.000  
E14  20379962.760   107097534.420       -1166.823          50.000    20379968.939    82061705.447        -893.973          54.000  
E26  25251522.278   132697982.623        -508.850          47.000    25251525.294   101677862.868        -389.865          54.000  
E21  27822396.115   146207645.584       -2322.250          43.000    27822401.515   112029233.811       -1779.454          48.000  
R15                                                                  24480167.746                3      -3119.773          11.000  
> 2024 04 16 02 14 00.0030000  0 24                     
G25  21725373.858   114167657.048         101.434          50.000    21725373.145    88961830.688          78.986          46.000  
G24  23360584.041   122760681.561       -3872.563          38.000    23360584.831    95657687.9041      -3017.871          47.000  
G32  24509079.132   128796071.8621      -2316.448          40.000    24509082.672   100360597.0001      -1806.665          31.000  
E09  27539271.310   144719818.080       -1363.244          45.000    27539279.996   110889199.270       -1044.671          44.000  
R16  21435787.289   114506114.303       -2097.248          49.000    21435789.775    89060302.533       -1631.258          49.000  
R09  20873271.359   111462122.478        1129.653          53.000    20873269.526    86692858.905         878.634          50.000  
R10  23920291.883                3       2608.292          26.000                                                                  
R20  22658761.006   121166576.594        3299.630          35.000    22658767.277    94240700.9861       2565.877          34.000  
G29  21887465.354   115019431.571         571.395          49.000    21887465.542    89625565.255         445.316          44.000  
S33  40614516.951   213430738.0511       -711.370          41.000  
S31  39661294.707   208421508.291        -710.448          43.000  
G28  23980833.239   126020124.999        2278.784          44.000    23980831.791    98197473.724        1775.513          43.000  
G11  23530460.067   123653663.284       -2014.220          42.000    23530459.612    96353608.711       -1569.551          46.000  
R18  22235932.231   118696986.619       -4064.547          50.000    22235931.612    92319906.577       -3161.200          46.000  
R19  20261369.572   108385004.761        -982.465          42.000    20261366.712    84299173.577        -764.091          44.000  
E04  27384038.597   143904089.999       -3077.780          39.000    27384048.096   110264234.301       -2358.689          37.000  
G12  22366266.937   117535525.085       -1472.688          48.000    22366264.883    91586115.642       -1147.609          47.000  
E33  25866523.949   135929492.511        1819.583          45.000    25866529.119   104153787.265        1394.506          47.000  
E31  25859051.229   135890333.318         678.453          47.000    25859056.667   104123826.634         519.845          50.000  
G20  25662567.930   134857800.683        1165.117          38.000                                                                  
E13  28414824.164   149320906.455       -2907.325          39.000    28414825.412   114414800.776       -2227.777          44.000  
E14  20386708.036   107132977.604       -1196.685          49.000    20386713.650    82088863.074        -916.907          53.000  
E26  25254466.867   132713455.127        -523.165          47.000    25254469.554   101689718.432        -400.902          54.000  
E21  27835659.382   146277339.079       -2324.431          44.000    27835663.750   112082635.276       -1780.979          48.000  
> 2024 04 16 02 14 30.0030000  0 23                     
G25  21724806.526   114164675.295          97.052          47.000    21724805.774    88959506.802          75.549          43.000  
G24  23382720.746   122877012.242       -3882.499          45.000    23382724.128    95748341.7951      -3025.536          42.000  
G32  24522339.807   128865764.905       -2328.982          48.000    24522343.347   100414899.553       -1814.619          44.000  
E09  27547087.929   144760895.927       -1375.496          41.000    27547096.730   110920745.1561      -1053.745          43.000  
R16  21447603.934   114569229.951       -2110.591          50.000    21447604.975    89109392.418       -1641.640          48.000  
R09  20866949.677   111428363.446        1120.635          52.000    20866947.406    86666601.743         871.639          50.000  
R20  22640277.868   121067735.251        3288.817          43.000    22640283.598    94163820.8683       2558.158          48.000  
G29  21884240.619   115002485.996         558.173          49.000    21884240.590    89612361.093         434.991          45.000  
S33  40618575.023   213452064.873        -710.703          46.000  
S31  39665349.223   208442815.168        -710.083          45.000  
G28  23967848.723   125951888.183        2270.153          45.000    23967846.240    98144302.230        1768.908          42.000  
G11  23542009.340   123714354.917       -2032.169          42.000    23542006.950    96400900.930       -1583.383          44.000  
R18  22258814.548   118819134.249       -4078.845          47.000    22258814.168    92414910.333       -3172.534          47.000  
R19  20266954.879   108414882.679       -1009.261          47.000    20266952.979    84322411.377        -784.871          52.000  
E04  27401617.704   143996478.478       -3081.283          37.000    27401628.276   110335026.381       -2361.128          46.000  
G12  22374688.108   117579778.197       -1477.632          48.000    22374686.274    91620598.607       -1151.451          48.000  
E33  25856156.173   135875013.740        1812.025          48.000    25856161.454   104112044.290        1388.362          51.000  
E31  25855177.149   135869979.113         678.361          46.000    25855183.270   104108230.661         519.793          50.000  
G20  25655937.335   134822953.986        1158.288          39.000                                                                  
E13  28431446.780   149408257.911       -2916.054          38.000    28431447.884   114481732.545       -2234.616          45.000  
E14  20393625.653   107169324.113       -1226.592          47.000    20393630.386    82116713.090        -939.853          49.000  
E26  25257494.278   132729360.338        -537.432          48.000    25257496.323   101701905.551        -411.716          54.000  
E21  27848932.985   146347091.726       -2326.180          43.000    27848937.028   112136082.097       -1782.492          47.000  
