     3.00           OBSERVATION DATA    M: Mixed            RINEX VERSION / TYPE
CONVBIN 2.4.3                           20240416 105942 UTC PGM / RUN BY / DATE 
format: u-blox UBX                                          COMMENT             
log: /home/regis/git/gnsspwv/obsdata/VERT00CHL/2024-04-16/VECOMMENT             
{self.marker}                                               MARKER NAME         
                                                            MARKER NUMBER       
GEODETIC                                                    MARKER TYPE         
{self.observer}     {self.institution}                      OBSERVER / AGENCY   
UNKNOWN             UBLOX-ZED-F9P                           REC # / TYPE / VERS 
UNKNOWN             TWIVSP6037L                             ANT # / TYPE        
  1713381.0000 -5047934.0000 -3490983.0000                  APPROX POSITION XYZ 
        0.0000        0.0000        0.0000                  ANTENNA: DELTA H/E/N
G    8 C1C L1C D1C S1C C2L L2L D2L S2L                      SYS / # / OBS TYPES 
R    8 C1C L1C D1C S1C C2C L2C D2C S2C                      SYS / # / OBS TYPES 
E    8 C1C L1C D1C S1C C7Q L7Q D7Q S7Q                      SYS / # / OBS TYPES 
S    4 C1C L1C D1C S1C                                      SYS / # / OBS TYPES 
  2024    04    16    10    45   00.4950000     GPS         TIME OF FIRST OBS   
  2024    04    16    10    59   30.4950000     GPS         TIME OF LAST OBS    
                                                            END OF HEADER       
> 2024 04 16 10 45 00.4950000  0 24                     
G02  19778602.315   103937300.5341       1619.091          47.000                                                                  
E02  25370976.426   133325353.3871      -1743.585          45.000    25370978.631   102158379.2201      -1335.944          44.000  
G03  21111750.206   110943020.5811       1515.073          47.000    21111749.608    86449067.8211       1180.647          44.000  
R23  18070433.667    96664786.1551        374.970          49.000                                                                  
R24  20789159.467   111168823.9511       2801.279          42.000    20789156.614    86464751.6721       2178.666          43.000  
R08  17647796.794    94503189.3751      -1548.867          51.000    17647790.654    73502532.2061      -1204.658          49.000  
G21  18873042.560    99178519.4991       1261.912          47.000                                                                  
S33  38146126.396   200459331.2191       -623.219          42.000  
S31  37193185.603   195451610.8771       -623.556          44.000  
E36  23364286.195   122780164.2231        876.237          47.000    23364287.874    94078377.8131        671.403          50.000  
G10  22338091.792   117387607.7221      -3784.839          40.000    22338088.091    91470853.6971      -2949.310          35.000  
E11  21376177.538   112332610.1491       -768.951          43.000    21376175.136    86073101.6901       -589.255          49.000  
R01  19245574.914   102878805.0891       2578.870          50.000    19245573.789    80016700.5651       2005.707          45.000  
R22  19631333.995   104793494.6671      -2837.322          49.000    19631331.660    81506097.4761      -2206.756          48.000  
R07  20486540.349   109666068.7141      -4496.632          52.000    20486536.463    85295899.3871      -3497.378          47.000  
G27  20244526.610   106385718.7411      -3646.531          47.000    20244525.460    82897966.1271      -2841.498          44.000  
G08  18737838.184    98468079.7001      -1745.314          50.000    18737836.067    76728397.4401      -1359.930          47.000  
E04  22895059.282   120314403.1181       -991.789          48.000    22895059.149    92188992.6831       -759.942          51.000  
G28  23488771.165   123434310.7911       1575.257          43.000    23488772.172    96182592.2891       1227.440          43.000  
E25  25557780.624   134307124.8911      -3080.575          32.000    25557787.416   102910582.7841      -2360.129          42.000  
E09  23013358.807   120936079.5141       1553.010          47.000    23013361.219    92665285.7771       1189.904          52.000  
G32  20336264.880   106867847.1741      -2259.953          49.000    20336261.852    83273683.5871      -1761.285          42.000  
E12  25563431.404   134336819.8841      -2270.785          42.000    25563432.326   102933481.9021      -1740.100          45.000  
E10  23644358.889   124252140.6951      -1702.244          46.000    23644360.372    95206385.2611      -1304.419          51.000  
> 2024 04 16 10 45 30.4950000  0 24                     
G02  19769378.226   103888827.467        1612.762          47.000                                                                  
E02  25380961.029   133377823.109       -1754.223          44.000    25380963.878   102198583.230       -1344.095          45.000  
G03  21103125.254   110897693.703        1506.735          46.000    21103123.796    86413748.213        1174.365          44.000  
R23  18068371.902    96653753.724         360.668          49.000                                                                  
R24  20773446.479   111084801.232        2800.639          44.000    20773443.496    86399400.716        2177.951          43.000  
R08  17656543.676    94550027.007       -1573.262          51.000    17656537.709    73538961.475       -1223.740          50.000  
G21  18865863.600    99140795.004        1253.131          47.000                                                                  
S33  38149682.789   200478021.134        -622.911          42.000  
S31  37196745.234   195470316.808        -623.483          44.000  
E36  23359285.239   122753886.672         875.694          47.000    23359287.398    94058243.065         671.028          50.000  
G10  22359696.673   117501141.505       -3783.874          39.000    22359693.811    91559321.218       -2948.053          35.000  
E11  21380577.840   112355733.465        -772.638          44.000    21380575.461    86090819.496        -592.034          50.000  
R01  19231147.969   102801691.055        2562.152          50.000    19231148.027    79956722.990        1992.798          45.000  
R22  19647318.152   104878820.598       -2850.846          50.000    19647318.222    81572461.934       -2217.347          50.000  
R07  20511765.352   109801099.840       -4505.151          51.000    20511761.304    85400923.517       -3503.975          48.000  
G27  20265379.900   106495301.681       -3658.759          47.000    20265378.833    82983355.316       -2850.856          45.000  
G08  18747858.227    98520734.122       -1764.943          49.000    18747855.865    76769426.774       -1375.293          47.000  
E04  22900761.601   120344368.332       -1005.633          48.000    22900761.587    92211953.004        -770.526          51.000  
G28  23479785.696   123387094.516        1572.753          42.000    23479786.901    96145800.351        1225.571          44.000  
E25  25575372.323   134399543.544       -3080.585          31.000    25575373.334   102981397.069       -2360.715          41.000  
E09  23004520.565   120889635.198        1543.517          47.000    23004523.144    92629698.591        1182.622          51.000  
G32  20349220.424   106935929.756       -2278.760          49.000    20349217.319    83326734.899       -1775.538          42.000  
E12  25576405.708   134404999.443       -2274.417          42.000    25576406.291   102985723.113       -1742.559          44.000  
E10  23654090.257   124303276.869       -1706.518          47.000    23654091.355    95245567.409       -1307.593          51.000  
> 2024 04 16 10 46 00.4950000  0 24                     
G02  19760188.973   103840538.431        1606.738          47.000                                                                  
E02  25391005.961   133430612.715       -1764.926          43.000    25391009.936   102239032.296       -1352.244          46.000  
G03  21094546.178   110852616.204        1498.705          46.000    21094546.263    86378622.935        1167.745          45.000  
R23  18066390.819    96643151.236         346.354          50.000                                                                  
R24  20757737.737   111000796.918        2799.832          43.000    20757733.993    86334064.039        2177.799          44.000  
R08  17665427.502    94597598.620       -1597.713          51.000    17665421.062    73575961.578       -1242.742          50.000  
G21  18858735.242    99103334.849        1244.447          47.000                                                                  
S33  38153239.467   200496710.741        -622.768          42.000  
S31  37200304.772   195489021.196        -623.367          44.000  
E36  23354287.612   122727625.671         875.291          47.000    23354290.038    94038121.008         670.676          50.000  
G10  22381294.082   117614649.691       -3783.673          37.000    22381294.976    91647768.913       -2947.729          33.000  
E11  21384999.738   112378976.062        -776.377          43.000    21384998.557    86108628.708        -595.096          49.000  
R01  19216816.036   102725075.107        2545.679          50.000    19216814.873    79897132.818        1979.950          45.000  
R22  19663379.926   104964557.657       -2864.590          50.000    19663379.290    81639146.174       -2228.027          50.000  
R07  20537037.502   109936382.437       -4513.441          51.000    20537032.850    85506143.203       -3510.292          47.000  
G27  20286301.625   106605244.780       -3670.658          46.000    20286299.548    83069025.158       -2860.295          44.000  
G08  18757989.276    98573975.828       -1784.389          49.000    18757987.726    76810913.780       -1390.493          47.000  
E04  22906543.048   120374750.600       -1019.613          49.000    22906543.365    92235232.875        -781.202          51.000  
G28  23470814.914   123339950.176        1570.252          41.000    23470815.845    96109064.472        1223.635          44.000  
E25  25592959.196   134491988.022       -3081.525          33.000    25592964.890   103052231.113       -2361.350          41.000  
E09  22995738.503   120843481.570        1533.722          48.000    22995740.311    92594334.138        1175.186          52.000  
G32  20362281.771   107004570.517       -2297.187          48.000    20362279.176    83380221.127       -1789.873          41.000  
E12  25589399.169   134473285.341       -2277.700          41.000    25589399.971   103038045.846       -1745.388          42.000  
E10  23663845.219   124354539.454       -1710.728          47.000    23663846.421    95284846.417       -1310.881          51.000  
> 2024 04 16 10 46 30.4950000  0 24                     
G02  19751034.066   103792430.448        1600.823          47.000                                                                  
E02  25401111.001   133483716.150       -1775.042          43.000    25401115.056   102279721.840       -1360.346          46.000  
G03  21086014.771   110807783.556        1490.587          46.000    21086014.671    86343688.442        1161.526          44.000  
R23  18064488.293    96632976.679         332.199          50.000                                                                  
R24  20742031.604   110916808.329        2799.380          44.000    20742027.723    86268739.632        2177.366          44.000  
R08  17674446.623    94645897.450       -1621.813          51.000    17674440.107    73613527.338       -1261.484          50.000  
G21  18851656.493    99066136.527        1235.728          47.000                                                                  
S33  38156794.541   200515394.434        -622.509          42.000  
S31  37203863.001   195507720.482        -622.966          44.000  
E36  23349292.486   122701377.160         874.962          46.000    23349294.934    94018008.527         670.400          50.000  
G10  22402887.987   117728126.428       -3781.995          36.000    22402890.370    91736192.105       -2947.180          36.000  
E11  21389444.686   112402334.200        -779.989          42.000    21389443.458    86126526.452        -597.798          49.000  
R01  19202575.435   102648954.911        2529.102          50.000    19202573.827    79837928.192        1967.212          43.000  
R22  19679517.799   105050700.947       -2877.980          49.000    19679516.236    81706146.400       -2238.434          50.000  
R07  20562355.326   110071907.385       -4521.316          51.000    20562351.594    85611551.353       -3516.524          49.000  
G27  20307289.971   106715540.874       -3682.176          46.000    20307288.952    83154970.052       -2869.240          44.000  
G08  18768231.341    98627799.246       -1803.523          49.000    18768231.215    76852854.073       -1405.397          48.000  
E04  22912403.847   120405544.843       -1033.150          49.000    22912403.260    92258828.409        -791.624          51.000  
G28  23461857.164   123292876.058        1568.239          41.000    23461858.415    96072383.400        1221.963          44.000  
E25  25610553.413   134584451.907       -3082.615          33.000    25610560.225   103123080.053       -2361.777          41.000  
E09  22987009.264   120797615.457        1524.278          47.000    22987012.180    92559189.992        1167.936          52.000  
G32  20375448.475   107073762.975       -2315.460          48.000    20375446.488    83434137.300       -1804.239          41.000  
E12  25602413.227   134541673.453       -2281.197          41.000    25602414.151   103090446.880       -1747.864          42.000  
E10  23673622.828   124405924.494       -1714.621          46.000    23673624.460    95324219.266       -1313.846          51.000  
> 2024 04 16 10 47 00.4950000  0 24                     
G02  19741912.973   103744499.772        1594.929          47.000                                                                  
E02  25411275.502   133537126.577       -1784.911          43.000    25411278.479   102320646.613       -1367.888          46.000  
G03  21077528.703   110763190.395        1482.661          47.000    21077528.568    86308940.552        1155.338          44.000  
R23  18062666.014    96623227.131         318.058          50.000                                                                  
R24  20726328.607   110832832.764        2799.223          45.000    20726324.630    86203425.347        2177.169          45.000  
R08  17683601.060    94694915.463       -1645.643          51.000    17683593.766    73651652.429       -1279.932          50.000  
G21  18844627.190    99029197.093        1227.084          47.000                                                                  
S33  38160348.075   200534068.393        -622.216          42.000  
S31  37207419.391   195526409.277        -622.545          44.000  
E36  23344298.779   122675136.282         874.750          46.000    23344301.402    93997901.877         670.291          50.000  
G10  22424474.865   117841564.995       -3780.328          35.000    22424477.766    91824585.510       -2945.709          36.000  
E11  21393910.204   112425803.228        -783.829          41.000    21393909.421    86144509.141        -600.567          49.000  
R01  19188428.272   102573327.660        2512.885          50.000    19188426.124    79779107.004        1954.596          43.000  
R22  19695730.524   105137244.830       -2891.293          50.000    19695728.995    81773458.171       -2248.707          49.000  
R07  20587716.103   110207665.136       -4528.930          51.000    20587712.255    85717140.602       -3522.485          48.000  
G27  20328344.513   106826182.128       -3693.476          47.000    20328342.642    83241183.883       -2878.246          44.000  
G08  18778583.062    98682198.058       -1822.652          49.000    18778582.868    76895242.691       -1420.161          47.000  
E04  22918341.160   120436745.218       -1046.545          49.000    22918340.309    92282735.137        -801.912          51.000  
G28  23452911.822   123245869.808        1565.839          41.000    23452912.695    96035755.108        1220.131          43.000  
E25  25628151.963   134676927.606       -3082.222          34.000    25628157.777   103193938.017       -2361.951          39.000  
E09  22978336.123   120752033.037        1514.840          48.000    22978338.202    92524263.197        1160.745          52.000  
G32  20388720.329   107143499.862       -2333.393          49.000    20388717.282    83488477.651       -1818.074          42.000  
E12  25615446.133   134610158.662       -2284.152          41.000    25615446.480   103142922.274       -1750.088          42.000  
E10  23683424.237   124457427.208       -1718.529          46.000    23683425.119    95363682.273       -1316.782          51.000  
> 2024 04 16 10 47 30.4950000  0 24                     
G02  19732825.117   103696742.755        1589.242          47.000                                                                  
E02  25421495.555   133590836.896       -1795.155          42.000    25421499.239   102361801.234       -1375.474          45.000  
G03  21069087.269   110718831.155        1475.000          46.000    21069086.858    86274374.920        1149.206          44.000  
R23  18060922.635    96613899.710         304.167          50.000                                                                  
R24  20710626.613   110748866.666        2798.862          46.000    20710622.937    86138118.397        2177.015          46.000  
R08  17692887.762    94744644.671       -1669.142          51.000    17692880.376    73690330.681       -1298.239          50.000  
G21  18837646.989    98992512.476        1218.940          48.000                                                                  
S33  38163898.553   200552725.777        -621.469          42.000  
S31  37210972.479   195545081.483        -621.841          44.000  
E36  23339305.931   122648897.998         874.865          46.000    23339308.340    93977797.235         670.377          50.000  
G10  22446056.151   117954958.612       -3778.754          39.000    22446055.888    91912943.921       -2944.275          36.000  
E11  21398396.672   112449378.326        -787.519          41.000    21398395.564    86162573.118        -603.354          49.000  
R01  19174372.254   102498190.190        2496.715          50.000    19174370.748    79720666.709        1942.054          44.000  
R22  19712016.498   105224183.348       -2904.232          49.000    19712015.344    81841076.880       -2258.845          49.000  
R07  20613117.824   110343646.112       -4536.027          51.000    20613113.082    85822903.457       -3528.120          48.000  
G27  20349462.671   106937160.553       -3704.633          46.000    20349461.044    83327660.464       -2886.642          44.000  
G08  18789042.670    98737165.660       -1841.475          49.000    18789042.560    76938074.568       -1434.963          47.000  
E04  22924354.895   120468345.694       -1059.754          49.000    22924353.531    92306948.444        -812.030          51.000  
G28  23443979.397   123198928.792        1564.032          44.000    23443980.238    95999177.675        1218.650          43.000  
E25  25645753.524   134769407.572       -3082.309          36.000    25645755.786   103264799.262       -2361.983          37.000  
E09  22969715.244   120706730.232        1505.652          48.000    22969717.385    92489550.670        1153.680          52.000  
G32  20402092.953   107213773.686       -2351.179          49.000    20402088.844    83543236.409       -1832.013          41.000  
E12  25628495.747   134678735.839       -2287.265          41.000    25628496.970   103195468.176       -1752.582          42.000  
E10  23693245.990   124509042.620       -1722.166          46.000    23693247.130    95403231.633       -1319.587          50.000  
> 2024 04 16 10 48 00.4950000  0 24                     
G02  19723771.487   103649167.096        1582.908          48.000                                                                  
E02  25431774.243   133644851.907       -1805.404          42.000    25431777.923   102403189.283       -1383.329          45.000  
G03  21060690.656   110674712.071        1466.814          46.000    21060691.404    86239996.415        1142.905          44.000  
R23  18059259.726    96605003.288         289.553          50.000                                                                  
R24  20694927.089   110664918.956        2797.988          46.000    20694923.686    86072825.743        2176.172          46.000  
R08  17702306.689    94795088.878       -1693.241          50.000    17702301.617    73729565.031       -1316.957          51.000  
G21  18830715.854    98956091.381        1209.776          48.000                                                                  
S33  38167446.737   200571371.348        -621.266          42.000  
S31  37214523.567   195563742.711        -621.686          44.000  
E36  23334314.439   122622669.094         874.354          46.000    23334317.113    93957699.791         669.997          50.000  
G10  22467627.713   118068312.230       -3777.545          39.000    22467626.658    92001271.165       -2943.256          37.000  
E11  21402905.103   112473066.500        -791.316          42.000    21402903.423    86180723.740        -606.472          49.000  
R01  19160409.852   102423551.182        2479.876          50.000    19160407.357    79662614.125        1928.932          43.000  
R22  19728377.866   105311522.677       -2917.980          48.000    19728376.398    81909007.316       -2269.507          48.000  
R07  20638562.576   110479852.763       -4543.833          50.000    20638557.873    85928841.775       -3534.025          47.000  
G27  20370646.312   107048479.883       -3716.035          46.000    20370644.540    83414402.670       -2895.521          44.000  
G08  18799612.279    98792707.301       -1860.800          50.000    18799611.649    76981353.714       -1450.053          47.000  
E04  22930445.050   120500351.999       -1073.507          49.000    22930444.118    92331472.709        -822.560          50.000  
G28  23435061.029   123152062.093        1561.149          44.000    23435060.852    95962658.191        1216.501          41.000  
E25  25663352.476   134861895.924       -3082.790          35.000    25663355.537   103335666.860       -2362.269          37.000  
E09  22961148.690   120661714.734        1495.959          47.000    22961151.261    92455058.285        1146.236          52.000  
G32  20415568.960   107284588.781       -2369.272          49.000    20415565.525    83598416.942       -1846.185          43.000  
E12  25641564.366   134747411.677       -2290.497          40.000    25641565.848   103248089.649       -1755.305          43.000  
E10  23703091.063   124560777.589       -1726.326          46.000    23703092.172    95442872.598       -1322.796          50.000  
> 2024 04 16 10 48 30.4950000  0 24                     
G02  19714752.017   103601765.892        1577.039          48.000                                                                  
E02  25442109.488   133699161.305       -1815.244          42.000    25442112.642   102444802.922       -1390.802          46.000  
G03  21052339.587   110630824.386        1459.147          46.000    21052340.131    86205798.201        1137.012          45.000  
R23  18057675.507    96596531.440         275.319          50.000                                                                  
R24  20679230.094   110580983.005        2797.645          47.000    20679227.043    86007542.218        2175.901          46.000  
R08  17711857.714    94846237.120       -1716.597          50.000    17711852.801    73769346.992       -1335.185          50.000  
G21  18823833.841    98919927.165        1201.143          47.000                                                                  
S33  38170991.566   200589999.126        -620.626          42.000  
S31  37218071.173   195582385.660        -621.232          44.000  
E36  23329323.730   122596441.352         874.363          46.000    23329326.083    93937603.238         669.892          50.000  
G10  22489189.112   118181615.929       -3776.222          39.000    22489188.130    92089559.400       -2941.950          38.000  
E11  21407432.438   112496859.834        -794.971          42.000    21407431.047    86198954.930        -609.135          49.000  
R01  19146539.226   102349404.419        2463.427          50.000    19146537.564    79604944.393        1915.837          44.000  
R22  19744812.471   105399253.504       -2930.926          49.000    19744811.337    81977242.264       -2279.678          48.000  
R07  20664047.322   110616272.042       -4550.826          49.000    20664042.288    86034945.508       -3539.443          48.000  
G27  20391892.606   107160128.875       -3727.068          46.000    20391891.138    83501401.794       -2904.260          45.000  
G08  18810289.285    98848813.173       -1879.588          50.000    18810288.221    77025072.538       -1464.608          47.000  
E04  22936610.903   120532754.813       -1086.552          48.000    22936610.025    92356300.793        -832.624          50.000  
G28  23426155.338   123105263.938        1558.832          43.000    23426155.440    95926192.073        1214.620          41.000  
E25  25680951.221   134954381.857       -3082.794          35.000    25680954.653   103406532.686       -2361.968          37.000  
E09  22952636.419   120616979.239        1486.483          48.000    22952638.125    92420780.425        1138.997          52.000  
G32  20429145.014   107355934.397       -2386.937          49.000    20429142.371    83654010.880       -1860.123          43.000  
E12  25654649.865   134816177.878       -2293.871          40.000    25654652.147   103300780.325       -1757.535          44.000  
E10  23712956.937   124612623.959       -1730.161          45.000    23712958.504    95482598.910       -1325.630          51.000  
> 2024 04 16 10 49 00.4950000  0 24                     
G02  19705765.438   103554540.912        1571.234          48.000                                                                  
E02  25452500.469   133753763.724       -1824.768          43.000    25452503.212   102486641.087       -1398.390          45.000  
G03  21044032.685   110587168.268        1451.254          46.000    21044032.817    86171780.453        1130.774          44.000  
R23  18056170.782    96588487.120         261.060          49.000                                                                  
R24  20663536.506   110497061.318        2797.091          47.000    20663533.086    85942269.811        2175.507          46.000  
R08  17721540.531    94898086.298       -1739.942          51.000    17721535.280    73809674.100       -1353.300          50.000  
G21  18817001.396    98884022.162        1192.445          47.000                                                                  
S33  38174532.790   200608607.606        -620.229          42.000  
S31  37221615.367   195601010.164        -620.441          44.000  
E36  23324333.198   122570215.539         874.197          46.000    23324335.509    93917508.146         669.866          50.000  
G10  22510739.516   118294868.535       -3774.244          39.000    22510739.108    92177807.845       -2940.967          37.000  
E11  21411980.486   112520759.218        -798.172          42.000    21411979.213    86217267.369        -611.694          49.000  
R01  19132760.233   102275752.498        2446.695          50.000    19132759.808    79547659.540        1903.204          44.000  
R22  19761322.535   105487375.757       -2943.966          50.000    19761320.480    82045781.688       -2289.692          50.000  
R07  20689570.313   110752900.340       -4557.654          48.000    20689566.184    86141211.838       -3544.862          48.000  
G27  20413200.372   107272105.126       -3738.062          45.000    20413199.801    83588655.889       -2912.535          44.000  
G08  18821073.495    98905482.357       -1898.313          50.000    18821072.133    77069230.267       -1479.125          47.000  
E04  22942852.678   120565553.849       -1099.793          49.000    22942851.261    92381432.479        -842.821          50.000  
G28  23417262.876   123058537.401        1556.108          42.000    23417264.837    95889781.744        1212.791          41.000  
E25  25698553.108   135046863.463       -3082.884          37.000    25698554.178   103477395.172       -2361.977          39.000  
E09  22944176.857   120572525.367        1477.176          48.000    22944179.223    92386718.370        1131.849          52.000  
G32  20442822.144   107427808.788       -2404.517          49.000    20442820.058    83710016.821       -1873.848          44.000  
E12  25667754.638   134885034.790       -2296.774          41.000    25667755.148   103353540.531       -1759.743          43.000  
E10  23722844.876   124664582.502       -1733.900          46.000    23722845.952    95522411.199       -1328.497          50.000  
> 2024 04 16 10 49 30.4950000  0 24                     
G02  19696814.052   103507501.386        1564.900          48.000                                                                  
E02  25462948.009   133808665.232       -1835.119          43.000    25462951.223   102528708.395       -1405.868          46.000  
G03  21035770.873   110543751.150        1443.376          46.000    21035770.107    86137948.925        1124.689          44.000  
R23  18054748.863    96580880.628         246.326          49.000                                                                  
R24  20647847.714   110413164.225        2796.152          48.000    20647843.836    85877016.560        2174.812          46.000  
R08  17731355.703    94950642.038       -1763.534          51.000    17731349.458    73850550.760       -1371.555          50.000  
G21  18810220.087    98848386.195        1183.451          47.000                                                                  
S33  38178071.855   200627205.528        -619.645          42.000  
S31  37225157.338   195619622.484        -620.076          44.000  
E36  23319344.411   122543999.714         873.796          46.000    23319346.618    93897420.714         669.619          50.000  
G10  22532282.411   118408076.342       -3772.719          41.000    22532282.244    92266021.423       -2940.497          34.000  
E11  21416550.778   112544772.936        -801.988          43.000    21416548.921    86235667.426        -614.639          49.000  
R01  19119076.506   102202605.392        2429.912          50.000    19119075.766    79490767.354        1889.817          44.000  
R22  19777905.719   105575896.717       -2957.265          51.000    19777903.677    82114631.189       -2300.035          50.000  
R07  20715133.873   110889741.667       -4564.827          47.000    20715130.087    86247643.798       -3550.434          49.000  
G27  20434572.666   107384413.679       -3749.081          45.000    20434571.610    83676168.922       -2921.139          44.000  
G08  18831965.425    98962721.300       -1917.323          50.000    18831963.674    77113831.988       -1494.114          47.000  
E04  22949170.900   120598756.017       -1113.265          48.000    22949169.362    92406873.052        -853.071          49.000  
G28  23408388.065   123011892.993        1553.341          43.000    23408388.237    95853435.441        1210.734          41.000  
E25  25716150.001   135139346.163       -3082.227          35.000    25716153.398   103548258.468       -2361.766          39.000  
E09  22935772.679   120528362.120        1467.318          47.000    22935775.181    92352879.006        1124.274          52.000  
G32  20456600.782   107500217.453       -2422.377          49.000    20456598.951    83766439.086       -1887.528          45.000  
E12  25680876.749   134953990.433       -2300.137          42.000    25680877.915   103406376.395       -1762.440          44.000  
E10  23732753.652   124716661.304       -1737.939          45.000    23732756.091    95562315.628       -1331.683          50.000  
> 2024 04 16 10 50 00.4950000  0 24                     
G02  19687899.029   103460651.361        1558.635          49.000                                                                  
E02  25473451.961   133863866.392       -1844.842          43.000    25473455.635   102571005.297       -1413.533          47.000  
G03  21027553.875   110500575.158        1435.161          46.000    21027554.353    86104305.310        1118.382          45.000  
R23  18053410.233    96573716.697         231.538          50.000                                                                  
R24  20632164.288   110329296.168        2795.281          48.000    20632159.975    85811785.877        2174.170          47.000  
R08  17741301.371    95003903.753       -1787.088          51.000    17741296.463    73891976.529       -1389.861          50.000  
G21  18803491.163    98813022.937        1174.319          47.000                                                                  
S33  38181608.808   200645792.668        -619.363          42.000  
S31  37228697.525   195638226.872        -619.880          44.000  
E36  23314357.626   122517796.599         873.293          45.000    23314360.288    93877343.008         669.264          51.000  
G10  22553817.416   118521240.346       -3771.398          40.000    22553814.097                       -2938.862          27.000  
E11  21421143.083   112568903.933        -806.358          43.000    21421140.782    86254157.322        -617.739          49.000  
R01  19105488.473   102129967.773        2412.883          50.000    19105487.866    79434271.387        1876.733          45.000  
R22  19794561.562   105664818.306       -2970.683          48.000    19794562.085    82183792.235       -2310.498          50.000  
R07  20740737.280   111026793.889       -4571.763          48.000    20740732.240    86354239.795       -3555.844          48.000  
G27  20456007.869   107497054.106       -3760.014          47.000    20456006.343    83763940.578       -2929.852          45.000  
G08  18842966.606    99020531.024       -1936.406          50.000    18842964.890    77158878.449       -1508.841          47.000  
E04  22955566.260   120632362.968       -1126.846          48.000    22955564.442    92432623.757        -863.386          49.000  
G28  23399528.713   122965335.706        1550.419          43.000    23399527.703    95817157.012        1208.322          41.000  
E25  25733748.671   135231830.067       -3082.599          34.000    25733752.794   103619122.704       -2362.157          38.000  
E09  22927424.566   120484493.085        1457.547          47.000    22927427.061    92319265.071        1116.780          52.000  
G32  20470481.862   107573160.593       -2440.096          48.000    20470479.287    83823277.795       -1901.440          44.000  
E12  25694017.386   135023047.276       -2303.318          41.000    25694018.467   103459289.782       -1764.940          43.000  
E10  23742689.573   124768863.161       -1741.916          46.000    23742690.040    95602314.313       -1334.730          50.000  
> 2024 04 16 10 50 30.4950000  0 24                     
G02  19679019.215   103413989.556        1552.345          49.000                                                                  
E02  25484012.494   133919362.610       -1854.691          43.000    25484016.616   102613528.274       -1420.991          46.000  
G03  21019383.638   110457637.310        1427.449          45.000    21019382.978    86070847.257        1112.371          44.000  
R23  18052154.823    96566994.724         216.757          50.000                                                                  
R24  20616485.953   110245456.741        2794.397          48.000    20616481.426    85746577.459        2173.285          46.000  
R08  17751378.955    95057865.610       -1810.346          51.000    17751372.658    73933946.840       -1407.999          49.000  
G21  18796813.927    98777931.936        1165.258          47.000                                                                  
S33  38185144.091   200664369.926        -618.932          42.000  
S31  37232235.467   195656818.145        -619.397          44.000  
E36  23309373.842   122491603.755         872.962          45.000    23309376.258    93857273.183         668.906          51.000  
G10  22575342.454   118634356.294       -3769.678          41.000    22575342.758    92442342.853       -2937.219          33.000  
E11  21425756.792   112593149.984        -810.186          43.000    21425754.598    86272735.403        -620.794          49.000  
R01  19091995.692   102057838.834        2395.867          50.000    19091995.435    79378171.074        1863.446          46.000  
R22  19811294.976   105754136.989       -2983.844          50.000    19811294.764    82253262.145       -2320.673          50.000  
R07  20766377.537   111164049.960       -4578.353          45.000    20766372.416    86460994.293       -3561.005          47.000  
G27  20477504.495   107610020.847       -3770.902          46.000    20477503.478    83851966.489       -2938.325          43.000  
G08  18854075.804    99078907.433       -1955.226          50.000    18854073.880    77204366.505       -1523.498          47.000  
E04  22962037.441   120666371.080       -1140.135          48.000    22962035.986    92458681.864        -873.622          49.000  
G28  23390684.763   122918865.506        1547.866          41.000    23390685.615    95780946.483        1206.008          43.000  
E25  25751349.823   135324310.104       -3082.802          34.000    25751351.741   103689983.936       -2361.717          39.000  
E09  22919132.101   120440916.645        1447.790          47.000    22919134.507    92285875.342        1109.387          52.000  
G32  20484463.086   107646633.133       -2457.818          48.000    20484460.896    83880529.030       -1915.156          44.000  
E12  25707177.510   135092202.765       -2306.829          41.000    25707178.717   103512278.820       -1767.444          43.000  
E10  23752645.619   124821185.587       -1745.909          47.000    23752646.743    95642405.419       -1337.798          50.000  
> 2024 04 16 10 51 00.4950000  0 24                     
G02  19670176.641   103367523.237        1545.577          48.000                                                                  
E02  25494629.965   133975157.731       -1864.753          43.000    25494634.176   102656280.305       -1428.876          46.000  
G03  21011259.625   110414942.785        1419.075          47.000    21011258.430    86037578.786        1105.827          44.000  
R23  18050981.999    96560722.848         201.495          49.000                                                                  
R24  20600814.324   110161653.789        2792.660          47.000    20600810.102    85681397.412        2172.109          47.000  
R08  17761587.476    95112530.827       -1833.830          50.000    17761580.337    73976464.201       -1426.432          50.000  
G21  18790189.913    98743120.286        1155.675          48.000                                                                  
S33  38188677.384   200682937.575        -619.104          42.000  
S31  37235772.077   195675403.421        -619.580          44.000  
E36  23304392.530   122465427.062         872.181          46.000    23304395.044    93837215.730         668.305          51.000  
G10  22596858.433   118747428.272       -3768.152          42.000    22596849.633                       -2937.408          31.000  
E11  21430392.887   112617517.161        -814.544          42.000    21430391.375    86291406.288        -624.124          48.000  
R01  19078599.123   101986226.717        2378.361          50.000    19078598.616    79322472.695        1849.863          46.000  
R22  19828104.354   105843857.915       -2997.470          50.000    19828102.500    82323044.935       -2331.409          50.000  
R07  20792056.719   111301511.613       -4585.519          44.000    20792051.255    86567908.752       -3566.600          47.000  
G27  20499063.301   107723316.849       -3781.997          45.000    20499062.606    83940248.997       -2947.042          43.000  
G08  18865292.753    99137854.588       -1974.443          50.000    18865290.768    77250299.292       -1538.604          47.000  
E04  22968586.071   120700785.115       -1153.946          48.000    22968584.809    92485051.002        -884.279          49.000  
G28  23381859.422   122872490.747        1544.099          42.000    23381860.940    95744810.275        1203.278          42.000  
E25  25768944.210   135416789.546       -3082.812          31.000    25768949.538   103760844.734       -2362.112          39.000  
E09  22910897.494   120397639.568        1437.459          47.000    22910899.405    92252714.979        1101.447          52.000  
G32  20498546.214   107720638.334       -2475.701          48.000    20498544.533    83938195.347       -1929.078          45.000  
E12  25720356.842   135161462.507       -2310.390          40.000    25720359.383   103565347.719       -1770.334          44.000  
E10  23762625.841   124873634.614       -1750.325          46.000    23762627.335    95682593.497       -1341.228          49.000  
> 2024 04 16 10 51 30.4950000  0 24                     
G02  19661372.980   103321257.369        1538.956          49.000                                                                  
E02  25505305.011   134031253.401       -1874.886          43.000    25505309.019   102699262.598       -1436.516          46.000  
G03  21003182.725   110372494.704        1410.756          48.000    21003181.250    86004502.358        1099.269          45.000  
R23  18049893.814    96554906.680         186.350          49.000                                                                  
R24  20585150.071   110077892.793        2791.392          47.000    20585146.636    85616249.980        2171.094          47.000  
R08  17771927.200    95167899.667       -1857.263          50.000    17771920.354    74019528.804       -1444.412          50.000  
G21  18783619.670    98708593.896        1146.301          47.000                                                                  
S33  38192210.177   200701502.947        -618.822          42.000  
S31  37239307.870   195693984.558        -619.042          44.000  
E36  23299415.841   122439270.328         871.738          46.000    23299417.694    93817173.573         667.869          51.000  
G10  22618367.516   118860458.317       -3766.692          42.000    22618360.641    92618525.441       -2935.125          34.000  
E11  21435053.651   112642009.439        -818.263          42.000    21435052.159    86310173.045        -627.065          48.000  
R01  19065299.973   101915136.759        2361.065          50.000    19065299.757    79267180.443        1836.253          44.000  
R22  19844987.970   105933983.857       -3010.791          50.000    19844986.248    82393142.732       -2341.660          50.000  
R07  20817774.593   111439177.881       -4592.177          47.000    20817768.699    86674982.366       -3571.754          47.000  
G27  20520685.985   107836942.685       -3792.909          46.000    20520685.440    84028788.533       -2955.278          44.000  
G08  18876618.458    99197374.478       -1993.403          50.000    18876617.227    77296678.353       -1553.185          47.000  
E04  22975212.798   120735607.647       -1167.476          48.000    22975211.581    92511733.126        -894.505          49.000  
G28  23373053.958   122826217.464        1540.677          43.000    23373054.498    95708753.172        1200.626          40.000  
E25  25786542.804                       -3082.747          31.000    25786547.134   103831705.952       -2362.007          38.000  
E09  22902719.354   120354666.402        1427.499          47.000    22902721.974    92219787.491        1093.715          52.000  
G32  20512730.435   107795177.348       -2493.358          48.000    20512728.779    83996277.613       -1943.068          44.000  
E12  25733557.901   135230830.079       -2314.207          41.000    25733559.497   103618499.189       -1773.215          44.000  
E10  23772632.357   124926213.916       -1754.752          47.000    23772633.178    95722881.429       -1344.613          49.000  
> 2024 04 16 10 52 00.4950000  0 24                     
G02  19652607.602   103275193.622        1532.199          48.000                                                                  
E02  25516036.069   134087648.814       -1884.558          41.000    25516040.448   102742474.547       -1444.188          46.000  
G03  20995152.183   110330293.881        1402.712          47.000    20995151.303    85971618.598        1092.939          45.000  
R23  18048892.466    96549549.883         170.975          49.000                                                                  
R24  20569494.817   109994177.549        2789.826          47.000    20569491.876    85551138.151        2169.792          47.000  
R08  17782398.528    95223970.756       -1880.643          50.000    17782391.673    74063139.630       -1462.663          50.000  
G21  18777104.291    98674354.927        1136.621          47.000                                                                  
S33  38195742.596   200720066.695        -618.674          42.000  
S31  37242843.145   195712562.626        -619.396          44.000  
E36  23294442.182   122413135.002         870.725          46.000    23294444.410    93797147.806         667.294          52.000  
G10  22639868.490   118973446.176       -3765.371          42.000    22639867.927    92706567.604       -2934.346          35.000  
E11  21439739.386   112666628.487        -822.412          43.000    21439737.170    86329036.923        -630.294          48.000  
R01  19052100.155   101844572.462        2343.487          51.000    19052098.715    79212297.060        1822.785          44.000  
R22  19861946.638   106024515.325       -3024.367          49.000    19861946.814    82463555.953       -2352.345          50.000  
R07  20843529.474   111577046.435       -4598.729          46.000    20843523.888    86782213.270       -3576.941          46.000  
G27  20542371.431   107950896.537       -3803.908          47.000    20542370.363    84117583.664       -2964.045          44.000  
G08  18888054.008    99257466.777       -2012.496          50.000    18888052.352    77343503.491       -1568.221          47.000  
E04  22981917.189   120770838.928       -1181.113          48.000    22981916.126    92538728.459        -904.972          50.000  
G28  23364268.295   122780049.528        1537.161          42.000    23364269.874    95672778.073        1197.667          41.000  
E25  25804136.605                       -3082.428          28.000    25804145.770   103902566.639       -2361.974          39.000  
E09  22894600.387   120311999.449        1417.228          47.000    22894602.621    92187094.616        1085.854          52.000  
G32  20527016.302   107870248.918       -2511.178          47.000    20527013.604    84054774.846       -1956.585          44.000  
E12  25746779.869   135300306.664       -2317.581          42.000    25746780.733   103671734.197       -1775.754          44.000  
E10  23782662.382   124978924.975       -1759.138          46.000    23782663.896    95763270.301       -1347.875          49.000  
> 2024 04 16 10 52 30.4950000  0 25                     
G02  19643880.980   103229336.121        1525.045          49.000                                                                  
E02  25526824.800   134144343.634       -1895.046          42.000    25526829.200   102785915.854       -1451.680          45.000  
G03  20987168.079   110288341.382        1394.397          47.000    20987168.408    85938928.347        1086.287          45.000  
R23  18047977.378    96544655.681         155.347          49.000                                                                  
R24  20553848.453   109910511.808        2787.974          47.000    20553845.662    85486064.798        2168.314          47.000  
R08  17792999.924    95280742.183       -1904.049          49.000    17792993.226    74107295.148       -1480.962          50.000  
G21  18770644.109    98640406.901        1126.675          48.000                                                                  
S33  38199274.693   200738626.605        -618.776          42.000  
S31  37246378.324   195731139.564        -619.255          44.000  
E36  23289473.460   122387022.865         869.925          47.000    23289475.681    93777139.812         666.671          52.000  
G10  22661361.430   119086391.904       -3764.363          43.000    22661363.430    92794576.930       -2933.641          37.000  
E11  21444448.742   112691376.285        -827.214          43.000    21444446.603    86347999.445        -633.784          48.000  
R01  19038998.557   101774537.177        2325.664          51.000    19038996.921    79157825.154        1808.806          43.000  
R22  19878983.132   106115453.149       -3037.998          50.000    19878983.440    82534285.189       -2362.948          50.000  
R07  20869321.795   111715114.060       -4605.714          47.000    20869316.927    86889599.009       -3582.172          47.000  
G27  20564117.930   108065177.043       -3814.940          46.000    20564117.350    84206633.295       -2972.705          44.000  
G08  18899597.678    99318131.473       -2031.759          49.000    18899596.484    77390774.628       -1583.125          47.000  
E04  22988699.053   120806479.525       -1194.825          48.000    22988698.597    92566037.420        -915.602          50.000  
G28  23355503.819   122733991.082        1533.300          42.000    23355504.973    95636888.277        1194.782          41.000  
E25  25821735.438                       -3082.326          28.000    25821743.374   103973426.172       -2361.741          39.000  
E09  22886539.737   120269641.313        1406.632          47.000    22886542.162    92154638.369        1077.960          52.000  
E05  24931731.793                1       2471.432          27.000                                                                  
G32  20541402.947   107945852.150       -2529.072          47.000    20541401.316    84113686.362       -1970.711          45.000  
E12  25760021.158   135369893.904       -2321.554          41.000    25760023.042   103725054.002       -1778.810          45.000  
E10  23792719.229   125031769.617       -1763.837          47.000    23792719.970    95803761.515       -1351.419          49.000  
> 2024 04 16 10 53 00.4950000  0 25                     
G02  19635194.630   103183688.251        1518.185          49.000                                                                  
E02  25537671.223   134201338.324       -1904.707          43.000    25537674.894   102829587.080       -1459.586          44.000  
G03  20979232.112   110246639.213        1385.952          46.000    20979232.019    85906433.118        1079.790          44.000  
R23  18047150.407    96540229.032         139.648          49.000                                                                  
R24  20538212.675   109826899.938        2786.272          48.000    20538209.849    85421033.361        2167.054          46.000  
R08  17803731.032    95338213.240       -1927.217          49.000    17803725.704    74151994.806       -1498.882          50.000  
G21  18764240.319    98606754.484        1116.826          48.000                                                                  
S33  38202806.558   200757188.603        -618.659          42.000  
S31  37249913.487   195749716.250        -619.244          44.000  
E36  23284508.834   122360936.513         869.126          46.000    23284511.541    93757151.584         665.962          52.000  
G10  22682847.534   119199296.198       -3762.743          43.000    22682849.105    92882553.939       -2931.851          33.000  
E11  21449183.028   112716255.640        -831.553          44.000    21449181.273    86367062.751        -637.029          49.000  
R01  19025997.754   101705035.165        2307.793          51.000    19025995.283    79103768.016        1794.908          44.000  
R22  19896096.262   106206798.917       -3051.550          51.000    19896094.839    82605331.686       -2373.413          50.000  
R07  20895151.179   111853379.082       -4612.064          49.000    20895145.593    86997138.300       -3587.123          47.000  
G27  20585927.788   108179783.593       -3825.577          47.000    20585926.651    84295936.963       -2981.033          45.000  
G08  18911250.587    99379369.188       -2050.820          49.000    18911249.488    77438492.244       -1597.906          47.000  
E04  22995559.357   120842530.784       -1208.453          48.000    22995559.221    92593661.048        -926.005          50.000  
G28  23346760.858   122688046.991        1529.636          41.000    23346761.430    95601087.583        1192.058          39.000  
E25  25839335.876   135786702.802       -3082.533          33.000    25839342.163   104044284.522       -2361.865          41.000  
E09  22878537.789   120227595.339        1396.432          46.000    22878541.157    92122421.331        1069.984          52.000  
E05  24917623.412   130942980.0221       2471.665          31.000    24917627.535   100332960.6641       1893.746          34.000  
G32  20555890.931   108021986.927       -2546.650          47.000    20555889.998    84173012.075       -1984.565          46.000  
E12  25773284.007   135439594.109       -2325.082          40.000    25773286.312   103778460.381       -1781.606          44.000  
E10  23802800.824   125084750.334       -1768.283          47.000    23802801.719    95844357.027       -1354.846          48.000  
> 2024 04 16 10 53 30.4950000  0 25                     
G02  19626548.792   103138252.817        1511.007          49.000                                                                  
E02  25548574.321   134258632.334       -1914.903          42.000    25548577.888   102873487.570       -1467.153          45.000  
G03  20971344.144   110205188.242        1377.426          44.000    20971343.340    85874133.623        1073.276          43.000  
R23  18046410.989    96536273.574         123.980          49.000    18046539.034                3       -353.990          10.000  
R24  20522588.127   109743345.626        2783.958          48.000    20522584.550    85356046.686        2165.354          45.000  
R08  17814593.966    95396382.292       -1950.505          50.000    17814588.066    74197237.354       -1517.078          50.000  
G21  18757893.439    98573400.504        1106.736          48.000                                                                  
S33  38206339.079   200775751.253        -618.823          42.000  
S31  37253448.499   195768294.120        -619.377          44.000  
E36  23279549.446   122334877.601         868.268          46.000    23279552.678    93737184.367         665.186          52.000  
G10  22704324.635   119312159.054       -3761.615          44.000    22704325.175    92970498.750       -2931.478          33.000  
E11  21453943.263   112741268.303        -836.123          44.000    21453941.406    86386228.225        -640.706          49.000  
R01  19013095.150   101636069.772        2289.843          49.000    19013093.607    79050128.242        1781.066          44.000  
R22  19913284.807   106298553.120       -3065.311          51.000    19913282.362    82676695.890       -2384.186          49.000  
R07  20921016.137   111991838.661       -4618.597          49.000    20921010.952    87104828.844       -3592.201          46.000  
G27  20607797.848   108294714.707       -3836.396          45.000    20607796.683    84385493.608       -2989.380          43.000  
G08  18923013.187    99441179.668       -2069.941          49.000    18923011.339    77486656.171       -1613.052          46.000  
E04  23002497.864   120878993.100       -1222.378          48.000    23002497.736    92621599.628        -936.561          50.000  
G28  23338040.171   122642221.303        1525.286          42.000    23338041.978    95565379.209        1188.558          41.000  
E25  25856934.341   135879176.379       -3082.187          34.000    25856938.797   104115140.921       -2361.853          40.000  
E09  22870596.660   120185863.910        1385.701          47.000    22870600.000    92090445.310        1061.750          52.000  
E05  24903513.010   130868837.534        2471.497          34.000    24903518.450   100276150.084        1893.635          37.000  
G32  20570479.884   108098652.152       -2564.347          47.000    20570478.693    84232751.087       -1998.119          46.000  
E12  25786570.910   135509408.654       -2329.033          42.000    25786572.265   103831954.374       -1784.600          45.000  
E10  23812908.698   125137868.778       -1772.827          46.000    23812910.020    95885058.032       -1358.388          48.000  
> 2024 04 16 10 54 00.4950000  0 25                     
G02  19617941.271   103093021.904        1504.006          48.000                                                                  
E02  25559531.527   134316214.344       -1924.489          43.000    25559535.338   102917608.756       -1474.553          44.000  
G03  20963501.931   110163978.792        1369.361          45.000    20963501.752    85842022.351        1066.965          43.000  
R23  18045758.265    96532781.854         108.446          50.000                                                                  
R24  20506972.131   109659841.857        2782.280          49.000    20506969.273    85291099.312        2164.007          45.000  
R08  17825585.186    95455236.604       -1973.376          50.000    17825579.293    74243012.884       -1534.884          50.000  
G21  18751601.702    98540337.843        1096.925          49.000                                                                  
S33  38209869.866   200794304.787        -618.492          42.000  
S31  37256982.390   195786864.319        -618.867          44.000  
E36  23274594.464   122308837.160         867.458          46.000    23274597.286    93717231.294         664.600          52.000  
G10  22725791.931   119424969.691       -3759.534          44.000    22725792.624    93058402.854       -2929.697          35.000  
E11  21458726.881   112766405.520        -840.225          43.000    21458724.866    86405489.112        -643.845          49.000  
R01  19000292.620   101567633.481        2272.123          49.000    19000291.685    78996899.957        1767.221          44.000  
R22  19930547.932   106390705.505       -3078.707          50.000    19930545.560    82748369.848       -2394.530          49.000  
R07  20946914.863   112130479.209       -4624.622          49.000    20946910.044    87212660.223       -3596.962          47.000  
G27  20629727.330   108409958.150       -3846.781          45.000    20629727.180    84475293.615       -2997.349          45.000  
G08  18934882.493    99503552.025       -2088.625          50.000    18934880.480    77535257.944       -1627.615          46.000  
E04  23009512.889   120915856.220       -1235.796          48.000    23009512.366    92649845.329        -946.875          50.000  
G28  23329341.556   122596507.309        1521.556          43.000    23329343.003    95529757.868        1185.486          41.000  
E25  25874523.551   135971635.932       -3082.128          34.000    25874533.329   104185986.461       -2361.407          40.000  
E09  22862714.138   120144438.832        1375.513          47.000    22862716.804    92058703.998        1053.946          52.000  
E05  24889404.153   130794682.186        2471.943          38.000    24889406.897   100219329.686        1894.005          39.000  
G32  20585167.872   108175836.069       -2581.545          48.000    20585166.273    84292894.309       -2011.629          46.000  
E12  25799876.236   135579328.227       -2332.542          42.000    25799877.847   103885528.836       -1787.438          46.000  
E10  23823041.150   125191115.970       -1777.350          46.000    23823043.104    95925857.681       -1361.794          48.000  
> 2024 04 16 10 54 30.4950000  0 25                     
G02  19609374.423   103048003.012        1497.037          48.000                                                                  
E02  25570545.392   134374088.387       -1933.949          44.000    25570548.020   102961953.757       -1481.967          43.000  
G03  20955707.905   110123016.389        1361.307          45.000    20955706.662    85810103.554        1061.063          42.000  
R23  18045193.613    96529762.270          92.823          49.000                                                                  
R24  20491367.296   109576396.644        2780.378          48.000    20491364.606    85226197.459        2162.608          46.000  
R08  17836704.319    95514779.046       -1996.198          50.000    17836698.287    74289323.656       -1552.520          50.000  
G21  18745366.896    98507573.703        1087.052          49.000                                                                  
S33  38213400.160   200812856.619        -618.302          42.000  
S31  37260515.776   195805430.985        -619.020          44.000  
E36  23269643.771   122282821.373         866.836          46.000    23269646.321    93697297.117         664.144          52.000  
G10  22747250.026   119537732.654       -3758.029          44.000    22747251.397    93146269.761       -2928.144          38.000  
E11  21463535.274   112791673.679        -844.463          43.000    21463533.423    86424850.344        -646.961          49.000  
R01  18987589.652   101499734.288        2254.308          49.000    18987590.200    78944089.417        1753.436          45.000  
R22  19947886.811   106483261.472       -3092.057          51.000    19947885.561    82820357.634       -2404.848          50.000  
R07  20972846.639   112269302.417       -4630.583          47.000    20972843.939    87320633.641       -3601.524          47.000  
G27  20651717.321   108525516.907       -3857.299          45.000    20651717.498    84565339.300       -3005.684          45.000  
G08  18946859.216    99566490.637       -2107.374          49.000    18946857.267    77584300.975       -1642.152          46.000  
E04  23016605.291   120953125.076       -1249.039          48.000    23016604.175    92678401.926        -957.123          49.000  
G28  23320666.213   122550913.593        1517.625          43.000    23320666.524    95494230.207        1182.918          40.000  
E25  25892123.756   136064084.711       -3081.380          36.000    25892125.696   104256823.822       -2360.978          41.000  
E09  22854890.090   120103327.042        1365.097          46.000    22854893.490    92027202.742        1046.032          52.000  
E05  24875291.183   130720521.034        2472.013          40.000    24875294.469   100162504.766        1894.225          41.000  
G32  20599955.639   108253542.110       -2598.832          48.000    20599954.182    84353444.379       -2025.100          47.000  
E12  25813202.222   135649358.871       -2336.507          41.000    25813204.289   103939188.394       -1790.216          45.000  
E10  23833199.241   125244498.068       -1781.620          46.000    23833201.035    95966760.716       -1365.169          47.000  
> 2024 04 16 10 55 00.4950000  0 25                     
G02  19600848.289   103003196.347        1489.712          48.000                                                                  
E02  25581613.347   134432251.373       -1943.896          43.000    25581616.275   103006520.102       -1489.204          43.000  
G03  20947959.759   110082299.407        1352.895          46.000    20947958.544    85778376.075        1054.154          42.000  
R23  18044718.188    96527215.615          76.700          50.000                                                                  
R24  20475774.109   109493011.490        2778.304          49.000    20475771.170    85161342.335        2160.807          46.000  
R08  17847951.954    95575005.572       -2019.193          51.000    17847945.545    74336166.488       -1570.467          50.000  
G21  18739189.316    98475108.881        1076.974          49.000                                                                  
S33  38216929.641   200831403.904        -618.722          42.000  
S31  37264048.314   195823994.577        -619.257          44.000  
E36  23264698.184   122256829.434         865.889          46.000    23264700.060    93677381.208         663.402          52.000  
G10  22768698.374   119650445.325       -3756.549          43.000    22768699.696    93234097.466       -2927.262          38.000  
E11  21468368.668   112817072.031        -848.828          43.000    21468366.786    86444311.337        -650.381          49.000  
R01  18974989.393   101432372.891        2236.198          50.000    18974988.217    78891697.118        1739.386          44.000  
R22  19965300.957   106576218.835       -3105.566          50.000    19965300.113    82892657.616       -2415.330          50.000  
R07  20998814.344   112408303.148       -4636.600          49.000    20998811.603    87428745.088       -3606.248          48.000  
G27  20673767.098   108641386.873       -3867.690          47.000    20673766.927    84655627.497       -3013.737          45.000  
G08  18958942.824    99629992.499       -2126.407          49.000    18958941.745    77633782.886       -1656.850          46.000  
E04  23023774.644   120990797.511       -1262.607          49.000    23023772.731    92707267.741        -967.516          49.000  
G28  23312013.801   122505441.693        1513.419          44.000    23312013.568    95458797.483        1179.514          40.000  
E25  25909712.001   136156519.328       -3081.023          33.000    25909715.253   104327650.337       -2360.917          40.000  
E09  22847127.330   120062528.429        1354.578          47.000    22847130.097    91995941.443        1037.926          52.000  
E05  24861178.071   130646354.299        2472.041          42.000    24861181.138   100105675.533        1894.239          44.000  
G32  20614840.746   108331766.604       -2616.367          46.000    20614839.654    84414398.432       -2038.643          48.000  
E12  25826549.268   135719499.394       -2340.241          41.000    25826551.786   103992932.147       -1793.039          45.000  
E10  23843382.732   125298014.189       -1786.135          46.000    23843384.906    96007766.468       -1368.829          47.000  
> 2024 04 16 10 55 30.4950000  0 25                     
G02  19592363.188   102958606.750        1482.883          47.000                                                                  
E02  25592736.123   134490704.451       -1953.056          41.000    25592739.634   103051308.755       -1496.713          44.000  
G03  20940258.722   110041830.608        1345.025          47.000    20940258.187    85746841.982        1048.090          43.000  
R23  18044331.125    96525147.410          61.240          48.000                                                                  
R24  20460193.018   109409691.621        2776.370          49.000    20460189.836    85096538.007        2159.419          46.000  
R08  17859325.891    95635915.902       -2041.625          49.000    17859319.298    74383541.155       -1587.865          49.000  
G21  18733069.496    98442948.616        1067.039          50.000                                                                  
S33  38220459.246   200849950.451        -617.827          42.000  
S31  37267580.531   195842556.392        -618.657          44.000  
E36  23259757.056   122230864.807         865.276          46.000    23259759.276    93657486.226         662.916          52.000  
G10  22790138.494   119763109.508       -3754.527          44.000    22790139.859    93321887.327       -2925.469          38.000  
E11  21473226.028   112842604.302        -852.982          42.000    21473225.460    86463874.971        -653.651          49.000  
R01  18962489.495   101365554.386        2218.377          49.000    18962488.887    78839727.098        1725.321          44.000  
R22  19982791.804   106669580.010       -3118.601          52.000    19982789.110    82965271.701       -2425.612          50.000  
R07  21024814.750   112547480.385       -4642.034          50.000    21024811.062    87536993.879       -3610.426          49.000  
G27  20695875.972   108757568.180       -3877.724          46.000    20695875.530    84746158.270       -3021.386          44.000  
G08  18971134.161    99694059.097       -2144.727          49.000    18971133.824    77683704.863       -1671.371          47.000  
E04  23031020.367   121028875.645       -1275.840          48.000    23031018.602    92736444.415        -977.552          48.000  
G28  23303384.696   122460097.317        1509.502          44.000    23303385.553    95423464.140        1176.213          41.000  
E25  25927296.191                       -3080.233          31.000    25927302.686   104398466.671       -2360.204          40.000  
E09  22839423.558   120022047.205        1344.197          45.000    22839426.818    91964923.344        1030.001          53.000  
E05  24847064.392   130572186.327        2472.327          43.000    24847067.787   100048845.324        1894.339          45.000  
G32  20629823.949   108410510.229       -2633.375          45.000    20629823.308    84475756.990       -2051.981          47.000  
E12  25839918.980   135789752.945       -2343.588          41.000    25839921.323   104046762.494       -1795.649          45.000  
E10  23853593.622   125351667.758       -1790.636          47.000    23853594.790    96048877.509       -1371.984          47.000  
> 2024 04 16 10 56 00.4950000  0 25                     
G02  19583918.166   102914225.770        1475.802          47.000                                                                  
E02  25603911.892   134549435.895       -1962.401          40.000    25603916.318   103096310.673       -1503.635          45.000  
G03  20932602.752   110001599.685        1336.990          48.000    20932601.832    85715493.213        1041.948          42.000  
R23  18044032.666    96523549.533          45.422          48.000                                                                  
R24  20444622.740   109326429.308        2774.474          49.000    20444619.816    85031778.459        2157.801          46.000  
R08  17870823.773    95697496.777       -2064.116          48.000    17870819.368    74431437.371       -1605.360          50.000  
G21  18727006.042    98411084.755        1057.123          50.000                                                                  
S33  38223985.717   200868483.721        -617.440          42.000  
S31  37271110.141   195861105.962        -618.179          44.000  
E36  23254819.397   122204917.907         864.704          46.000    23254821.952    93637604.819         662.482          52.000  
G10  22811567.526   119875713.801       -3752.358          44.000    22811566.934    93409630.606       -2923.834          36.000  
E11  21478108.362   112868261.012        -857.341          42.000    21478107.819    86483533.933        -657.022          50.000  
R01  18950090.026   101299270.316        2200.427          49.000    18950089.559    78788172.748        1711.394          45.000  
R22  20000355.342   106763334.061       -3131.716          51.000    20000352.856    83038191.367       -2435.819          50.000  
R07  21050845.176   112686820.069       -4647.307          51.000    21050841.225    87645368.999       -3614.708          49.000  
G27  20718041.670   108874048.109       -3887.725          46.000    20718042.018    84836921.722       -3029.169          46.000  
G08  18983431.479    99758678.821       -2163.264          50.000    18983430.701    77734057.831       -1685.738          47.000  
E04  23038341.257   121067348.563       -1288.882          48.000    23038339.933    92765923.610        -987.658          48.000  
G28  23294778.851   122414873.233        1505.511          43.000    23294779.423    95388224.532        1172.967          42.000  
E25  25944882.472                       -3080.035          29.000    25944885.706   104469263.384       -2359.824          39.000  
E09  22831778.685   119981874.390        1333.964          46.000    22831782.323    91934141.590        1022.071          53.000  
E05  24832948.432   130498008.663        2472.633          43.000    24832952.383    99992007.723        1894.594          46.000  
G32  20644904.593   108489760.473       -2649.940          45.000    20644903.782    84537510.329       -2065.027          46.000  
E12  25853307.419   135860109.722       -2346.765          41.000    25853309.564   104100671.957       -1798.433          45.000  
E10  23863827.895   125405449.117       -1794.820          47.000    23863829.132    96090086.483       -1375.384          46.000  
> 2024 04 16 10 56 30.4950000  0 25                     
G02  19575514.106   102870061.892        1468.330          47.000                                                                  
E02  25615142.279   134608450.754       -1972.033          40.000    25615147.234   103141529.742       -1510.997          47.000  
G03  20924993.892   109961613.138        1328.725          47.000    20924993.462    85684334.856        1035.291          43.000  
R23  18043823.660    96522431.447          29.188          48.000                                                                  
R24  20429064.249   109243234.347        2771.921          48.000    20429062.475    84967071.246        2156.024          46.000  
R08  17882450.146    95759752.236       -2086.747          49.000    17882445.682    74479858.243       -1622.881          50.000  
G21  18721000.469    98379526.159        1046.706          49.000                                                                  
S33  38227511.916   200887013.554        -617.705          42.000  
S31  37274639.741   195879651.799        -618.314          44.000  
E36  23249886.921   122178996.160         863.516          46.000    23249889.368    93617742.661         661.638          52.000  
G10  22832985.716   119988263.956       -3750.851          45.000    22832984.539    93497331.697       -2922.719          34.000  
E11  21483016.652   112894049.742        -862.219          43.000    21483015.342    86503294.026        -660.531          50.000  
R01  18937792.287   101233529.886        2182.299          49.000    18937791.190    78737041.213        1697.122          44.000  
R22  20017991.565   106857487.277       -3145.124          50.000    20017991.090    83111421.429       -2446.277          49.000  
R07  21076905.870   112826325.400       -4652.935          51.000    21076902.094    87753872.902       -3618.982          48.000  
G27  20740264.771   108990830.807       -3897.733          46.000    20740265.062    84927921.162       -3037.375          44.000  
G08  18995834.916    99823856.915       -2182.015          49.000    18995833.966    77784845.881       -1700.190          47.000  
E04  23045738.367   121106222.290       -1302.640          48.000    23045737.431    92795709.904        -998.127          48.000  
G28  23286197.283   122369779.128        1501.001          43.000    23286198.764    95353086.225        1169.429          43.000  
E09  22824195.245   119942018.111        1323.145          47.000    22824197.880    91903602.335        1013.810          53.000  
E05  24818832.630   130423829.744        2472.673          41.000    24818836.623    99935169.284        1894.613          45.000  
G32  20660083.382   108569521.918       -2667.253          44.000    20660082.475    84599661.948       -2078.473          46.000  
E12  25866716.084   135930576.828       -2350.744          40.000    25866719.128   104154665.925       -1801.275          44.000  
E10  23874088.410   125459365.601       -1799.544          47.000    23874089.269    96131398.959       -1378.871          46.000  
E25                                                                  25962464.172   104540044.026       -2359.271          40.000  
> 2024 04 16 10 57 00.4950000  0 25                     
G02  19567151.381   102826116.095        1461.094          47.000                                                                  
E02  25626423.872   134667746.454       -1981.219          38.000    25626430.873   103186964.021       -1518.151          47.000  
G03  20917430.278   109921869.852        1320.481          45.000    20917431.251    85653366.120        1029.064          44.000  
R23  18043704.304    96521794.550          13.102          47.000                                                                  
R24  20413519.753   109160108.231        2769.560          49.000    20413517.495    84902417.586        2154.113          47.000  
R08  17894201.937    95822678.584       -2108.945          48.000    17894196.649    74528800.879       -1640.211          50.000  
G21  18715053.510    98348274.117        1036.485          50.000                                                                  
S33  38231036.643   200905536.785        -617.307          42.000  
S31  37278167.263   195898190.683        -618.109          44.000  
E36  23244958.971   122153099.270         862.807          47.000    23244961.329    93597899.564         661.002          52.000  
G10  22854392.272   120100757.927       -3749.056          44.000    22854392.076    93584988.975       -2921.366          33.000  
E11  21487949.630   112919970.314        -866.329          44.000    21487947.781    86523155.166        -663.849          49.000  
R01  18925595.922   101168334.427        2163.853          48.000    18925594.512    78686333.578        1683.216          44.000  
R22  20035704.933   106952038.134       -3158.418          51.000    20035705.113    83184960.776       -2456.637          51.000  
R07  21102996.645   112965991.541       -4658.293          51.000    21102993.069    87862501.904       -3622.977          49.000  
G27  20762545.197   109107912.588       -3907.808          46.000    20762544.965    85019153.616       -3045.089          45.000  
G08  19008343.350    99889591.022       -2200.526          49.000    19008342.663    77836067.189       -1714.625          47.000  
E04  23053211.528   121145495.136       -1315.768          48.000    23053210.864    92825802.008       -1008.203          48.000  
G28  23277641.628   122324817.075        1496.527          43.000    23277643.794    95318050.744        1166.153          43.000  
E09  22816671.282   119902478.760        1312.580          46.000    22816673.628    91873305.928        1005.743          53.000  
E05  24804716.531   130349650.220        2472.725          41.000    24804720.894    99878330.439        1894.631          44.000  
G32  20675358.547   108649791.358       -2684.235          45.000    20675357.559    84662209.437       -2091.731          46.000  
E12  25880148.205   136001153.561       -2354.465          42.000    25880149.753   104208743.893       -1804.134          44.000  
E10  23884374.127   125513416.872       -1804.092          47.000    23884375.298    96172814.727       -1382.368          47.000  
E25                                                                  25980036.764   104610806.439       -2358.377          37.000  
> 2024 04 16 10 57 30.4950000  0 25                     
G02  19558830.749   102782392.369        1453.483          46.000                                                                  
E02  25637762.596   134727323.428       -1990.810          41.000    25637767.605   103232613.802       -1525.336          47.000  
G03  20909913.780   109882371.905        1312.429          45.000    20909914.766    85622588.525        1022.695          44.000  
R23  18043675.411    96521643.392          -3.245          47.000                                                                  
R24  20397988.941   109077055.944        2766.944          50.000    20397986.249    84837821.369        2152.032          47.000  
R08  17906078.252    95886274.427       -2131.178          49.000    17906072.851    74578264.259       -1657.594          50.000  
G21  18709165.678    98317332.807        1026.036          50.000                                                                  
S33  38234561.215   200924056.892        -617.586          42.000  
S31  37281694.828   195916725.954        -618.073          44.000  
E36  23240035.924   122127230.098         861.681          47.000    23240038.631    93578077.696         660.217          52.000  
G10  22875787.972   120213196.875       -3747.413          43.000    22875787.834    93672603.365       -2920.271          32.000  
E11  21492907.898   112946025.783        -870.719          44.000    21492906.092    86543119.670        -667.296          49.000  
R01  18913502.476   101103687.955        2145.562          48.000    18913501.050    78636052.933        1668.711          43.000  
R22  20053493.245   107046988.263       -3171.870          51.000    20053492.525    83258810.701       -2466.991          50.000  
R07  21129117.337   113105816.889       -4663.603          51.000    21129113.729    87971254.751       -3627.377          48.000  
G27  20784881.698   109225293.036       -3917.950          46.000    20784881.279    85110618.829       -3052.922          45.000  
G08  19020957.344    99955881.819       -2219.087          48.000    19020957.287    77887722.302       -1729.250          47.000  
E04  23060761.542   121185168.554       -1329.233          48.000    23060760.863    92856201.039       -1018.604          48.000  
G28  23269112.570   122279992.103        1491.699          44.000    23269113.560    95283122.152        1162.125          43.000  
E25  25997612.695                1      -3077.332          28.000    25997605.733   104681550.712       -2357.896          36.000  
E09  22809208.130   119863259.746        1301.800          47.000    22809210.498    91843254.981         997.436          53.000  
E05  24790601.129   130275473.663        2472.342          42.000    24790605.657    99821493.774        1894.299          43.000  
G32  20690730.773   108730568.662       -2701.249          48.000    20690728.687    84725152.671       -2104.723          46.000  
E12  25893599.698   136071842.427       -2358.328          41.000    25893601.964   104262907.799       -1807.041          43.000  
E10  23894686.080   125567605.624       -1808.719          48.000    23894687.600    96214335.822       -1385.954          47.000  
> 2024 04 16 10 58 00.4950000  0 25                     
G02  19550554.025   102738898.353        1445.889          46.000                                                                  
E02  25649154.825   134787185.717       -2000.039          41.000    25649158.857   103278482.270       -1532.611          46.000  
G03  20902445.193   109843124.809        1304.041          45.000    20902446.057    85592006.401        1016.107          44.000  
R23  18043739.879    96521986.331         -19.637          48.000                                                                  
R24  20382473.534   108994085.985        2764.229          50.000    20382470.322    84773289.199        2149.999          47.000  
R08  17918080.785    95950542.708       -2153.413          50.000    17918074.356    74628250.636       -1674.845          50.000  
G21  18703338.161    98286710.389        1015.354          49.000                                                                  
S33  38238085.682   200942579.054        -617.233          42.000  
S31  37285222.199   195935264.011        -618.033          44.000  
E36  23235120.006   122101395.001         860.555          46.000    23235122.252    93558281.941         659.369          52.000  
G10  22897175.259   120325585.468       -3745.554          43.000    22897175.956    93760178.513       -2918.794          34.000  
E11  21497893.603   112972222.596        -875.391          45.000    21497891.204    86563192.458        -670.819          49.000  
R01  18901512.432   101039598.861        2127.025          48.000    18901512.012    78586205.777        1654.401          43.000  
R22  20071356.288   107142342.809       -3185.144          51.000    20071354.383    83332975.189       -2477.410          49.000  
R07  21155268.458   113245803.504       -4668.854          52.000    21155264.841    88080132.996       -3631.351          49.000  
G27  20807275.525   109342975.001       -3927.779          45.000    20807275.978    85202318.966       -3060.687          44.000  
G08  19033679.074   100022733.497       -2237.721          49.000    19033678.802    77939814.428       -1743.567          47.000  
E04  23068388.286   121225247.465       -1342.598          48.000    23068387.655    92886910.776       -1028.756          48.000  
G28  23260609.877   122235312.897        1486.896          44.000    23260610.988    95248307.091        1158.633          42.000  
E25  26015176.307                1      -3076.446          29.000    26015171.553   104752279.640       -2357.365          36.000  
E09  22801807.365   119824368.096        1290.954          47.000    22801809.716    91813454.875         989.220          53.000  
E05  24776487.598   130201307.451        2472.099          40.000    24776492.418    99764665.071        1894.210          44.000  
G32  20706199.841   108811857.249       -2717.947          47.000    20706198.041    84788494.337       -2117.991          46.000  
E12  25907073.191   136142649.467       -2361.917          40.000    25907076.880   104317162.216       -1809.807          43.000  
E10  23905025.254   125621938.142       -1813.337          48.000    23905026.621    96255967.107       -1389.654          47.000  
> 2024 04 16 10 58 30.4950000  0 25                     
G02  19542322.487   102695640.063        1438.340          47.000                                                                  
E02  25660600.853   134847335.740       -2009.576          41.000    25660605.055   103324571.194       -1539.921          45.000  
G03  20895025.103   109804132.376        1295.808          44.000    20895025.754    85561622.707        1009.794          44.000  
R23  18043897.572    96522829.853         -36.301          48.000                                                                  
R24  20366974.486   108911205.080        2761.465          49.000    20366971.214    84708826.304        2147.764          47.000  
R08  17930207.139    96015484.437       -2175.717          49.000    17930201.336    74678760.821       -1692.177          49.000  
G21  18697572.573    98256412.767        1004.624          49.000                                                                  
S33  38241611.496   200961106.442        -617.402          42.000  
S31  37288751.305   195953808.112        -617.885          44.000  
E36  23230211.156   122075598.657         859.437          46.000    23230213.506    93538515.865         658.587          52.000  
G10  22918552.998   120437926.580       -3743.517          42.000    22918553.608    93847716.608       -2916.995          35.000  
E11  21502905.034   112998565.523        -880.133          44.000    21502904.108    86583377.209        -674.463          49.000  
R01  18889628.711   100976072.659        2108.379          48.000    18889627.486    78536796.454        1639.818          43.000  
R22  20089295.516   107238105.183       -3198.664          51.000    20089295.289    83407456.826       -2487.865          50.000  
R07  21181449.629   113385951.662       -4674.067          52.000    21181445.465    88189136.894       -3635.439          47.000  
G27  20829726.642   109460960.083       -3937.724          45.000    20829727.962    85294255.284       -3068.191          45.000  
G08  19046508.274   100090148.511       -2256.343          50.000    19046507.831    77992345.518       -1758.229          47.000  
E04  23076093.159   121265735.094       -1356.162          48.000    23076092.238    92917933.673       -1039.054          48.000  
G28  23252136.553   122190786.384        1481.700          43.000    23252137.929    95213611.025        1154.822          42.000  
E25  26032734.570   136802972.6351      -3076.361          29.000    26032733.045   104822994.679       -2356.364          35.000  
E09  22794470.215   119785809.110        1280.002          47.000    22794472.330    91783909.661         980.758          53.000  
E05  24762377.368   130127157.124        2471.633          40.000    24762381.821    99707848.562        1893.670          42.000  
G32  20721765.504   108893658.861       -2734.873          47.000    20721765.072    84852235.727       -2131.051          47.000  
E12  25920571.491   136213578.907       -2366.144          40.000    25920574.369   104371510.417       -1813.036          43.000  
E10  23915393.102   125676419.005       -1818.243          48.000    23915394.992    96297712.022       -1393.195          48.000  
> 2024 04 16 10 59 00.4950000  0 25                     
G02  19534135.407   102652616.535        1429.918          47.000                                                                  
E02  25672100.610   134907769.246       -2019.406          40.000    25672105.373   103370877.342       -1547.418          45.000  
G03  20887653.159   109765391.971        1286.832          45.000    20887653.151    85531435.354        1002.823          43.000  
R23  18044149.941    96524174.080         -53.390          49.000                                                                  
R24  20351490.766   108828413.408        2757.936          47.000    20351488.463    84644432.817        2145.062          47.000  
R08  17942459.022    96081094.850       -2198.440          49.000    17942453.732    74729791.110       -1709.892          50.000  
G21  18691868.790    98226439.534         993.478          49.000                                                                  
S33  38245137.827   200979637.705        -618.141          42.000  
S31  37292280.619   195972355.059        -618.743          44.000  
E36  23225309.088   122049839.284         857.808          46.000    23225311.688    93518778.134         657.271          52.000  
G10  22939921.529   120550216.846       -3742.269          42.000    22939922.609    93935215.112       -2915.967          37.000  
E11  21507946.609   113025052.911        -885.559          45.000    21507944.506    86603672.656        -678.731          49.000  
R01  18877849.564   100913109.135        2089.138          48.000    18877849.359    78487824.753        1624.874          43.000  
R22  20107310.403   107334272.184       -3212.521          50.000    20107309.815    83482253.207       -2498.713          49.000  
R07  21207659.145   113526255.369       -4679.596          51.000    21207656.238    88298261.774       -3639.648          47.000  
G27  20852235.376   109579242.964       -3948.050          46.000    20852234.973    85386423.694       -3076.451          43.000  
G08  19059444.375   100158122.855       -2275.375          50.000    19059443.311    78045312.451       -1773.030          47.000  
E04  23083875.199   121306628.181       -1370.023          49.000    23083874.109    92949267.258       -1049.737          48.000  
G28  23243692.563   122146413.164        1476.284          43.000    23243693.754    95179034.379        1150.419          43.000  
E25  26050291.990                       -3075.790          31.000    26050290.831   104893692.537       -2356.509          34.000  
E09  22787195.194   119747581.553        1268.599          46.000    22787197.784    91754618.404         971.965          53.000  
E05  24748270.296   130053021.956        2470.787          40.000    24748273.905    99651043.662        1893.248          42.000  
G32  20737428.610   108975968.723       -2752.408          47.000    20737427.835    84916373.158       -2144.794          47.000  
E12  25934092.420   136284628.744       -2370.545          40.000    25934094.327   104425950.868       -1816.273          42.000  
E10  23925787.965   125731046.293       -1823.559          47.000    23925790.304    96339569.148       -1397.178          48.000  
> 2024 04 16 10 59 30.4950000  0 25                     
G02  19525994.125   102609835.415        1421.978          47.000                                                                  
E02  25683656.510   134968490.412       -2029.025          39.000    25683660.001   103417403.882       -1554.632          44.000  
G03  20880329.989   109726909.190        1278.544          46.000    20880330.425    85501448.768         996.023          44.000  
R23  18044496.883    96526026.789         -70.175          50.000                                                                  
R24  20336025.949   108745719.867        2755.022          46.000    20336023.465    84580115.650        2142.747          46.000  
R08  17954837.421    96147375.867       -2220.435          51.000    17954830.697    74781342.962       -1727.056          49.000  
G21  18686228.411    98196799.021         982.484          49.000                                                                  
S33  38248666.453   200998179.159        -617.982          42.000  
S31  37295811.915   195990911.976        -618.557          44.000  
E36  23220415.706   122024123.367         856.499          46.000    23220418.105    93499073.694         656.257          52.000  
G10  22961281.355   120662460.945       -3740.465          43.000    22961281.749    94022677.650       -2915.283          36.000  
E11  21513015.624   113051691.441        -890.521          44.000    21513013.776    86624083.899        -682.480          49.000  
R01  18866177.956   100850715.983        2070.358          48.000    18866177.857    78439296.698        1610.241          44.000  
R22  20125403.454   107430849.062       -3225.926          50.000    20125401.909    83557368.395       -2509.161          48.000  
R07  21233898.202   113666716.748       -4684.584          51.000    21233895.794    88407509.286       -3643.508          46.000  
G27  20874802.440   109697826.825       -3957.673          48.000    20874801.897    85478826.646       -3083.923          46.000  
G08  19072486.086   100226660.781       -2294.019          50.000    19072485.430    78098718.577       -1787.543          47.000  
E04  23091734.671   121347931.728       -1383.775          48.000    23091734.131    92980915.335       -1060.156          49.000  
G28  23235280.019   122102201.899        1470.746          43.000    23235280.777    95144583.951        1146.031          43.000  
E25  26067841.813   136987487.215       -3073.603          32.000    26067845.629   104964376.016       -2355.710          34.000  
E09  22779985.166   119709692.510        1257.331          46.000    22779987.753    91725586.508         963.384          53.000  
E05  24734167.525   129978909.282        2469.906          41.000    24734170.410    99594256.059        1892.504          42.000  
G32  20753189.257   109058790.243       -2769.038          47.000    20753187.816    84980909.264       -2157.643          46.000  
E12  25947636.383   136355805.062       -2374.745          39.000    25947639.155   104480488.261       -1819.454          42.000  
E10  23936211.766   125785826.380       -1828.621          46.000    23936214.279    96381543.334       -1401.113          48.000  
