     3.00           OBSERVATION DATA    M: Mixed            RINEX VERSION / TYPE
CONVBIN 2.4.3                           20240416 192942 UTC PGM / RUN BY / DATE 
format: u-blox UBX                                          COMMENT             
log: /home/regis/git/gnsspwv/obsdata/VERT00CHL/2024-04-16/VECOMMENT             
{self.marker}                                               MARKER NAME         
                                                            MARKER NUMBER       
GEODETIC                                                    MARKER TYPE         
{self.observer}     {self.institution}                      OBSERVER / AGENCY   
UNKNOWN             UBLOX-ZED-F9P                           REC # / TYPE / VERS 
UNKNOWN             TWIVSP6037L                             ANT # / TYPE        
  1713381.0000 -5047934.0000 -3490983.0000                  APPROX POSITION XYZ 
        0.0000        0.0000        0.0000                  ANTENNA: DELTA H/E/N
G    8 C1C L1C D1C S1C C2L L2L D2L S2L                      SYS / # / OBS TYPES 
R    8 C1C L1C D1C S1C C2C L2C D2C S2C                      SYS / # / OBS TYPES 
E    8 C1C L1C D1C S1C C7Q L7Q D7Q S7Q                      SYS / # / OBS TYPES 
S    4 C1C L1C D1C S1C                                      SYS / # / OBS TYPES 
  2024    04    16    19    15   00.0020000     GPS         TIME OF FIRST OBS   
  2024    04    16    19    29   30.0030000     GPS         TIME OF LAST OBS    
                                                            END OF HEADER       
> 2024 04 16 19 15 00.0020000  0 22                     
G13  23060887.939   121185843.0991       1420.028          43.000                                                                  
G07  23237436.991   122113649.0231      -3740.836          45.000    23237440.063    95153548.4281      -2914.982          43.000  
G09  24502409.245   128760868.2711      -3310.413          44.000    24502421.443   100333116.1651      -2579.449          42.000  
R05  21630833.758   115629440.2881       2244.449          52.000    21630837.077    89933890.5981       1745.688          48.000  
R16  24276501.666                1       3156.592          33.000    24276598.598                3       2455.175          27.000  
R04  20062766.448   107435368.6651       -904.949          52.000    20062765.476    83560836.3561       -703.844          49.000  
R14  20627569.908   109956665.2901      -3143.551          52.000    20627574.066    85522051.2081      -2445.104          50.000  
E08  25462473.021   133806327.2091        768.397          46.000    25462479.606   102526985.2021        588.771          52.000  
S31  39532924.021   207746842.1161       -820.230          43.000  
S33  40483863.199   212744029.0771       -820.125          42.000  
G20  21770639.729   114405514.7881      -2079.460          47.000                                                                  
E03  24512561.212   128814433.4061      -1114.726          49.000    24512568.146    98702021.8451       -854.147          54.000  
R15  20359121.358   108793328.0491        854.958          53.000    20359124.495    84616886.4611        664.968          50.000  
R03  22698722.130   121507958.4571      -3884.188          50.000    22698729.629    94506187.6951      -3021.051          49.000  
E05  26202502.238   137694899.6531      -2666.331          43.000    26202518.094   105506456.1221      -2043.101          47.000  
G05  22460830.786   118032437.3751        593.499          49.000    22460833.012    91973389.1021        462.538          45.000  
G30  21511114.924   113041881.6871      -2186.798          49.000    21511119.105    88084705.1741      -1703.986          47.000  
E30  28384042.922   149159188.1761       2253.199          41.000    28384072.499   114290961.5341       1726.425          42.000  
G14  21185402.274   111330246.0321        359.955          48.000    21185403.197    86751000.4601        280.487          46.000  
E02  24754573.748   130086369.1891        983.422          47.000    24754581.786    99676740.5691        753.603          51.000  
G22  22516694.886   118326304.5781       2163.561          47.000                                                                  
E25  25120440.177   132009043.3811      -1742.870          49.000    25120446.866   101149917.4801      -1335.497          48.000  
> 2024 04 16 19 15 30.0020000  0 22                     
G13  23052785.396   121143265.537        1419.110          43.000                                                                  
G07  23258799.548   122225908.266       -3742.887          45.000    23258802.603    95241023.016       -2916.497          44.000  
G09  24521325.683   128860272.313       -3316.168          44.000    24521336.785   100410573.557       -2584.393          42.000  
R05  21618258.939   115562220.606        2237.054          52.000    21618262.836    89881608.702        1739.762          48.000  
R16  24258793.739   129586092.0801       3149.910          39.000    24258825.909                1       2450.680          32.000  
R04  20067891.196   107462807.442        -924.101          53.000    20067889.888    83582177.584        -718.752          50.000  
R14  20645309.078   110051225.756       -3160.177          52.000    20645313.603    85595598.191       -2457.886          50.000  
E08  25458091.007   133783298.909         767.071          46.000    25458097.452   102509340.197         587.667          52.000  
S31  39537605.905   207771444.324        -819.807          43.000  
S33  40488545.538   212768634.375        -819.718          42.000  
G20  21782561.401   114468164.679       -2096.883          46.000                                                                  
E03  24518940.012   128847956.786       -1120.058          48.000    24518947.338    98727708.559        -858.238          54.000  
R15  20354382.728   108768005.244         833.431          53.000    20354385.995    84597191.051         648.239          50.000  
R03  22720525.371   121624676.855       -3896.762          49.000    22720533.871    94596968.241       -3030.790          48.000  
E05  26217736.491   137774957.114       -2670.505          43.000    26217753.328   105567798.582       -2046.224          48.000  
G05  22457492.620   118014894.705         576.277          49.000    22457494.424    91959719.503         449.039          45.000  
G30  21523623.358   113107610.417       -2194.727          49.000    21523626.752    88135922.312       -1710.132          46.000  
E30  28371181.594   149091607.156        2252.323          42.000    28371211.540   114239179.394        1726.181          42.000  
G14  21183402.930   111319735.855         341.132          48.000    21183403.999    86742810.793         265.789          47.000  
E02  24748991.320   130057032.223         972.635          47.000    24748998.431    99654261.717         745.168          50.000  
G22  22504375.759   118261567.770        2152.493          48.000                                                                  
E25  25130426.363   132061521.037       -1755.374          48.000    25130433.200   101190127.634       -1345.084          48.000  
> 2024 04 16 19 16 00.0030000  0 22                     
G13  23044690.489   121100723.822        1417.077          44.000                                                                  
G07  23280176.254   122338239.081       -3745.562          46.000    23280177.575    95328553.402       -2918.705          41.000  
G09  24540277.900   128959862.335       -3322.988          44.000    24540289.365   100488175.858       -2589.338          43.000  
R05  21605725.951   115495225.385        2228.961          52.000    21605729.278    89829501.378        1733.692          48.000  
R16  24241122.763   129491707.096        3141.938          41.000    24241154.320   100715935.5551       2443.341          34.000  
R04  20073123.180   107490828.114        -943.974          52.000    20073122.965    83603971.379        -734.189          50.000  
R14  20663143.867   110146290.304       -3177.224          52.000    20663147.588    85669537.236       -2471.352          50.000  
E08  25453717.859   133760318.897         764.866          46.000    25453723.917   102491732.165         586.140          51.000  
S31  39542286.566   207796042.325        -820.220          43.000  
S33  40493227.263   212793236.061        -820.433          42.000  
G20  21794583.337   114531345.117       -2115.070          46.000                                                                  
E03  24525352.521   128881648.831       -1126.210          49.000    24525358.606    98753524.498        -862.842          53.000  
R15  20349764.318   108743332.133         811.259          52.000    20349768.104    84578000.986         631.046          49.000  
R03  22742402.102   121741778.043       -3909.817          51.000    22742410.210    94688046.549       -3040.954          49.000  
E05  26232995.527   137855142.685       -2675.187          43.000    26233012.924   105629239.202       -2049.745          49.000  
G05  22454254.430   117997880.157         557.950          49.000    22454257.300    91946461.424         434.836          46.000  
G30  21536176.608   113173580.266       -2203.181          48.000    21536179.435    88187327.358       -1716.749          46.000  
E30  28358325.654   149024057.015        2250.875          41.000    28358356.825   114187420.943        1724.595          43.000  
G14  21181510.792   111309795.232         321.593          48.000    21181511.738    86735064.952         250.602          46.000  
E02  24743471.945   130028028.633         960.890          47.000    24743479.372    99632038.303         736.287          51.000  
G22  22492119.967   118197166.583        2140.700          48.000                                                                  
E25  25140485.106   132114383.241       -1768.633          49.000    25140492.274   101230632.474       -1355.239          48.000  
> 2024 04 16 19 16 30.0030000  0 22                     
G13  23036603.746   121058230.183        1415.770          45.000                                                                  
G07  23301565.060   122450641.535       -3747.992          45.000    23301568.426    95416139.573       -2920.451          44.000  
G09  24559265.341   129059639.916       -3328.925          45.000    24559276.477   100565924.286       -2593.976          42.000  
R05  21593238.471   115428470.718        2221.283          52.000    21593241.640    89777581.187        1727.643          50.000  
R16  24223497.429   129397555.485        3134.828          44.000    24223528.950   100642707.425        2437.874          36.000  
R04  20078466.130   107519439.362        -963.503          52.000    20078465.339    83626224.528        -749.293          49.000  
R14  20681071.515   110241857.834       -3193.896          53.000    20681075.865    85743867.431       -2484.060          50.000  
E08  25449356.063   133737397.931         763.100          46.000    25449362.526   102474169.406         584.713          52.000  
S31  39546967.962   207820644.387        -819.923          43.000  
S33  40497909.637   212817841.051        -820.132          43.000  
G20  21806708.573   114595059.030       -2132.520          46.000                                                                  
E03  24531797.118   128915516.526       -1131.886          48.000    24531803.357    98779475.035        -867.295          54.000  
R15  20345270.972   108719320.169         789.425          53.000    20345273.901    84559325.109         614.165          47.000  
R03  22764350.086   121859261.747       -3922.452          52.000    22764357.922    94779422.366       -3050.795          50.000  
E05  26248279.473   137935459.615       -2679.517          43.000    26248296.700   105690780.440       -2053.117          49.000  
G05  22451119.910   117981405.050         540.343          49.000    22451122.021    91933623.656         421.017          46.000  
G30  21548777.000   113239793.819       -2210.980          49.000    21548780.097    88238922.286       -1722.827          47.000  
E30  28345480.442   148956552.333        2249.447          41.000    28345510.598   114135697.256        1723.512          43.000  
G14  21179729.831   111300434.450         302.482          48.000    21179730.595    86727770.941         235.599          46.000  
E02  24738018.632   129999369.989         949.748          47.000    24738025.976    99610079.183         727.699          51.000  
G22  22479931.755   118133116.519        2129.246          48.000                                                                  
E25  25150618.729   132167633.958       -1781.367          49.000    25150625.032   101271434.966       -1365.026          48.000  
> 2024 04 16 19 17 00.0030000  0 22                     
G13  23028525.859   121015780.119        1414.418          44.000                                                                  
G07  23322966.950   122563113.229       -3750.002          44.000    23322969.415    95503779.714       -2922.179          43.000  
G09  24578286.943   129159604.229       -3335.239          42.000    24578300.136   100643818.214       -2598.788          44.000  
R05  21580795.486   115361954.102        2213.366          52.000    21580798.156    89725846.097        1721.563          48.000  
R16  24205914.456   129303632.546        3127.032          44.000    24205942.471   100569594.0741       2432.336          33.000  
R04  20083919.789   107548639.396        -982.951          52.000    20083918.480    83648935.600        -764.413          50.000  
R14  20699093.429   110337923.205       -3210.345          54.000    20699097.684    85818584.922       -2496.923          51.000  
E08  25445004.915   133714532.276         761.490          46.000    25445010.948   102456649.008         583.459          51.000  
S31  39551650.344   207845247.131        -820.057          43.000  
S33  40502591.470   212842446.540        -819.995          41.000  
G20  21818933.610   114659302.882       -2150.055          47.000                                                                  
E03  24538274.573   128949557.777       -1137.500          48.000    24538280.997    98805558.577        -871.603          53.000  
R15  20340900.528   108695964.820         767.702          52.000    20340903.368    84541159.936         597.340          48.000  
R03  22786369.286   121977126.010       -3934.985          53.000    22786376.243    94871094.183       -3060.505          49.000  
E05  26263588.111   138015906.860       -2683.688          43.000    26263605.455   105752421.567       -2056.155          49.000  
G05  22448086.855   117965466.549         522.390          49.000    22448088.777    91921204.057         407.046          45.000  
G30  21561422.009   113306247.752       -2218.972          48.000    21561426.119    88290704.562       -1729.208          47.000  
E30  28332641.696   148889088.444        2248.286          41.000    28332672.106   114084004.873        1722.664          44.000  
G14  21178058.386   111291650.258         283.396          48.000    21178058.957    86720926.181         220.760          47.000  
E02  24732629.572   129971052.410         938.297          47.000    24732637.741    99588381.428         718.961          52.000  
G22  22467809.563   118069414.347        2117.775          48.000                                                                  
E25  25160825.824   132221269.961       -1794.066          49.000    25160831.609   101312532.684       -1374.816          48.000  
> 2024 04 16 19 17 30.0030000  0 22                     
G13  23020452.744   120973357.186        1413.568          44.000                                                                  
G07  23344380.282   122675635.648       -3751.500          45.000    23344383.121    95591459.419       -2923.342          42.000  
G09  24597342.171   129259737.668       -3340.698          42.000    24597355.321   100721843.924       -2603.034          44.000  
R05  21568394.040   115295661.621        2205.992          52.000    21568396.955    89674285.354        1715.708          49.000  
R16  24188370.718   129209923.172        3120.080          38.000    24188400.009                        2426.126          29.000  
R04  20089479.253   107578412.361       -1002.057          53.000    20089478.512    83672092.316        -779.330          50.000  
R14  20717204.935   110434465.696       -3226.031          53.000    20717208.647    85893673.495       -2509.198          50.000  
E08  25440661.105   133691705.273         760.362          46.000    25440666.781   102439158.249         582.557          51.000  
S31  39556328.690   207869832.373        -819.002          41.000  
S33  40507270.737   212867034.923        -819.358          42.000  
G20  21831256.462   114724057.959       -2166.968          47.000                                                                  
E03  24544781.792   128983756.135       -1142.665          47.000    24544788.564    98831762.482        -875.545          52.000  
R15  20336649.125   108673249.274         746.409          52.000    20336652.873    84523492.382         580.621          49.000  
R03  22808454.149   122095352.027       -3946.961          52.000    22808462.341    94963047.298       -3069.767          49.000  
E05  26278917.817   138096467.278       -2687.325          42.000    26278935.823   105814149.427       -2059.048          49.000  
G05  22445152.936   117950048.673         505.287          49.000    22445154.537    91909190.123         393.519          45.000  
G30  21574109.827   113372923.372       -2226.099          48.000    21574114.489    88342659.533       -1734.669          47.000  
E30  28319808.002   148821649.620        2247.665          41.000    28319838.558   114032331.677        1722.128          44.000  
G14  21176493.615   111283426.469         264.711          48.000    21176494.254    86714518.071         206.344          47.000  
E02  24727303.560   129943059.675         927.585          48.000    24727310.572    99566932.597         710.818          52.000  
G22  22455750.614   118006045.102        2106.736          48.000                                                                  
E25  25171102.716   132275272.931       -1806.150          50.000    25171107.935   101353911.538       -1384.024          48.000  
> 2024 04 16 19 18 00.0030000  0 22                     
G13  23012385.100   120930963.680        1412.536          43.000                                                                  
G07  23365802.109   122788208.889       -3753.443          45.000    23365804.889    95679178.725       -2924.668          42.000  
G09  24616430.221   129360041.288       -3346.399          41.000    24616442.772   100800002.263       -2607.605          44.000  
R05  21556036.036   115229597.760        2198.058          53.000    21556037.789    89622902.409        1709.687          49.000  
R16  24170868.453   129116431.048        3112.525          41.000    24170896.872   100423994.938        2421.341          35.000  
R04  20095146.549   107608760.871       -1021.400          53.000    20095145.106    83695696.645        -794.453          50.000  
R14  20735405.002   110531483.146       -3242.026          53.000    20735408.601    85969131.461       -2521.458          50.000  
E08  25436325.588   133668919.173         758.763          47.000    25436330.650   102421698.848         581.353          51.000  
S31  39561004.176   207894402.048        -819.195          43.000  
S33  40511946.517   212891608.823        -819.007          42.000  
G20  21843676.186   114789323.282       -2184.210          46.000                                                                  
E03  24551320.027   129018113.556       -1148.085          47.000    24551326.997    98858088.249        -879.729          53.000  
R15  20332518.597   108651175.276         724.909          52.000    20332521.133    84506323.817         563.880          48.000  
R03  22830606.784   122213939.247       -3959.073          50.000    22830615.856    95055281.377       -3079.240          49.000  
E05  26294269.708   138177142.202       -2691.310          41.000    26294287.970   105875965.012       -2062.061          49.000  
G05  22442319.122   117935154.667         487.474          49.000    22442320.306    91897584.410         380.034          45.000  
G30  21586840.568   113439820.366       -2233.691          48.000    21586844.424    88394787.003       -1740.619          47.000  
E30  28306979.518   148754238.741        2246.432          41.000    28307010.498   113980679.894        1721.277          45.000  
G14  21175035.023   111275765.294         245.787          48.000    21175036.535    86708548.441         191.479          47.000  
E02  24722038.035   129915394.122         916.535          47.000    24722046.380    99545734.449         702.312          52.000  
G22  22443755.344   117943012.877        2095.260          48.000                                                                  
E25  25181448.430   132329643.012       -1818.618          49.000    25181454.162   101395571.735       -1393.511          47.000  
> 2024 04 16 19 18 30.0030000  0 22                     
G13  23004325.976   120888610.513        1411.092          43.000                                                                  
G07  23387235.501   122900840.900       -3755.472          45.000    23387239.548    95766943.804       -2926.474          43.000  
G09  24635551.287   129460524.519       -3352.783          41.000    24635563.954   100878300.615       -2612.299          43.000  
R05  21543722.788   115163775.422        2190.032          52.000    21543724.334    89571707.348        1703.393          49.000  
R16  24153408.368   129023168.944        3104.627          41.000    24153435.982   100351458.664        2414.367          36.000  
R04  20100923.756   107639696.495       -1040.994          53.000    20100922.224    83719757.657        -809.658          50.000  
R14  20753695.018   110628981.454       -3257.983          53.000    20753699.069    86044963.445       -2533.957          50.000  
E08  25431999.200   133646184.371         756.871          47.000    25432004.326   102404278.741         579.918          51.000  
S31  39565678.534   207918966.237        -818.699          43.000  
S33  40516621.889   212916175.757        -818.766          42.000  
G20  21856194.546   114855107.044       -2201.440          47.000                                                                  
E03  24557890.211   129052640.518       -1153.763          47.000    24557897.034    98884543.940        -884.128          52.000  
R15  20328509.512   108629753.256         703.267          52.000    20328511.765    84489662.355         546.812          48.000  
R03  22852829.102   122332896.080       -3971.491          51.000    22852837.300    95147802.922       -3089.006          48.000  
E05  26309645.503   138257941.424       -2695.568          41.000    26309663.593   105937875.851       -2065.467          48.000  
G05  22439586.806   117920795.413         469.604          49.000    22439588.314    91886395.385         365.974          45.000  
G30  21599614.925   113506946.865       -2241.461          48.000    21599617.858    88447093.328       -1746.472          47.000  
E30  28294158.756   148686867.000        2245.208          41.000    28294189.457   113929058.132        1720.150          46.000  
G14  21173685.945   111268677.397         226.588          48.000    21173688.398    86703025.476         176.670          48.000  
E02  24716837.239   129888066.456         905.107          47.000    24716845.699    99524795.189         693.607          52.000  
G22  22431827.478   117880329.867        2083.623          48.000                                                                  
E25  25191866.467   132384388.927       -1831.258          49.000    25191872.053   101437519.890       -1403.192          48.000  
> 2024 04 16 19 19 00.0030000  0 22                     
G13  22996274.923   120846300.008        1409.511          43.000                                                                  
G07  23408679.068   123013532.078       -3757.190          46.000    23408683.140    95854754.957       -2927.714          43.000  
G09  24654707.415   129561188.749       -3358.490          42.000    24654720.526   100956739.972       -2617.126          44.000  
R05  21531455.013   115098200.077        2181.695          52.000    21531456.925    89520704.357        1696.868          49.000  
R16  24135991.990   128930141.021        3096.728          42.000    24136018.554   100279104.483        2408.940          38.000  
R04  20106810.448   107671222.727       -1060.709          52.000    20106810.360    83744278.002        -824.971          51.000  
R14  20772075.094   110726958.798       -3273.850          52.000    20772079.823    86121167.969       -2546.316          50.000  
E08  25427683.297   133623503.698         755.209          47.000    25427688.557   102386900.086         578.529          51.000  
S31  39570351.775   207943525.832        -818.651          41.000  
S33  40521296.165   212940739.329        -818.738          43.000  
G20  21868811.552   114921409.612       -2218.726          47.000                                                                  
E03  24564492.919   129087339.588       -1159.572          47.000    24564500.227    98911131.496        -888.420          52.000  
R15  20324622.855   108608985.643         681.293          52.000    20324625.550    84473509.847         530.028          48.000  
R03  22875121.325   122452222.878       -3983.617          50.000    22875128.970    95240612.285       -3098.247          47.000  
E05  26325044.994   138338866.987       -2699.479          42.000    26325063.735   105999883.495       -2068.505          48.000  
G05  22436956.170   117906974.063         451.755          49.000    22436958.361    91875625.515         351.989          45.000  
G30  21612432.667   113574303.249       -2249.066          49.000    21612434.949    88499578.773       -1752.387          46.000  
E30  28281346.068   148619537.801        2243.550          41.000    28281376.529   113877468.948        1719.033          46.000  
G14  21172447.043   111262165.672         207.451          48.000    21172448.920    86697951.455         161.681          48.000  
E02  24711702.974   129861079.621         893.922          48.000    24711709.931    99504117.084         684.926          52.000  
G22  22419966.952   117818000.718        2071.700          48.000                                                                  
E25  25202355.054   132439511.427       -1843.721          49.000    25202361.655   101479756.629       -1412.654          48.000  
> 2024 04 16 19 19 30.0030000  0 22                     
G13  22988232.841   120804040.392        1408.083          43.000                                                                  
G07  23430136.338   123126288.125       -3759.434          46.000    23430140.443    95942616.705       -2929.583          43.000  
G09  24673899.717   129662040.861       -3364.721          43.000    24673912.326   101035325.729       -2621.912          44.000  
R05  21519235.582   115032882.287        2173.119          51.000    21519237.364    89469901.736        1690.154          50.000  
R16  24118623.059   128837357.166        3089.019          41.000    24118647.642   100206940.147        2402.386          41.000  
R04  20112809.870   107703347.948       -1080.631          52.000    20112809.331    83769264.253        -840.519          50.000  
R14  20790546.666   110825418.831       -3289.871          52.000    20790550.938    86197747.965       -2558.767          50.000  
E08  25423378.136   133600884.945         753.139          47.000    25423384.292   102369568.895         577.031          51.000  
S31  39575025.917   207968088.139        -818.512          40.000  
S33  40525970.577   212965305.322        -818.847          44.000  
G20  21881528.733   114988236.079       -2236.151          47.000                                                                  
E03  24571129.621   129122218.633       -1165.481          47.000    24571137.224    98937856.996        -893.008          52.000  
R15  20320859.659   108588880.291         659.321          52.000    20320863.015    84457872.495         512.776          49.000  
R03  22897481.797   122571925.387       -3996.199          50.000    22897490.882    95333713.826       -3108.141          47.000  
E05  26340471.140   138419926.115       -2704.024          43.000    26340488.586   106061993.470       -2072.008          48.000  
G05  22434430.181   117893699.124         433.662          49.000    22434432.215    91865281.396         337.775          45.000  
G30  21625294.614   113641895.014       -2256.805          49.000    21625297.739    88552247.672       -1758.661          47.000  
E30  28268543.557   148552259.803        2242.150          42.000    28268573.171   113825918.989        1717.845          46.000  
G14  21171318.945   111256238.026         188.028          48.000    21171320.745    86693332.572         146.599          48.000  
E02  24706633.463   129834441.624         882.336          48.000    24706640.822    99483706.281         676.018          52.000  
G22  22408174.891   117756034.929        2059.531          47.000                                                                  
E25  25212917.806   132495016.462       -1856.323          49.000    25212924.255   101522286.445       -1422.405          49.000  
> 2024 04 16 19 20 00.0030000  0 22                     
G13  22980200.023   120761833.022        1405.767          43.000                                                                  
G07  23451605.129   123239108.133       -3761.694          44.000    23451609.702    96030528.242       -2931.240          44.000  
G09  24693127.110   129763081.128       -3371.118          43.000    24693139.619   101114058.087       -2626.831          43.000  
R05  21507065.114   114967825.741        2164.195          51.000    21507067.658    89419302.282        1683.312          49.000  
R16  24101299.450   128744820.416        3080.565          41.000    24101324.206   100134968.087        2395.917          42.000  
R04  20118921.529   107736074.627       -1100.945          52.000    20118921.076    83794718.310        -856.223          50.000  
R14  20809107.695   110924358.112       -3305.951          52.000    20809112.266    86274700.678       -2571.365          51.000  
E08  25419085.820   133578329.661         750.794          46.000    25419091.787   102352286.312         575.329          50.000  
S31  39579700.874   207992653.987        -818.892          41.000  
S33  40530646.213   212989875.214        -818.576          42.000  
G20  21894344.666   115055585.405       -2253.627          47.000                                                                  
E03  24577801.984   129157278.962       -1171.718          47.000    24577809.398    98964721.364        -897.822          53.000  
R15  20317221.870   108569438.012         636.912          51.000    20317224.577    84442750.807         495.439          48.000  
R03  22919913.266   122692003.074       -4008.881          51.000    22919922.321    95427107.159       -3117.894          47.000  
E05  26355922.607   138501119.485       -2708.594          43.000    26355938.698   106124206.334       -2075.541          47.000  
G05  22432008.550   117880972.776         415.027          48.000    22432010.152    91855364.737         323.435          45.000  
G30  21638201.812   113709721.343       -2264.685          49.000    21638205.018    88605099.315       -1764.758          47.000  
E30  28255749.949   148485035.137        2240.000          41.000    28255779.466   113774409.893        1716.509          45.000  
G14  21170302.481   111250896.051         168.350          48.000    21170304.187    86689170.049         131.073          47.000  
E02  24701630.836   129808154.090         870.361          48.000    24701638.770    99463564.038         666.972          53.000  
G22  22396452.303   117694435.829        2047.197          48.000                                                                  
E25  25223552.570   132550903.548       -1869.168          49.000    25223559.629   101565109.015       -1432.247          50.000  
> 2024 04 16 19 20 30.0030000  0 22                     
G13  22972176.583   120719668.186        1404.912          43.000                                                                  
G07  23473084.551   123351979.705       -3762.846          47.000    23473087.772    96118480.012       -2932.272          43.000  
G09  24712387.490   129864298.364       -3376.532          44.000    24712400.683   101192928.381       -2631.268          43.000  
R05  21494942.311   114903023.460        2156.122          51.000    21494945.332    89368900.585        1676.928          49.000  
R16  24084021.204   128652522.240        3072.905          35.000    24084044.564   100063181.606        2390.201          42.000  
R04  20125143.383   107769392.838       -1120.140          52.000    20125143.032    83820632.439        -871.243          50.000  
R14  20827755.737   111023762.315       -3320.975          52.000    20827760.285    86352015.010       -2582.880          51.000  
E08  25414804.384   133555827.720         749.465          47.000    25414810.345   102335044.638         574.219          51.000  
S31  39584374.330   208017212.949        -818.561          40.000  
S33  40535320.253   213014437.322        -817.891          43.000  
G20  21907258.609   115123444.733       -2270.201          47.000                                                                  
E03  24584506.653   129192510.457       -1176.969          47.000    24584513.463    98991716.892        -901.857          52.000  
R15  20313705.810   108550648.212         615.778          52.000    20313708.199    84428136.607         478.898          49.000  
R03  22942413.072   122812442.516       -4020.287          51.000    22942422.275    95520781.858       -3126.950          49.000  
E05  26371396.958   138582436.318       -2712.390          43.000    26371413.165   106186513.774       -2078.371          47.000  
G05  22429689.064   117868785.630         397.621          48.000    22429691.230    91845868.257         309.816          45.000  
G30  21651150.634   113777769.790       -2271.698          48.000    21651154.298    88658124.072       -1770.093          47.000  
E30  28242964.329   148417854.459        2238.849          40.000    28242995.339   113722934.514        1715.496          46.000  
G14  21169394.853   111246129.687         149.602          47.000    21169396.672    86685456.091         116.552          47.000  
E02  24696693.510   129782207.143         859.494          48.000    24696701.379    99443682.746         658.562          53.000  
G22  22384798.104   117633194.950        2035.441          48.000                                                                  
E25  25234257.928   132607160.664       -1881.100          49.000    25234265.275   101608215.090       -1441.398          50.000  
> 2024 04 16 19 21 00.0030000  0 22                     
G13  22964160.135   120677544.067        1403.532          43.000                                                                  
G07  23494572.807   123464899.051       -3764.724          47.000    23494576.479    96206468.951       -2933.472          44.000  
G09  24731682.780   129965689.615       -3382.526          46.000    24731694.460   101271934.199       -2635.510          43.000  
R05  21482866.986   114838475.601        2147.314          51.000    21482869.678    89318696.769        1670.184          49.000  
R16  24066784.518   128560462.613        3064.520          37.000    24066808.989    99991580.507        2383.429          41.000  
R04  20131475.940   107803301.146       -1140.046          52.000    20131474.538    83847005.525        -886.630          50.000  
R14  20846489.166   111123624.654       -3336.368          52.000    20846493.432    86429685.681       -2594.942          51.000  
E08  25410532.378   133533377.351         747.561          47.000    25410538.171   102317842.450         572.808          51.000  
S31  39589045.322   208041761.512        -818.073          42.000  
S33  40539992.306   213038989.861        -817.922          42.000  
G20  21920268.479   115191809.616       -2287.104          46.000                                                                  
E03  24591243.037   129227911.172       -1182.837          47.000    24591250.049    99018842.076        -906.344          52.000  
R15  20310311.414   108532508.542         593.827          52.000    20310314.601    84414028.089         461.864          49.000  
R03  22964979.996   122933239.977       -4032.464          52.000    22964988.823    95614734.994       -3136.416          48.000  
E05  26386893.532   138663874.037       -2716.472          43.000    26386911.084   106248913.868       -2081.642          48.000  
G05  22427472.430   117857136.235         379.385          48.000    22427474.750    91836790.792         295.585          45.000  
G30  21664140.758   113846036.243       -2279.150          47.000    21664144.283    88711318.718       -1775.983          46.000  
E30  28230188.437   148350716.700        2237.165          40.000    28230218.437   113671492.003        1714.148          46.000  
G14  21168597.020   111241937.129         130.228          47.000    21168597.960    86682189.226         101.362          47.000  
E02  24691820.727   129756599.097         848.000          48.000    24691828.319    99424061.126         649.774          53.000  
G22  22373212.332   117572312.168        2023.357          48.000                                                                  
E25  25245033.100   132663784.053       -1893.494          49.000    25245040.377   101651601.824       -1450.885          50.000  
> 2024 04 16 19 21 30.0030000  0 22                     
G13  22956153.755   120635467.451        1401.868          43.000                                                                  
G07  23516070.340   123577870.241       -3766.265          48.000    23516073.922    96294498.317       -2934.975          44.000  
G09  24751011.658   130067260.283       -3388.336          45.000    24751023.447   101351079.898       -2640.338          43.000  
R05  21470841.659   114774191.802        2138.630          52.000    21470843.629    89268698.335        1663.287          48.000  
R16  24049600.122   128468577.0571       3056.399          35.000    24049622.046    99920171.411        2377.235          43.000  
R04  20137918.886   107837807.118       -1159.921          52.000    20137918.792    83873843.462        -902.197          50.000  
R14  20865309.632   111223947.528       -3351.493          52.000    20865314.546    86507714.507       -2606.662          50.000  
E08  25406270.584   133510985.203         745.633          46.000    25406277.185   102300684.872         571.300          51.000  
S31  39593716.164   208066305.427        -818.101          43.000  
S33  40544663.547   213063537.207        -817.876          42.000  
G20  21933374.101   115260684.311       -2304.186          46.000                                                                  
E03  24598013.444   129263487.660       -1188.681          47.000    24598019.953    99046101.948        -910.753          52.000  
R15  20307039.563   108515025.228         572.166          52.000    20307042.429    84400430.071         444.928          49.000  
R03  22987612.871   123054399.535       -4044.486          50.000    22987623.658    95708969.767       -3145.694          49.000  
E05  26402414.520   138745438.588       -2720.653          42.000    26402432.635   106311411.138       -2084.613          48.000  
G05  22425358.917   117846032.072         361.262          49.000    22425361.406    91828138.170         281.567          45.000  
G30  21677173.717   113914524.964       -2286.487          47.000    21677176.816    88764686.516       -1781.622          46.000  
E30  28217421.903   148283629.106        2235.505          41.000    28217451.619   113620087.933        1712.906          45.000  
G14  21167909.347   111238325.005         110.926          47.000    21167910.361    86679374.650          86.355          47.000  
E02  24687012.631   129731336.730         836.479          48.000    24687020.434    99404704.368         640.912          52.000  
G22  22361696.838   117511796.089        2011.162          48.000                                                                  
E25  25255878.885   132720778.355       -1905.814          49.000    25255886.071   101695272.759       -1460.284          50.000  
> 2024 04 16 19 22 00.0030000  0 22                     
G13  22948157.295   120593445.734        1399.789          43.000                                                                  
G07  23537579.207   123690898.282       -3768.519          48.000    23537582.262    96382571.960       -2936.594          44.000  
G09  24770374.645   130169016.320       -3395.031          42.000    24770386.907   101430369.961       -2645.477          42.000  
R05  21458867.248   114710182.101        2129.069          52.000    21458869.230    89218913.070        1656.011          49.000  
R16  24032460.038   128377019.572        3047.759          40.000    24032481.710    99848960.959        2370.563          43.000  
R04  20144476.189   107872918.349       -1180.482          52.000    20144475.138    83901152.132        -918.125          49.000  
R14  20884216.065   111324733.310       -3367.169          52.000    20884222.075    86586103.390       -2619.032          51.000  
E08  25402022.196   133488658.367         743.226          47.000    25402028.418   102283577.356         569.434          51.000  
S31  39598387.097   208090851.478        -818.342          43.000  
S33  40549335.541   213088087.074        -818.349          43.000  
G20  21946577.976   115330073.072       -2321.499          45.000                                                                  
E03  24604817.721   129299246.851       -1194.942          48.000    24604824.754    99073501.816        -915.663          52.000  
R15  20303891.854   108498204.873         549.710          52.000    20303894.353    84387347.649         427.432          49.000  
R03  23010316.836   123175926.116       -4056.954          53.000    23010326.079    95803490.003       -3155.384          48.000  
E05  26417961.832   138827136.259       -2725.525          42.000    26417979.511   106374010.381       -2088.319          48.000  
G05  22423350.968   117835480.604         342.642          49.000    22423353.885    91819916.238         266.716          45.000  
G30  21690250.200   113983240.644       -2294.348          48.000    21690253.358    88818231.162       -1787.714          46.000  
E30  28204665.331   148216599.473        2233.319          41.000    28204695.224   113568728.282        1711.198          44.000  
G14  21167333.978   111235300.314          91.054          48.000    21167335.277    86677017.820          70.881          47.000  
E02  24682272.456   129706427.196         824.487          48.000    24682280.058    99385617.940         631.752          52.000  
G22  22350252.418   117451655.292        1998.398          47.000                                                                  
E25  25266795.640   132778148.660       -1918.544          48.000    25266803.483   101739231.798       -1470.027          51.000  
> 2024 04 16 19 22 30.0030000  0 22                     
G13  22940171.323   120551479.940        1398.185          44.000                                                                  
G07  23559098.782   123803981.882       -3770.229          47.000    23559102.304    96470688.923       -2937.799          44.000  
G09  24789772.703   130270957.561       -3400.928          44.000    24789786.733   101509804.333       -2650.104          42.000  
R05  21446945.071   114646449.467        2119.874          52.000    21446946.726    89169343.326        1648.823          48.000  
R16  24015366.832   128285720.528        3039.138          44.000    24015389.754    99777951.466        2363.798          41.000  
R04  20151146.132   107908636.067       -1200.532          51.000    20151146.111    83928932.563        -933.807          51.000  
R14  20903210.081   111425978.975       -3382.297          50.000    20903215.063    86664849.958       -2630.575          50.000  
E08  25397786.410   133466397.937         740.929          47.000    25397792.213   102266520.697         567.805          51.000  
S31  39603058.194   208115399.388        -818.007          41.000  
S33  40554007.494   213112639.199        -818.163          43.000  
G20  21959879.720   115399974.085       -2338.374          46.000                                                                  
E03  24611658.146   129335189.792       -1201.047          48.000    24611664.461    99101042.444        -920.246          52.000  
R15  20300867.745   108482047.902         527.688          51.000    20300871.219    84374781.198         410.437          49.000  
R03  23033087.280   123297818.079       -4068.888          50.000    23033095.914    95898294.435       -3164.730          48.000  
E05  26433534.255   138908967.287       -2729.675          43.000    26433551.492   106436711.835       -2091.582          48.000  
G05  22421448.949   117825483.113         324.308          49.000    22421451.004    91812125.946         252.637          44.000  
G30  21703369.009   114052182.009       -2301.654          47.000    21703372.355    88871951.678       -1793.488          46.000  
E30  28191922.369   148149629.626        2231.554          42.000    28191950.371   113517414.391        1709.827          43.000  
G14  21166870.114   111232864.126          71.621          47.000    21166871.816    86675119.550          55.855          48.000  
E02  24677599.668   129681871.659         812.705          48.000    24677607.589    99366802.759         622.730          53.000  
G22  22338879.613   117391892.671        1985.909          48.000                                                                  
E25  25277784.358   132835894.030       -1931.038          48.000    25277791.994   101783478.234       -1479.590          51.000  
> 2024 04 16 19 23 00.0030000  0 22                     
G13  22932195.485   120509562.785        1396.656          45.000                                                                  
G07  23580626.374   123917111.301       -3771.489          47.000    23580629.882    96558841.529       -2938.672          43.000  
G09  24809205.546   130373075.237       -3406.519          44.000    24809219.857   101589376.228       -2654.663          43.000  
R05  21435072.914   114582989.103        2110.948          52.000    21435075.276    89119985.336        1641.937          48.000  
R16  23998321.723   128194673.654        3031.025          44.000    23998344.822    99707138.107        2357.358          40.000  
R04  20157927.920   107944953.264       -1220.301          51.000    20157927.498    83957179.221        -949.123          50.000  
R14  20922286.409   111527671.449       -3396.771          50.000    20922292.630    86743944.057       -2642.032          51.000  
E08  25393561.032   133444196.210         739.405          47.000    25393567.675   102249509.048         566.542          51.000  
S31  39607728.732   208139941.076        -817.784          41.000  
S33  40558678.385   213137183.704        -817.933          42.000  
G20  21973277.484   115470377.164       -2354.857          46.000                                                                  
E03  24618530.802   129371308.640       -1206.549          47.000    24618537.551    99128717.905        -924.543          52.000  
R15  20297966.210   108466546.292         506.135          51.000    20297969.727    84362724.496         393.608          49.000  
R03  23055923.860   123420065.160       -4080.581          50.000    23055933.451    95993375.031       -3173.711          48.000  
E05  26449129.260   138990923.413       -2733.743          42.000    26449146.806   106499509.138       -2094.640          48.000  
G05  22419650.927   117816032.263         306.215          50.000    22419652.349    91804761.632         238.491          44.000  
G30  21716528.958   114121339.146       -2308.533          47.000    21716532.459    88925840.346       -1798.914          46.000  
E30  28179188.302   148082712.581        2229.913          42.000    28179215.898   113466140.980        1708.848          43.000  
G14  21166516.678   111231008.662          52.439          47.000    21166519.041    86673673.832          40.824          48.000  
E02  24672992.759   129657662.574         801.409          48.000    24673000.286    99348253.051         614.188          52.000  
G22  22327577.209   117332502.274        1973.650          47.000                                                                  
E25  25288841.931   132894004.860       -1942.880          48.000    25288849.812   101828004.677       -1488.613          51.000  
> 2024 04 16 19 23 30.0030000  0 22                     
G13  22924225.267   120467682.075        1395.532          43.000                                                                  
G07  23602160.093   124030272.062       -3772.406          48.000    23602163.007    96647018.624       -2939.503          44.000  
G09  24828669.768   130475355.804       -3411.963          44.000    24828683.795   101669075.073       -2658.606          44.000  
R05  21423250.353   114519791.341        2102.321          51.000    21423253.007    89070831.586        1635.094          49.000  
R16  23981321.798   128103868.130        3022.875          46.000    23981344.402    99636512.517        2351.260          41.000  
R04  20164819.571   107981857.995       -1239.877          52.000    20164818.900    83985882.845        -964.296          50.000  
R14  20941444.801   111629794.467       -3410.990          52.000    20941450.321    86823373.007       -2653.082          51.000  
E08  25389345.615   133422041.197         737.807          47.000    25389351.173   102232533.190         565.399          51.000  
S31  39612394.481   208164462.970        -816.790          43.000  
S33  40563345.706   213161710.161        -816.945          42.000  
G20  21986767.767   115541267.878       -2370.948          46.000                                                                  
E03  24625435.465   129407591.174       -1211.977          47.000    24625441.541    99156518.743        -928.704          51.000  
R15  20295185.560   108451686.956         484.625          50.000    20295189.078    84351167.301         377.064          49.000  
R03  23078826.000   123542652.872       -4091.760          52.000    23078834.810    96088720.592       -3182.488          49.000  
E05  26464746.410   139072991.616       -2737.368          43.000    26464764.592   106562392.320       -2097.486          48.000  
G05  22417954.304   117807116.492         288.425          49.000    22417955.922    91797814.298         224.752          44.000  
G30  21729727.288   114190697.552       -2315.198          48.000    21729731.075    88979885.846       -1804.016          46.000  
E30  28166460.700   148015836.791        2228.599          41.000    28166488.544   113414899.206        1707.656          42.000  
G14  21166272.249   111229721.614          33.482          47.000    21166273.920    86672671.015          26.080          47.000  
E02  24668449.618   129633787.887         790.368          48.000    24668456.740    99329959.536         605.614          52.000  
G22  22316344.653   117273473.761        1961.515          48.000                                                                  
E25  25299967.557   132952466.896       -1954.496          47.000    25299974.510   101872800.244       -1497.460          50.000  
> 2024 04 16 19 24 00.0030000  0 22                     
G13  22916264.333   120425848.060        1393.573          45.000                                                                  
G07  23623701.223   124143472.352       -3773.895          45.000    23623704.386    96735226.456       -2940.760          41.000  
G09  24848166.251   130577808.432       -3418.005          44.000    24848180.151   101748907.957       -2663.403          43.000  
R05  21411480.215   114456868.782        2092.723          52.000    21411481.667    89021891.903        1627.671          49.000  
R16  23964368.958   128013316.082        3014.126          44.000    23964391.585    99566084.051        2344.155          35.000  
R04  20171822.833   108019360.715       -1260.172          51.000    20171822.269    84015051.606        -980.065          49.000  
R14  20960686.641   111732353.400       -3425.982          52.000    20960690.391    86903141.027       -2664.566          50.000  
E08  25385140.728   133399943.107         735.592          47.000    25385145.918   102215600.916         563.681          50.000  
S31  39617059.391   208188974.770        -817.071          41.000  
S33  40568010.495   213186225.501        -817.074          43.000  
G20  22000351.273   115612652.670       -2387.625          45.000                                                                  
E03  24632372.977   129444047.431       -1218.122          47.000    24632379.570    99184452.709        -933.301          52.000  
R15  20292527.137   108437479.281         462.713          52.000    20292530.469    84340116.976         359.933          50.000  
R03  23101790.674   123665588.165       -4103.822          50.000    23101800.755    96184336.431       -3191.829          50.000  
E05  26480387.835   139155181.355       -2741.562          43.000    26480405.311   106625368.588       -2100.748          48.000  
G05  22416361.420   117798746.421         269.939          50.000    22416363.733    91791292.122         210.176          45.000  
G30  21742965.927   114260265.086       -2322.424          48.000    21742969.155    89034094.283       -1809.717          45.000  
E30  28153745.179   147949013.257        2226.532          42.000    28153772.528   113363697.448        1706.107          43.000  
G14  21166137.624   111229013.038          13.962          47.000    21166138.892    86672118.947          10.924          48.000  
E02  24663972.328   129610257.803         778.581          48.000    24663979.382    99311930.093         596.579          52.000  
G22  22305183.656   117214818.820        1948.900          48.000                                                                  
E25  25311161.021   133011288.311       -1966.705          48.000    25311167.871   101917871.193       -1506.928          50.000  
> 2024 04 16 19 24 30.0030000  0 22                     
G13  22908313.510   120384067.328        1391.861          44.000                                                                  
G07  23645251.886   124256716.337       -3775.553          48.000    23645254.669    96823468.428       -2942.072          42.000  
G09  24867695.890   130680437.891       -3424.097          43.000    24867710.375   101828878.645       -2668.121          43.000  
R05  21399761.502   114394230.672        2083.109          52.000    21399763.988    88973173.420        1620.176          48.000  
R16  23947465.437   127923024.985        3005.329          43.000    23947488.444    99495858.512        2337.257          38.000  
R04  20178938.764   108057468.245       -1280.374          50.000    20178938.459    84044690.717        -995.793          50.000  
R14  20980007.529   111835350.283       -3440.519          52.000    20980011.863    86983249.636       -2675.884          51.000  
E08  25380946.976   133377908.014         733.494          47.000    25380952.875   102198716.953         562.027          50.000  
S31  39621722.774   208213481.621        -816.820          43.000  
S33  40572674.630   213210736.430        -817.221          42.000  
G20  22014030.812   115684535.217       -2404.344          47.000                                                                  
E03  24639344.442   129480683.460       -1224.263          48.000    24639351.143    99212524.436        -938.029          51.000  
R15  20289991.630   108423929.090         440.712          51.000    20289995.084    84329578.015         342.786          49.000  
R03  23124823.752   123788875.748       -4115.471          51.000    23124831.491    96280226.302       -3200.913          49.000  
E05  26496052.764   139237497.942       -2746.101          44.000    26496069.435   106688442.083       -2103.919          47.000  
G05  22414873.510   117790928.870         251.373          49.000    22414876.200    91785200.519         195.835          46.000  
G30  21756244.511   114330045.537       -2329.443          47.000    21756248.042    89088468.640       -1815.125          46.000  
E30  28141039.640   147882248.678        2224.484          42.000    28141066.882   113312540.816        1704.558          43.000  
G14  21166113.699   111228888.835          -5.553          47.000    21166115.666    86672022.248          -4.417          48.000  
E02  24659560.421   129587078.534         766.814          47.000    24659568.278    99294169.455         587.574          52.000  
G22  22294094.786   117156545.168        1936.074          48.000                                                                  
E25  25322422.952   133070473.171       -1978.826          47.000    25322430.590   101963220.626       -1516.320          51.000  
> 2024 04 16 19 25 00.0030000  0 22                     
G13  22900373.980   120342343.389        1389.883          45.000                                                                  
G07  23666809.126   124370004.550       -3776.979          47.000    23666813.204    96911744.788       -2943.156          43.000  
G09  24887259.882   130783246.372       -3429.945          44.000    24887274.245   101908988.801       -2672.678          43.000  
R05  21388098.344   114331883.045        2073.388          51.000    21388100.494    88924680.918        1612.652          48.000  
R16  23930609.966   127833000.203        2996.574          40.000    23930634.496    99425840.223        2330.716          36.000  
R04  20186169.147   108096184.400       -1300.659          51.000    20186169.224    84074803.211       -1011.615          50.000  
R14  20999411.004   111938783.491       -3455.013          53.000    20999416.180    87063697.655       -2687.252          52.000  
E08  25376766.119   133355939.418         731.211          47.000    25376772.160   102181883.901         560.253          50.000  
S31  39626385.903   208237985.677        -816.718          44.000  
S33  40577338.863   213235244.602        -816.947          43.000  
G20  22027804.347   115756916.009       -2420.903          47.000                                                                  
E03  24646351.712   129517502.443       -1230.312          48.000    24646356.941    99240736.366        -942.735          51.000  
R15  20287579.287   108411038.978         418.688          52.000    20287583.161    84319552.455         325.703          49.000  
R03  23147920.289   123912515.995       -4127.151          50.000    23147929.442    96376390.470       -3210.131          48.000  
E05  26511740.542   139319943.961       -2750.575          42.000    26511759.092   106751614.728       -2107.490          48.000  
G05  22413491.972   117783667.039         232.781          49.000    22413494.538    91779541.931         181.368          46.000  
G30  21769563.772   114400039.988       -2336.761          47.000    21769567.831    89143009.711       -1820.715          47.000  
E30  28128345.805   147815547.175        2222.408          42.000    28128372.325   113261432.598        1702.907          42.000  
G14  21166202.040   111229352.240         -25.291          48.000    21166203.947    86672383.424         -19.680          48.000  
E02  24655217.036   129564253.492         754.884          48.000    24655224.559    99276680.234         578.458          52.000  
G22  22283077.718   117098657.909        1923.101          47.000                                                                  
E25  25333755.655   133130022.827       -1991.009          48.000    25333762.672   102008849.554       -1525.619          51.000  
> 2024 04 16 19 25 30.0030000  0 22                     
G13  22892445.542   120300679.381        1387.849          46.000                                                                  
G07  23688376.470   124483337.761       -3778.373          47.000    23688379.708    97000056.220       -2944.135          42.000  
G09  24906858.977   130886235.527       -3436.012          45.000    24906872.440   101989239.661       -2677.261          44.000  
R05  21376489.286   114269831.170        2063.505          51.000    21376492.774    88876418.406        1605.010          50.000  
R16  23913807.764   127743245.861        2987.352          43.000    23913829.919    99356032.204        2323.352          38.000  
R04  20193513.669   108135512.070       -1320.873          51.000    20193514.270    84105391.362       -1027.451          50.000  
R14  21018895.604   112042651.188       -3469.351          52.000    21018901.886    87144483.591       -2698.398          52.000  
E08  25372599.619   133334040.071         728.971          47.000    25372604.664   102165103.943         558.494          50.000  
S31  39631048.609   208262489.155        -816.553          44.000  
S33  40582002.539   213259752.642        -816.972          43.000  
G20  22041672.971   115829795.056       -2437.405          46.000                                                                  
E03  24653393.330   129554507.107       -1236.462          48.000    24653399.229    99269090.526        -947.368          51.000  
R15  20285291.082   108398810.849         396.741          52.000    20285294.166    84310041.754         308.439          49.000  
R03  23171082.097   124036509.077       -4138.738          49.000    23171092.730    96472829.018       -3219.140          49.000  
E05  26527454.727   139402521.381       -2754.915          42.000    26527472.969   106814888.073       -2110.742          48.000  
G05  22412215.932   117776964.254         214.231          48.000    22412218.980    91774318.974         167.013          45.000  
G30  21782924.369   114470248.855       -2343.781          47.000    21782928.281    89197717.884       -1826.318          46.000  
E30  28115666.056   147748912.204        2220.224          44.000    28115692.047   113210375.278        1701.144          43.000  
G14  21166402.603   111230405.763         -44.953          48.000    21166404.268    86673204.390         -34.934          48.000  
E02  24650940.077   129541785.444         743.045          46.000    24650948.865    99259464.563         569.413          52.000  
G22  22272136.947   117041161.514        1910.195          47.000                                                                  
E25  25345157.047   133189937.985       -2003.107          48.000    25345164.174   102054758.565       -1534.855          51.000  
> 2024 04 16 19 26 00.0030000  0 22                     
G13  22884527.598   120259071.790        1386.106          47.000                                                                  
G07  23709949.987   124596710.751       -3779.560          45.000    23709954.060    97088398.642       -2945.026          41.000  
G09  24926490.858   130989400.659       -3441.536          44.000    24926504.267   102069627.739       -2681.949          42.000  
R05  21364937.049   114208074.470        2053.759          52.000    21364939.977    88828385.493        1597.356          49.000  
R16  23897056.025   127653760.465        2978.449          44.000    23897078.142    99286433.425        2316.673          41.000  
R04  20200971.931   108175448.295       -1341.138          51.000    20200972.049    84136452.806       -1043.150          50.000  
R14  21038461.770   112146945.962       -3483.358          52.000    21038466.532    87225601.702       -2709.261          52.000  
E08  25368444.505   133312206.888         726.616          47.000    25368450.331   102148374.670         556.860          50.000  
S31  39635710.360   208286988.425        -816.598          44.000  
S33  40586665.303   213284255.705        -816.424          43.000  
G20  22055635.479   115903166.828       -2453.761          47.000                                                                  
E03  24660468.867   129591694.044       -1242.282          47.000    24660475.897    99297584.366        -951.982          51.000  
R15  20283125.287   108387240.779         374.838          52.000    20283128.587    84301042.898         291.523          49.000  
R03  23194311.174   124160849.038       -4150.365          50.000    23194320.188    96569537.377       -3227.866          47.000  
E05  26543192.665   139485226.247       -2758.589          42.000    26543211.712   106878259.101       -2113.916          48.000  
G05  22411046.214   117770817.744         195.715          48.000    22411049.037    91769529.444         152.598          45.000  
G30  21796325.158   114540666.604       -2350.580          48.000    21796328.464    89252588.820       -1831.622          46.000  
E30  28102996.669   147682341.254        2218.021          43.000    28103022.826   113159367.014        1699.556          42.000  
G14  21166714.743   111232045.891         -64.295          48.000    21166716.071    86674482.474         -50.100          48.000  
E02  24646731.449   129519671.233         731.362          46.000    24646740.871    99242520.019         560.403          53.000  
G22  22261269.155   116984054.414        1897.140          47.000                                                                  
E25  25356627.132   133250213.332       -2015.017          48.000    25356634.446   102100943.541       -1543.999          52.000  
> 2024 04 16 19 26 30.0030000  0 22                     
G13  22876620.302   120217520.277        1384.159          48.000                                                                  
G07  23731531.745   124710120.354       -3780.851          45.000    23731535.244    97176769.623       -2946.015          41.000  
G09  24946155.337   131092739.686       -3447.470          43.000    24946170.264   102150151.320       -2686.436          43.000  
R05  21353439.621   114146615.005        2043.799          52.000    21353443.048    88780583.778        1589.698          49.000  
R16  23880353.825   127564544.213        2969.263          44.000    23880375.770    99217043.987        2309.444          43.000  
R04  20208542.931   108215992.709       -1361.465          51.000    20208543.200    84167987.281       -1059.009          50.000  
R14  21058106.747   112251661.941       -3497.406          53.000    21058111.232    87307047.404       -2720.257          51.000  
E08  25364302.304   133290438.928         724.722          47.000    25364307.794   102131695.366         555.330          50.000  
S31  39640371.625   208311480.594        -816.253          43.000  
S33  40591327.064   213308752.045        -816.289          42.000  
G20  22069689.942   115977027.053       -2470.052          46.000                                                                  
E03  24667579.996   129629062.217       -1248.483          47.000    24667586.790    99326217.060        -956.629          51.000  
R15  20281082.692   108376326.751         353.010          51.000    20281086.486    84292554.310         274.528          49.000  
R03  23217603.447   124285532.494       -4161.614          50.000    23217613.324    96666512.926       -3236.843          47.000  
E05  26558955.654   139568056.760       -2763.197          42.000    26558973.953   106941726.378       -2117.112          48.000  
G05  22409982.621   117765226.695         177.271          48.000    22409984.041    91765172.780         138.010          45.000  
G30  21809763.727   114611289.982       -2357.428          47.000    21809767.817    89307619.993       -1836.957          46.000  
E30  28090340.635   147615834.002        2215.744          43.000    28090366.370   113108407.558        1697.743          43.000  
G14  21167137.784   111234271.437         -83.788          48.000    21167139.819    86676216.718         -65.350          48.000  
E02  24642591.234   129497909.884         719.439          47.000    24642599.451    99225845.827         551.320          52.000  
G22  22250476.374   116927337.037        1884.110          48.000                                                                  
E25  25368164.937   133310845.818       -2026.893          49.000    25368172.447   102147402.187       -1553.116          52.000  
> 2024 04 16 19 27 00.0030000  0 22                     
G13  22868724.761   120176028.604        1382.264          48.000                                                                  
G07  23753119.703   124823568.162       -3782.246          44.000    23753123.035    97265170.314       -2947.388          42.000  
G09  24965854.923   131196255.023       -3453.327          44.000    24965868.380   102230812.211       -2690.649          42.000  
R05  21341998.515   114085458.677        2033.753          51.000    21342002.282    88733017.818        1581.781          50.000  
R16  23863702.496   127475602.617        2960.239          44.000    23863724.491    99147868.195        2302.499          44.000  
R04  20216228.923   108257148.780       -1382.021          52.000    20216228.720    84199997.519       -1074.832          50.000  
R14  21077830.232   112356798.340       -3511.421          53.000    21077835.278    87388820.092       -2731.088          52.000  
E08  25360172.944   133268739.946         722.267          46.000    25360178.486   102115068.923         553.492          50.000  
S31  39645031.552   208335969.487        -816.063          43.000  
S33  40595987.825   213333245.731        -816.154          42.000  
G20  22083838.497   116051375.906       -2486.326          47.000                                                                  
E03  24674725.711   129666615.167       -1254.547          47.000    24674733.059    99354991.370        -961.324          51.000  
R15  20279164.087   108366071.975         331.004          52.000    20279167.500    84284578.451         257.360          49.000  
R03  23240960.502   124410560.446       -4173.165          51.000    23240970.202    96763756.315       -3245.890          48.000  
E05  26574742.504   139651015.812       -2767.123          43.000    26574760.686   107005292.155       -2120.371          48.000  
G05  22409025.543   117760195.269         158.428          49.000    22409026.255    91761252.195         123.447          44.000  
G30  21823242.393   114682120.376       -2364.368          48.000    21823246.586    89362812.486       -1842.438          46.000  
E30  28077696.568   147549394.779        2213.615          43.000    28077723.134   113057500.309        1696.022          43.000  
G14  21167673.233   111237085.718        -103.395          47.000    21167675.217    86678409.707         -80.641          48.000  
E02  24638517.917   129476505.024         707.780          47.000    24638526.637    99209444.808         542.255          53.000  
G22  22239758.547   116871015.262        1870.833          47.000                                                                  
E25  25379771.461   133371836.995       -2038.846          48.000    25379778.326   102194135.680       -1562.261          51.000  
> 2024 04 16 19 27 30.0030000  0 22                     
G13  22860842.185   120134604.716        1379.862          48.000                                                                  
G07  23774716.345   124937059.243       -3783.437          44.000    23774720.807    97353604.861       -2948.583          44.000  
G09  24985587.753   131299952.913       -3459.311          44.000    24985601.398   102311615.415       -2695.726          42.000  
R05  21330616.669   114024615.459        2023.000          51.000    21330620.557    88685695.387        1573.538          50.000  
R16  23847106.395   127386945.075        2950.885          41.000    23847126.850    99078913.160        2294.920          46.000  
R04  20224030.164   108298924.816       -1402.627          52.000    20224030.470    84232489.938       -1090.974          50.000  
R14  21097633.390   112462357.864       -3525.567          53.000    21097637.882    87470921.933       -2742.070          52.000  
E08  25356058.153   133247117.470         719.583          46.000    25356063.916   102098501.066         551.484          50.000  
S31  39649692.152   208360461.269        -816.559          42.000  
S33  40600649.177   213357741.449        -816.324          44.000  
G20  22098080.573   116126218.458       -2503.059          47.000                                                                  
E03  24681907.997   129704360.264       -1261.242          47.000    24681915.904    99383912.878        -966.350          52.000  
R15  20277370.115   108356482.999         308.695          52.000    20277373.205    84277120.446         240.193          49.000  
R03  23264382.450   124535938.324       -4184.848          50.000    23264391.535    96861271.925       -3254.918          47.000  
E05  26590554.691   139734110.120       -2772.094          42.000    26590573.501   107068961.510       -2124.104          48.000  
G05  22408175.274   117755730.758         139.423          47.000    22408176.758    91757773.383         108.643          44.000  
G30  21836761.473   114753163.053       -2371.625          48.000    21836764.959    89418170.358       -1847.980          46.000  
E30  28065067.504   147483031.806        2210.745          42.000    28065094.481   113006651.412        1694.071          45.000  
G14  21168321.740   111240495.870        -123.503          47.000    21168324.076    86681067.042         -96.344          48.000  
E02  24634514.697   129455464.157         695.403          48.000    24634522.424    99193322.683         532.854          53.000  
G22  22229117.405   116815097.797        1857.200          47.000                                                                  
E25  25391446.385   133433192.376       -2051.039          47.000    25391454.075   102241148.206       -1571.589          51.000  
> 2024 04 16 19 28 00.0030000  0 22                     
G13  22852972.414   120093248.541        1377.477          47.000                                                                  
G07  23796322.530   125050591.998       -3785.176          47.000    23796325.891    97442071.750       -2949.323          43.000  
G09  25005355.359   131403832.116       -3465.529          43.000    25005369.623   102392559.872       -2700.468          43.000  
R05  21319293.948   113964088.588        2012.315          50.000    21319297.452    88638618.998        1565.105          49.000  
R16  23830561.330   127298572.537        2940.769          41.000    23830583.060    99010179.838        2287.468          46.000  
R04  20231947.100   108341320.630       -1423.570          52.000    20231947.949    84265464.410       -1107.199          51.000  
R14  21117514.430   112568336.264       -3539.518          52.000    21117518.908    87553349.534       -2752.951          52.000  
E08  25351958.376   133225571.648         716.917          46.000    25351963.893   102081991.968         549.432          51.000  
S31  39654352.887   208384954.546        -816.418          44.000  
S33  40605310.877   213382239.148        -816.692          43.000  
G20  22112415.595   116201551.938       -2519.164          48.000                                                                  
E03  24689127.935   129742297.448       -1267.677          48.000    24689134.946    99412981.574        -971.350          51.000  
R15  20275699.405   108347558.838         286.445          52.000    20275701.764    84270179.498         222.813          48.000  
R03  23287868.327   124661662.880       -4196.453          50.000    23287878.175    96959057.167       -3264.034          46.000  
E05  26606393.137   139817338.825       -2776.405          43.000    26606411.730   107132733.884       -2127.369          47.000  
G05  22407433.347   117751833.570         120.638          46.000    22407435.612    91754736.607          93.898          44.000  
G30  21850320.538   114824415.747       -2378.461          48.000    21850323.943    89473691.928       -1853.461          45.000  
E30  28052452.859   147416745.829        2208.054          42.000    28052480.328   112955861.509        1692.096          44.000  
G14  21169084.810   111244501.708        -143.355          48.000    21169086.225    86684188.521        -111.670          48.000  
E02  24630580.384   129434787.356         683.302          48.000    24630587.508    99177479.515         523.538          53.000  
G22  22218554.193   116759586.393        1843.667          47.000                                                                  
E25  25403190.915   133494909.816       -2063.251          47.000    25403198.304   102288438.169       -1580.850          50.000  
> 2024 04 16 19 28 30.0030000  0 22                     
G13  22845114.460   120051955.188        1375.422          49.000                                                                  
G07  23817933.203   125164158.437       -3785.992          46.000    23817937.213    97530564.932       -2950.000          45.000  
G09  25025155.645   131507885.788       -3471.075          43.000    25025170.482   102473640.309       -2704.901          42.000  
R05  21308029.732   113903875.343        2002.094          51.000    21308033.053    88591786.552        1557.030          49.000  
R16  23814069.706   127210481.313        2931.916          44.000    23814090.908    98941665.381        2280.377          46.000  
R04  20239979.001   108384330.860       -1443.837          51.000    20239979.345    84298916.753       -1122.975          50.000  
R14  21137472.335   112674723.293       -3552.944          52.000    21137476.801    87636094.924       -2763.387          52.000  
E08  25347871.436   133204097.055         714.772          45.000    25347877.441   102065537.461         547.631          51.000  
S31  39659013.446   208409444.241        -816.372          42.000  
S33  40609972.074   213406733.257        -816.087          42.000  
G20  22126843.138   116277367.960       -2535.226          48.000                                                                  
E03  24696383.334   129780421.034       -1273.740          48.000    24696389.554    99442193.136        -975.933          51.000  
R15  20274152.530   108339292.778         264.737          52.000    20274155.043    84263750.415         205.891          48.000  
R03  23311419.481   124787726.280       -4207.590          52.000    23311428.157    97057105.948       -3272.467          47.000  
E05  26622255.482   139900695.684       -2780.520          43.000    26622274.524   107196604.452       -2130.543          48.000  
G05  22406798.514   117748498.731         101.948          47.000    22406801.323    91752138.015          79.376          45.000  
G30  21863918.587   114895870.618       -2385.010          49.000    21863921.512    89529370.970       -1858.338          46.000  
E30  28039852.731   147350531.995        2205.878          42.000    28039879.554   112905126.917        1690.209          44.000  
G14  21169959.084   111249097.252        -162.811          48.000    21169960.536    86687769.517        -126.875          48.000  
E02  24626713.729   129414469.027         671.473          48.000    24626720.681    99161911.007         514.489          52.000  
G22  22208066.829   116704476.954        1830.309          48.000                                                                  
E25  25415002.337   133556981.688       -2074.993          47.000    25415010.304   102335999.729       -1589.818          51.000  
> 2024 04 16 19 29 00.0030000  0 22                     
G13  22837267.742   120010721.513        1373.553          48.000                                                                  
G07  23839549.891   125277753.221       -3786.891          46.000    23839553.736    97619080.153       -2950.928          43.000  
G09  25044989.287   131612109.301       -3476.715          42.000    25045003.744   102554853.090       -2709.077          41.000  
R05  21296823.914   113843974.720        1991.477          51.000    21296827.091    88545197.215        1548.992          49.000  
R16  23797630.543   127122669.397        2922.551          44.000    23797651.513    98873368.178        2273.007          45.000  
R04  20248125.368   108427952.428       -1464.083          51.000    20248125.377    84332844.561       -1138.741          50.000  
R14  21157505.415   112781510.867       -3566.067          53.000    21157510.277    87719151.869       -2773.642          51.000  
E08  25343796.856   133182690.421         712.511          44.000    25343803.822   102049135.038         545.911          51.000  
S31  39663672.112   208433924.884        -815.565          43.000  
S33  40614631.204   213431218.536        -815.982          43.000  
G20  22141361.289   116353660.069       -2550.891          47.000                                                                  
E03  24703672.554   129818727.529       -1279.812          48.000    24703679.012    99471544.805        -980.617          50.000  
R15  20272727.938   108331680.777         242.953          52.000    20272730.206    84257830.044         189.089          48.000  
R03  23335031.715   124914121.724       -4218.586          51.000    23335040.545    97155412.996       -3281.180          47.000  
E05  26638141.968   139984176.436       -2784.616          44.000    26638160.553   107260569.986       -2133.708          48.000  
G05  22406270.852   117745722.720          83.315          48.000    22406273.160    91749974.869          64.974          45.000  
G30  21877552.718   114967521.979       -2391.589          49.000    21877556.466    89585203.200       -1863.495          47.000  
E30  28027265.685   147284387.587        2203.648          42.000    28027291.552   112854445.487        1688.644          43.000  
G14  21170944.912   111254278.680        -182.370          48.000    21170946.435    86691807.060        -142.137          48.000  
E02  24622914.689   129394505.706         659.685          48.000    24622922.011    99146614.539         505.414          52.000  
G22  22197655.845   116649767.598        1816.948          47.000                                                                  
E25  25426880.991   133619402.514       -2086.382          47.000    25426888.269   102383828.680       -1598.724          50.000  
> 2024 04 16 19 29 30.0030000  0 22                     
G13  22829432.169   119969545.021        1371.576          49.000                                                                  
G07  23861169.678   125391371.537       -3787.740          46.000    23861174.238    97707613.776       -2951.603          42.000  
G09  25064854.271   131716498.803       -3482.510          42.000    25064869.352   102636195.141       -2713.508          42.000  
R05  21285676.840   113784386.611        1981.000          52.000    21285679.752    88498850.954        1540.778          49.000  
R16  23781243.185   127035135.588        2913.123          45.000    23781264.342    98805287.273        2265.641          45.000  
R04  20256385.282   108472182.198       -1484.400          52.000    20256384.220    84367245.426       -1154.588          49.000  
R14  21177612.261   112888691.501       -3579.255          53.000    21177616.594    87802514.496       -2783.876          51.000  
E08  25339735.773   133161349.215         710.170          45.000    25339742.812   102032782.698         544.199          51.000  
S31  39668328.377   208458393.348        -815.634          44.000  
S33  40619288.574   213455691.266        -815.725          42.000  
G20  22155968.722   116430422.739       -2566.606          48.000                                                                  
E03  24710996.054   129857214.181       -1285.766          47.000    24711002.366    99501034.527        -985.322          50.000  
R15  20271424.734   108324719.032         221.167          52.000    20271427.379    84252415.444         172.148          48.000  
R03  23358704.096   125040844.425       -4229.630          49.000    23358714.873    97253974.509       -3289.615          48.000  
E05  26654051.410   140067777.704       -2788.681          45.000    26654069.549   107324627.823       -2136.810          48.000  
G05  22405848.509   117743503.353          64.552          47.000    22405850.937    91748245.486          50.294          45.000  
G30  21891224.089   115039365.037       -2397.921          47.000    21891228.105    89641184.740       -1868.628          47.000  
E30  28014690.643   147218310.650        2201.588          42.000    28014716.409   112803815.787        1686.795          43.000  
G14  21172041.876   111260043.027        -201.826          48.000    21172043.364    86696298.831        -157.368          48.000  
E02  24619182.626   129374894.780         647.788          48.000    24619189.866    99131588.083         496.362          52.000  
G22  22187321.490   116595457.424        1803.528          48.000                                                                  
E25  25438825.304   133682167.538       -2097.887          47.000    25438832.036   102431921.346       -1607.525          50.000  
