     3.00           OBSERVATION DATA    M: Mixed            RINEX VERSION / TYPE
CONVBIN 2.4.3                           20240416 174442 UTC PGM / RUN BY / DATE 
format: u-blox UBX                                          COMMENT             
log: /home/regis/git/gnsspwv/obsdata/VERT00CHL/2024-04-16/VECOMMENT             
{self.marker}                                               MARKER NAME         
                                                            MARKER NUMBER       
GEODETIC                                                    MARKER TYPE         
{self.observer}     {self.institution}                      OBSERVER / AGENCY   
UNKNOWN             UBLOX-ZED-F9P                           REC # / TYPE / VERS 
UNKNOWN             TWIVSP6037L                             ANT # / TYPE        
  1713381.0000 -5047934.0000 -3490983.0000                  APPROX POSITION XYZ 
        0.0000        0.0000        0.0000                  ANTENNA: DELTA H/E/N
G    8 C1C L1C D1C S1C C2L L2L D2L S2L                      SYS / # / OBS TYPES 
R    8 C1C L1C D1C S1C C2C L2C D2C S2C                      SYS / # / OBS TYPES 
E    8 C1C L1C D1C S1C C7Q L7Q D7Q S7Q                      SYS / # / OBS TYPES 
S    4 C1C L1C D1C S1C                                      SYS / # / OBS TYPES 
  2024    04    16    17    30   00.4990000     GPS         TIME OF FIRST OBS   
  2024    04    16    17    44   30.0000000     GPS         TIME OF LAST OBS    
                                                            END OF HEADER       
> 2024 04 16 17 30 00.4990000  0 25                     
G04  24261309.056   127493996.3221      -3209.445          34.000    24261322.843    99346035.0661      -2500.455          33.000  
G06  22509658.174   118288990.0981      -3723.653          42.000    22509668.133    92173247.3881      -2901.616          42.000  
G07  19637843.151   103197716.8301      -1723.604          49.000    19637841.957    80413876.0091      -1343.099          46.000  
G09  21304140.480   111953996.5351      -2086.361          48.000    21304143.187    87236888.9841      -1625.558          45.000  
R02  22791846.305   121621506.9391      -3235.194          49.000    22791859.214    94594481.8191      -2516.292          46.000  
R04  20728796.400   111001914.6161       1420.384          51.000    20728795.125    86334813.7591       1104.706          48.000  
R14  19727806.914   105160405.9061       1793.876          53.000    19727813.935    81791622.5731       1395.150          51.000  
G11  22358035.819   117492268.2111      -1793.036          44.000    22358040.895    91552566.4091      -1397.014          46.000  
E08  26453469.783   139013991.2721        826.112          44.000    26453479.252   106517257.3921        632.990          48.000  
S31  38552174.294   202593024.6801       -820.619          44.000  
S33  39503164.245   207590499.5801       -820.545          43.000  
G20  21612078.448   113572293.1361       1596.286          46.000                                                                  
E03  23688258.921   124482711.8851       -399.641          46.000    23688264.534    95382914.2831       -306.211          51.000  
R03  19844315.043   106228228.3861      -1071.561          49.000    19844315.300    82621986.2081       -833.413          51.000  
R13  20218078.498   107963668.6461      -2911.914          41.000    20218081.137    83971733.1881      -2264.845          43.000  
R19  22632957.055   121071104.0311      -3426.103          40.000    22632966.283    94166368.3211      -2664.782          45.000  
E05  23453865.212   123250840.8361      -2023.331          42.000    23453872.783    94438964.3801      -1550.346          50.000  
E13  26888709.950                1        257.958          28.000    26888727.516                         198.092          30.000  
E15  25117090.775   131991200.5251      -2224.494          42.000    25117101.849   101136176.5211      -1704.674          50.000  
G30  20348047.182   106929919.2561        525.286          49.000    20348050.978    83322136.8561        409.412          45.000  
E34  26450151.056   138996315.3901      -3756.306          39.000    26450170.405   106503647.5291      -2878.067          47.000  
G14  23403169.985   122984525.1261       2670.691          45.000    23403181.093    95832215.2821       2081.036          41.000  
E02  26903838.011   141380647.2831       2163.084          42.000    26903856.605   108330751.4641       1657.518          43.000  
E24  26099747.962   137155069.6651      -1470.025          31.000    26099756.401   105093105.1411      -1126.482          43.000  
E25  24750514.788   130065047.5691       1019.518          48.000    24750524.512    99660354.6891        781.280          50.000  
> 2024 04 16 17 30 30.4990000  0 25                     
G04  24279633.381   127590284.715       -3210.553          37.000    24279644.784    99421064.755       -2502.131          32.000  
G06  22530938.576   118400822.025       -3731.804          41.000    22530949.117    92260388.822       -2907.916          41.000  
G07  19647733.032   103249683.737       -1741.313          49.000    19647731.575    80454369.668       -1356.895          47.000  
G09  21316065.219   112016660.367       -2091.702          48.000    21316067.669    87285717.861       -1629.925          45.000  
R02  22810055.481   121718670.497       -3242.665          49.000    22810067.428    94670053.189       -2522.191          45.000  
R04  20720847.037   110959347.202        1417.151          51.000    20720846.128    86301705.825        1102.285          49.000  
R14  19717771.814   105106909.573        1772.153          53.000    19717777.573    81750014.447        1378.362          51.000  
G11  22368318.558   117546305.630       -1809.938          44.000    22368323.194    91594673.322       -1410.306          46.000  
E08  26448754.144   138989209.390         825.827          45.000    26448763.863   106498268.764         632.793          49.000  
S31  38556858.890   202617643.129        -820.970          44.000  
S33  39507847.458   207615112.567        -820.705          42.000  
G20  21602999.704   113524585.954        1583.813          47.000                                                                  
E03  23690546.384   124494730.273        -401.814          47.000    23690551.499    95392123.160        -307.933          51.000  
R03  19850348.314   106260526.699       -1082.065          50.000    19850348.524    82647107.039        -841.678          51.000  
R13  20234501.738   108051365.833       -2934.891          41.000    20234503.745    84039942.042       -2282.760          42.000  
R19  22652212.081   121174102.678       -3440.835          40.000    22652220.958    94246478.022       -2676.288          44.000  
E05  23465417.411   123311563.916       -2025.008          39.000    23465428.114    94485492.364       -1551.797          50.000  
E15  25129826.291   132058121.510       -2236.892          43.000    25129836.700   101187453.432       -1714.037          50.000  
G30  20345093.217   106914391.847         509.458          50.000    20345095.902    83310037.564         397.107          44.000  
E34  26471598.558   139109019.226       -3757.336          40.000    26471617.757   106590004.476       -2879.181          47.000  
G14  23387924.772   122904411.214        2669.635          45.000    23387935.711    95769789.319        2080.225          41.000  
E02  26891485.300   141315739.124        2163.752          41.000    26891504.349   108281017.151        1658.001          43.000  
E24  26108167.838                       -1483.514          27.000    26108186.718   105127051.477       -1136.844          43.000  
E25  24744722.019   130034609.650        1009.274          47.000    24744731.858    99637032.251         773.310          50.000  
E13                                                                  26887294.347   108263969.503         187.243          30.000  
> 2024 04 16 17 31 00.4990000  0 25                     
G04  24297964.613   127686615.335       -3211.501          36.000    24297975.670    99496127.255       -2502.119          33.000  
G06  22552266.659   118512898.160       -3739.602          42.000    22552275.120    92347720.566       -2914.141          39.000  
G07  19657722.664   103302181.079       -1758.459          49.000    19657721.316    80495276.677       -1370.460          47.000  
G09  21328019.802   112079481.908       -2096.409          48.000    21328022.224    87334669.616       -1633.462          44.000  
R02  22828307.006   121816066.618       -3250.221          47.000    22828318.564    94745805.451       -2527.796          42.000  
R04  20712915.920   110916880.198        1414.204          51.000    20712915.679    86268675.985        1099.910          49.000  
R14  19707859.518   105054069.629        1750.597          53.000    19707864.115    81708916.824        1361.671          50.000  
G11  22378700.596   117600862.018       -1826.810          44.000    22378705.620    91637184.646       -1423.604          46.000  
E08  26444040.151   138964441.355         825.709          44.000    26444050.204   106479290.739         632.651          49.000  
S31  38561545.412   202642272.459        -820.615          43.000  
S33  39512533.440   207639736.333        -820.672          42.000  
G20  21593993.308   113477257.940        1571.527          47.000                                                                  
E03  23692847.205   124506819.043        -403.708          47.000    23692852.066    95401385.966        -309.452          52.000  
R03  19856443.584   106293147.820       -1092.480          52.000    19856442.556    82672478.932        -849.689          51.000  
R13  20251053.342   108139752.605       -2957.399          40.000    20251056.572    84108687.207       -2300.036          44.000  
R19  22671548.076   121277538.547       -3455.165          38.000    22671556.706    94326927.763       -2686.971          43.000  
E05  23476985.170   123372347.519       -2026.684          41.000    23476994.942    94532066.718       -1553.015          50.000  
E15  25142631.384   132125415.743       -2249.053          43.000    25142642.413   101239016.365       -1723.273          50.000  
G30  20342229.702   106899344.864         493.841          49.000    20342232.730    83298312.658         384.820          44.000  
E34  26493055.124   139221764.785       -3758.680          42.000    26493072.519   106676393.435       -2879.865          46.000  
G14  23372686.644   122824338.413        2668.596          44.000    23372698.438    95707395.397        2079.380          41.000  
E02  26879130.068   141250818.198        2164.553          40.000    26879149.884   108231273.063        1658.594          43.000  
E24  26116692.068   137244092.708       -1497.306          33.000    26116696.442   105161317.614       -1147.290          43.000  
E25  24738989.640   130004487.073         999.111          47.000    24738998.979    99613951.427         765.532          49.000  
E13                                                                  26885940.004   108258510.358         177.218          31.000  
> 2024 04 16 17 31 30.4990000  0 25                     
G04  24316306.569   127782992.667       -3213.506          36.000    24316315.904                       -2503.600          31.000  
G06  22573640.759   118625219.540       -3748.028          41.000    22573649.425    92435243.358       -2920.535          40.000  
G07  19667813.967   103355211.760       -1776.553          50.000    19667812.824    80536599.257       -1384.350          47.000  
G09  21340004.963   112142465.779       -2102.262          47.000    21340008.196    87383747.868       -1638.202          45.000  
R02  22846603.770   121913700.024       -3258.507          49.000    22846615.913    94821742.155       -2534.293          44.000  
R04  20705006.281   110874519.644        1410.211          52.000    20705005.218    86235728.930        1096.774          49.000  
R14  19698072.180   105001893.980        1728.073          54.000    19698076.574    81668335.885        1344.059          50.000  
G11  22389182.518   117655939.998       -1844.581          46.000    22389186.520    91680102.383       -1437.417          47.000  
E08  26439330.108   138939691.281         824.445          44.000    26439340.459   106460326.486         631.873          49.000  
S31  38566234.950   202666916.068        -821.749          44.000  
S33  39517222.050   207664374.387        -821.478          43.000  
G20  21585060.611   113430315.935        1558.286          47.000                                                                  
E03  23695161.684   124518982.727        -406.856          47.000    23695166.652    95410706.154        -311.728          52.000  
R03  19862597.862   106326097.863       -1103.769          50.000    19862598.314    82698106.662        -858.500          51.000  
R13  20267734.468   108228830.307       -2980.483          40.000    20267737.870    84177969.814       -2318.365          43.000  
R19  22690965.306   121381411.272       -3470.049          37.000    22690975.138    94407717.305       -2698.510          44.000  
E05  23488564.371   123433196.410       -2029.479          42.000    23488574.610    94578691.092       -1555.151          50.000  
E15  25155509.082   132193086.108       -2261.901          43.000    25155519.705   101290867.527       -1733.269          49.000  
G30  20339458.466   106884782.913         477.358          48.000    20339461.703    83286965.711         371.956          44.000  
E34  26514517.779   139334554.457       -3760.490          42.000    26514535.957   106762816.213       -2881.421          46.000  
G14  23357457.831   122744314.136        2666.646          44.000    23357469.942    95645039.236        2078.127          41.000  
E02  26866774.433   141185890.823        2164.400          40.000    26866793.769   108181524.043        1658.410          43.000  
E24  26125281.790   137289234.352       -1512.056          35.000    26125286.657   105195906.592       -1158.267          43.000  
E25  24733317.824   129974685.936         987.922          46.000    24733328.256    99591116.905         756.994          49.000  
E13                                                                  26884665.174                         166.393          31.000  
> 2024 04 16 17 32 00.4990000  0 25                     
G04  24334655.092   127879416.061       -3214.783          34.000    24334666.014    99646361.160       -2504.959          32.000  
G06  22595060.646   118737781.994       -3756.407          41.000    22595070.278    92522954.008       -2926.907          39.000  
G07  19678006.413   103408772.353       -1794.289          50.000    19678005.482    80578334.752       -1398.197          47.000  
G09  21352021.363   112205611.354       -2107.857          48.000    21352024.519    87432952.097       -1642.618          45.000  
R02  22864944.702   122011570.101       -3266.364          48.000    22864956.891    94897863.022       -2540.689          43.000  
R04  20697115.047   110832266.266        1406.472          52.000    20697115.148    86202865.254        1093.869          49.000  
R14  19688409.195   104950384.304        1705.582          54.000    19688413.037    81628272.909        1326.580          50.000  
G11  22399762.640   117711536.911       -1862.094          46.000    22399765.928    91723424.483       -1450.902          46.000  
E08  26434622.842   138914958.038         823.958          43.000    26434634.043   106441375.131         631.357          49.000  
S31  38570927.644   202691574.019        -822.391          44.000  
S33  39521912.979   207689028.000        -822.147          42.000  
G20  21576201.653   113383761.470        1545.170          47.000                                                                  
E03  23697490.132   124531220.492        -409.392          47.000    23697495.575    95420083.118        -313.752          52.000  
R03  19868814.726   106359377.664       -1114.961          51.000    19868815.294    82723990.898        -867.239          51.000  
R13  20284544.462   108318595.212       -3003.816          40.000    20284548.397    84247786.906       -2336.349          44.000  
R19  22710464.280   121485715.619       -3483.965          38.000    22710475.331    94488842.614       -2710.017          44.000  
E05  23500157.158   123494109.991       -2031.786          43.000    23500165.939    94625365.012       -1556.814          50.000  
E15  25168458.518   132261130.280       -2274.749          44.000    25168468.407   101343005.087       -1742.877          49.000  
G30  20336779.352   106870705.231         460.948          49.000    20336782.035    83275996.110         359.055          44.000  
E34  26535989.224   139447385.303       -3761.900          42.000    26536007.262   106849270.494       -2882.608          45.000  
G14  23342238.219   122664340.387        2664.814          43.000    23342251.557    95582722.484        2076.458          42.000  
E02  26854418.051   141120957.901        2164.340          41.000    26854436.741   108131770.745        1658.255          43.000  
E24  26133951.482   137334795.951       -1525.546          35.000    26133957.398   105230817.389       -1169.210          44.000  
E25  24727709.855   129945207.047         977.052          47.000    24727718.986    99568529.297         748.634          50.000  
E13                                                                  26883470.374   108248558.132         154.809          33.000  
> 2024 04 16 17 32 30.4990000  0 25                     
G04  24353010.985   127975876.385       -3216.092          37.000    24353023.988    99721524.796       -2506.110          33.000  
G06  22616524.569   118850572.691       -3763.280          39.000    22616533.942    92610842.548       -2932.306          40.000  
G07  19688297.410   103462852.020       -1811.263          49.000    19688296.503    80620474.708       -1411.395          48.000  
G09  21364066.568   112268909.398       -2112.414          48.000    21364069.527    87482275.146       -1646.219          44.000  
R02  22883328.751   122109667.240       -3273.556          50.000    22883340.250    94974160.503       -2546.364          43.000  
R04  20689242.479   110790112.287        1403.605          52.000    20689243.608    86170078.873        1091.703          50.000  
R14  19678868.895   104899534.383        1684.041          53.000    19678873.302    81588723.096        1309.703          50.000  
G11  22410438.675   117767641.451       -1878.458          46.000    22410442.846    91767142.158       -1463.723          46.000  
E08  26429918.594   138890231.951         824.197          44.000    26429928.830   106422429.252         631.478          49.000  
S31  38575620.757   202716235.985        -822.070          44.000  
S33  39526605.354   207713683.576        -822.180          42.000  
G20  21567415.408   113337587.662        1532.822          47.000                                                                  
E03  23699831.072   124543522.977        -411.091          47.000    23699836.922    95429509.670        -314.982          52.000  
R03  19875091.703   106392978.898       -1125.295          50.000    19875092.352    82750125.124        -875.328          51.000  
R13  20301481.257   108409033.636       -3025.864          41.000    20301484.972    84318127.841       -2353.563          44.000  
R19  22730042.384   121590437.538       -3497.527          40.000    22730051.781    94570292.646       -2720.262          43.000  
E05  23511758.490   123555079.190       -2033.148          43.000    23511768.187    94672081.533       -1557.847          50.000  
E15  25181475.724   132329537.224       -2286.109          44.000    25181486.221   101395420.605       -1751.747          49.000  
G30  20334190.340   106857102.461         445.659          48.000    20334193.155    83265396.570         347.302          44.000  
E34  26557465.750   139560245.765       -3762.182          42.000    26557484.724   106935747.435       -2882.757          45.000  
G14  23327028.584   122584410.656        2663.646          44.000    23327040.701    95520440.034        2075.431          42.000  
E02  26842059.123   141056011.785        2165.075          41.000    26842077.346   108082007.235        1659.095          43.000  
E24  26142698.606   137380767.681       -1539.605          34.000    26142705.221   105266042.437       -1179.261          44.000  
E25  24722160.158   129916042.568         966.974          48.000    24722169.009    99546182.611         740.852          50.000  
E13                                                                  26882351.251   108244058.250         144.175          33.000  
> 2024 04 16 17 33 00.4990000  0 25                     
G04  24371371.566   128072358.536       -3216.623          38.000    24371385.082                       -2506.102          30.000  
G06  22638027.568   118963573.233       -3770.410          39.000    22638038.052    92698894.574       -2938.012          41.000  
G07  19698683.473   103517433.412       -1827.828          49.000    19698683.172    80663005.648       -1424.241          47.000  
G09  21376138.391   112332345.036       -2116.739          48.000    21376140.992    87531705.463       -1649.785          44.000  
R02  22901751.240   122207976.523       -3280.490          48.000    22901763.821    95050622.965       -2551.605          44.000  
R04  20681386.707   110748044.219        1400.745          52.000    20681387.893    86137359.326        1089.478          50.000  
R14  19669451.139   104849331.909        1662.548          53.000    19669455.464    81549676.851        1293.118          50.000  
G11  22421209.064   117824236.665       -1894.761          46.000    22421212.540    91811242.137       -1476.388          46.000  
E08  26425212.647   138865497.667         824.615          45.000    26425221.914   106403477.097         631.846          49.000  
S31  38580311.916   202740887.807        -821.478          43.000  
S33  39531295.706   207738331.050        -821.345          42.000  
G20  21558698.271   113291781.835        1520.747          47.000                                                                  
E03  23702181.530   124555875.176        -412.586          47.000    23702187.406    95438974.321        -316.117          52.000  
R03  19881426.784   106426887.745       -1135.478          51.000    19881426.529    82776498.593        -883.114          51.000  
R13  20318540.468   108500127.777       -3047.199          40.000    20318544.124    84388978.777       -2370.197          45.000  
R19  22749693.991   121695556.837       -3510.397          39.000    22749702.212    94652051.795       -2730.323          42.000  
E05  23523370.855   123616089.172       -2034.257          44.000    23523377.774    94718829.323       -1558.687          50.000  
E15  25194558.295   132398290.295       -2297.521          43.000    25194569.903   101448101.350       -1760.443          50.000  
G30  20331689.754   106843959.633         430.400          48.000    20331691.954    83255155.409         335.565          44.000  
E34  26578946.060   139673118.629       -3762.537          43.000    26578963.857   107022233.896       -2882.852          45.000  
G14  23311824.579   122504512.799        2662.774          44.000    23311835.705    95458182.400        2074.748          42.000  
E02  26829694.283   140991039.259        2166.218          40.000    26829712.916   108032223.555        1659.809          43.000  
E24  26151521.503   137427134.034       -1551.882          34.000    26151528.586   105301569.893       -1189.165          43.000  
E25  24716667.081   129887179.066         957.128          47.000    24716675.690    99524066.529         733.355          49.000  
E13                                                                  26881306.484   108239862.484         134.748          32.000  
> 2024 04 16 17 33 30.4990000  0 26                     
G04  24389736.505   128168869.204       -3218.073          37.000    24389743.582                3      -2506.073          24.000  
G06  22659571.324   119076786.538       -3777.647          38.000    22659583.135    92787112.372       -2943.692          42.000  
G07  19709165.969   103572521.011       -1845.153          48.000    19709165.925    80705931.008       -1437.799          47.000  
G09  21388237.137   112395924.913       -2122.160          48.000    21388240.107    87581248.096       -1653.766          44.000  
R02  22920217.018   122306504.616       -3288.383          50.000    22920228.618    95127255.613       -2557.782          46.000  
R04  20673547.923   110706070.289        1396.954          52.000    20673549.149    86104712.984        1086.627          48.000  
R14  19660156.098   104799786.260        1640.045          53.000    19660161.952    81511141.422        1275.538          51.000  
G11  22432074.052   117881327.040       -1911.873          48.000    22432076.250    91855727.963       -1489.580          45.000  
E08  26420505.399   138840761.286         824.165          45.000    26420514.887   106384523.347         631.440          49.000  
S31  38585002.009   202765535.381        -822.321          44.000  
S33  39535984.983   207762972.595        -821.843          43.000  
G20  21550053.474   113246352.911        1507.531          46.000                                                                  
E03  23704542.610   124568283.584        -415.010          47.000    23704548.647    95448482.036        -317.993          52.000  
R15  23319438.189   124612006.5803       3652.250          33.000                                                                  
R03  19887819.794   106461112.165       -1146.505          51.000    19887821.052    82803117.541        -891.800          52.000  
R13  20335722.049   108591880.697       -3069.857          40.000    20335726.199    84460342.046       -2387.562          45.000  
R19  22769419.447   121801076.564       -3524.239          39.000    22769427.584    94734122.328       -2741.230          42.000  
E05  23534986.529   123677146.662       -2036.533          42.000    23534996.756    94765613.537       -1560.479          50.000  
E15  25207709.340   132467394.351       -2309.697          44.000    25207719.707   101501050.997       -1769.798          49.000  
G30  20329277.624   106831283.178         414.176          48.000    20329279.878    83245277.683         322.671          44.000  
E34  26600428.627   139786008.187       -3763.676          43.000    26600445.841   107108733.126       -2883.785          44.000  
G14  23296627.727   122424656.123        2660.674          45.000    23296638.915    95395956.865        2073.228          42.000  
E02  26817327.128   140926048.648        2166.094          41.000    26817345.134   107982426.006        1659.777          43.000  
E24  26160417.796   137473900.803       -1565.573          33.000    26160428.570   105337404.176       -1199.942          44.000  
E25  24711233.025   129858624.582         946.053          47.000    24711241.953    99502187.199         725.055          49.000  
E13                                                                  26880339.182   108235976.443         124.042          33.000  
> 2024 04 16 17 34 00.4990000  0 26                     
G04  24408109.807   128265418.156       -3219.230          36.000    24408129.757                3      -2508.360          25.000  
G06  22681156.851   119190218.990       -3785.084          35.000    22681169.026    92875500.931       -2949.208          41.000  
G07  19719746.662   103628122.672       -1861.966          49.000    19719746.190    80749256.938       -1450.780          46.000  
G09  21400365.358   112459658.748       -2126.996          49.000    21400367.516    87630910.748       -1657.364          42.000  
R02  22938723.357   122405261.416       -3295.766          49.000    22938735.831    95204066.223       -2563.408          46.000  
R04  20665729.488   110664201.603        1393.933          52.000    20665730.056    86072148.478        1084.009          48.000  
R14  19650986.076   104750910.083        1617.944          53.000    19650993.113    81473126.704        1258.425          51.000  
G11  22443033.156   117938920.237       -1928.264          48.000    22443036.953    91900605.631       -1502.478          47.000  
E08  26415799.489   138816032.167         824.062          45.000    26415808.935   106365575.142         631.523          50.000  
S31  38589693.320   202790187.755        -822.019          43.000  
S33  39540674.868   207787620.210        -821.707          42.000  
G20  21541482.657   113201312.703        1494.783          46.000                                                                  
E03  23706915.333   124580757.905        -417.005          47.000    23706922.228    95458040.273        -319.507          52.000  
R15  23298934.551   124502485.711        3648.760          36.000    23298938.626    96835050.0981       2838.250          33.000  
R03  19894273.704   106495663.597       -1157.179          51.000    19894275.034    82829990.795        -900.002          51.000  
R13  20353029.278   108684298.773       -3091.609          39.000    20353033.463    84532222.690       -2404.615          44.000  
R19  22789221.107   121907001.433       -3537.578          40.000    22789229.159    94816507.919       -2751.442          43.000  
E05  23546616.284   123738261.591       -2038.190          42.000    23546626.725    94812441.746       -1561.677          49.000  
E15  25220927.235   132536857.343       -2321.334          43.000    25220938.183   101554275.694       -1778.805          49.000  
G30  20326955.832   106819082.764         398.662          48.000    20326958.885    83235770.910         310.674          45.000  
E34  26621915.571   139898921.964       -3764.390          43.000    26621933.477   107195250.937       -2884.232          44.000  
G14  23281441.272   122344853.125        2659.105          45.000    23281452.739    95333773.174        2071.909          43.000  
E02  26804958.999   140861051.454        2166.455          41.000    26804976.308   107932623.420        1659.967          44.000  
E24  26169397.486   137521077.215       -1579.905          36.000    26169405.740   105373552.259       -1210.251          44.000  
E25  24705859.430   129830390.270         935.720          47.000    24705869.712    99480553.237         717.010          50.000  
E13                                                                  26879451.888   108232408.006         113.855          32.000  
> 2024 04 16 17 34 30.4990000  0 26                     
G04  24426490.285   128362014.316       -3220.297          37.000    24426495.471                       -2509.480          29.000  
G06  22702784.151   119303876.113       -3792.090          37.000    22702797.617    92964064.470       -2954.921          41.000  
G07  19730427.129   103684245.244       -1879.422          49.000    19730426.271    80792988.763       -1464.316          47.000  
G09  21412524.548   112523555.704       -2132.499          49.000    21412527.259    87680700.521       -1661.682          44.000  
R02  22957275.229   122504255.987       -3303.683          49.000    22957288.725    95281061.761       -2569.502          47.000  
R04  20657932.817   110622449.263        1389.893          52.000    20657932.982    86039674.471        1080.975          49.000  
R14  19641944.118   104702715.531        1595.167          52.000    19641951.544    81435642.139        1240.675          51.000  
G11  22454089.740   117997023.195       -1945.109          47.000    22454093.313    91945880.497       -1515.761          46.000  
E08  26411096.770   138791318.884         823.701          45.000    26411106.023   106346639.078         631.116          49.000  
S31  38594387.181   202814854.795        -822.280          44.000  
S33  39545368.306   207812282.282        -821.938          43.000  
G20  21532987.800   113156672.608        1481.306          47.000                                                                  
E03  23709303.861   124593307.087        -419.635          47.000    23709310.113    95467655.852        -321.362          52.000  
R15  23278450.611   124393060.436        3646.020          41.000    23278467.109    96749942.502        2835.625          37.000  
R03  19900792.015   106530552.559       -1168.509          51.000    19900792.686    82857126.565        -908.748          51.000  
R13  20370460.832   108777387.662       -3114.057          37.000    20370465.579    84604625.039       -2421.980          44.000  
R19  22809099.691   122013336.103       -3551.211          40.000    22809108.654    94899212.351       -2761.951          43.000  
E05  23558260.207   123799443.161       -2040.193          43.000    23558268.921    94859321.031       -1563.340          49.000  
E13  26878661.306                         134.256          28.000    26878646.316   108229164.479         102.715          33.000  
E15  25234216.443   132606686.567       -2333.588          44.000    25234226.184   101607780.998       -1788.098          49.000  
G30  20324726.138   106807367.212         382.518          48.000    20324728.844    83226641.939         298.101          44.000  
E34  26643407.722   140011866.678       -3765.153          43.000    26643427.604   107281792.435       -2884.896          45.000  
G14  23266267.427   122265115.589        2656.914          45.000    23266278.035    95271640.474        2070.256          42.000  
E02  26792590.662   140796058.339        2166.384          41.000    26792607.900   107882823.952        1659.903          44.000  
E24  26178455.119   137568671.365       -1592.752          37.000    26178463.387   105410020.516       -1220.754          44.000  
E25  24700550.152   129802486.608         924.774          47.000    24700559.581    99459172.639         708.556          50.000  
> 2024 04 16 17 35 00.4990000  0 26                     
G04  24444878.907   128458646.052       -3221.597          35.000    24444890.898   100097747.9151      -2510.492          36.000  
G06  22724454.505   119417742.371       -3799.108          39.000    22724466.240    93052791.036       -2960.304          41.000  
G07  19741203.345   103740874.794       -1896.094          49.000    19741202.977    80837115.678       -1477.477          47.000  
G09  21424712.418   112587603.949       -2137.635          49.000    21424715.330    87730608.138       -1665.575          44.000  
R02  22975868.943   122603476.293       -3311.275          49.000    22975882.705    95358232.797       -2575.411          47.000  
R04  20650155.771   110580802.851        1386.377          51.000    20650155.371    86007282.857        1078.217          48.000  
R14  19633029.623   104655192.984        1572.701          53.000    19633036.296    81398680.252        1223.152          50.000  
G11  22465240.484   118055621.930       -1961.641          46.000    22465244.154    91991541.689       -1528.543          45.000  
E08  26406394.505   138766609.228         823.528          45.000    26406403.811   106327705.781         631.018          49.000  
S31  38599081.871   202839524.200        -822.394          43.000  
S33  39550061.604   207836945.142        -822.144          42.000  
G20  21524567.630   113112422.984        1468.288          47.000                                                                  
E03  23711704.659   124605919.224        -421.559          47.000    23711710.284    95477319.685        -322.995          52.000  
R15  23257987.481   124283722.033        3643.018          45.000    23258008.369    96664902.543        2833.379          40.000  
R03  19907371.334   106565768.188       -1179.414          51.000    19907370.927    82884516.440        -917.329          51.000  
R13  20388016.397   108871131.980       -3135.779          39.000    20388020.874    84677537.249       -2438.861          44.000  
R19  22829051.686   122120063.619       -3564.254          40.000    22829061.575    94982222.282       -2772.345          44.000  
E05  23569912.474   123860679.653       -2042.315          43.000    23569922.066    94906242.402       -1564.854          49.000  
E13  26877916.173                         120.098          28.000    26877918.434   108226237.085          92.293          34.000  
E15  25247572.277   132676868.380       -2345.165          44.000    25247581.470   101661556.479       -1797.105          49.000  
G30  20322586.695   106796124.585         366.709          48.000    20322589.117    83217881.478         285.666          44.000  
E34  26664904.225   140124828.247       -3765.825          42.000    26664924.376   107368346.826       -2885.425          46.000  
G14  23251104.039   122185434.442        2654.955          45.000    23251114.804    95209551.692        2068.854          42.000  
E02  26780220.468   140731059.114        2166.532          40.000    26780238.861   107833019.797        1660.104          44.000  
E24  26187588.382   137616671.082       -1606.942          36.000    26187595.828   105446799.524       -1231.286          43.000  
E25  24695301.682   129774903.250         913.977          48.000    24695310.322    99438037.448         700.273          50.000  
> 2024 04 16 17 35 30.4990000  0 26                     
G04  24463272.896   128555316.853       -3223.328          34.000    24463286.882   100173075.544       -2511.646          37.000  
G06  22746164.059   119531817.854       -3806.432          39.000    22746175.751    93141680.631       -2965.743          42.000  
G07  19752076.093   103798012.321       -1913.324          48.000    19752075.839    80881638.390       -1490.893          47.000  
G09  21436929.829   112651807.125       -2143.140          49.000    21436933.109    87780636.526       -1670.110          44.000  
R02  22994506.517   122702926.009       -3319.127          49.000    22994518.885    95435582.330       -2581.541          47.000  
R04  20642399.330   110539267.436        1382.361          52.000    20642398.358    85974977.574        1075.287          48.000  
R14  19624241.682   104608348.685        1549.816          53.000    19624247.800    81362245.877        1205.403          50.000  
G11  22476487.138   118114717.783       -1978.445          47.000    22476490.250    92037590.226       -1541.594          46.000  
E08  26401693.881   138741906.219         823.070          44.000    26401702.867   106308777.571         630.664          49.000  
S31  38603777.451   202864198.421        -822.839          43.000  
S33  39554756.057   207861614.458        -822.665          43.000  
G20  21516222.789   113068569.540        1454.846          47.000                                                                  
E03  23714117.566   124618597.736        -424.059          48.000    23714123.126    95487034.361        -324.951          52.000  
R15  23237542.862   124174477.843        3639.530          48.000    23237562.906    96579935.925        2830.778          43.000  
R03  19914011.066   106601315.603       -1190.720          51.000    19914011.713    82912164.378        -926.119          51.000  
R13  20405695.208   108965531.521       -3157.770          40.000    20405698.740    84750959.057       -2456.189          44.000  
R19  22849077.757   122227183.695       -3577.384          41.000    22849086.372    95065537.507       -2782.470          44.000  
E05  23581577.805   123921974.705       -2044.384          44.000    23581586.392    94953208.646       -1566.510          49.000  
E15  25260994.037   132747404.490       -2357.485          44.000    25261004.384   101715603.442       -1806.284          49.000  
G30  20320538.233   106785358.229         350.787          48.000    20320540.983    83209492.110         273.377          45.000  
E34  26686404.152   140237807.900       -3766.657          42.000    26686424.277   107454915.081       -2886.139          46.000  
G14  23235953.401   122105815.998        2652.519          45.000    23235964.032    95147511.773        2067.170          43.000  
E02  26767850.386   140666058.963        2166.667          41.000    26767869.181   107783214.928        1659.946          44.000  
E24  26196800.225   137665078.906       -1620.748          37.000    26196807.786   105483891.240       -1241.917          44.000  
E25  24690114.651   129747645.061         902.846          48.000    24690123.183    99417151.398         691.825          50.000  
E13                                                                  26877272.489   108223628.847          81.411          35.000  
> 2024 04 16 17 36 00.4990000  0 26                     
G04  24481677.173   128652032.321       -3224.672          34.000    24481690.833   100248438.156       -2512.771          37.000  
G06  22767912.550   119646104.761       -3812.910          41.000    22767924.241    93230734.994       -2970.959          42.000  
G07  19763046.028   103855661.728       -1929.907          48.000    19763046.190    80926559.981       -1503.882          47.000  
G09  21449178.191   112716170.988       -2148.045          49.000    21449181.712    87830790.064       -1673.806          44.000  
R02  23013186.996   122802610.295       -3326.526          49.000    23013199.448    95513114.276       -2587.392          45.000  
R04  20634665.014   110497850.648        1378.711          51.000    20634664.145    85942764.579        1072.315          48.000  
R14  19615581.958   104562191.144        1527.174          52.000    19615587.574    81326345.640        1187.801          49.000  
G11  22487827.872   118174314.311       -1994.748          47.000    22487830.702    92084028.929       -1554.064          45.000  
E08  26396994.254   138717215.245         822.926          44.000    26397004.172   106289858.595         630.514          49.000  
S31  38608475.050   202888884.656        -823.247          44.000  
S33  39559452.878   207886295.467        -822.633          42.000  
G20  21507954.104   113025120.200        1441.653          46.000                                                                  
E03  23716543.965   124631348.352        -426.166          48.000    23716549.550    95496804.285        -326.534          52.000  
R15  23217118.075   124065336.549        3636.358          49.000    23217138.568    96495049.291        2828.221          45.000  
R03  19920715.703   106637201.497       -1201.709          51.000    19920715.247    82940075.573        -934.687          51.000  
R13  20423497.034   109060588.715       -3179.572          40.000    20423500.439    84824892.315       -2472.937          44.000  
R19  22869176.754   122334696.817       -3590.146          41.000    22869185.045    95149158.424       -2792.454          44.000  
E05  23593254.293   123983334.230       -2046.265          45.000    23593262.915    95000224.284       -1567.985          49.000  
E15  25274484.649   132818298.859       -2368.635          43.000    25274495.475   101769924.927       -1815.158          49.000  
G30  20318580.945   106775073.671         334.849          48.000    20318584.778    83201478.170         261.053          45.000  
E34  26707908.283   140350809.144       -3766.867          43.000    26707928.418   107541499.866       -2886.222          47.000  
G14  23220815.621   122026268.755        2650.445          44.000    23220826.891    95085527.374        2065.233          43.000  
E02  26755482.238   140601065.466        2166.392          41.000    26755500.696   107733415.129        1660.045          44.000  
E24  26206090.769   137713899.881       -1634.375          38.000    26206097.753   105521299.514       -1252.148          44.000  
E25  24684990.232   129720719.218         892.035          47.000    24684999.716    99396520.009         683.487          51.000  
E13                                                                  26876706.483   108221344.590          70.550          38.000  
> 2024 04 16 17 36 30.4990000  0 26                     
G04  24500089.190   128748781.191       -3225.616          34.000    24500102.704   100323826.738       -2513.417          38.000  
G06  22789697.287   119760588.172       -3819.208          39.000    22789709.904    93319942.471       -2976.125          42.000  
G07  19774111.273   103913809.173       -1946.674          48.000    19774111.290    80971869.626       -1516.850          47.000  
G09  21461455.027   112780684.222       -2152.891          49.000    21461458.293    87881060.017       -1677.552          45.000  
R02  23031910.165   122902518.370       -3334.072          49.000    23031923.129    95590820.279       -2593.186          46.000  
R04  20626950.914   110456542.451        1375.110          51.000    20626951.351    85910636.016        1069.489          50.000  
R14  19607049.913   104516711.668        1504.558          53.000    19607054.826    81290972.783        1170.227          48.000  
G11  22499261.058   118234398.031       -2010.903          47.000    22499265.073    92130847.249       -1566.833          45.000  
E08  26392296.840   138692524.511         823.026          44.000    26392305.449   106270939.768         630.620          49.000  
S31  38613172.702   202913569.575        -822.744          44.000  
S33  39564149.461   207910975.651        -822.702          42.000  
G20  21499761.130   112982065.826        1428.468          46.000                                                                  
E03  23718981.146   124644159.616        -428.156          47.000    23718987.611    95506620.683        -328.040          52.000  
R15  23196710.911   123956290.059        3633.128          49.000    23196732.001    96410236.375        2825.638          46.000  
R03  19927480.518   106673415.923       -1212.724          51.000    19927480.604    82968242.289        -943.298          51.000  
R13  20441419.458   109156288.472       -3200.806          40.000    20441422.841    84899325.366       -2489.349          45.000  
R19  22889346.063   122442586.735       -3602.827          42.000    22889353.962    95233072.411       -2802.080          44.000  
E05  23604941.463   124044747.055       -2048.040          45.000    23604949.237    95047280.751       -1569.177          49.000  
E13  26876212.822   141235429.5771         78.149          32.000    26876216.942   108219375.955          60.342          37.000  
E15  25288042.739   132889538.367       -2380.583          45.000    25288052.577   101824510.827       -1823.911          50.000  
G30  20316713.833   106765259.316         319.218          49.000    20316716.545    83193830.627         248.698          44.000  
E34  26729413.523   140463818.342       -3767.172          43.000    26729434.204   107628090.749       -2886.461          47.000  
G14  23205689.817   121946784.131        2648.252          45.000    23205700.680    95023591.736        2063.443          43.000  
E02  26743114.521   140536068.877        2166.678          42.000    26743132.401   107683612.963        1660.181          44.000  
E24  26215456.707   137763121.952       -1647.381          37.000    26215464.047   105559015.129       -1262.250          44.000  
E25  24679928.326   129694115.727         881.395          48.000    24679937.200    99376135.618         675.277          51.000  
> 2024 04 16 17 37 00.4990000  0 26                     
G04  24518509.204   128845573.172       -3227.351          36.000    24518521.571   100399248.841       -2515.274          38.000  
G06  22811521.699   119875274.280       -3826.494          40.000    22811534.440    93409307.833       -2981.711          42.000  
G07  19785272.775   103972462.107       -1963.711          48.000    19785273.000    81017573.163       -1530.210          48.000  
G09  21473762.000   112845356.552       -2158.726          49.000    21473765.622    87931453.942       -1682.133          44.000  
R02  23050677.517   123002659.658       -3342.097          49.000    23050691.182    95668707.689       -2599.459          46.000  
R04  20619258.720   110415354.371        1370.618          51.000    20619259.738    85878600.879        1066.150          49.000  
R14  19598648.830   104471922.482        1481.190          54.000    19598652.071    81256136.821        1151.990          49.000  
G11  22510788.835   118294976.350       -2027.833          46.000    22510792.769    92178050.962       -1580.021          45.000  
E08  26387599.187   138667843.199         822.366          44.000    26387608.677   106252028.197         630.144          49.000  
S31  38617871.410   202938263.744        -823.401          43.000  
S33  39568847.481   207935664.384        -823.290          42.000  
G20  21491644.760   112939418.231        1414.644          46.000                                                                  
E03  23721432.731   124657041.114        -430.915          47.000    23721439.211    95516490.910        -330.095          53.000  
R15  23176323.997   123847351.613        3629.265          49.000    23176343.867    96325507.442        2822.642          45.000  
R03  19934308.182   106709969.985       -1224.375          51.000    19934309.858    82996673.189        -952.285          50.000  
R13  20459461.635   109252637.025       -3222.656          39.000    20459465.955    84974263.061       -2506.549          44.000  
R19  22909586.537   122550859.191       -3615.418          42.000    22909595.166    95317283.935       -2812.106          44.000  
E05  23616640.231   124106222.909       -2050.485          45.000    23616648.011    95094385.524       -1571.154          49.000  
E13  26875803.092   141233282.345          64.167          31.000    26875807.514   108217730.679          49.556          36.000  
E15  25301666.221   132961130.714       -2392.457          45.000    25301676.349   101879367.120       -1833.204          51.000  
G30  20314937.132   106755924.599         302.965          48.000    20314940.345    83186556.829         236.157          44.000  
E34  26750921.661   140576842.833       -3767.862          43.000    26750942.182   107714693.325       -2887.112          46.000  
G14  23190578.407   121867374.525        2645.569          45.000    23190589.122    94961714.536        2061.418          44.000  
E02  26730746.724   140471080.478        2165.885          42.000    26730765.133   107633817.096        1659.758          45.000  
E24  26224899.319   137812754.010       -1661.506          37.000    26224909.069   105597044.888       -1272.991          45.000  
E25  24674928.734   129667845.636         869.936          47.000    24674938.122    99356006.670         666.634          51.000  
> 2024 04 16 17 37 30.4990000  0 26                     
G04  24536937.813   128942409.182       -3228.572          37.000    24536948.445   100474705.220       -2515.933          38.000  
G06  22833383.545   119990160.419       -3832.785          38.000    22833396.247    93498829.084       -2986.760          41.000  
G07  19796530.078   104031619.369       -1980.162          48.000    19796530.370    81063669.702       -1542.957          48.000  
G09  21486099.003   112910189.007       -2163.718          49.000    21486102.540    87981972.646       -1686.142          44.000  
R02  23069488.576   123103034.802       -3349.714          49.000    23069500.710    95746776.932       -2605.342          45.000  
R04  20611590.199   110374289.103        1366.888          52.000    20611590.701    85846661.260        1063.190          49.000  
R14  19590376.638   104427827.020        1458.235          54.000    19590380.715    81221840.431        1134.250          49.000  
G11  22522410.304   118356047.968       -2043.894          45.000    22522414.243    92225639.060       -1592.656          45.000  
E08  26382904.193   138643171.856         822.483          44.000    26382914.167   106233124.274         630.068          49.000  
S31  38622572.783   202962968.230        -823.294          44.000  
S33  39573547.515   207960363.322        -823.295          43.000  
G20  21483607.830   112897180.627        1401.212          46.000                                                                  
E03  23723897.450   124669993.762        -432.952          48.000    23723903.926    95526415.661        -331.673          53.000  
R15  23155957.766   123738525.682        3625.788          48.000    23155978.164    96240866.015        2819.920          46.000  
R03  19941201.752   106746865.759       -1235.381          51.000    19941202.241    83025369.822        -960.976          51.000  
R13  20477625.211   109349631.568       -3243.793          40.000    20477629.486    85049703.176       -2522.852          44.000  
R19  22929896.774   122659509.633       -3627.694          42.000    22929905.904    95401789.461       -2821.907          43.000  
E05  23628350.544   124167762.972       -2052.420          45.000    23628358.978    95141539.490       -1572.521          50.000  
E13  26875470.898   141231558.420          50.666          31.000    26875478.865   108216409.752          38.603          36.000  
E15  25315356.188   133033075.079       -2403.881          44.000    25315366.956   101934493.114       -1841.996          51.000  
G30  20313252.110   106747070.210         287.230          49.000    20313254.979    83179657.324         223.871          44.000  
E34  26772433.350   140689881.341       -3768.137          43.000    26772453.122   107801306.636       -2887.142          46.000  
G14  23175481.787   121788043.659        2643.109          44.000    23175493.094    94899898.718        2059.335          45.000  
E02  26718381.445   140406102.968        2165.794          42.000    26718400.297   107584029.570        1659.527          46.000  
E24  26234424.178   137862796.180       -1674.969          40.000    26234432.052   105635388.887       -1283.264          46.000  
E25  24669992.918   129641911.276         858.964          47.000    24670002.739    99336134.978         658.106          51.000  
> 2024 04 16 17 38 00.4990000  0 26                     
G04  24555372.290   129039281.329       -3229.797          36.000    24555382.802   100550189.797       -2516.656          38.000  
G06  22855282.102   120105235.130       -3838.851          40.000    22855294.796    93588497.360       -2991.438          42.000  
G07  19807881.694   104091270.803       -1996.638          49.000    19807881.424    81110151.319       -1555.948          47.000  
G09  21498465.627   112975173.722       -2168.735          49.000    21498468.453    88032609.988       -1689.846          44.000  
R02  23088341.772   123203635.884       -3357.412          49.000    23088353.893    95825021.894       -2611.213          45.000  
R04  20603943.226   110333340.201        1362.915          51.000    20603943.877    85814812.166        1060.059          49.000  
R14  19582234.455   104384419.778        1435.336          54.000    19582238.143    81188079.335        1116.277          49.000  
G11  22534123.620   118417602.798       -2060.038          44.000    22534128.109    92273603.675       -1605.149          45.000  
E08  26378209.876   138618502.286         822.167          43.000    26378219.523   106214221.684         629.953          49.000  
S31  38627274.029   202987673.026        -823.603          44.000  
S33  39578247.734   207985064.235        -823.384          42.000  
G20  21475647.452   112855347.301        1387.637          47.000                                                                  
E03  23726374.185   124683009.627        -435.112          48.000    23726380.826    95536388.856        -333.395          53.000  
R15  23135611.670   123629807.551        3621.959          48.000    23135631.321    96156308.406        2817.114          45.000  
R03  19948156.027   106784096.393       -1246.705          50.000    19948157.057    83054326.905        -969.668          50.000  
R13  20495907.276   109447260.455       -3264.575          39.000    20495911.977    85125636.695       -2539.288          44.000  
R19  22950277.023   122768526.327       -3640.002          41.000    22950284.573    95486579.828       -2831.322          40.000  
E05  23640071.620   124229359.471       -2054.263          44.000    23640080.649    95188736.724       -1574.054          50.000  
E13  26875218.636   141230250.348          37.080          33.000    26875231.034   108215407.440          27.881          38.000  
E15  25329111.711   133105361.768       -2415.363          44.000    25329122.590   101989881.371       -1850.644          50.000  
G30  20311656.838   106738688.021         271.286          49.000    20311659.672    83173125.762         211.256          44.000  
E34  26793944.662   140802923.688       -3768.164          42.000    26793965.159   107887922.917       -2887.265          46.000  
G14  23160398.919   121708786.489        2640.606          43.000    23160410.644    94838140.306        2057.518          45.000  
E02  26706018.175   140341130.182        2165.490          44.000    26706035.764   107534245.657        1659.311          46.000  
E24  26244022.538   137913239.808       -1688.240          40.000    26244031.615   105674040.542       -1293.709          47.000  
E25  24665120.312   129616306.148         847.878          47.000    24665130.042    99316515.565         649.646          51.000  
> 2024 04 16 17 38 30.4990000  0 26                     
G04  24573812.250   129136190.777       -3230.635          34.000    24573823.040   100625703.604       -2517.481          38.000  
G06  22877215.598   120220496.268       -3845.170          39.000    22877228.796    93678310.791       -2996.071          43.000  
G07  19819326.587   104151415.354       -2013.003          49.000    19819326.133    81157017.157       -1568.420          47.000  
G09  21510860.397   113040312.042       -2173.848          48.000    21510863.768    88083367.023       -1693.945          44.000  
R02  23107234.518   123304464.061       -3364.631          46.000    23107248.798    95903443.540       -2617.031          45.000  
R04  20596318.858   110292510.755        1359.027          51.000    20596319.642    85783055.973        1057.013          49.000  
R14  19574221.213   104341704.819        1412.311          54.000    19574225.104    81154856.680        1098.420          50.000  
G11  22545928.832   118479639.690       -2075.818          43.000    22545933.700    92321943.946       -1617.588          46.000  
E08  26373516.222   138593835.230         822.121          44.000    26373525.582   106195321.038         630.120          49.000  
S31  38631976.257   203012381.622        -823.559          43.000  
S33  39582949.155   208009767.183        -823.491          43.000  
G20  21467763.788   112813921.677        1374.039          47.000                                                                  
E03  23728863.820   124696089.897        -436.966          49.000    23728869.814    95546411.397        -334.881          53.000  
R15  23115286.446   123521202.202        3618.315          47.000    23115305.622    96071838.535        2814.158          45.000  
R03  19955174.848   106821664.891       -1257.896          50.000    19955175.315    83083546.796        -978.317          50.000  
R13  20514309.514   109545521.414       -3285.760          40.000    20514313.354    85202061.770       -2555.749          45.000  
R19  22970724.296   122877905.313       -3651.825          40.000    22970731.377    95571651.932       -2840.332          40.000  
E05  23651803.690   124291013.818       -2056.089          43.000    23651813.436    95235978.267       -1575.407          50.000  
E13  26875050.331   141229359.725          22.872          35.000    26875061.863   108214724.980          17.721          37.000  
E15  25342932.193   133177990.048       -2426.683          44.000    25342943.455   102045531.426       -1859.303          50.000  
G30  20310151.692   106730778.937         255.760          50.000    20310154.727    83166962.860         199.328          44.000  
E34  26815456.953   140915968.849       -3768.010          43.000    26815477.286   107974541.350       -2887.254          46.000  
G14  23145331.290   121629607.018        2638.067          43.000    23145342.593    94776442.409        2055.664          44.000  
E02  26693655.869   140276164.997        2165.302          44.000    26693673.154   107484467.569        1659.076          46.000  
E24  26253697.483   137964085.343       -1701.361          40.000    26253707.001   105713000.093       -1303.684          46.000  
E25  24660311.061   129591032.805         836.878          47.000    24660320.705    99297150.360         641.306          51.000  
> 2024 04 16 17 39 00.4990000  0 26                     
G04  24592260.024   129233136.608       -3231.764          35.000    24592271.628   100701245.725       -2518.454          38.000  
G06  22899183.899   120335939.102       -3850.914          40.000    22899196.871    93768265.832       -3000.776          42.000  
G07  19830865.101   104212049.740       -2029.231          49.000    19830864.855    81204264.695       -1581.197          47.000  
G09  21523284.466   113105603.004       -2179.013          47.000    21523287.625    88134243.005       -1697.801          43.000  
R02  23126172.264   123405518.159       -3372.182          47.000    23126186.689    95982040.904       -2622.835          46.000  
R04  20588716.088   110251801.232        1355.054          52.000    20588717.576    85751393.040        1053.839          49.000  
R14  19566336.885   104299683.232        1389.236          52.000    19566341.678    81122173.283        1080.437          49.000  
G11  22557824.950   118542155.324       -2091.683          45.000    22557830.389    92370657.275       -1629.942          45.000  
E08  26368822.545   138569169.220         822.215          45.000    26368831.622   106176421.189         630.072          49.000  
S31  38636678.480   203037091.840        -823.698          44.000  
S33  39587649.960   208034471.950        -823.393          42.000  
G20  21459958.392   112772904.784        1360.457          47.000                                                                  
E03  23731365.002   124709233.503        -439.157          49.000    23731370.819    95556482.458        -336.460          53.000  
R15  23094982.626   123412711.705        3614.483          48.000    23095002.978    95987457.959        2811.205          47.000  
R03  19962256.688   106859571.110       -1269.132          52.000    19962256.045    83113029.351        -987.057          50.000  
R13  20532827.903   109644409.356       -3306.562          41.000    20532832.245    85278974.528       -2571.789          45.000  
R19  22991237.604   122987640.284       -3663.458          38.000    22991245.763    95657000.981       -2849.228          39.000  
E05  23663546.995   124352725.110       -2057.951          43.000    23663556.492    95283263.461       -1576.868          50.000  
E13  26874959.887   141228886.020           8.914          35.000    26874972.863   108214361.896           7.316          39.000  
E15  25356817.151   133250957.072       -2437.865          44.000    25356828.715   102101441.020       -1867.914          50.000  
G30  20308737.126   106723341.623         240.123          51.000    20308739.944    83161167.560         187.101          45.000  
E34  26836968.177   141029013.566       -3768.154          40.000    26836989.469   108061159.406       -2887.234          45.000  
G14  23130279.067   121550506.980        2635.430          43.000    23130290.066    94714806.436        2053.447          44.000  
E02  26681293.659   140211208.033        2165.174          43.000    26681311.637   107434695.769        1658.927          46.000  
E24  26263451.632   138015330.936       -1714.695          43.000    26263458.327   105752266.190       -1313.915          47.000  
E25  24655565.074   129566091.525         825.958          47.000    24655574.632    99278039.592         632.915          51.000  
> 2024 04 16 17 39 30.5000000  0 26                     
G04  24610716.505   129330122.621       -3234.230          36.000    24610728.560   100776819.067       -2519.938          40.000  
G06  22921187.478   120451564.594       -3857.307          38.000    22921199.708    93858363.220       -3005.819          43.000  
G07  19842496.861   104273174.388       -2045.942          48.000    19842496.294    81251894.255       -1594.239          47.000  
G09  21535738.811   113171049.386       -2184.572          47.000    21535741.377    88185240.145       -1702.317          43.000  
R02  23145153.865   123506801.914       -3380.256          48.000    23145167.589    96060816.845       -2629.158          47.000  
R04  20581137.393   110211212.663        1350.347          52.000    20581137.469    85719824.194        1050.354          49.000  
R14  19558583.079   104258356.499        1365.363          53.000    19558587.711    81090030.368        1061.944          49.000  
G11  22569812.691   118605150.126       -2108.193          46.000    22569818.052    92419743.951       -1642.468          45.000  
E08  26364128.089   138544503.652         821.486          45.000    26364137.500   106157521.676         629.487          48.000  
S31  38641380.807   203061803.580        -824.064          42.000  
S33  39592351.743   208059179.607        -823.983          43.000  
G20  21452231.159   112732297.618        1346.052          46.000                                                                  
E03  23733878.336   124722441.404        -441.963          48.000    23733884.140    95566602.784        -338.597          52.000  
R15  23074700.678   123304336.634        3609.900          44.000    23074721.163    95903167.163        2807.710          48.000  
R03  19969400.715   106897818.024       -1281.052          51.000    19969401.104    83142776.891        -996.297          50.000  
R13  20551464.214   109743924.825       -3327.917          40.000    20551467.939    85356375.339       -2588.478          45.000  
R19  23011818.877   123097731.633       -3675.676          36.000    23011827.436    95742627.177       -2859.179          41.000  
E05  23675300.609   124414496.208       -2060.548          42.000    23675311.258    95330594.464       -1578.851          50.000  
E13  26874949.588   141228829.913          -4.961          33.000    26874961.888   108214318.914          -4.205          39.000  
E15  25370768.296   133324263.995       -2449.547          45.000    25370778.503   102157611.056       -1876.889          50.000  
G30  20307411.598   106716376.118         223.820          50.000    20307414.923    83155739.915         174.467          45.000  
E34  26858482.012   141142059.929       -3768.645          41.000    26858502.467   108147778.721       -2887.631          45.000  
G14  23115241.787   121471487.090        2631.848          43.000    23115251.813    94653232.891        2050.833          44.000  
E02  26668934.314   140146259.479        2164.181          43.000    26668951.608   107384930.418        1658.247          46.000  
E24  26273278.958   138066978.006       -1728.725          42.000    26273286.511   105791839.934       -1324.579          47.000  
E25  24650881.952   129541483.397         814.054          47.000    24650891.968    99259184.104         623.824          51.000  
> 2024 04 16 17 40 00.5000000  0 26                     
G04  24629179.427   129427158.418       -3235.448          35.000    24629194.869   100852431.176       -2521.037          41.000  
G06  22943225.411   120567377.671       -3863.803          37.000    22943238.687    93948606.726       -3010.416          42.000  
G07  19854223.411   104334799.179       -2062.293          47.000    19854222.790    81299913.525       -1607.148          47.000  
G09  21548224.533   113236663.010       -2189.932          47.000    21548227.520    88236367.576       -1706.559          42.000  
R02  23164179.828   123608324.842       -3387.997          48.000    23164193.144    96139778.787       -2635.034          45.000  
R04  20573583.585   110170766.155        1346.019          51.000    20573583.476    85688365.844        1046.898          48.000  
R14  19550965.672   104217746.613        1341.820          54.000    19550970.434    81058444.963        1043.600          50.000  
G11  22581893.602   118668633.646       -2124.088          46.000    22581898.696    92469211.519       -1655.093          45.000  
E08  26359437.602   138519855.874         821.367          44.000    26359447.015   106138635.792         629.419          48.000  
S31  38646086.993   203086533.245        -824.325          44.000  
S33  39597057.076   208083904.080        -824.117          42.000  
G20  21444586.028   112692121.879        1332.059          46.000                                                                  
E03  23736406.420   124735728.802        -444.083          48.000    23736412.672    95576784.028        -340.332          52.000  
R15  23054446.296   123196103.873        3605.520          46.000    23054466.299    95818987.050        2804.232          48.000  
R03  19976612.501   106936421.209       -1292.669          51.000    19976612.792    83172801.535       -1005.338          50.000  
R13  20570218.947   109844073.567       -3348.695          42.000    20570222.406    85434268.717       -2604.579          44.000  
R19  23032467.576   123208183.316       -3687.773          37.000    23032476.312    95828533.621       -2868.359          41.000  
E05  23687070.805   124476339.237       -2062.496          43.000    23687079.724    95377980.599       -1580.316          50.000  
E13  26875022.380   141229208.079         -19.815          33.000    26875034.018   108214608.628         -15.302          38.000  
E15  25384783.992   133397920.121       -2460.959          44.000    25384795.131   102214048.669       -1885.584          49.000  
G30  20306179.155   106709898.655         207.949          50.000    20306182.542    83150692.553         162.187          45.000  
E34  26879995.713   141255114.216       -3768.643          40.000    26880015.884   108234404.070       -2887.534          45.000  
G14  23100225.018   121392571.558        2628.772          44.000    23100234.596    94591740.658        2048.422          44.000  
E02  26656580.728   140081341.488        2163.614          43.000    26656597.339   107335188.461        1657.780          46.000  
E24  26283184.454   138119038.421       -1741.880          42.000    26283194.183   105831730.370       -1334.733          47.000  
E25  24646267.134   129517227.545         802.877          48.000    24646276.017    99240598.541         615.111          51.000  
> 2024 04 16 17 40 30.5000000  0 27                     
G04  24647650.632   129524226.260       -3236.267          34.000    24647666.462   100928068.295       -2521.613          40.000  
G06  22965294.043   120683357.656       -3868.865          36.000    22965308.621    94038980.276       -3014.450          41.000  
G07  19866041.130   104396902.328       -2077.887          48.000    19866040.075    81348305.529       -1619.251          46.000  
G09  21560739.434   113302425.250       -2194.476          47.000    21560742.515    88287610.786       -1710.115          43.000  
R02  23183247.467   123710068.787       -3395.145          50.000    23183260.985    96218912.680       -2640.758          46.000  
R04  20566053.616   110130440.293        1342.106          52.000    20566052.925    85657001.314        1043.988          48.000  
R14  19543478.678   104177832.837        1318.814          54.000    19543482.398    81027400.988        1025.796          49.000  
G11  22594063.232   118732584.792       -2139.448          46.000    22594068.136    92519043.392       -1667.031          45.000  
E08  26354745.592   138495203.735         821.962          44.000    26354755.841   106119746.586         629.731          48.000  
S31  38650792.310   203111259.165        -823.931          44.000  
S33  39601761.047   208108625.134        -823.830          42.000  
G20  21437019.386   112652357.154        1318.568          47.000                                                                  
E03  23738946.487   124749075.209        -445.900          48.000    23738952.252    95587010.475        -341.644          52.000  
R15  23034214.942   123087992.033        3601.718          47.000    23034233.863    95734900.965        2801.359          48.000  
R03  19983887.207   106975361.490       -1303.593          51.000    19983888.579    83203088.367       -1013.871          51.000  
R13  20589088.767   109944834.127       -3368.671          41.000    20589091.741    85512637.939       -2620.340          45.000  
R19  23053178.387   123318973.294       -3698.711          35.000    23053188.197    95914703.153       -2876.418          39.000  
E05  23698849.382   124538235.470       -2064.040          43.000    23698858.159    95425407.518       -1581.602          50.000  
E13  26875172.576   141229999.712         -33.121          33.000    26875184.826   108215215.239         -25.365          39.000  
E15  25398863.531   133471905.054       -2471.637          45.000    25398874.183   102270738.233       -1893.796          49.000  
G30  20305035.158   106703887.711         192.538          50.000    20305038.509    83146008.714         150.095          45.000  
E34  26901507.026   141368157.022       -3767.822          40.000    26901527.933   108321020.618       -2887.011          45.000  
G14  23085223.029   121313739.620        2626.054          45.000    23085232.895    94530313.548        2046.522          44.000  
E02  26644229.289   140016432.578        2163.486          44.000    26644245.402   107285453.454        1657.729          46.000  
E24  26293166.492   138171492.149       -1755.091          42.000    26293175.738   105871922.152       -1344.781          48.000  
E25  24641715.107   129493303.533         792.010          48.000    24641722.963    99222267.222         606.796          51.000  
G05                                                                  24438457.892                1       2004.264          28.000  
> 2024 04 16 17 41 00.0000000  0 27                     
G04  24665821.381   129619709.285       -3237.138          34.000    24665835.835   101002470.481       -2522.675          39.000  
G06  22987029.501   120797565.501       -3873.929          38.000    22987041.816    94127973.010       -3018.865          40.000  
G07  19877751.027   104458436.610       -2093.770          48.000    19877749.997    81396254.269       -1631.350          46.000  
G09  21573072.330   113367237.997       -2199.542          46.000    21573076.892    88338114.124       -1713.907          43.000  
R02  23202037.074   123810334.442       -3402.466          49.000    23202050.968    96296896.811       -2646.511          46.000  
R04  20558671.230   110090907.746        1337.988          52.000    20558670.588    85626253.811        1040.575          48.000  
R14  19536243.119   104139267.061        1295.757          53.000    19536247.934    80997405.455        1007.861          50.000  
G11  22606116.928   118795925.315       -2154.679          45.000    22606121.684    92568399.454       -1679.199          45.000  
E08  26350132.274   138470959.434         821.903          45.000    26350142.278   106101169.899         629.630          48.000  
S31  38655418.787   203135571.184        -824.187          44.000  
S33  39606386.496   208132932.575        -824.269          42.000  
G20  21429655.404   112613659.783        1304.806          47.000                                                                  
E03  23741455.298   124762258.286        -447.994          48.000    23741461.225    95597111.788        -343.299          53.000  
R15  23014342.731   122981804.857        3597.465          47.000    23014361.132    95652311.795        2798.048          48.000  
R03  19991102.485   107013984.707       -1314.863          51.000    19991103.005    83233128.587       -1022.645          51.000  
R13  20607755.054   110044509.720       -3388.850          43.000    20607758.247    85590163.284       -2635.675          44.000  
R19  23073606.180   123428243.297       -3709.408          36.000    23073616.538    95999690.536       -2885.039          39.000  
E05  23710442.448   124599153.771       -2065.949          43.000    23710450.815    95472085.080       -1583.010          50.000  
E13  26875397.745   141231183.489         -47.097          34.000    26875408.700   108216122.289         -35.867          36.000  
G05  24424012.433                3       2569.614          28.000    24424017.270                        2001.877          29.000  
E15  25412767.628   133544977.329       -2482.446          44.000    25412779.856   102326728.489       -1902.172          49.000  
G30  20303996.790   106698433.112         177.190          50.000    20304000.111    83141758.383         138.129          45.000  
E34  26922658.477   141479304.002       -3767.536          40.000    26922679.147   108406184.543       -2886.921          45.000  
G14  23070487.753   121236307.358        2623.282          45.000    23070497.813    94469977.086        2044.210          45.000  
E02  26632084.815   139952617.634        2162.803          44.000    26632101.654   107236556.674        1657.264          47.000  
E24  26303055.478   138223455.878       -1768.162          43.000    26303063.290   105911738.480       -1354.717          46.000  
E25  24637299.653   129470104.657         780.863          48.000    24637308.461    99204491.530         598.240          51.000  
> 2024 04 16 17 41 30.0000000  0 27                     
G04  24684308.699   129716850.398       -3238.867          38.000    24684320.826   101078164.639       -2523.307          37.000  
G06  23009163.070   120913875.568       -3880.104          40.000    23009175.098    94218603.722       -3023.299          39.000  
G07  19889749.983   104521491.700       -2110.094          47.000    19889748.952    81445388.095       -1644.129          46.000  
G09  21585644.397   113433304.549       -2205.043          47.000    21585648.806    88389594.475       -1718.170          43.000  
R02  23221187.579   123912526.058       -3410.420          48.000    23221201.906    96376378.862       -2652.616          47.000  
R04  20551188.284   110050836.462        1333.263          52.000    20551187.136    85595087.296        1037.036          48.000  
R14  19529017.218   104100750.575        1271.942          53.000    19529022.142    80967448.290         989.250          49.000  
G11  22618463.399   118860806.123       -2170.753          46.000    22618468.155    92618955.737       -1691.456          45.000  
E08  26345441.885   138446306.955         821.533          45.000    26345451.181   106082280.426         629.394          49.000  
S31  38660124.256   203160298.974        -824.612          44.000  
S33  39611091.438   208157655.606        -824.537          43.000  
G20  21422246.815   112574725.970        1290.636          46.000                                                                  
E03  23744019.023   124775731.072        -450.535          48.000    23744025.033    95607435.085        -345.230          53.000  
R15  22994159.107   122873952.520        3592.568          47.000    22994176.972    95568427.498        2794.118          48.000  
R03  19998503.623   107053607.084       -1326.805          50.000    19998504.545    83263945.951       -1031.936          51.000  
R13  20626850.491   110146481.707       -3409.357          41.000    20626854.749    85669474.755       -2651.796          45.000  
R19  23094441.606                       -3721.135          32.000    23094452.643    96086377.988       -2894.304          37.000  
E05  23722243.482   124661165.496       -2068.085          44.000    23722251.238    95519600.456       -1584.804          50.000  
E13  26875698.867                         -61.350          30.000    26875717.075   108217365.320         -47.083          37.000  
G05  24409351.011                1       2566.583          25.000    24409358.623                        1999.243          27.000  
E15  25426971.591   133619618.214       -2493.868          43.000    25426984.073   102383920.627       -1910.814          50.000  
G30  20303030.367   106693355.755         161.243          50.000    20303032.562    83137802.020         125.729          44.000  
E34  26944165.667   141592326.762       -3767.572          42.000    26944186.562   108492785.752       -2886.845          44.000  
G14  23055521.370   121157658.951        2619.861          45.000    23055531.885    94408692.984        2041.382          46.000  
E02  26619739.098   139887741.291        2161.813          44.000    26619755.960   107186846.629        1656.442          47.000  
E24  26313186.914   138276696.371       -1781.615          44.000    26313194.964   105952533.133       -1365.163          46.000  
E25  24632874.940   129446851.969         769.192          48.000    24632883.758    99186674.615         589.295          52.000  
> 2024 04 16 17 42 00.0000000  0 27                     
G04  24702802.927   129814037.069       -3240.339          38.000    24702814.850   101153894.282       -2524.587          35.000  
G06  23031329.392   121030355.349       -3885.377          41.000    23031340.283    94309366.715       -3027.438          37.000  
G07  19901840.332   104585031.733       -2125.808          46.000    19901840.386    81494899.807       -1656.467          46.000  
G09  21598248.037   113499533.384       -2210.282          48.000    21598250.396    88441201.270       -1722.252          42.000  
R02  23240383.102   124014951.800       -3417.981          48.000    23240397.747    96456043.039       -2658.191          46.000  
R04  20543730.986   110010904.866        1328.913          51.000    20543730.463    85564029.430        1033.582          48.000  
R14  19521927.054   104062950.721        1248.162          54.000    19521931.106    80938048.499         970.751          50.000  
G11  22630900.544   118926160.761       -2186.174          47.000    22630904.623    92669881.276       -1703.585          45.000  
E08  26340752.299   138421662.392         821.514          45.000    26340761.363   106063397.045         629.492          49.000  
S31  38664831.357   203185036.961        -824.682          44.000  
S33  39615798.309   208182388.673        -824.362          43.000  
G20  21414919.729   112536223.013        1276.498          46.000                                                                  
E03  23746596.591   124789276.224        -452.682          48.000    23746602.411    95617813.826        -346.784          53.000  
R15  22974002.140   122766245.040        3587.916          45.000    22974020.321    95484655.824        2790.609          48.000  
R03  20005971.760   107093584.309       -1338.379          50.000    20005972.454    83295039.278       -1040.835          51.000  
R13  20646061.369   110249067.670       -3429.812          41.000    20646065.557    85749263.750       -2667.554          44.000  
R19  23115340.177   123651492.497       -3731.395          31.000    23115351.761    96173328.000       -2902.727          35.000  
E05  23734056.862   124723244.420       -2070.471          44.000    23734064.077    95567167.293       -1586.249          50.000  
E13  26876100.870   141234855.911         -74.723          34.000    26876107.955   108218936.252         -57.868          37.000  
G05  24394719.022   128195152.6401       2563.126          27.000    24394715.158                        1996.881          27.000  
E15  25441240.198   133694595.625       -2504.722          44.000    25441251.862   102441370.646       -1919.157          50.000  
G30  20302155.707   106688757.162         145.346          50.000    20302158.414    83134218.729         113.266          44.000  
E34  26965673.153   141705344.780       -3767.036          43.000    26965694.346   108579383.319       -2886.335          46.000  
G14  23040574.851   121079115.972        2616.532          45.000    23040584.872    94347491.038        2038.924          45.000  
E02  26607398.589   139822892.596        2161.344          42.000    26607415.587   107137157.756        1655.998          48.000  
E24  26323393.551   138330340.976       -1794.707          43.000    26323403.926   105993637.383       -1375.137          47.000  
E25  24628516.583   129423948.379         757.790          47.000    24628525.462    99169125.173         580.696          52.000  
> 2024 04 16 17 42 30.5000000  0 27                     
G04  24721611.550   129912876.651       -3240.904          38.000    24721621.825   101230911.998       -2525.677          32.000  
G06  23053894.717   121148933.336       -3890.169          42.000    23053905.421    94401764.651       -3031.030          38.000  
G07  19914224.486   104650112.222       -2141.482          47.000    19914224.617    81545611.877       -1668.718          46.000  
G09  21611090.069   113567018.903       -2215.052          47.000    21611092.028    88493787.348       -1726.351          41.000  
R02  23259940.325   124119311.127       -3424.991          47.000    23259953.932    96537211.109       -2663.934          45.000  
R04  20536173.689   109970439.432        1324.780          50.000    20536174.099    85532556.357        1030.445          48.000  
R14  19514853.267   104025243.911        1224.470          53.000    19514857.531    80908721.052         952.295          50.000  
G11  22643633.414   118993074.397       -2201.444          45.000    22643637.917    92722021.565       -1715.366          45.000  
E08  26335983.725   138396601.208         822.072          45.000    26335992.259   106044194.431         629.812          49.000  
S31  38669616.786   203210182.794        -824.385          44.000  
S33  39620582.356   208207529.882        -823.881          42.000  
G20  21407553.203   112497508.628        1262.389          47.000                                                                  
E03  23749228.397   124803107.759        -454.311          48.000    23749234.713    95628412.006        -348.156          53.000  
R15  22953535.313   122656880.688        3583.572          46.000    22953553.050    95399595.542        2787.180          47.000  
R03  20013629.502   107134578.878       -1349.722          50.000    20013630.958    83326923.900       -1049.733          52.000  
R13  20665707.774   110353975.353       -3449.459          43.000    20665711.003    85830858.524       -2682.991          44.000  
R19  23136649.611                       -3742.225          24.000    23136660.843    96261981.934       -2910.999          33.000  
E05  23746076.045   124786413.423       -2071.842          43.000    23746085.004    95615569.445       -1587.471          50.000  
E13  26876574.720   141237365.621         -89.178          33.000    26876586.480   108220859.239         -68.197          38.000  
E15  25455808.970   133771152.075       -2515.253          44.000    25455820.287   102500030.572       -1927.246          50.000  
G30  20301357.158   106684558.777         129.974          50.000    20301359.809    83130947.274         101.516          44.000  
E34  26987535.441   141820225.732       -3765.954          44.000    26987556.325   108667408.314       -2885.603          46.000  
G14  23025398.004   120999361.331        2613.616          44.000    23025407.399    94285344.954        2036.285          45.000  
E02  26594855.202   139756979.602        2161.175          42.000    26594872.104   107086653.396        1655.887          47.000  
E24  26333848.387   138385279.464       -1807.572          43.000    26333857.351   106035733.046       -1385.053          45.000  
E25  24624150.677   129401008.694         746.624          47.000    24624160.199    99151548.092         572.112          52.000  
G05                                                                  24379839.170                1       1995.508          25.000  
> 2024 04 16 17 43 00.5000000  0 27                     
G04  24740117.001   130010125.483       -3242.139          37.000    24740127.525   101306690.173       -2526.645          34.000  
G06  23076118.508   121265715.076       -3895.228          43.000    23076129.051    94492763.001       -3035.195          40.000  
G07  19926495.565   104714594.025       -2157.291          47.000    19926494.740    81595857.410       -1680.978          46.000  
G09  21623749.571   113633545.503       -2220.165          47.000    21623752.709    88545626.205       -1730.165          41.000  
R02  23279217.032   124222178.675       -3432.723          47.000    23279230.461    96617218.862       -2669.831          44.000  
R04  20528764.564   109930765.038        1320.134          51.000    20528764.925    85501698.518        1026.806          49.000  
R14  19508028.506   103988865.988        1200.632          54.000    19508033.498    80880427.187         933.820          50.000  
G11  22656245.527   119059347.514       -2216.907          47.000    22656249.445    92773662.769       -1727.532          45.000  
E08  26331290.574   138371941.667         822.028          44.000    26331299.820   106025299.561         629.897          49.000  
S31  38674321.978   203234908.774        -824.263          44.000  
S33  39625286.967   208232250.442        -824.152          42.000  
G20  21400386.980   112459850.902        1248.162          47.000                                                                  
E03  23751828.169   124816769.128        -456.421          47.000    23751834.434    95638879.790        -349.756          53.000  
R15  22933429.706   122549445.470        3578.924          47.000    22933446.654    95316035.636        2783.421          46.000  
R03  20021227.698   107175244.570       -1361.425          51.000    20021227.837    83358552.732       -1058.880          52.000  
R13  20685143.292   110457758.001       -3469.443          43.000    20685146.351    85911578.263       -2698.451          44.000  
R19  23157672.722                3      -3751.367          20.000    23157678.879    96349426.863       -2919.012          34.000  
E05  23757909.945   124848598.620       -2073.929          43.000    23757918.880    95663217.748       -1589.122          51.000  
E13  26877122.707   141240249.665        -103.065          34.000    26877135.658   108223069.097         -78.938          39.000  
E15  25470199.016   133846772.459       -2526.085          45.000    25470210.434   102557973.277       -1935.582          50.000  
G30  20300659.993   106680894.727         114.311          50.000    20300662.251    83128092.199          88.984          45.000  
E34  27009033.618   141933197.665       -3765.418          45.000    27009055.016   108753970.548       -2885.310          47.000  
G14  23010487.656   120921009.764        2609.889          45.000    23010497.356    94224292.160        2033.529          45.000  
E02  26582520.684   139692162.064        2160.063          42.000    26582537.376   107036988.416        1655.149          47.000  
E24  26344206.514   138439706.504       -1820.757          43.000    26344214.660   106077436.870       -1395.143          45.000  
E25  24619920.825   129378783.236         735.079          47.000    24619930.602    99134518.275         563.260          52.000  
G05                                                                  24365206.908                3       1993.430          25.000  
> 2024 04 16 17 43 30.5000000  0 27                     
G04  24758629.700   130107408.858       -3243.058          37.000    24758642.050   101382495.226       -2527.580          35.000  
G06  23098370.265   121382645.051       -3900.103          43.000    23098380.774    94583876.737       -3039.020          41.000  
G07  19938855.127   104779542.731       -2172.700          47.000    19938854.757    81646466.756       -1693.214          46.000  
G09  21636437.930   113700223.664       -2225.321          46.000    21636440.898    88597583.121       -1733.974          41.000  
R02  23298536.400   124325268.587       -3440.090          48.000    23298549.598    96697399.604       -2675.860          42.000  
R04  20521381.957   109891224.927        1315.741          52.000    20521380.346    85470945.108        1023.334          48.000  
R14  19501337.336   103953200.134        1176.888          53.000    19501341.521    80852687.168         915.290          49.000  
G11  22668943.359   119126076.157       -2231.843          47.000    22668948.061    92825658.917       -1739.158          45.000  
E08  26326597.600   138347277.911         822.144          45.000    26326606.115   106006401.461         629.938          49.000  
S31  38679026.545   203259632.892        -824.090          43.000  
S33  39629990.562   208256970.447        -823.927          42.000  
G20  21393301.592   112422619.457        1233.956          47.000                                                                  
E03  23754439.653   124830491.936        -458.544          48.000    23754445.927    95649394.657        -351.370          53.000  
R15  22913351.736   122442154.209        3573.927          48.000    22913367.241    95232587.686        2779.573          46.000  
R03  20028888.503   107216257.386       -1372.864          51.000    20028889.739    83390451.538       -1067.825          52.000  
R13  20704689.260   110562131.940       -3489.026          43.000    20704692.761    85992757.897       -2713.836          44.000  
R19  23178752.769                1      -3763.032          26.000    23178755.761                       -2926.096          30.000  
E05  23769754.219   124910840.492       -2075.575          44.000    23769763.077    95710909.495       -1590.501          50.000  
E13  26877752.582   141243551.380        -117.005          35.000    26877762.400   108225599.051         -89.755          38.000  
E15  25484650.389   133922712.497       -2536.599          47.000    25484661.212   102616160.912       -1943.804          49.000  
G30  20300051.620   106677697.177          98.795          50.000    20300053.870    83125600.626          77.125          45.000  
E34  27030528.132   142046147.122       -3764.608          46.000    27030549.151   108840515.542       -2884.519          47.000  
G14  22995596.873   120842761.135        2606.537          45.000    22995606.055    94163319.548        2031.116          44.000  
E02  26570190.115   139627366.328        2159.528          43.000    26570206.481   106987340.143        1654.644          47.000  
E24  26354637.416   138494523.882       -1833.730          43.000    26354646.385   106119439.722       -1405.030          45.000  
E25  24615756.134   129356899.712         723.752          46.000    24615766.086    99117750.456         554.461          52.000  
G05                                                                  24350611.370                3       1992.582          24.000  
> 2024 04 16 17 44 00.0000000  0 27                     
G04  24776838.156   130203100.834       -3244.166          36.000    24776853.716   101457060.223       -2527.810          36.000  
G06  23120276.981   121497763.350       -3904.443          43.000    23120286.993    94673578.872       -3042.257          40.000  
G07  19951093.676   104843858.140       -2187.739          48.000    19951093.422    81696582.601       -1704.571          46.000  
G09  21648941.767   113765934.479       -2229.583          47.000    21648945.046    88648786.343       -1737.506          40.000  
R02  23317574.094   124426853.308       -3446.986          49.000    23317586.900    96776409.619       -2680.995          43.000  
R04  20514145.267   109852472.559        1311.645          52.000    20514143.872    85440804.424        1020.196          48.000  
R14  19494886.573   103918821.036        1153.833          52.000    19494892.397    80825947.926         897.459          50.000  
G11  22681513.442   119192130.638       -2246.239          46.000    22681518.068    92877129.750       -1750.363          45.000  
E08  26321980.828   138323016.894         822.688          45.000    26321989.288   105987811.957         630.375          49.000  
S31  38683652.700   203283938.600        -823.798          45.000  
S33  39634614.879   208281272.077        -823.492          42.000  
G20  21386413.327   112386422.127        1220.197          47.000                                                                  
E03  23757017.743   124844042.064        -460.206          48.000    23757024.269    95659777.214        -352.591          53.000  
R15  22893633.868   122336791.114        3569.365          48.000    22893649.550    95150639.358        2776.097          47.000  
R03  20036484.495   107256922.481       -1384.073          51.000    20036485.412    83422079.850       -1076.417          51.000  
R13  20724015.920   110665335.213       -3507.782          43.000    20724019.547    86073027.028       -2728.320          44.000  
R19  23199535.048                3      -3771.922          23.000    23199532.290                1      -2934.430          30.000  
E05  23781410.850   124972096.667       -2077.135          43.000    23781419.555    95757845.959       -1591.575          51.000  
E13  26878446.240   141247201.648        -130.295          33.000    26878456.027   108228396.029         -99.833          37.000  
E15  25498917.799   133997692.828       -2546.571          46.000    25498929.816   102673613.179       -1951.338          50.000  
G30  20299538.606   106675003.466          83.972          50.000    20299540.958    83123501.673          65.368          45.000  
E34  27051658.822   142157186.118       -3763.355          45.000    27051679.420   108925596.698       -2883.525          47.000  
G14  22980974.159   120765915.912        2603.286          46.000    22980982.734    94103440.473        2028.689          44.000  
E02  26558069.552   139563669.635        2159.019          44.000    26558084.752   106938533.941        1654.273          46.000  
E24  26364966.910   138548803.517       -1846.381          44.000    26364974.571   106161030.577       -1414.578          44.000  
E25  24611724.728   129335711.652         712.766          47.000    24611733.627    99101515.506         546.205          51.000  
G05                                                                  24336293.080                        1988.366          28.000  
> 2024 04 16 17 44 30.0000000  0 27                     
G04  24795364.360   130300448.671       -3245.621          38.000    24795376.632   101532915.561       -2529.609          32.000  
G06  23142581.843   121614972.640       -3909.063          41.000    23142590.580    94764910.302       -3045.659          36.000  
G07  19963627.526   104909721.728       -2203.101          48.000    19963627.114    81747904.868       -1716.639          46.000  
G09  21661686.877   113832909.239       -2234.772          47.000    21661689.853    88700974.370       -1741.606          40.000  
R02  23336973.794   124530379.785       -3454.487          48.000    23336987.406    96856929.890       -2686.707          43.000  
R04  20506811.062   109813199.835        1306.810          51.000    20506810.340    85410259.047        1016.399          49.000  
R14  19488462.126   103884569.426        1129.753          53.000    19488466.111    80799307.883         878.649          49.000  
G11  22694381.705   119259751.161       -2261.497          47.000    22694386.115    92929820.910       -1762.152          44.000  
E08  26317285.113   138298339.523         822.749          45.000    26317293.253   105968903.414         630.390          49.000  
S31  38688355.254   203308653.319        -823.685          43.000  
S33  39639317.302   208305982.413        -823.417          42.000  
G20  21379489.813   112350037.708        1205.570          46.000                                                                  
E03  23759651.283   124857882.519        -462.296          47.000    23759657.909    95670382.251        -354.269          52.000  
R15  22873609.521   122229791.531        3564.194          47.000    22873625.226    95067418.247        2772.041          46.000  
R03  20044275.495   107298623.383       -1395.724          51.000    20044276.051    83454513.840       -1085.568          52.000  
R13  20743778.693   110770865.989       -3527.570          43.000    20743782.345    86155106.441       -2743.616          44.000  
R19  23220722.109                3      -3782.082          25.000    23220720.961                       -2942.286          28.000  
E05  23793276.168   125034447.415       -2079.260          44.000    23793285.039    95805621.135       -1593.189          51.000  
E13  26879231.826   141251328.275        -144.763          34.000    26879241.118   108231558.018        -110.930          38.000  
E15  25513488.428   134074256.898       -2557.372          46.000    25513499.758   102732278.924       -1959.559          50.000  
G30  20299104.994   106672725.502          68.153          50.000    20299107.076    83121726.687          53.022          44.000  
E34  27073142.492   142270080.200       -3762.671          45.000    27073163.424   109012099.252       -2882.928          47.000  
G14  22966122.893   120687875.622        2599.632          45.000    22966132.389    94042630.225        2025.592          45.000  
E02  26545746.325   139498918.056        2157.958          42.000    26545763.045   106888919.452        1653.490          47.000  
E24  26375544.378   138604388.127       -1859.294          43.000    26375552.533   106203621.343       -1424.693          45.000  
E25  24607689.919   129314505.734         701.146          47.000    24607698.168    99085266.867         537.261          51.000  
G05                                                                  24321739.111                        1986.163          27.000  
