     3.00           OBSERVATION DATA    M: Mixed            RINEX VERSION / TYPE
CONVBIN 2.4.3                           20240416 155942 UTC PGM / RUN BY / DATE 
format: u-blox UBX                                          COMMENT             
log: /home/regis/git/gnsspwv/obsdata/VERT00CHL/2024-04-16/VECOMMENT             
{self.marker}                                               MARKER NAME         
                                                            MARKER NUMBER       
GEODETIC                                                    MARKER TYPE         
{self.observer}     {self.institution}                      OBSERVER / AGENCY   
UNKNOWN             UBLOX-ZED-F9P                           REC # / TYPE / VERS 
UNKNOWN             TWIVSP6037L                             ANT # / TYPE        
  1713381.0000 -5047934.0000 -3490983.0000                  APPROX POSITION XYZ 
        0.0000        0.0000        0.0000                  ANTENNA: DELTA H/E/N
G    8 C1C L1C D1C S1C C2L L2L D2L S2L                      SYS / # / OBS TYPES 
R    8 C1C L1C D1C S1C C2C L2C D2C S2C                      SYS / # / OBS TYPES 
E    8 C1C L1C D1C S1C C7Q L7Q D7Q S7Q                      SYS / # / OBS TYPES 
S    4 C1C L1C D1C S1C                                      SYS / # / OBS TYPES 
  2024    04    16    15    45   00.4960000     GPS         TIME OF FIRST OBS   
  2024    04    16    15    59   30.4960000     GPS         TIME OF LAST OBS    
                                                            END OF HEADER       
> 2024 04 16 15 45 00.4960000  0 25                     
G03  20940507.220   110043040.0031      -2795.731          46.000    20940513.519    85747818.8311      -2178.225          44.000  
G04  20555889.729   108021886.0041      -2888.877          49.000    20555892.152    84172890.0991      -2251.202          46.000  
G06  19884721.235   104494946.0041       -167.114          47.000    19884725.221    81424664.4081       -130.165          47.000  
G07  19992098.665   105059299.9121       2209.872          47.000    19992100.907    81864449.4521       1721.420          43.000  
G09  19445385.366   102186189.9871       -914.704          50.000    19445386.878    79625616.1601       -712.750          47.000  
R02  19741865.755   105346339.3431      -2072.784          53.000    19741870.243    81936047.9011      -1612.146          46.000  
R18  19533031.779   104268657.9591      -1713.904          50.000    19533036.959    81097867.7281      -1333.032          50.000  
R12  19879164.212   106190985.2131       -881.557          48.000    19879170.039    82593035.6231       -685.603          48.000  
R01  22854985.174                3      -3161.645          24.000    22854987.986                3      -2458.473          21.000  
R04  22494394.969                3       1744.281          11.000                                                                  
G11  22509517.083                3       1882.056          27.000    22509529.196    92172851.7941       1466.156          39.000  
S31  37576278.250   197464656.0411       -795.885          44.000  
S33  38527622.480   202463988.6691       -795.438          43.000  
E03  23520367.555   123600408.8631        222.729          47.000    23520374.810    94706856.7111        170.672          50.000  
R17  20667302.533   110594808.0141      -4610.866          47.000    20667307.866    86018159.8481      -3586.086          47.000  
R03  19485879.778   104309479.9041        241.492          52.000    19485879.980    81129623.0671        187.756          49.000  
R13  19941805.661   106488333.0481       2212.514          43.000    19941811.613    82824236.7331       1720.659          42.000  
R19  21267082.994                1       1425.150          29.000    21267083.714                1       1107.382          27.000  
E05  21219788.553   111510724.1321      -1649.982          49.000    21219794.348    85443299.4191      -1264.182          51.000  
E09  26066496.996   136980268.0371      -2810.187          32.000    26066512.508   104958914.5571      -2152.940          42.000  
E15  24216335.249   127257705.4221        735.412          43.000    24216344.089    97509216.4441        563.390          48.000  
G30  22665560.714   119108368.8111       2944.104          43.000    22665572.912    92811797.6641       2294.330          37.000  
E34  22698986.993   119283955.9591      -2039.663          49.000    22698993.085    91399413.4561      -1562.817          52.000  
E36  25239651.137   132635138.2341      -3876.955          44.000    25239664.740   101629521.2111      -2970.557          45.000  
E24  25962672.580   136434829.7101       1013.658          43.000    25962685.411   104541068.0331        776.692          46.000  
> 2024 04 16 15 45 30.4960000  0 24                     
G03  20956493.975   110127051.813       -2805.417          46.000    20956500.650    85813282.426       -2185.837          44.000  
G04  20572391.145   108108601.833       -2892.132          48.000    20572393.496    84240460.802       -2253.611          46.000  
G06  19885735.334   104500272.972        -187.824          48.000    19885739.008    81428815.303        -146.428          47.000  
G07  19979525.074   104993222.847        2195.272          48.000    19979526.889    81812960.891        1710.688          44.000  
G09  19450627.151   102213738.357        -921.888          50.000    19450628.689    79647082.439        -718.299          47.000  
R02  19753528.949   105408575.387       -2076.300          52.000    19753533.150    81984453.642       -1614.917          48.000  
R18  19542736.913   104320466.499       -1739.947          49.000    19542742.192    81138163.174       -1353.400          49.000  
R12  19884190.677   106217828.601        -908.009          50.000    19884195.185    82613913.848        -706.163          49.000  
R01  22872723.954                3      -3167.785          18.000    22872737.987                3      -2453.954          22.000  
G11  22498819.145   118232047.5981       1869.171          36.000    22498823.690    92129011.640        1456.360          40.000  
S31  37580821.978   197488532.305        -795.759          45.000  
S33  38532163.626   202487853.383        -795.400          43.000  
E03  23519108.772   123593791.603         218.306          47.000    23519115.277    94701786.393         167.340          50.000  
R17  20693178.703   110733273.971       -4620.433          46.000    20693184.022    86125855.222       -3593.586          47.000  
R03  19484536.667   104302295.335         237.498          52.000    19484538.228    81124035.163         184.746          49.000  
R13  19929420.909   106422201.992        2196.071          43.000    19929426.996    82772801.703        1707.966          41.000  
R19  21259155.115                        1402.970          31.000    21259162.590                        1090.540          27.000  
E05  21229215.706   111560266.406       -1652.762          49.000    21229222.102    85481260.404       -1266.388          51.000  
E09  26082537.221   137064535.367       -2808.492          36.000    26082549.229   105023482.832       -2151.529          43.000  
E15  24212173.569   127235828.828         723.062          43.000    24212180.754    97492453.951         554.096          48.000  
G30  22648766.239   119020114.335        2939.630          44.000    22648777.492    92743028.386        2290.552          39.000  
E34  22710669.119   119345346.549       -2053.035          49.000    22710675.813    91446452.930       -1573.052          52.000  
E36  25261793.261   132751496.718       -3880.382          44.000    25261808.881   101718678.717       -2973.273          47.000  
E24  25956904.859   136404523.402        1006.861          44.000    25956917.963   104517846.548         771.408          47.000  
> 2024 04 16 15 46 00.4960000  0 24                     
G03  20972534.997   110211347.379       -2815.240          45.000    20972542.555    85878967.144       -2193.427          45.000  
G04  20588908.268   108195401.026       -2895.058          48.000    20588911.032    84308096.464       -2255.871          46.000  
G06  19886864.447   104506207.665        -208.469          48.000    19886868.661    81433439.736        -162.277          47.000  
G07  19967029.621   104927560.100        2181.671          47.000    19967030.603    81761795.287        1699.910          44.000  
G09  19455908.437   102241493.423        -928.943          49.000    19455910.380    79668709.784        -723.958          47.000  
R02  19765208.470   105470902.616       -2079.419          52.000    19765213.002    82032930.320       -1617.316          49.000  
R18  19552586.726   104373044.328       -1765.784          50.000    19552592.495    81179056.993       -1373.328          50.000  
R12  19889361.386   106245447.372        -934.013          49.000    19889365.644    82635395.111        -726.428          49.000  
R01  22890472.308   122362721.6751      -3162.595          32.000    22890488.105                3      -2458.839          25.000  
G11  22488179.870   118176146.481        1857.019          32.000    22488184.721    92085452.575        1446.838          39.000  
S31  37585362.986   197512394.126        -795.532          45.000  
S33  38536701.853   202511703.592        -795.053          42.000  
E03  23517871.845   123587293.005         214.177          46.000    23517878.871    94696807.024         164.130          51.000  
R17  20719104.921   110872007.499       -4629.207          46.000    20719110.035    86233758.750       -3600.577          47.000  
R03  19483215.590   104295216.470         233.776          53.000    19483215.845    81118529.438         181.835          50.000  
R13  19917126.792   106356548.790        2179.906          43.000    19917131.454    82721738.248        1695.588          40.000  
R19  21251353.766                        1380.312          26.000    21251366.031    88418102.9571       1073.186          36.000  
E05  21238657.045   111609880.558       -1655.390          49.000    21238663.332    85519276.439       -1268.288          51.000  
E09  26098557.856   137148743.676       -2806.107          31.000    26098574.190   105088006.014       -2150.246          43.000  
E15  24208076.530   127214306.680         711.239          43.000    24208085.152    97475963.097         544.797          48.000  
G30  22631994.219   118931981.452        2935.358          43.000    22632005.573    92674353.863        2287.250          37.000  
E34  22722426.028   119407128.732       -2066.276          49.000    22722432.697    91493792.424       -1583.291          52.000  
E36  25283952.597   132867945.291       -3883.551          43.000    25283968.214   101807905.191       -2975.560          47.000  
E24  25951175.134   136374414.363         999.901          44.000    25951188.810   104494776.251         766.064          48.000  
> 2024 04 16 15 46 30.4960000  0 25                     
G03  20988630.359   110295929.392       -2824.248          45.000    20988637.251    85944875.075       -2200.568          44.000  
G04  20605442.038   108282285.262       -2897.515          48.000    20605444.672    84375798.388       -2257.701          46.000  
G06  19888109.434   104512753.562        -228.352          47.000    19888114.746    81438540.457        -177.977          47.000  
G07  19954613.284   104862316.902        2167.950          47.000    19954615.221    81710956.568        1689.165          44.000  
G09  19461229.367   102269457.017        -935.516          49.000    19461231.201    79690499.610        -729.011          46.000  
R02  19776906.878   105533324.125       -2082.281          53.000    19776911.285    82081480.314       -1619.629          48.000  
R18  19562581.158   104426392.088       -1790.979          50.000    19562586.105    81220549.663       -1392.999          50.000  
R12  19894676.055   106273844.498        -959.457          50.000    19894681.142    82657481.751        -746.260          49.000  
R01  22908231.804                1      -3162.970          29.000    22908236.797                1      -2460.171          27.000  
G11  22477611.276   118120611.453        1844.821          35.000    22477616.911    92042178.745        1437.552          40.000  
S31  37589901.049   197536243.851        -794.801          44.000  
S33  38541238.338   202535541.795        -794.167          43.000  
E03  23516657.835   123580915.280         210.638          46.000    23516664.988    94691920.281         161.392          50.000  
R17  20745079.503   111011006.806       -4637.732          44.000    20745086.933    86341868.909       -3607.007          49.000  
R03  19481912.868   104288245.840         230.646          52.000    19481913.584    81113107.917         179.364          50.000  
R13  19904921.997   106291380.523        2164.222          42.000    19904927.213    82671052.031        1683.235          41.000  
R19  21243684.247                1       1357.433          26.000    21243687.798    88386161.813        1055.692          34.000  
E05  21248112.693   111659568.571       -1657.428          49.000    21248118.555    85557349.074       -1269.961          51.000  
E09  26114574.842   137232895.666       -2804.161          34.000    26114586.788   105152485.881       -2148.531          42.000  
G16  23772106.937                3          5.523          28.000                                                                  
E15  24204048.008   127193143.195         699.399          42.000    24204057.176    97459747.051         535.934          47.000  
G30  22615246.285   118843975.258        2931.335          40.000    22615258.622    92605778.064        2283.936          39.000  
E34  22734257.207   119469304.269       -2078.964          48.000    22734264.343    91541433.353       -1593.023          52.000  
E36  25306130.506   132984484.757       -3886.144          45.000    25306145.703   101897201.327       -2977.507          48.000  
E24  25945482.832   136344507.334         993.726          43.000    25945497.156   104471860.716         761.302          48.000  
> 2024 04 16 15 47 00.4960000  0 26                     
G03  21004778.932   110380792.101       -2833.560          45.000    21004786.565    86011001.753       -2208.080          44.000  
G04  20621990.544   108369247.782       -2900.161          48.000    20621993.462    84443561.324       -2259.918          46.000  
G06  19889470.502   104519905.638        -248.686          48.000    19889475.510    81444113.532        -193.727          47.000  
G07  19942277.426   104797489.762        2153.792          48.000    19942278.991    81660442.049        1678.141          44.000  
G09  19466589.530   102297622.594        -942.322          50.000    19466590.882    79712446.833        -734.129          46.000  
R02  19788620.893   105595834.231       -2085.273          53.000    19788625.732    82130099.236       -1622.009          48.000  
R18  19572717.866   104480502.085       -1816.455          50.000    19572723.239    81262635.129       -1412.805          50.000  
R12  19900137.514   106303014.774        -985.367          50.000    19900141.756    82680169.793        -766.330          49.000  
R01  22925972.377                       -3163.101          30.000    22925982.477                3      -2455.079          24.000  
G11  22467112.031   118065439.179        1832.478          34.000    22467116.990    91999187.593        1428.210          38.000  
S31  37594436.400   197560075.978        -794.263          44.000  
S33  38545771.087   202559362.447        -793.982          43.000  
E03  23515465.844   123574652.232         206.684          46.000    23515473.266    94687121.414         158.362          50.000  
R17  20771101.993   111150261.322       -4646.208          44.000    20771110.714    86450177.602       -3613.677          48.000  
R03  19480629.764   104281377.234         227.136          53.000    19480629.841    81107765.739         176.722          49.000  
R13  19892808.727   106226696.050        2147.743          43.000    19892815.095    82620742.041        1670.690          43.000  
R19  21236122.529                        1336.045          31.000    21236130.836                        1038.554          29.000  
E05  21257580.541   111709324.114       -1659.891          49.000    21257586.558    85595473.440       -1271.801          51.000  
E09  26130576.254   137316985.388       -2802.168          35.000    26130588.595   105216918.161       -2147.116          42.000  
G16  23772116.575   124923234.8181         -5.500          31.000                                                                  
E15  24200088.791   127172334.086         687.472          43.000    24200097.266    97443802.503         526.908          47.000  
G30  22598522.320   118756092.532        2927.271          42.000    22598534.989    92537298.414        2281.195          39.000  
E34  22746162.690   119531866.658       -2091.986          48.000    22746169.605    91589370.681       -1602.957          52.000  
E36  25328323.612   133101107.647       -3888.956          45.000    25328338.338   101986561.389       -2979.811          48.000  
E24  25939829.596   136314798.523         986.791          43.000    25939843.451   104449097.056         756.088          48.000  
E25  26645368.848   140022375.8371       1739.469          37.000                                                                  
> 2024 04 16 15 47 30.4960000  0 25                     
G03  21020982.260   110465938.590       -2842.935          46.000    21020989.200    86077349.490       -2215.415          44.000  
G04  20638554.419   108456290.585       -2902.707          48.000    20638557.093    84511386.792       -2261.893          45.000  
G06  19890947.885   104527667.593        -268.909          49.000    19890952.097    81450161.841        -209.663          47.000  
G07  19930022.301   104733084.500        2139.729          49.000    19930023.031    81610256.269        1667.261          43.000  
G09  19471988.468   102325992.303        -949.103          50.000    19471989.538    79734553.135        -739.539          46.000  
R02  19800352.704   105658436.266       -2088.281          53.000    19800356.857    82178789.716       -1624.225          48.000  
R18  19582996.925   104535375.346       -1841.901          50.000    19583002.566    81305314.285       -1432.538          50.000  
R12  19905743.156   106332961.290       -1011.137          49.000    19905748.182    82703461.545        -786.515          48.000  
R01  22943722.725                1      -3163.099          27.000    22943741.109                       -2461.183          26.000  
G11  22456682.431   118010635.220        1820.469          33.000    22456686.988    91956483.483        1418.357          38.000  
S31  37598968.509   197583893.584        -793.669          44.000  
S33  38550301.433   202583169.168        -793.381          42.000  
E03  23514295.780   123568506.323         202.898          45.000    23514304.062    94682412.304         155.468          51.000  
R17  20797173.329   111289769.536       -4654.525          47.000    20797181.503    86558683.602       -3620.127          48.000  
R03  19479366.547   104274613.829         223.676          53.000    19479367.008    81102505.373         173.975          50.000  
R13  19880787.064   106162502.460        2131.659          43.000    19880793.970    82570813.843        1657.842          42.000  
R19  21228693.098                1       1313.045          27.000    21228707.659                1       1021.138          28.000  
E05  21267062.638   111759149.466       -1661.993          49.000    21267067.750    85633651.314       -1273.502          51.000  
E09  26146566.515   137401015.706       -2800.041          33.000    26146579.082   105281304.949       -2145.363          42.000  
E15  24196197.775   127151883.675         675.652          44.000    24196206.025    97428132.816         517.627          48.000  
G30  22581823.630   118668338.740        2922.925          43.000    22581835.858    92468919.253        2277.264          40.000  
E34  22758142.200   119594817.964       -2104.829          49.000    22758149.081    91637606.033       -1612.836          52.000  
E36  25350532.830   133217815.163       -3891.645          45.000    25350547.202   102075986.285       -2981.989          48.000  
E24  25934214.487   136285292.917         980.081          42.000    25934228.776   104426489.097         750.929          49.000  
E25  26635424.721   139970122.408        1743.618          38.000                                                                  
> 2024 04 16 15 48 00.4960000  0 26                     
G03  21037242.867   110551387.330       -2853.216          45.000    21037250.181    86143932.776       -2223.372          44.000  
G04  20655136.159   108543431.242       -2906.421          47.000    20655138.650    84579288.542       -2264.499          45.000  
G06  19892544.463   104536058.676        -290.213          48.000    19892548.180    81456700.354        -226.099          46.000  
G07  19917850.713   104669122.366        2124.729          49.000    19917851.268    81560415.773        1655.361          43.000  
G09  19477429.171   102354583.865        -956.750          50.000    19477430.453    79756832.322        -745.564          46.000  
R02  19812104.413   105721149.476       -2092.257          53.000    19812109.756    82227566.597       -1627.182          48.000  
R18  19593422.246   104591028.740       -1868.146          49.000    19593428.315    81348600.170       -1452.991          49.000  
R12  19911499.022   106363703.333       -1038.018          50.000    19911503.351    82727372.058        -807.232          49.000  
R01  22961484.793                3      -3165.569          16.000    22961495.742                3      -2456.556          23.000  
G11  22446327.618   117956220.741        1807.195          35.000    22446331.789    91914082.791        1408.208          38.000  
S31  37603501.483   197607715.484        -794.108          43.000  
S33  38554832.275   202606979.512        -793.584          42.000  
E03  23513151.066   123562495.610         198.171          44.000    23513159.972    94677806.764         151.885          50.000  
R17  20823294.612   111429545.782       -4663.662          49.000    20823302.674    86667398.104       -3627.347          49.000  
R03  19478125.402   104267974.494         219.300          52.000    19478126.118    81097341.506         170.575          51.000  
R13  19868861.639   106098822.740        2114.018          43.000    19868867.973    82521285.331        1644.399          42.000  
R19  21221382.238                3       1290.695          23.000    21221407.452                        1003.028          31.000  
E05  21276561.475   111809062.616       -1665.312          49.000    21276565.908    85671896.442       -1275.949          50.000  
E09  26162548.162   137485005.219       -2798.985          33.000    26162561.351   105345660.413       -2144.806          42.000  
G16  23772325.452   124924418.6631        -30.154          28.000                                                                  
E15  24192377.879   127131811.949         662.834          44.000    24192386.980    97412753.285         507.775          49.000  
G30  22565152.473   118580734.824        2917.645          42.000    22565165.626    92400656.868        2273.657          41.000  
E34  22770197.759   119658175.884       -2118.771          48.000    22770205.824    91686152.943       -1623.399          53.000  
E36  25372760.387   133334624.045       -3895.299          44.000    25372774.997   102165488.852       -2984.780          47.000  
E24  25928642.261   136256011.043         972.449          42.000    25928656.146   104404052.585         745.041          48.000  
E25  26625462.889   139917770.865        1746.797          39.000                                                                  
> 2024 04 16 15 48 30.4960000  0 25                     
G03  21053560.129   110637139.165       -2863.222          46.000    21053568.693    86210752.236       -2231.066          44.000  
G04  20671737.294   108630669.595       -2909.343          47.000    20671740.101    84647266.367       -2266.944          44.000  
G06  19894261.669   104545080.385        -310.873          48.000    19894265.555    81463730.246        -242.299          47.000  
G07  19905763.607   104605606.952        2110.058          49.000    19905765.432    81510923.361        1644.331          44.000  
G09  19482912.027   102383397.360        -963.986          50.000    19482913.576    79779284.412        -751.088          46.000  
R02  19823879.026   105783974.680       -2095.716          53.000    19823882.924    82276430.637       -1629.941          47.000  
R18  19603994.286   104647460.903       -1893.701          49.000    19603999.864    81392491.797       -1472.888          50.000  
R12  19917402.772   106395242.061       -1064.283          49.000    19917406.807    82751902.194        -827.609          48.000  
R01  22979255.653                1      -3164.707          27.000                                                                  
G11  22436046.725   117902199.086        1794.932          34.000    22436051.735    91871988.188        1398.017          38.000  
S31  37608035.648   197631542.818        -793.980          43.000  
S33  38559364.271   202630794.693        -793.464          42.000  
E03  23512033.297   123556620.448         193.978          45.000    23512041.537    94673305.105         148.531          50.000  
R17  20849464.850   111569586.188       -4672.075          47.000    20849473.040    86776318.008       -3633.801          49.000  
R03  19476909.006   104261460.527         215.398          53.000    19476908.844    81092275.160         167.534          50.000  
R13  19857033.673   106035662.512        2097.126          43.000    19857040.311    82472160.846        1631.105          43.000  
R19  21214233.145                3       1266.768          19.000    21214235.556    88263682.6121        985.173          33.000  
E05  21286075.950   111859063.717       -1667.834          49.000    21286080.785    85710208.951       -1277.851          50.000  
E09  26178520.906   137568954.789       -2797.274          32.000    26178537.128   105409985.188       -2143.276          43.000  
E15  24188631.089   127112121.143         650.351          44.000    24188639.529    97397665.631         498.348          49.000  
G30  22548510.264   118493284.115        2912.744          42.000    22548524.318    92332513.905        2269.629          42.000  
E34  22782333.231   119721940.436       -2131.855          49.000    22782339.618    91735011.399       -1633.386          52.000  
E36  25395007.908   133451533.407       -3898.351          44.000    25395022.666   102255068.386       -2987.024          47.000  
E24  25923113.505   136226955.791         965.119          43.000    25923126.960   104381789.649         739.460          49.000  
E25  26615481.698   139865323.999        1750.299          41.000    26615504.146   107169606.1991       1341.121          47.000  
> 2024 04 16 15 49 00.4960000  0 26                     
G03  21069933.298   110723174.307       -2872.591          47.000    21069940.952    86277792.438       -2238.455          44.000  
G04  20688352.402   108717984.927       -2911.821          47.000    20688354.853    84715304.247       -2268.973          44.000  
G06  19896095.772   104554713.608        -331.298          48.000    19896099.372    81471236.669        -258.009          48.000  
G07  19893758.734   104542521.027        2095.664          48.000    19893760.310    81461765.618        1632.834          44.000  
G09  19488433.385   102412412.212        -970.398          50.000    19488435.672    79801893.425        -756.183          47.000  
R02  19835669.542   105846892.412       -2098.844          53.000    19835673.232    82325366.621       -1632.504          46.000  
R18  19614707.989   104704649.589       -1918.896          50.000    19614712.660    81436971.796       -1492.438          49.000  
R12  19923452.416   106427557.478       -1090.066          48.000    19923456.437    82777036.425        -847.812          48.000  
R01  22997031.629                3      -3163.777          20.000                                                                  
G11  22425837.176   117848552.997        1781.947          34.000    22425843.991    91830186.190        1388.550          39.000  
S31  37612567.066   197655354.346        -793.239          45.000  
S33  38563893.288   202654595.089        -793.168          43.000  
E03  23510937.312   123550860.565         190.123          46.000    23510945.499    94668891.791         145.681          50.000  
R17  20875679.625   111709866.043       -4679.957          49.000    20875687.773    86885424.143       -3639.746          48.000  
R03  19475711.493   104255051.361         211.945          53.000    19475711.325    81087290.289         164.850          50.000  
R13  19845300.322   105973005.863        2080.115          43.000    19845306.052    82423428.056        1618.114          42.000  
R19  21207193.094                3       1245.214          24.000    21207194.751    88234390.638         967.786          35.000  
E05  21295602.489   111909132.404       -1670.083          48.000    21295608.722    85748573.258       -1279.639          51.000  
E09  26194486.339   137652844.459       -2794.851          35.000    26194501.186   105474264.079       -2141.755          43.000  
G16  23772803.974                1        -53.997          31.000                                                                  
E15  24184952.424   127092792.946         638.109          44.000    24184960.823    97382855.818         489.007          48.000  
G30  22531895.508   118405969.418        2908.356          43.000    22531908.144    92264476.859        2266.138          41.000  
E34  22794539.701   119786090.947       -2144.720          48.000    22794547.120    91784165.616       -1643.342          52.000  
E36  25417269.921   133568521.680       -3900.785          44.000    25417285.479   102344708.415       -2989.010          48.000  
E24  25917624.140   136198109.284         958.135          43.000    25917638.216   104359686.689         734.158          49.000  
E25  26605479.530   139812763.872        1753.938          41.000    26605502.470   107129333.229        1343.840          48.000  
> 2024 04 16 15 49 30.4960000  0 26                     
G03  21086359.205   110809491.592       -2882.231          45.000    21086365.567    86345052.479       -2245.825          43.000  
G04  20704982.290   108805375.064       -2914.643          47.000    20704984.367    84783400.375       -2270.995          43.000  
G06  19898045.004   104564957.666        -351.936          49.000    19898048.316    81479219.080        -274.319          48.000  
G07  19881835.276   104479865.588        2081.121          49.000    19881836.979    81412943.340        1621.241          43.000  
G09  19493992.142   102441626.388        -977.448          50.000    19493994.563    79824657.746        -761.523          47.000  
R02  19847477.193   105909901.619       -2102.096          52.000    19847481.325    82374373.732       -1634.937          47.000  
R18  19625562.476   104762591.611       -1944.226          50.000    19625567.564    81482037.724       -1512.231          49.000  
R12  19929648.249   106460648.592       -1116.322          50.000    19929651.912    82802773.930        -868.189          49.000  
R01  23014789.367                       -3166.116          27.000    23014775.462                3      -2461.704          20.000  
G11  22415701.622   117795283.803        1769.074          36.000    22415707.283    91788677.889        1378.282          38.000  
S31  37617095.602   197679150.780        -793.110          45.000  
S33  38568419.233   202678379.903        -792.880          43.000  
E03  23509863.835   123545214.263         186.107          47.000    23509871.207    94664565.495         142.577          50.000  
R17  20901938.857   111850379.629       -4687.873          49.000    20901946.956    86994712.099       -3646.033          47.000  
R03  19474533.427   104248745.578         208.142          52.000    19474533.406    81082385.881         161.932          50.000  
R13  19833660.888   105910855.775        2062.660          42.000    19833666.730    82375089.258        1604.443          43.000  
R19  21200285.043                3       1222.786          20.000    21200278.796    88205628.720         949.779          37.000  
E05  21305142.346   111959266.860       -1672.565          48.000    21305149.263    85786987.942       -1281.586          51.000  
E09  26210440.242   137736672.947       -2793.428          39.000    26210452.556   105538496.133       -2140.346          40.000  
G16  23773148.862   124928754.1141        -66.866          33.000                                                                  
E15  24181343.547   127073827.467         625.733          44.000    24181351.922    97368323.939         479.507          49.000  
G30  22515306.863   118318791.842        2903.430          43.000    22515317.416    92196546.648        2262.170          39.000  
E34  22806818.139   119850625.297       -2157.889          47.000    22806827.726    91833613.930       -1653.387          52.000  
E36  25439547.035   133685585.930       -3903.741          44.000    25439562.477   102434406.626       -2991.147          48.000  
E24  25912174.399   136169472.330         950.703          42.000    25912188.432   104337744.290         728.530          49.000  
E25  26595455.511   139760091.171        1757.258          41.000    26595478.700   107088973.989        1346.492          47.000  
> 2024 04 16 15 50 00.4960000  0 26                     
G03  21102839.501   110896096.358       -2891.639          46.000    21102845.807    86412536.579       -2253.089          42.000  
G04  20721627.555   108892844.587       -2917.002          48.000    20721628.949    84851558.410       -2273.200          43.000  
G06  19900110.557   104575818.735        -372.311          46.000    19900115.316    81487682.257        -290.180          48.000  
G07  19869995.858   104417649.208        2066.576          49.000    19869997.259    81364463.169        1610.151          43.000  
G09  19499590.365   102471044.659        -984.045          49.000    19499592.310    79847581.094        -766.779          47.000  
R02  19859303.923   105973008.274       -2105.226          53.000    19859308.257    82423456.615       -1637.444          48.000  
R18  19636559.285   104821290.089       -1969.195          50.000    19636563.588    81527692.031       -1531.726          49.000  
R12  19935988.086   106494521.130       -1142.127          49.000    19935992.931    82829119.308        -888.440          48.000  
R01  23032562.124                3      -3167.697          18.000                                                                  
G11  22405638.916   117742399.526        1756.434          38.000    22405642.857    91747469.520        1368.516          39.000  
S31  37621621.391   197702937.031        -792.683          44.000  
S33  38572943.659   202702154.981        -792.406          42.000  
E03  23508812.110   123539686.626         182.438          46.000    23508819.007    94660330.117         139.621          50.000  
R17  20928242.799   111991127.887       -4695.460          50.000    20928249.330    87104182.574       -3651.984          48.000  
R03  19473375.750   104242549.372         204.699          52.000    19473376.987    81077566.660         159.228          51.000  
R13  19822119.788   105849222.486        2045.748          43.000    19822125.378    82327152.423        1591.103          43.000  
R19  21193508.415                        1197.723          29.000    21193494.726    88177402.210         931.604          39.000  
E05  21314697.519   112009472.063       -1674.699          49.000    21314702.563    85825456.847       -1283.236          50.000  
E09  26226382.443   137820445.790       -2791.374          39.000    26226395.612   105602685.508       -2138.954          42.000  
G16  23773556.526   124930888.2121        -78.931          29.000                                                                  
E15  24177803.870   127055231.627         613.685          44.000    24177812.917    97354075.281         470.276          48.000  
G30  22498744.855   118231759.432        2898.431          42.000    22498755.551    92128729.544        2258.679          40.000  
E34  22819174.245   119915548.135       -2170.627          47.000    22819182.161    91883359.899       -1663.178          52.000  
E36  25461839.665   133802729.799       -3906.225          45.000    25461854.991   102524165.860       -2993.049          48.000  
E24  25906765.966   136141052.400         943.594          42.000    25906780.083   104315968.207         723.102          49.000  
E25  26585413.265   139707313.368        1760.910          42.000    26585435.484   107048534.193        1349.341          46.000  
> 2024 04 16 15 50 30.4960000  0 26                     
G03  21119375.861   110982998.114       -2901.678          46.000    21119382.239    86480252.096       -2261.089          42.000  
G04  20738290.216   108980401.946       -2919.834          48.000    20738290.416    84919784.780       -2275.230          42.000  
G06  19902296.716   104587306.732        -393.337          48.000    19902301.417    81496633.961        -306.375          48.000  
G07  19858241.897   104355883.796        2051.255          49.000    19858242.965    81316334.375        1598.272          43.000  
G09  19505228.824   102500675.618        -991.321          49.000    19505230.180    79870670.165        -772.473          47.000  
R02  19871149.321   106036222.031       -2108.874          53.000    19871154.081    82472622.799       -1640.203          47.000  
R18  19647698.510   104880752.484       -1994.726          50.000    19647702.392    81573940.465       -1551.532          49.000  
R12  19942474.261   106529184.912       -1168.729          46.000    19942480.478    82856080.056        -908.982          47.000  
R01  23050330.103                3      -3162.575          21.000    23050295.706                3      -2470.147          20.000  
G11  22395649.547   117689912.081        1742.760          36.000    22395655.534    91706570.377        1358.235          39.000  
S31  37626147.560   197726722.042        -792.659          44.000  
S33  38577467.769   202725928.453        -792.157          42.000  
E03  23507783.455   123534286.499         177.968          46.000    23507791.297    94656192.428         136.375          50.000  
R17  20954590.041   112132115.811       -4703.535          49.000    20954596.150    87213839.449       -3658.211          47.000  
R03  19472240.569   104236472.095         200.654          52.000    19472241.408    81072839.959         156.000          50.000  
R13  19810676.410   105788119.351        2027.698          41.000    19810682.476    82279627.933        1577.070          43.000  
R19  21186852.934                1       1174.609          32.000    21186842.539    88149721.171         913.465          41.000  
E05  21324266.720   112059756.732       -1677.373          49.000    21324271.457    85863986.641       -1285.230          50.000  
E09  26242313.088   137904172.291       -2790.218          37.000    26242328.067   105666839.399       -2138.089          42.000  
G16  23774051.591   124933453.965         -91.634          33.000                                                                  
E15  24174338.999   127037016.204         600.918          45.000    24174346.651    97340118.102         460.380          48.000  
G30  22482212.681   118144884.039        2893.164          42.000    22482223.686    92061034.849        2254.382          40.000  
E34  22831604.033   119980867.857       -2183.970          48.000    22831612.012    91933410.007       -1673.351          52.000  
E36  25484146.447   133919960.980       -3909.104          42.000    25484163.893   102613991.989       -2995.288          48.000  
E24  25901401.095   136112860.787         936.103          43.000    25901414.943   104294367.113         717.099          49.000  
E25  26575350.556   139654441.762        1763.869          41.000    26575373.512   107008022.520        1351.676          46.000  
> 2024 04 16 15 51 00.4960000  0 26                     
G03  21135969.027   111070194.525       -2911.372          46.000    21135975.482    86548197.220       -2268.599          43.000  
G04  20754968.142   109068044.061       -2922.927          48.000    20754969.361    84988077.242       -2277.413          44.000  
G06  19904601.979   104599420.024        -414.206          47.000    19904606.183    81506072.895        -322.767          48.000  
G07  19846574.740   104294569.392        2036.234          49.000    19846575.510    81268557.043        1586.641          43.000  
G09  19510907.228   102530516.282        -998.083          49.000    19510908.561    79893922.642        -777.631          46.000  
R02  19883015.589   106099541.333       -2112.457          52.000    19883020.181    82521871.079       -1642.952          46.000  
R18  19658980.679   104940974.174       -2020.093          51.000    19658985.459    81620779.451       -1571.161          49.000  
R12  19949113.401   106564637.497       -1194.983          49.000    19949118.709    82883654.339        -929.347          49.000  
R01  23068125.140                3      -3154.797          16.000    23068119.997                1      -2465.746          24.000  
G11  22385737.619   117637821.674        1729.581          36.000    22385743.115    91665980.647        1347.999          40.000  
S31  37630672.959   197750505.139        -792.814          43.000  
S33  38581991.328   202749699.259        -792.361          43.000  
E03  23506779.942   123529011.249         173.891          45.000    23506787.268    94652150.422         133.172          50.000  
R17  20980979.630   112273336.727       -4711.253          47.000    20980986.152    87323677.551       -3664.407          46.000  
R03  19471127.490   104230511.354         196.642          52.000    19471127.130    81068203.893         152.966          50.000  
R13  19799333.289   105727548.776        2010.014          42.000    19799339.476    82232517.625        1563.186          42.000  
R19  21180323.023   113300505.8221       1151.186          33.000    21180319.826    88122585.179         895.452          42.000  
E05  21333850.249   112110118.126       -1680.029          49.000    21333854.911    85902575.242       -1287.320          50.000  
E09  26258237.909   137987850.283       -2788.594          39.000    26258252.511   105730956.094       -2136.715          43.000  
G16  23774609.318                        -104.729          28.000                                                                  
E15  24170943.439   127019180.336         588.126          45.000    24170952.629    97326451.735         450.587          49.000  
G30  22465709.513   118058165.916        2887.896          42.000    22465721.185    91993462.684        2250.125          40.000  
E34  22844109.812   120046581.375       -2197.132          48.000    22844117.043    91983761.854       -1683.389          52.000  
E36  25506470.225   134037275.512       -3911.744          42.000    25506488.392   102703882.003       -2997.417          48.000  
E24  25896079.718   136084897.464         928.226          41.000    25896093.257   104272940.855         711.308          48.000  
E25  26565272.311   139601476.071        1767.055          43.000    26565293.841   106967438.816        1353.973          46.000  
> 2024 04 16 15 51 30.4960000  0 26                     
G03  21152618.662   111157686.964       -2921.445          45.000    21152625.077    86616372.976       -2276.224          43.000  
G04  20771661.322   109155771.401       -2925.659          47.000    20771663.603    85056436.146       -2279.974          44.000  
G06  19907025.797   104612160.536        -435.315          47.000    19907030.603    81516000.560        -339.205          48.000  
G07  19834993.287   104233710.217        2020.986          49.000    19834994.095    81221134.406        1574.704          43.000  
G09  19516626.121   102560567.329       -1005.298          50.000    19516627.664    79917339.060        -783.362          47.000  
R02  19894901.194   106162967.935       -2116.061          52.000    19894906.141    82571202.819       -1645.768          47.000  
R18  19670403.958   105001954.450       -2045.343          50.000    19670409.022    81668208.482       -1590.827          49.000  
R12  19955897.007   106600880.410       -1221.300          50.000    19955903.585    82911843.245        -950.007          49.000  
R01  23085915.645                3      -3178.291          19.000    23085921.550                3      -2468.606          22.000  
G11  22375902.592   117586132.506        1716.172          38.000    22375906.705    91625703.535        1337.335          39.000  
S31  37635198.465   197774286.424        -792.510          44.000  
S33  38586514.848   202773469.008        -792.355          42.000  
E03  23505799.989   123523861.822         169.568          45.000    23505807.125    94648204.853         129.979          49.000  
R17  21007413.761   112414787.472       -4718.888          47.000    21007420.523    87433694.370       -3670.243          47.000  
R03  19470034.960   104224669.130         192.736          51.000    19470035.405    81063659.997         149.896          50.000  
R13  19788091.071   105667516.349        1991.978          42.000    19788096.859    82185825.871        1549.391          41.000  
R19  21173926.472   113266322.346        1127.598          32.000    21173929.309    88095998.145         877.006          42.000  
E05  21343448.362   112160557.120       -1682.622          49.000    21343453.220    85941223.277       -1289.333          51.000  
E09  26274153.729   138071481.216       -2786.976          40.000    26274166.505   105795036.725       -2135.340          42.000  
G16  23775241.972   124939734.3961       -117.669          32.000                                                                  
E15  24167621.751   127001726.850         575.249          44.000    24167631.352    97313078.352         440.789          49.000  
G30  22449238.696   117971608.992        2882.519          43.000    22449249.461    91926016.065        2246.155          39.000  
E34  22856689.774   120112689.209       -2210.254          48.000    22856697.067    92034415.829       -1693.506          52.000  
E36  25528811.574   134154673.094       -3914.522          43.000    25528828.994   102793835.607       -2999.480          48.000  
E24  25890800.705   136057165.628         920.419          41.000    25890816.099   104251692.022         705.343          48.000  
E25  26555175.519   139548419.648        1770.023          43.000    26555197.314   106926785.541        1356.047          45.000  
> 2024 04 16 15 52 00.4960000  0 26                     
G03  21169321.087   111245460.430       -2930.792          45.000    21169329.430    86684767.720       -2283.490          44.000  
G04  20788368.929   109243568.201       -2927.720          47.000    20788370.914    85124849.135       -2281.503          44.000  
G06  19909566.968   104625513.856        -455.352          46.000    19909571.441    81526405.746        -354.910          47.000  
G07  19823496.245   104173294.011        2006.454          49.000    19823497.735    81174056.953        1563.429          44.000  
G09  19522381.610   102590813.067       -1011.511          50.000    19522384.361    79940907.197        -788.196          47.000  
R02  19906805.115   106226486.710       -2118.925          52.000    19906809.795    82620606.241       -1648.073          47.000  
R18  19681966.592   105063675.565       -2069.818          50.000    19681972.148    81716213.699       -1609.882          49.000  
R12  19962827.859   106637898.593       -1246.911          51.000    19962832.443    82940635.196        -969.882          48.000  
R01  23103683.670                1      -3169.974          28.000    23103707.493                3      -2455.969          21.000  
G11  22366140.508   117534832.015        1703.386          38.000    22366143.736    91585729.256        1327.051          38.000  
S31  37639721.115   197798050.796        -791.935          44.000  
S33  38591034.992   202797222.759        -791.717          42.000  
E03  23504841.365   123518822.855         166.106          46.000    23504848.199    94644343.889         127.288          49.000  
R17  21033886.873   112556448.279       -4725.611          48.000    21033893.226    87543874.582       -3675.474          46.000  
R03  19468962.883   104218930.152         189.524          51.000    19468962.930    81059196.414         147.423          49.000  
R13  19776946.515   105608010.991        1974.402          41.000    19776952.737    82139544.045        1535.895          41.000  
R19  21167664.555   113232831.184        1104.546          34.000    21167667.881    88069949.544         859.113          43.000  
E05  21353057.381   112211058.165       -1684.416          48.000    21353063.515    85979918.867       -1290.677          51.000  
E09  26290053.083   138155050.064       -2784.615          38.000    26290068.677   105859069.795       -2133.678          42.000  
G16  23775944.112   124943427.6672       -130.108          31.000                                                                  
E15  24164370.980   126984642.155         563.432          45.000    24164380.705    97299987.557         431.607          50.000  
G30  22432795.623   117885200.815        2877.788          42.000    22432805.349    91858685.358        2242.425          38.000  
E34  22869342.108   120179175.454       -2222.535          49.000    22869348.779    92085359.745       -1702.961          51.000  
E36  25551163.960   134272136.969       -3916.701          43.000    25551182.232   102883840.036       -3001.115          49.000  
E24  25885567.096   136029652.379         913.509          43.000    25885580.034   104230610.696         699.853          47.000  
E25  26545058.063   139495259.555        1773.718          41.000    26545081.149   106886052.812        1358.949          45.000  
> 2024 04 16 15 52 30.4960000  0 26                     
G03  21186078.813   111333519.924       -2940.256          47.000    21186086.752    86753385.361       -2291.136          44.000  
G04  20805089.658   109331438.628       -2930.337          46.000    20805092.405    85193319.495       -2283.507          45.000  
G06  19912226.048   104639485.477        -476.118          47.000    19912230.442    81537292.717        -370.888          47.000  
G07  19812085.055   104113328.028        1991.312          49.000    19812086.773    81127330.344        1551.714          44.000  
G09  19528174.957   102621257.827       -1018.103          50.000    19528177.605    79964630.389        -793.317          47.000  
R02  19918728.252   106290103.659       -2122.195          53.000    19918731.112    82670086.000       -1650.601          46.000  
R18  19693668.490   105126140.466       -2094.574          52.000    19693674.247    81764797.406       -1629.095          49.000  
R12  19969902.990   106675696.958       -1273.054          50.000    19969908.289    82970033.980        -990.195          48.000  
R01  23121486.241                       -3171.005          28.000    23121504.716                       -2465.814          27.000  
G11  22356451.974   117483927.645        1690.209          37.000    22356456.367    91546063.717        1316.460          38.000  
S31  37644241.586   197821805.025        -791.517          44.000  
S33  38595552.774   202820965.313        -791.179          42.000  
E03  23503904.406   123513898.880         162.308          46.000    23503911.209    94640571.037         124.317          49.000  
R17  21060397.643   112698319.684       -4732.719          46.000    21060404.617    87654218.591       -3680.975          46.000  
R03  19467910.765   104213299.365         185.833          51.000    19467911.078    81054816.981         144.518          50.000  
R13  19765904.730   105549042.361        1956.598          44.000    19765910.394    82093679.742        1521.704          42.000  
R19  21161534.559   113200040.796        1081.759          34.000    21161537.932    88044446.058         840.998          43.000  
E05  21362679.850   112261625.824       -1686.768          48.000    21362686.114    86018665.473       -1292.454          51.000  
E09  26305945.735   138238562.024       -2783.029          38.000    26305960.662   105923059.234       -2132.365          42.000  
G16  23776722.192   124947495.997        -141.805          36.000                                                                  
E15  24161191.533   126967932.734         550.627          45.000    24161200.806    97287184.277         422.012          50.000  
G30  22416381.853   117798948.970        2872.492          42.000    22416392.702    91791476.493        2238.367          37.000  
E34  22882066.480   120246044.257       -2235.347          49.000    22882073.638    92136596.791       -1712.827          51.000  
E36  25573529.778   134389670.474       -3918.925          42.000    25573548.146   102973897.810       -3002.839          48.000  
E24  25880374.856   136002364.788         905.709          44.000    25880386.388   104209702.229         694.007          46.000  
E25  26534923.517   139442002.790        1776.796          42.000    26534946.579   106845245.987        1361.404          46.000  
> 2024 04 16 15 53 00.4960000  0 26                     
G03  21202891.461   111421870.276       -2949.966          46.000    21202899.606    86822229.610       -2298.653          44.000  
G04  20821825.543   109419386.704       -2932.921          46.000    20821829.361    85261850.372       -2285.348          44.000  
G06  19915004.050   104654080.724        -496.914          47.000    19915007.468    81548665.641        -387.248          47.000  
G07  19800761.295   104053819.679        1975.866          49.000    19800762.278    81080960.313        1539.611          43.000  
G09  19534007.011   102651905.738       -1024.957          50.000    19534009.560    79988511.891        -798.792          47.000  
R02  19930668.457   106353823.885       -2125.765          52.000    19930672.881    82719646.082       -1653.312          48.000  
R18  19705510.501   105189351.626       -2119.458          52.000    19705515.696    81813961.570       -1648.468          49.000  
R12  19977127.022   106714280.485       -1299.265          52.000    19977131.556    83000043.429       -1010.615          48.000  
R01  23139304.309                3      -3195.309          14.000    23139294.500                3      -2468.159          18.000  
G11  22346841.689   117433426.938        1676.628          38.000    22346846.240    91506712.642        1306.221          39.000  
S31  37648760.482   197845552.671        -791.402          44.000  
S33  38600070.074   202844701.868        -791.322          43.000  
E03  23502990.255   123509094.376         158.272          46.000    23502997.072    94636889.730         121.177          50.000  
R17  21086950.354   112840402.006       -4739.552          47.000    21086956.421    87764726.632       -3686.486          45.000  
R03  19466881.256   104207782.258         182.023          52.000    19466881.179    81050525.956         141.594          50.000  
R13  19754963.867   105490619.604        1938.196          42.000    19754969.555    82048239.992        1507.343          43.000  
R19  21155535.843   113167957.936        1057.393          36.000    21155540.562    88019492.799         822.773          44.000  
E05  21372316.290   112312264.409       -1688.988          48.000    21372322.531    86057466.421       -1294.304          51.000  
E09  26321828.146   138322021.824       -2781.183          40.000    26321842.874   105987008.744       -2131.069          42.000  
G16  23777567.241   124951945.397        -154.489          34.000                                                                  
E15  24158084.947   126951604.746         537.878          46.000    24158093.782    97274673.286         412.136          50.000  
G30  22399999.393   117712860.762        2866.782          40.000    22400010.147    91724395.152        2233.872          37.000  
E34  22894865.247   120313299.510       -2248.318          48.000    22894871.912    92188129.952       -1722.660          51.000  
E36  25595910.421   134507276.759       -3921.332          43.000    25595928.060   103064011.344       -3004.797          48.000  
E24  25875225.847   135975309.664         897.851          45.000    25875238.075   104188971.919         688.036          45.000  
E25  26524773.221   139388656.201        1779.606          43.000    26524794.116   106804370.333        1363.697          45.000  
> 2024 04 16 15 53 30.4960000  0 26                     
G03  21219759.417   111510510.267       -2959.258          47.000    21219766.761    86891299.553       -2305.675          44.000  
G04  20838575.945   109507410.410       -2934.846          46.000    20838578.455    85330440.189       -2286.899          43.000  
G06  19917899.705   104669298.864        -517.392          46.000    19917903.159    81560523.935        -403.272          47.000  
G07  19789523.899   103994770.637        1961.116          49.000    19789525.799    81034948.177        1528.331          44.000  
G09  19539877.256   102682754.924       -1031.305          49.000    19539879.568    80012550.207        -803.589          46.000  
R02  19942629.229   106417646.751       -2128.678          53.000    19942633.963    82769286.004       -1655.769          48.000  
R18  19717490.040   105253305.393       -2143.701          51.000    19717496.798    81863703.325       -1667.285          49.000  
R12  19984497.665   106753647.796       -1324.896          52.000    19984500.221    83030662.495       -1030.509          47.000  
R01  23157050.221                3      -3176.089          22.000    23157095.791                3      -2470.586          14.000  
G11  22337310.266   117383331.150        1663.186          38.000    22337313.613    91467677.157        1296.001          39.000  
S31  37653277.815   197869293.176        -790.829          44.000  
S33  38604585.872   202868431.199        -790.490          43.000  
E03  23502098.633   123504407.707         154.661          46.000    23502104.896    94633298.695         118.536          50.000  
R17  21113541.110   112982689.867       -4745.928          48.000    21113547.576    87875394.514       -3691.288          45.000  
R03  19465871.628   104202377.730         178.811          51.000    19465871.365    81046322.483         138.952          50.000  
R13  19744126.233   105432745.603        1920.368          42.000    19744132.462    82003227.071        1493.475          44.000  
R19  21149668.913   113136584.325        1034.520          36.000    21149674.706    87995091.268         804.432          43.000  
E05  21381965.941   112362972.232       -1691.181          48.000    21381972.069    86096320.416       -1295.733          51.000  
E09  26337700.672   138405428.468       -2778.759          40.000    26337714.564   106050917.496       -2129.233          42.000  
G16  23778485.395   124956776.682        -166.457          31.000                                                                  
E15  24155050.205   126935658.452         525.415          45.000    24155059.297    97262454.738         402.681          50.000  
G30  22383648.349   117626937.513        2861.689          39.000    22383659.168    91657442.327        2229.969          38.000  
E34  22907736.349   120380939.095       -2260.656          48.000    22907743.233    92239957.595       -1732.206          51.000  
E36  25618303.912   134624952.912       -3923.491          43.000    25618321.400   103154178.405       -3006.188          47.000  
E24  25870121.400   135948487.881         890.427          45.000    25870133.634   104168420.391         682.437          45.000  
E25  26514604.839   139335220.588        1783.129          44.000    26514625.328   106763426.483        1366.179          45.000  
> 2024 04 16 15 54 00.4960000  0 26                     
G03  21236682.230   111599438.374       -2969.321          47.000    21236689.987    86960594.002       -2313.712          45.000  
G04  20855340.285   109595507.514       -2937.922          45.000    20855343.683    85399087.181       -2289.437          44.000  
G06  19920913.833   104685138.918        -538.526          47.000    19920917.811    81572866.820        -419.606          47.000  
G07  19778374.597   103936181.818        1945.050          49.000    19778377.179    80989294.676        1515.723          44.000  
G09  19545785.976   102713803.272       -1038.397          50.000    19545787.042    80036743.721        -809.174          46.000  
R02  19954607.723   106481571.111       -2132.724          52.000    19954611.634    82819004.875       -1658.780          46.000  
R18  19729609.191   105317997.842       -2168.847          50.000    19729614.724    81914019.590       -1687.048          48.000  
R12  19992012.703   106793797.204       -1351.589          50.000    19992016.321    83061889.821       -1051.209          47.000  
R01  23174868.317                3      -3189.421          13.000    23174860.220                3      -2465.840          18.000  
G11  22327854.538   117333641.341        1649.296          38.000    22327857.400    91428958.024        1285.159          39.000  
S31  37657793.981   197893025.826        -791.161          44.000  
S33  38609099.403   202892153.016        -790.802          42.000  
E03  23501228.785   123499837.021         150.387          46.000    23501235.578    94629796.544         115.199          50.000  
R17  21140168.085   113125176.997       -4753.011          47.000    21140175.599    87986217.368       -3696.869          46.000  
R03  19464881.756   104197084.468         174.387          51.000    19464881.553    81042205.564         135.667          49.000  
R13  19733391.601   105375423.135        1901.087          43.000    19733396.860    81958643.078        1478.705          44.000  
R19  21143936.315   113105920.636        1009.669          39.000    21143943.117    87971241.799         785.736          44.000  
E05  21391628.816   112413747.353       -1693.766          48.000    21391634.419    86135225.992       -1297.741          51.000  
E09  26353562.427   138488780.563       -2777.703          41.000    26353576.248   106114784.468       -2128.381          43.000  
G16  23779477.328   124961990.174        -180.398          31.000                                                                  
E15  24152088.471   126920093.703         512.252          46.000    24152097.501    97250528.563         392.619          51.000  
G30  22367329.507   117541180.326        2855.631          39.000    22367339.659    91590618.895        2225.552          38.000  
E34  22920680.066   120448960.622       -2273.866          48.000    22920687.340    92292077.901       -1742.349          51.000  
E36  25640709.609   134742695.756       -3925.794          44.000    25640727.422   103244396.596       -3008.156          47.000  
E24  25865060.096   135921899.886         882.248          43.000    25865074.393   104148048.041         675.951          45.000  
E25  26504419.172   139281696.619        1785.393          44.000    26504439.546   106722414.909        1368.067          46.000  
> 2024 04 16 15 54 30.4960000  0 27                     
G03  21253662.171   111688671.151       -2979.120          45.000    21253670.599    87030125.851       -2321.467          44.000  
G04  20872121.792   109683693.793       -2940.776          46.000    20872123.689    85467803.658       -2291.474          44.000  
G06  19924049.907   104701617.811        -559.788          47.000    19924053.304    81585707.514        -436.262          47.000  
G07  19767317.133   103878072.288        1929.169          50.000    19767318.424    80944014.601        1503.247          44.000  
G09  19551735.373   102745066.639       -1045.593          50.000    19551736.703    80061104.775        -814.490          46.000  
R02  19966609.156   106545614.253       -2136.589          51.000    19966613.776    82868816.119       -1661.825          48.000  
R18  19741869.068   105383443.313       -2193.781          50.000    19741874.208    81964921.527       -1706.366          46.000  
R12  19999676.699   106834745.427       -1378.094          49.000    19999682.026    83093738.453       -1071.864          47.000  
R04  22332591.548                3       1665.654          10.000                                                                  
R01  23192699.736                3      -3174.528          20.000    23192721.549                3      -2462.940          19.000  
G11  22318479.639   117284376.684        1634.709          37.000    22318482.426    91390570.135        1274.082          40.000  
S31  37662311.473   197916766.599        -791.244          43.000  
S33  38613614.859   202915882.292        -790.990          43.000  
E03  23500384.018   123495398.494         146.149          47.000    23500390.864    94626395.655         111.913          51.000  
R17  21166835.593   113267875.963       -4759.872          48.000    21166841.449    88097204.975       -3701.994          44.000  
R03  19463916.584   104191919.589         170.306          51.000    19463916.648    81038188.471         132.513          49.000  
R13  19722763.773   105318673.306        1882.404          42.000    19722769.077    81914504.485        1463.812          43.000  
R19  21138343.117   113075986.142         985.645          39.000    21138348.218    87947959.555         766.856          44.000  
E05  21401306.458   112464605.860       -1696.374          48.000    21401312.558    86174195.468       -1299.759          51.000  
E09  26369415.939   138572094.725       -2776.270          39.000    26369430.869   106178622.361       -2127.317          44.000  
G16  23780544.372   124967603.970        -194.064          32.000                                                                  
E15  24149203.010   126904928.473         499.061          46.000    24149211.728    97238908.540         382.412          51.000  
G30  22351046.310   117455608.275        2849.553          39.000    22351055.382    91523939.744        2220.457          38.000  
E34  22933699.174   120517379.695       -2287.066          47.000    22933706.981    92344502.832       -1752.347          50.000  
E36  25663131.250   134860520.200       -3928.595          43.000    25663148.989   103334677.288       -3010.058          47.000  
E24  25860049.755   135895564.315         873.789          44.000    25860063.544   104127869.123         669.557          47.000  
E25  26494219.096   139228102.816        1787.844          43.000    26494240.629   106681349.839        1369.923          46.000  
> 2024 04 16 15 55 00.4960000  0 25                     
G03  21270700.562   111778203.238       -2989.336          45.000    21270707.210    87099890.920       -2329.369          44.000  
G04  20888918.891   109771963.161       -2943.332          46.000    20888922.256    85536584.874       -2293.616          45.000  
G06  19927306.518   104718730.580        -580.772          48.000    19927310.055    81599042.134        -452.625          47.000  
G07  19756350.020   103820439.218        1913.458          49.000    19756351.217    80899105.823        1490.869          44.000  
G09  19557724.263   102776538.998       -1052.307          49.000    19557725.478    80085628.700        -820.050          46.000  
R02  19978632.379   106609771.256       -2140.138          52.000    19978638.220    82918715.907       -1664.622          50.000  
R18  19754268.593   105449633.931       -2218.542          50.000    19754274.240    82016403.048       -1725.464          47.000  
R12  20007491.260   106876486.742       -1404.275          50.000    20007496.718    83126203.946       -1092.144          47.000  
G11  22309183.570   117235534.147        1621.232          36.000    22309187.879    91352511.238        1263.323          39.000  
S31  37666830.281   197940510.851        -791.384          44.000  
S33  38618131.378   202939615.292        -790.763          43.000  
E03  23499562.889   123491086.364         142.079          47.000    23499570.385    94623091.621         108.721          51.000  
R17  21193539.835   113410776.943       -4766.405          49.000    21193546.489    88208349.699       -3707.188          45.000  
R03  19462974.575   104186877.508         166.333          51.000    19462975.976    81034266.916         129.339          50.000  
R13  19712242.560   105262494.818        1863.355          42.000    19712248.911    81870810.300        1449.084          43.000  
R19  21132883.834   113046777.950         961.850          39.000    21132886.519    87925242.198         748.019          44.000  
E05  21410999.155   112515541.948       -1698.867          48.000    21411005.382    86213224.387       -1301.680          51.000  
E09  26385262.491   138655365.683       -2774.571          40.000    26385277.304   106242427.170       -2126.024          45.000  
G16  23781691.322   124973614.252        -207.089          36.000                                                                  
E15  24146392.496   126890158.829         485.961          46.000    24146401.077    97227591.605         372.449          51.000  
G30  22334797.449   117370218.562        2843.721          41.000    22334806.395    91457402.679        2215.616          38.000  
E34  22946793.372   120586190.021       -2299.816          48.000    22946801.573    92397227.559       -1762.190          51.000  
E36  25685566.278   134978419.148       -3930.893          43.000    25685584.441   103425015.062       -3011.946          46.000  
E24  25855085.676   135869477.865         865.529          44.000    25855098.861   104107881.064         663.143          46.000  
E25  26484006.487   139174435.893        1790.459          43.000    26484027.818   106640228.762        1371.912          46.000  
> 2024 04 16 15 55 30.4960000  0 26                     
G03  21287793.295   111868026.076       -2998.947          46.000    21287799.623    87169882.616       -2337.037          43.000  
G04  20905730.491   109860306.433       -2946.032          46.000    20905733.572    85605423.659       -2295.635          45.000  
G06  19930681.483   104736469.277        -601.739          47.000    19930685.076    81612864.466        -468.913          47.000  
G07  19745472.137   103763276.765        1897.626          49.000    19745473.408    80854563.762        1478.656          44.000  
G09  19563751.340   102808211.354       -1059.131          50.000    19563753.156    80110308.446        -825.433          47.000  
R02  19990675.724   106674034.385       -2143.784          52.000    19990679.698    82968698.251       -1667.449          49.000  
R18  19766806.596   105516558.549       -2243.042          50.000    19766812.097    82068455.449       -1744.598          48.000  
R12  20015453.037   106919012.581       -1430.557          51.000    20015456.449    83159279.649       -1112.692          46.000  
G11  22299967.966   117187108.056        1607.065          37.000    22299973.222    91314776.845        1252.441          41.000  
S31  37671348.128   197964249.857        -791.150          44.000  
S33  38622646.548   202963343.585        -790.874          42.000  
E03  23498764.690   123486891.938         138.012          47.000    23498772.317    94619877.761         105.693          51.000  
R17  21220280.474   113553866.832       -4772.762          49.000    21220287.615    88319641.382       -3712.115          46.000  
R03  19462054.943   104181950.703         162.273          51.000    19462055.948    81030435.027         126.158          50.000  
R13  19701828.479   105206883.484        1844.190          42.000    19701833.365    81827557.191        1434.509          43.000  
R19  21127558.330   113018290.175         937.654          39.000    21127561.004    87903085.185         729.193          43.000  
E05  21420705.107   112566546.784       -1701.170          49.000    21420711.352    86252305.972       -1303.604          51.000  
E09  26401097.324   138738585.334       -2773.203          38.000    26401113.346   106306192.623       -2124.926          44.000  
G16  23782908.955   124980014.859        -219.957          36.000                                                                  
E15  24143655.593   126875777.717         472.707          45.000    24143664.124    97216572.392         362.379          51.000  
G30  22318581.026   117285005.375        2837.401          40.000    22318589.607    91391003.108        2210.673          36.000  
E34  22959960.442   120655382.302       -2312.741          48.000    22959968.935    92450244.964       -1772.121          51.000  
E36  25708014.954   135096382.617       -3933.076          44.000    25708032.036   103515402.275       -3013.772          45.000  
E24  25850166.914   135843634.118         857.296          43.000    25850180.274   104088078.946         657.038          46.000  
E25  26473778.683   139120689.561        1793.117          43.000    26473799.980   106599046.836        1373.724          46.000  
R01                                                                  23228351.552                3      -2480.128          17.000  
> 2024 04 16 15 56 00.4960000  0 25                     
G03  21304940.803   111958141.925       -3008.765          45.000    21304948.695    87240102.572       -2344.632          44.000  
G04  20922555.822   109948725.170       -2948.649          46.000    20922559.226    85674321.245       -2297.685          45.000  
G06  19934175.963   104754836.427        -622.760          47.000    19934180.379    81627176.506        -485.261          47.000  
G07  19734685.161   103706589.887        1881.482          49.000    19734686.243    80810392.262        1466.113          44.000  
G09  19569816.747   102840085.288       -1066.022          50.000    19569818.857    80135145.240        -830.554          47.000  
R02  20002738.543   106738405.952       -2147.743          52.000    20002743.274    83018764.941       -1670.471          49.000  
R18  19779481.828   105584216.825       -2267.645          51.000    19779487.274    82121078.497       -1763.654          48.000  
R12  20023560.487   106962324.694       -1457.029          50.000    20023565.246    83192966.857       -1133.267          47.000  
G11  22290833.122   117139103.079        1593.108          39.000    22290837.775    91277370.569        1241.283          41.000  
S31  37675864.851   197987985.815        -791.484          44.000  
S33  38627161.216   202987068.064        -791.059          42.000  
E03  23497988.796   123482817.014         133.825          47.000    23497996.889    94616755.474         102.481          51.000  
R17  21247054.616   113697143.441       -4778.997          47.000    21247062.832    88431078.311       -3717.116          45.000  
R03  19461156.550   104177141.117         158.177          51.000    19461157.086    81026694.334         123.089          50.000  
R13  19691522.202   105151845.762        1824.896          43.000    19691527.373    81784750.245        1419.482          44.000  
R19  21122366.825   112990526.688         912.686          38.000    21122369.172    87881491.550         710.157          42.000  
E05  21430424.480   112617622.181       -1703.813          48.000    21430430.690    86291441.609       -1305.453          51.000  
E09  26416925.468   138821755.909       -2771.508          40.000    26416940.422   106369920.503       -2123.726          44.000  
G16  23784201.842   124986808.974        -233.290          36.000                                                                  
E15  24140993.304   126861788.738         459.496          45.000    24141001.967    97205853.662         352.152          50.000  
G30  22302398.958   117199973.438        2831.139          40.000    22302408.216    91324744.802        2205.966          35.000  
E34  22973200.410   120724957.818       -2325.716          48.000    22973208.929    92503555.989       -1782.036          51.000  
E36  25730475.749   135214411.133       -3935.632          44.000    25730492.437   103605839.324       -3015.555          45.000  
E24  25845295.069   135818037.344         848.896          42.000    25845308.806   104068466.104         650.466          45.000  
E25  26463536.349   139066868.082        1795.254          43.000    26463557.381   106557807.305        1375.426          46.000  
> 2024 04 16 15 56 30.4960000  0 25                     
G03  21322145.775   112048554.272       -3018.764          46.000    21322153.656    87310553.565       -2352.294          44.000  
G04  20939396.589   110037222.195       -2951.384          46.000    20939399.239    85743279.829       -2299.869          45.000  
G06  19937791.968   104773835.916        -643.991          47.000    19937795.511    81641981.287        -502.032          47.000  
G07  19723989.706   103650384.254        1865.314          49.000    19723990.837    80766595.765        1453.516          44.000  
G09  19575921.236   102872163.722       -1072.900          50.000    19575923.260    80160141.400        -836.096          47.000  
R02  20014824.108   106802890.612       -2151.614          53.000    20014828.872    83068919.543       -1673.444          50.000  
R18  19792294.015   105652609.948       -2292.156          50.000    19792300.833    82174273.026       -1782.782          48.000  
R12  20031816.920   107006426.583       -1483.431          51.000    20031821.602    83227268.325       -1153.656          47.000  
G11  22281780.246   117091525.290        1578.666          40.000    22281783.987    91240297.149        1230.205          41.000  
S31  37680381.985   198011723.174        -791.404          44.000  
S33  38631676.260   203010794.595        -790.959          43.000  
E03  23497236.995   123478864.773         129.635          46.000    23497244.349    94613727.179          99.285          51.000  
R17  21273864.554   113840606.106       -4785.246          45.000    21273872.721    88542659.953       -3721.938          44.000  
R03  19460281.403   104172452.754         154.080          51.000    19460280.501    81023047.877         119.877          49.000  
R13  19681323.899   105097389.434        1805.243          42.000    19681329.505    81742395.505        1404.004          43.000  
R19  21117313.441   112963493.843         888.383          38.000    21117316.753    87860466.170         691.297          44.000  
E05  21440157.919   112668771.239       -1706.288          48.000    21440164.084    86330633.689       -1307.439          51.000  
E09  26432744.611   138904881.081       -2770.332          41.000    26432758.956   106433613.582       -2122.510          45.000  
G16  23785568.846   124994002.124        -246.846          35.000                                                                  
E15  24138406.397   126848196.773         446.413          45.000    24138415.362    97195439.136         341.985          51.000  
G30  22286252.683   117115128.838        2825.214          41.000    22286262.824    91258632.490        2201.687          36.000  
E34  22986514.724   120794919.100       -2338.539          48.000    22986522.182    92557162.598       -1791.794          51.000  
E36  25752948.668   135332506.559       -3937.604          44.000    25752965.451   103696327.650       -3017.169          45.000  
E24  25840472.126   135792693.104         840.417          42.000    25840486.144   104049046.756         644.038          46.000  
E25  26453281.278   139012977.106        1797.344          43.000    26453302.283   106516514.531        1377.161          46.000  
> 2024 04 16 15 57 00.4960000  0 25                     
G03  21339407.953   112139264.986       -3028.789          46.000    21339415.749    87381237.027       -2360.140          44.000  
G04  20956252.176   110125798.606       -2954.016          46.000    20956255.472    85812300.305       -2301.726          46.000  
G06  19941528.418   104793469.876        -665.041          47.000    19941531.634    81657280.460        -518.271          46.000  
G07  19713385.802   103594664.611        1849.078          48.000    19713387.470    80723177.998        1440.796          44.000  
G09  19582064.159   102904447.911       -1079.718          49.000    19582066.110    80185297.879        -841.394          46.000  
R02  20026929.209   106867490.600       -2155.447          52.000    20026934.504    83119163.884       -1676.307          49.000  
R18  19805244.158   105721736.991       -2316.552          51.000    19805249.709    82228038.412       -1801.661          48.000  
R12  20040220.976   107051319.402       -1509.707          51.000    20040225.237    83262184.945       -1174.267          47.000  
G11  22272808.850   117044378.958        1564.250          40.000    22272812.215    91203559.976        1218.753          41.000  
S31  37684899.361   198035464.486        -791.685          44.000  
S33  38636191.829   203034524.146        -791.096          42.000  
E03  23496507.888   123475036.662         125.428          46.000    23496515.817    94610794.017          96.116          51.000  
R17  21300709.225   113984252.174       -4791.303          44.000    21300716.463    88654384.207       -3726.575          44.000  
R03  19459428.068   104167888.076         149.906          50.000    19459427.246    81019497.596         116.636          49.000  
R13  19671235.426   105043520.476        1785.870          42.000    19671240.981    81700497.607        1388.837          43.000  
R19  21112397.100   112937195.327         864.273          37.000    21112400.944    87840011.920         672.082          44.000  
E05  21449905.766   112719995.433       -1708.717          48.000    21449911.774    86369883.333       -1309.339          51.000  
E09  26448553.054   138987962.865       -2768.687          41.000    26448569.588   106497273.466       -2121.576          46.000  
G16  23787015.948   125001598.145        -260.551          36.000                                                                  
E15  24135896.450   126835005.071         433.005          45.000    24135904.652    97185331.306         331.734          50.000  
G30  22270143.433   117030476.044        2818.295          42.000    22270155.146    91192669.667        2196.355          38.000  
E34  22999900.574   120865267.108       -2351.412          47.000    22999908.801    92611065.514       -1801.646          51.000  
E36  25775435.292   135450669.131       -3939.982          44.000    25775451.500   103786867.418       -3018.973          44.000  
E24  25835697.073   135767605.239         831.892          41.000    25835711.365   104029823.886         637.421          46.000  
E25  26443012.915   138959020.559        1799.786          42.000    26443034.514   106475171.531        1378.906          47.000  
> 2024 04 16 15 57 30.4960000  0 26                     
G03  21356725.814   112230268.675       -3038.191          47.000    21356733.535    87452148.829       -2367.299          44.000  
G04  20973122.009   110214448.516       -2955.953          46.000    20973124.742    85881378.045       -2303.474          46.000  
G06  19945383.699   104813733.396        -685.973          46.000    19945387.980    81673070.202        -534.504          47.000  
G07  19702874.858   103539427.816        1833.258          49.000    19702875.499    80680136.444        1428.589          44.000  
G09  19588246.106   102936932.000       -1085.999          49.000    19588247.442    80210610.125        -846.198          46.000  
R02  20039056.491   106932201.400       -2158.672          52.000    20039062.029    83169494.402       -1678.970          49.000  
R18  19818329.799   105791590.090       -2340.332          50.000    19818334.320    82282368.460       -1820.453          47.000  
R12  20048772.951   107096997.725       -1535.644          52.000    20048775.599    83297712.496       -1194.262          46.000  
G11  22263917.290   116997661.357        1550.286          39.000    22263921.556    91167156.853        1208.087          40.000  
S31  37689416.827   198059203.287        -791.135          44.000  
S33  38640707.239   203058252.140        -790.878          43.000  
E03  23495802.476   123471327.152         121.811          47.000    23495809.758    94607951.718          93.419          51.000  
R17  21327586.338   114128071.908       -4796.765          46.000    21327593.703    88766243.538       -3730.591          42.000  
R03  19458597.397   104163441.761         146.293          51.000    19458597.157    81016039.396         113.811          50.000  
R13  19661257.564   104990237.933        1766.467          42.000    19661262.949    81659055.785        1373.877          44.000  
R19  21107616.243   112911628.652         839.934          36.000    21107621.928    87820126.838         653.428          43.000  
E05  21459667.069   112771289.139       -1710.723          48.000    21459672.963    86409186.231       -1310.812          52.000  
E09  26464354.257   139070996.277       -2766.941          41.000    26464370.093   106560896.233       -2119.920          46.000  
G16  23788536.254   125009592.937        -273.579          36.000                                                                  
E15  24133461.439   126822209.745         420.073          46.000    24133469.848    97175527.168         321.964          50.000  
G30  22254070.796   116946012.386        2812.302          44.000    22254082.414    91126854.202        2191.443          38.000  
E34  23013361.004   120935995.584       -2363.838          48.000    23013367.858    92665259.941       -1811.085          51.000  
E36  25797932.040   135568891.945       -3941.390          44.000    25797949.062   103877453.332       -3020.260          44.000  
E24  25830972.887   135742770.537         823.766          43.000    25830984.855   104010794.949         631.253          45.000  
E25  26432732.388   138904995.377        1802.127          42.000    26432753.690   106433775.906        1380.912          46.000  
R01                                                                  23299686.813                3      -2472.086          16.000  
> 2024 04 16 15 58 00.4960000  0 25                     
G03  21374099.638   112321570.994       -3048.117          46.000    21374107.883    87523293.316       -2375.197          44.000  
G04  20990006.848   110303176.913       -2958.743          48.000    20990008.187    85950516.916       -2305.501          44.000  
G06  19949361.015   104834632.368        -707.122          47.000    19949365.190    81689355.123        -551.006          47.000  
G07  19692457.415   103484682.055        1816.693          49.000    19692457.611    80637477.510        1415.717          44.000  
G09  19594466.918   102969621.063       -1092.957          49.000    19594468.416    80236082.083        -851.636          46.000  
R02  20051205.521   106997029.173       -2162.722          52.000    20051210.395    83219915.913       -1682.257          48.000  
R18  19831552.382   105862172.201       -2364.718          51.000    19831556.057    82337265.575       -1839.396          46.000  
R12  20057470.737   107143466.970       -1562.004          50.000    20057475.905    83333855.221       -1214.928          47.000  
G11  22255109.870   116951380.720        1535.471          39.000    22255114.453    91131094.149        1196.459          41.000  
S31  37693934.580   198082945.875        -791.289          44.000  
S33  38645222.998   203081984.069        -790.925          42.000  
E03  23495119.927   123467741.564         117.699          47.000    23495127.350    94605204.378          90.102          50.000  
R17  21354497.022   114272066.715       -4802.513          44.000    21354503.356    88878239.022       -3734.988          39.000  
R03  19457790.049   104159119.918         142.168          51.000    19457790.074    81012678.032         110.491          50.000  
R13  19651390.254   104937551.400        1746.472          41.000    19651396.515    81618077.552        1358.179          44.000  
R19  21102976.837   112886801.694         815.341          37.000    21102979.680    87800817.111         634.055          44.000  
E05  21469440.979   112822657.599       -1713.406          47.000    21469447.968    86448546.421       -1312.880          52.000  
E09  26480147.296   139153987.106       -2765.548          41.000    26480162.411   106624486.403       -2119.268          45.000  
G16  23790135.854   125017993.675        -286.685          37.000                                                                  
E15  24131103.361   126809817.776         406.376          45.000    24131111.721    97166032.115         311.394          51.000  
G30  22238035.014   116861746.045        2805.885          44.000    22238045.223    91061192.374        2186.329          37.000  
E34  23026893.714   121007109.183       -2376.687          49.000    23026900.610    92719749.497       -1821.073          51.000  
E36  25820441.237   135687179.007       -3943.798          43.000    25820458.612   103968088.489       -3021.874          44.000  
E24  25826296.040   135718196.662         814.949          41.000    25826307.973   103991965.871         624.293          45.000  
E25  26422440.232   138850909.250        1803.982          42.000    26422461.104   106392333.621        1382.322          47.000  
> 2024 04 16 15 58 30.4960000  0 26                     
G03  21391528.633   112413160.505       -3057.795          46.000    21391536.825    87594661.569       -2382.704          44.000  
G04  21006903.049   110391971.807       -2960.769          46.000    21006906.284    86019707.607       -2307.150          45.000  
G06  19953457.407   104856155.715        -727.755          47.000    19953461.204    81706126.537        -567.098          47.000  
G07  19682130.968   103430418.867        1800.812          49.000    19682131.558    80595194.625        1403.064          44.000  
G09  19600723.628   103002503.169       -1099.237          49.000    19600725.848    80261704.499        -856.586          46.000  
R02  20063373.776   107061962.875       -2166.146          52.000    20063378.490    83270419.797       -1684.784          48.000  
R18  19844908.471   105933469.128       -2388.354          51.000    19844913.220    82392718.617       -1857.544          47.000  
R12  20066316.400   107190714.900       -1587.827          52.000    20066320.410    83370603.599       -1234.902          47.000  
G11  22246383.741   116905528.107        1521.256          38.000    22246388.500    91095364.965        1185.436          41.000  
S31  37698452.007   198106681.962        -791.036          45.000  
S33  38649738.002   203105709.131        -790.535          42.000  
E03  23494458.919   123464268.162         114.076          47.000    23494466.689    94602543.007          87.348          51.000  
R17  21381434.985   114416220.728       -4807.556          45.000    21381442.122    88990358.285       -3739.304          41.000  
R03  19457003.750   104154911.539         138.414          52.000    19457003.459    81009404.897         107.745          49.000  
R13  19641634.021   104885453.543        1726.923          41.000    19641639.742    81577557.161        1342.865          44.000  
R19  21098472.062   112862704.744         791.112          37.000    21098474.511    87782075.165         615.192          44.000  
E05  21479229.054   112874089.083       -1715.233          47.000    21479234.935    86487954.897       -1314.279          52.000  
E09  26495930.073   139236924.142       -2763.391          41.000    26495944.985   106688035.308       -2117.567          45.000  
G16  23791809.346   125026790.722        -299.704          38.000                                                                  
E15  24128819.919   126797819.156         393.490          45.000    24128828.359    97156838.454         301.517          51.000  
G30  22222035.450   116777668.264        2799.442          45.000    22222045.307    90995677.509        2181.723          36.000  
E34  23040496.808   121078595.646       -2388.993          48.000    23040503.916    92774524.724       -1830.541          51.000  
E36  25842960.143   135805517.354       -3945.102          43.000    25842978.249   104058762.909       -3023.044          44.000  
E24  25821666.367   135693874.242         806.411          41.000    25821679.948   103973329.491         618.009          45.000  
E25  26412134.443   138796753.052        1806.444          42.000    26412155.640   106350837.627        1384.219          48.000  
R04                                                                  22265319.734                3       1610.228          12.000  
> 2024 04 16 15 59 00.4960000  0 25                     
G03  21409010.782   112505025.948       -3066.806          46.000    21409018.120    87666244.873       -2389.761          44.000  
G04  21023810.862   110480821.419       -2962.579          48.000    21023814.289    86088940.930       -2308.636          45.000  
G06  19957669.374   104878292.483        -748.179          46.000    19957673.546    81723375.946        -582.897          47.000  
G07  19671895.007   103376629.487        1785.052          49.000    19671895.510    80553280.909        1390.875          44.000  
G09  19607014.703   103035566.619       -1105.157          48.000    19607017.162    80287468.209        -861.194          45.000  
R02  20075561.083   107126991.833       -2169.275          53.000    20075565.075    83320997.781       -1687.221          48.000  
R18  19858395.773   106005466.812       -2411.650          50.000    19858401.640    82448716.721       -1875.653          48.000  
R12  20075304.966   107238729.883       -1613.329          51.000    20075309.783    83407948.537       -1254.915          47.000  
G11  22237739.293   116860094.863        1507.370          41.000    22237742.909    91059962.586        1174.491          42.000  
S31  37702965.465   198130399.692        -790.324          44.000  
S33  38654249.146   203129415.715        -789.943          41.000  
E03  23493818.015   123460895.507         110.785          48.000    23493824.928    94599958.820          84.812          51.000  
R17  21408400.634   114560518.267       -4812.160          46.000    21408407.758    89102589.258       -3742.875          42.000  
R03  19456236.602   104150805.750         135.106          51.000    19456236.283    81006211.530         105.009          49.000  
R13  19631985.554   104833937.082        1707.574          39.000    19631991.969    81537488.964        1328.094          43.000  
R19  21094101.880   112839328.902         767.377          38.000    21094105.536    87763894.150         596.593          45.000  
E05  21489025.937   112925572.111       -1716.966          48.000    21489031.950    86527402.867       -1315.645          52.000  
E09  26511700.252   139319796.493       -2761.385          41.000    26511715.334   106751534.687       -2115.897          44.000  
G16  23793556.755   125035974.949        -313.118          36.000                                                                  
E15  24126609.276   126786204.097         380.803          45.000    24126618.008    97147938.683         291.634          51.000  
G30  22206069.973   116693770.440        2793.448          45.000    22206080.148    90930302.905        2176.545          37.000  
E34  23054169.201   121150442.766       -2400.852          48.000    23054176.388    92829576.330       -1839.729          51.000  
E36  25865487.429   135923894.179       -3946.422          43.000    25865505.202   104149466.831       -3023.912          44.000  
E24  25817084.505   135669794.269         798.907          41.000    25817097.614   103954878.843         611.941          45.000  
E25  26401814.170   138742517.725        1809.166          42.000    26401835.015   106309281.000        1386.137          48.000  
> 2024 04 16 15 59 30.4960000  0 26                     
G03  21426545.732   112597171.555       -3076.230          47.000    21426553.390    87738046.470       -2397.012          44.000  
G04  21040728.871   110569729.365       -2964.687          46.000    21040733.347    86158219.690       -2310.118          45.000  
G06  19961999.030   104901047.134        -768.792          47.000    19962003.806    81741106.804        -599.072          47.000  
G07  19661750.921   103323320.327        1768.970          50.000    19661751.436    80511741.399        1378.381          44.000  
G09  19613341.852   103068815.058       -1111.334          48.000    19613343.840    80313376.057        -866.083          45.000  
R02  20087765.575   107192121.030       -2172.701          52.000    20087770.237    83371653.731       -1689.895          48.000  
R18  19872015.531   106078166.850       -2435.025          51.000    19872021.531    82505261.103       -1893.917          48.000  
R12  20084437.520   107287515.744       -1639.020          51.000    20084442.536    83445893.052       -1274.810          46.000  
R04  22249663.598                3       1638.373          10.000                                                                  
G11  22229175.310   116815087.752        1493.171          41.000    22229178.480    91024892.252        1163.477          42.000  
S31  37707475.635   198154103.666        -790.084          44.000  
S33  38658758.043   203153109.198        -789.699          43.000  
E03  23493196.569   123457627.527         107.126          48.000    23493202.637    94597454.839          82.090          51.000  
R17  21435393.451   114704959.415       -4817.068          47.000    21435400.841    89214931.875       -3746.745          44.000  
R03  19455489.883   104146807.117         131.537          52.000    19455489.701    81003101.524         102.320          49.000  
R13  19622448.742   104783010.688        1687.659          40.000    19622454.749    81497879.704        1312.830          43.000  
R19  21089868.714   112816680.349         742.680          36.000    21089871.816    87746278.666         577.650          44.000  
E05  21498833.867   112977110.620       -1718.919          48.000    21498839.250    86566893.349       -1317.021          52.000  
E09  26527459.990   139402608.671       -2759.386          41.000    26527474.455   106814987.943       -2114.420          45.000  
G16  23795380.368   125045552.268        -325.700          37.000                                                                  
E15  24124471.939   126774978.195         367.522          44.000    24124481.958    97139337.048         281.719          51.000  
G30  22190140.148   116610059.428        2787.152          45.000    22190150.512    90865073.888        2171.862          37.000  
E34  23067909.310   121222653.856       -2413.067          48.000    23067917.416    92884906.819       -1848.972          51.000  
E36  25888021.747   136042312.144       -3947.965          43.000    25888039.977   104240202.236       -3024.960          44.000  
E24  25812549.544   135645962.930         789.936          41.000    25812562.610   103936618.722         605.358          46.000  
E25  26391478.056   138688209.735        1811.362          41.000    26391500.437   106267668.658        1387.943          48.000  
