     3.00           OBSERVATION DATA    M: Mixed            RINEX VERSION / TYPE
CONVBIN 2.4.3                           20240416 074442 UTC PGM / RUN BY / DATE 
format: u-blox UBX                                          COMMENT             
log: /home/regis/git/gnsspwv/obsdata/VERT00CHL/2024-04-16/VECOMMENT             
{self.marker}                                               MARKER NAME         
                                                            MARKER NUMBER       
GEODETIC                                                    MARKER TYPE         
{self.observer}     {self.institution}                      OBSERVER / AGENCY   
UNKNOWN             UBLOX-ZED-F9P                           REC # / TYPE / VERS 
UNKNOWN             TWIVSP6037L                             ANT # / TYPE        
  1713381.0000 -5047934.0000 -3490983.0000                  APPROX POSITION XYZ 
        0.0000        0.0000        0.0000                  ANTENNA: DELTA H/E/N
G    8 C1C L1C D1C S1C C2L L2L D2L S2L                      SYS / # / OBS TYPES 
R    8 C1C L1C D1C S1C C2C L2C D2C S2C                      SYS / # / OBS TYPES 
E    8 C1C L1C D1C S1C C7Q L7Q D7Q S7Q                      SYS / # / OBS TYPES 
S    4 C1C L1C D1C S1C                                      SYS / # / OBS TYPES 
  2024    04    16    07    30   00.0110000     GPS         TIME OF FIRST OBS   
  2024    04    16    07    44   30.0110000     GPS         TIME OF LAST OBS    
                                                            END OF HEADER       
> 2024 04 16 07 30 00.0110000  0 28                     
G18  26377443.421   138614457.8321      -3214.783          46.000    26377439.311   108011241.2271      -2505.043          44.000  
G26  24514531.590   128824753.1871      -2984.719          45.000    24514531.793   100382932.3591      -2325.923          44.000  
G23  24023144.274   126242696.1321      -1803.180          48.000    24023141.784    98370947.4981      -1405.072          50.000  
G16  24079847.034   126540480.0901       -201.660          48.000                                                                  
R05  26852728.569                3      -3287.931          18.000    26852728.517                3      -2556.990          25.000  
R11  24910905.229   133116403.9401      -4337.917          50.000    24910903.538   103535034.2081      -3373.949          47.000  
R21  24173130.282   129355490.8061      -1819.519          52.000    24173126.930   100609896.8571      -1415.179          49.000  
R13  26709968.181                1       2231.207          27.000    26709965.315                        1735.148          26.000  
G29  28741870.753   151039597.3901      -3302.898          43.000    28741870.054   117693233.9631      -2573.730          41.000  
S33  43031293.941   226131041.1031       -639.074          42.000  
S31  42077258.016   221117560.6901       -639.333          44.000  
G10  23692712.523   124506196.7891       1008.240          51.000    23692711.008    97017806.6071        785.749          46.000  
E11  27001503.721   141893861.0551        276.048          44.000    27001502.591   108723921.0941        211.440          46.000  
R12  24183296.570   129182860.9401       -582.739          52.000    24183296.310   100475684.5491       -453.229          50.000  
R22  24054676.420   128405588.5031        353.265          53.000    24054674.119    99871058.3551        274.792          49.000  
R07  25631953.820   137209818.5441       3317.421          51.000    25631952.006   106718804.0771       2580.289          48.000  
R06  24317242.822   129761555.0881        574.959          44.000                                                                  
G27  25044227.056   131608314.6011       1581.342          49.000    25044224.850   102551937.8211       1232.333          45.000  
G08  27612674.100                1       2396.117          26.000    27612686.032                        1866.614          26.000  
E31  29554096.776   155307949.4091      -3602.852          41.000    29554103.016   119002263.7231      -2760.675          49.000  
E25  28657976.101   150598629.4061        968.520          43.000    28657979.340   115393778.0351        742.080          48.000  
E14  31151731.721   163703617.4691      -1190.288          44.000    31151732.991   125435213.9851       -911.989          49.000  
E19  30663982.870   161140364.3291       1104.815          39.000    30663985.425   123471207.2021        846.792          43.000  
E24  27252296.341   143211822.1621      -1758.185          48.000    27252297.373   109733755.4971      -1347.224          51.000  
E12  27575121.660   144908359.8701      -1674.818          45.000    27575120.551   111033761.0741      -1283.198          49.000  
E10  27188644.044   142877477.6421       -760.702          48.000    27188646.172   109477745.2291       -582.823          52.000  
E33                                                                  30846868.878   124207696.4601      -2102.840          38.000  
G15                                                                  28726153.428                       -1186.794          27.000  
> 2024 04 16 07 30 30.0110000  0 28                     
G18  26395798.031   138710913.914       -3215.558          45.000    26395795.127   108086401.858       -2505.521          45.000  
G26  24531612.669   128914514.390       -2999.145          46.000    24531612.475   100452876.129       -2336.874          43.000  
G23  24033492.426   126297075.290       -1821.924          49.000    24033489.535    98413320.907       -1419.696          50.000  
G16  24081054.548   126546824.428        -221.210          48.000                                                                  
R05  26871201.083                3      -3300.986          21.000    26871222.602                3      -2561.450          22.000  
R11  24935289.377   133246705.979       -4348.600          50.000    24935288.108   103636380.170       -3382.448          47.000  
R21  24183339.241   129410119.607       -1822.241          51.000    24183334.953   100652385.996       -1417.365          49.000  
R13  26697483.709                        2213.492          28.000    26697485.081                3       1718.427          21.000  
G29  28760737.044   151138744.469       -3306.608          43.000    28760736.161   117770491.520       -2576.698          39.000  
S33  43034941.778   226150210.201        -638.731          42.000  
S31  42080906.695   221136736.363        -638.806          44.000  
G10  23687012.247   124476243.722         988.779          50.000    23687011.462    96994466.589         770.438          46.000  
E11  26999940.956   141885653.021         271.377          44.000    26999940.081   108717631.928         207.831          45.000  
R12  24186644.955   129200742.255        -609.174          53.000    24186643.271   100489592.222        -473.828          50.000  
R22  24052703.335   128395058.585         348.859          52.000    24052700.737    99862868.467         271.265          48.000  
R07  25613379.750   137110389.349        3311.411          51.000    25613377.624   106641470.350        2575.649          48.000  
R06  24314077.618   129744667.942         550.683          44.000                                                                  
G27  25035209.868   131560931.213        1577.708          49.000    25035208.167   102515015.736        1229.388          45.000  
G08  27599003.152   145033744.8831       2397.876          31.000    27598987.179                3       1893.078          13.000  
E31  29574676.646   155416096.764       -3606.442          41.000    29574682.690   119085129.832       -2763.500          48.000  
E25  28652478.391   150569739.294         957.425          44.000    28652482.214   115371641.474         733.697          48.000  
E14  31158508.156   163739229.721       -1183.694          44.000    31158509.983   125462501.331        -907.015          49.000  
E19  30657695.298   161107323.527        1098.159          39.000    30657698.297   123445890.317         841.345          44.000  
E24  27262370.288   143264761.709       -1771.081          47.000    27262371.381   109774319.574       -1356.975          51.000  
E12  27584690.075   144958640.966       -1677.252          44.000    27584689.033   111072288.109       -1285.200          49.000  
E10  27193000.009   142900365.811        -765.024          49.000    27193001.677   109495282.971        -586.095          52.000  
E33                                                                  30862529.540   124270756.004       -2101.101          38.000  
G15                                                                  28734879.554                3      -1198.109          23.000  
> 2024 04 16 07 31 00.0110000  0 28                     
G18  26414156.658   138807388.123       -3215.838          45.000    26414152.652   108161576.566       -2506.166          44.000  
G26  24548774.302   129004700.210       -3013.094          47.000    24548773.951   100523150.765       -2347.823          43.000  
G23  24043947.417   126352014.987       -1840.442          49.000    24043943.900    98456131.074       -1434.143          50.000  
G16  24082373.893   126553755.777        -240.607          49.000                                                                  
R05  26889835.307                3      -3323.836          23.000    26889820.654                3      -2585.087          17.000  
R11  24959734.170   133377327.537       -4359.226          50.000    24959732.810   103737974.655       -3390.432          46.000  
R21  24193563.524   129464830.238       -1824.762          51.000    24193558.984   100694938.750       -1419.324          49.000  
R13  26685099.153                        2196.297          26.000    26685093.907                3       1713.293          20.000  
G29  28779625.987   151238005.998       -3310.029          37.000    28779624.370   117847838.281       -2579.089          33.000  
S33  43038587.741   226169370.517        -638.271          42.000  
S31  42084554.302   221155904.967        -638.702          44.000  
G10  23681423.030   124446874.303         969.369          50.000    23681422.699    96971581.323         755.319          46.000  
E11  26998405.654   141877591.795         266.552          43.000    26998405.900   108711455.255         204.297          45.000  
R12  24190139.970   129219413.833        -635.339          52.000    24190138.851   100504114.466        -494.165          49.000  
R22  24050754.870   128384661.907         344.482          51.000    24050753.435    99854782.173         268.054          49.000  
R07  25594838.709   137011140.271        3305.515          50.000    25594837.221   106564276.733        2570.892          49.000  
R06  24311048.169   129728504.373         527.016          43.000                                                                  
G27  25026214.731   131513662.083        1573.966          48.000    25026213.523   102478182.666        1226.384          45.000  
G08  27585304.022                        2400.093          30.000                                                                  
E31  29595277.323   155524353.708       -3610.166          41.000    29595283.144   119168079.930       -2766.223          48.000  
E25  28647043.736   150541178.547         946.645          44.000    28647047.326   115349757.287         725.443          49.000  
E14  31165246.874   163774647.417       -1177.201          44.000    31165249.588   125489639.588        -902.026          49.000  
E19  30651448.190   161074490.516        1091.248          40.000    30651450.119   123420732.637         836.125          44.000  
E24  27272518.009   143318085.070       -1783.600          48.000    27272518.382   109815177.770       -1366.681          50.000  
E12  27594271.799   145008997.066       -1679.430          44.000    27594271.781   111110872.658       -1286.995          49.000  
E10  27197379.727   142923382.673        -769.081          48.000    27197381.508   109512919.303        -589.358          52.000  
E33                                                                  30878177.027   124333758.756       -2098.798          39.000  
G15                                                                  28743688.301                3      -1203.774          24.000  
> 2024 04 16 07 31 30.0110000  0 28                     
G18  26432518.136   138903879.518       -3216.443          45.000    26432515.353   108236764.643       -2506.360          46.000  
G26  24566017.221   129095308.201       -3026.929          48.000    24566016.760   100593754.376       -2358.645          44.000  
G23  24054508.260   126407513.581       -1858.972          49.000    24054505.349    98499376.759       -1448.590          51.000  
G16  24083804.682   126561274.855        -260.114          49.000                                                                  
R11  24984236.322   133508264.208       -4369.461          50.000    24984235.600   103839814.278       -3398.642          46.000  
R21  24203802.583   129519622.273       -1827.490          51.000    24203797.763   100737554.795       -1421.393          49.000  
R13  26672820.382                3       2173.655          13.000    26672802.845                3       1693.882          21.000  
G29  28798536.290   151337381.952       -3313.507          32.000    28798535.003                       -2582.685          27.000  
S33  43042232.493   226188523.273        -637.936          42.000  
S31  42088200.637   221175064.953        -638.300          44.000  
G10  23675945.900   124418090.087         949.938          50.000    23675944.652    96949152.056         740.297          46.000  
E11  26996899.676   141869676.696         261.571          43.000    26996899.915   108705390.539         200.369          45.000  
R12  24193783.301   129238875.588        -661.572          52.000    24193781.968   100519251.309        -514.673          49.000  
R22  24048831.722   128374398.330         340.155          52.000    24048830.872    99846799.489         264.648          49.000  
R07  25576332.143   136912075.628        3299.289          49.000    25576330.931   106487226.538        2566.212          48.000  
R06  24308155.777   129713066.595         502.713          44.000    24308439.188                3        762.586          16.000  
G27  25017242.022   131466508.932        1570.154          48.000    25017240.973   102441439.967        1223.552          45.000  
G08  27571594.224   144889765.804        2401.920          28.000                                                                  
E31  29615897.383   155632718.600       -3613.668          40.000    29615904.295   119251112.723       -2768.934          48.000  
E25  28641671.947   150512948.582         935.740          44.000    28641674.968   115328126.566         716.874          49.000  
E14  31171949.799   163809871.270       -1170.690          43.000    31171952.543   125516629.301        -896.916          49.000  
E19  30645240.866   161041867.530        1084.122          41.000    30645241.770   123395735.881         830.706          43.000  
E24  27282737.342   143371791.684       -1796.297          47.000    27282738.421   109856329.611       -1376.420          51.000  
E12  27603868.247   145059427.263       -1681.975          43.000    27603868.362   111149514.011       -1288.757          49.000  
E10  27201783.709   142946527.416        -773.432          48.000    27201785.550   109530653.605        -592.546          52.000  
E33                                                                  30893808.970   124396704.572       -2097.198          37.000  
G15                                                                  28752567.192                3      -1223.750          18.000  
R05                                                                  26908512.870                3      -2581.562          21.000  
> 2024 04 16 07 32 00.0110000  0 28                     
G18  26450883.382   139000386.933       -3217.528          46.000    26450879.411   108311965.227       -2507.245          44.000  
G26  24583339.167   129186335.749       -3041.539          48.000    24583339.144   100664684.921       -2370.055          44.000  
G23  24065175.390   126463569.317       -1878.009          49.000    24065172.236    98543056.588       -1463.379          50.000  
G16  24085347.804   126569382.374        -280.371          49.000                                                                  
R11  25008797.403   133639511.104       -4380.272          49.000    25008795.747   103941895.141       -3406.764          45.000  
R21  24214057.077   129574495.730       -1830.713          50.000    24214052.310   100780234.137       -1423.865          49.000  
S33  43045875.491   226207667.143        -638.298          42.000  
S31  42091844.858   221194216.853        -638.472          44.000  
E33  30909436.864   162430197.3011      -2735.300          28.000    30909427.083   124459593.195       -2095.384          37.000  
G10  23670580.011   124389892.551         930.010          50.000    23670578.835    96927180.009         724.582          46.000  
E11  26995421.740   141861906.999         256.326          43.000    26995421.255   108699437.247         196.363          46.000  
R12  24197573.558   129259126.608        -688.434          52.000    24197572.399   100535002.004        -535.449          48.000  
R22  24046934.528   128364266.963         335.242          52.000    24046933.064    99838919.660         260.706          49.000  
R07  25557861.335   136813200.711        3292.436          50.000    25557859.001   106410323.925        2560.812          48.000  
R06  24305398.962   129698356.943         477.990          45.000                                                                  
G27  25008291.198   131419473.316        1565.646          49.000    25008290.260   102404788.853        1219.990          45.000  
G08  27557877.620                        2402.858          27.000    27557873.863                        1872.376          27.000  
E31  29636539.750   155741189.598       -3617.648          41.000    29636545.608   119334226.827       -2771.958          47.000  
E25  28636362.711   150485050.694         924.079          44.000    28636365.690   115306750.295         708.113          49.000  
E14  31178616.700   163844901.878       -1164.808          44.000    31178618.820   125543470.956        -892.405          49.000  
E19  30639073.023   161009456.379        1076.752          41.000    30639074.198   123370901.429         824.961          43.000  
E24  27293030.869   143425880.696       -1809.563          48.000    27293031.364   109897774.447       -1386.488          51.000  
E12  27613478.356   145109930.545       -1685.020          44.000    27613478.534   111188211.421       -1290.989          50.000  
E10  27206211.758   142969798.984        -778.012          47.000    27206213.813   109548485.097        -596.189          52.000  
G15                                                                  28761533.936                3      -1232.054          20.000  
G29                                                                  28817467.365                       -2585.264          26.000  
R13                                                                  26660612.875                3       1685.728          24.000  
R05                                                                  26927331.072                3      -2615.891          23.000  
> 2024 04 16 07 32 30.0110000  0 28                     
G18  26469252.455   139096917.214       -3217.889          46.000    26469248.054   108387183.624       -2507.339          44.000  
G26  24600742.373   129277788.051       -3055.337          48.000    24600743.189   100735946.439       -2380.941          45.000  
G23  24075949.537   126520188.182       -1896.637          49.000    24075946.423    98587175.234       -1477.802          50.000  
G16  24087004.289   126578087.259        -300.024          48.000                                                                  
R11  25033418.470   133771072.003       -4390.403          49.000    25033415.624   104044220.228       -3414.817          45.000  
R21  24224327.830   129629458.372       -1833.508          51.000    24224323.914   100822982.893       -1426.111          49.000  
S33  43049518.426   226226811.156        -637.836          42.000  
S31  42095489.333   221213368.494        -638.350          44.000  
E33  30925039.127                1      -2732.295          27.000    30925032.868   124522430.430       -2093.740          38.000  
G10  23665327.629   124362290.763         910.223          49.000    23665326.204    96905672.186         709.208          46.000  
E11  26993972.465   141854289.637         251.604          43.000    26993971.945   108693600.655         192.828          46.000  
R12  24201513.538   129280174.501        -714.795          51.000    24201513.086   100551372.467        -555.939          49.000  
R22  24045062.881   128354275.020         330.939          52.000    24045061.935    99831148.254         257.288          50.000  
R07  25539427.159   136714527.533        3285.931          49.000    25539426.514   106333578.222        2555.594          49.000  
R06  24302781.471   129684385.742         453.395          45.000    24302965.319                3        -22.727          16.000  
G27  24999364.820   131372564.663        1561.626          48.000    24999363.823   102368236.641        1216.862          45.000  
G08  27544152.526                        2404.671          27.000    27544156.901                        1873.438          30.000  
E31  29657202.964   155849772.750       -3621.171          43.000    29657207.992   119417426.894       -2774.764          47.000  
E25  28631118.781   150457493.945         913.025          44.000    28631121.485   115285635.414         699.568          49.000  
E14  31185246.859   163879747.639       -1158.287          44.000    31185249.635   125570170.983        -887.442          49.000  
E19  30632946.643   160977266.518        1069.381          41.000    30632948.213   123346236.576         819.507          43.000  
E24  27303397.590   143480359.130       -1822.335          48.000    27303398.052   109939517.695       -1396.285          51.000  
E12  27623104.671   145160513.496       -1687.202          44.000    27623103.906   111226969.797       -1292.829          49.000  
E10  27210665.875   142993204.271        -782.377          47.000    27210667.308   109566419.046        -599.435          51.000  
G15                                                                  28770563.294                3      -1240.202          21.000  
G29                                                                  28836423.418                3      -2576.938          19.000  
R13                                                                  26648538.413                3       1665.878          26.000  
R05                                                                  26946250.568                3      -2634.207          22.000  
> 2024 04 16 07 33 00.0110000  0 28                     
G18  26487625.886   139193468.305       -3218.733          47.000    26487621.347   108462418.257       -2508.207          45.000  
G26  24618225.490   129369661.541       -3069.640          48.000    24618225.851   100807536.137       -2391.935          45.000  
G23  24086830.054   126577367.322       -1915.381          49.000    24086827.128    98631730.472       -1492.468          51.000  
G16  24088774.268   126587388.722        -320.056          48.000                                                                  
R11  25058095.211   133902940.819       -4400.769          48.000    25058091.990   104146784.833       -3422.794          43.000  
R13  26636556.816                1       2123.568          29.000    26636552.302                3       1651.255          25.000  
R21  24234613.847   129684508.989       -1836.499          50.000    24234611.357   100865800.051       -1428.473          49.000  
S33  43053161.110   226245953.500        -638.111          42.000  
S31  42099133.464   221232519.107        -638.383          44.000  
G10  23660188.816   124335285.038         890.219          50.000    23660187.216    96884628.831         693.624          46.000  
E11  26992550.931   141846823.004         246.451          42.000    26992550.951   108687879.582         188.877          47.000  
R12  24205602.782   129302017.599        -741.388          51.000    24205602.808   100568361.436        -576.624          49.000  
R22  24043216.835   128344421.076         325.995          52.000    24043215.332    99823484.144         253.510          50.000  
R07  25521032.597   136616059.624        3278.819          50.000    25521032.028   106256992.194        2550.182          50.000  
R06  24300301.759   129671153.993         428.561          45.000    24299919.297                3        745.859          10.000  
G27  24990462.701   131325783.791        1557.196          48.000    24990461.750   102331784.060        1213.356          45.000  
E31  29677886.907   155958465.309       -3624.839          43.000    29677891.661   119500710.792       -2777.559          47.000  
E25  28625940.403   150430278.715         901.365          44.000    28625942.665   115264782.214         690.598          48.000  
E14  31191843.005   163914408.257       -1152.309          44.000    31191845.389   125596729.143        -882.898          49.000  
E19  30626863.398   160945298.872        1061.810          40.000    30626864.565   123321741.963         813.619          42.000  
E24  27313837.623   143535225.192       -1835.445          47.000    27313838.624   109981557.950       -1406.351          51.000  
E12  27632744.875   145211174.369       -1689.842          44.000    27632744.250   111265787.848       -1294.927          48.000  
E10  27215145.146   143016741.347        -786.828          48.000    27215146.394   109584454.014        -602.931          51.000  
E33                                                                  30940625.275   124585215.327       -2091.747          39.000  
G15                                                                  28779689.744                3      -1242.763          17.000  
G08                                                                  27530427.196   112732528.7431       1874.694          32.000  
G29                                                                  28855401.149                3      -2592.968          21.000  
R05                                                                  26965266.014                3      -2651.420          19.000  
> 2024 04 16 07 33 30.0110000  0 27                     
G18  26506002.659   139290038.165       -3219.279          47.000    26505998.176   108537667.491       -2508.482          45.000  
G26  24635787.612   129461952.558       -3083.320          47.000    24635787.482   100879451.190       -2402.518          44.000  
G23  24097816.889   126635103.844       -1933.801          48.000    24097813.872    98676720.032       -1506.738          50.000  
G16  24090656.743   126597285.336        -339.868          47.000                                                                  
R11  25082829.529   134035111.995       -4410.553          49.000    25082825.409   104249584.611       -3430.591          43.000  
R13  26624678.903                        2105.119          29.000    26624662.617                3       1637.588          22.000  
R21  24244918.443   129739646.439       -1839.343          51.000    24244915.285   100908684.785       -1430.573          50.000  
S33  43056803.385   226265094.045        -637.937          42.000  
S31  42102777.322   221251666.659        -638.368          44.000  
G10  23655163.082   124308875.644         870.304          49.000    23655161.900    96864050.098         678.203          47.000  
E11  26991158.892   141839505.386         241.286          43.000    26991158.214   108682272.711         184.845          47.000  
R12  24209840.558   129324654.065        -767.755          51.000    24209840.714   100585967.521        -597.058          49.000  
R22  24041395.981   128334703.455         321.545          52.000    24041394.850    99815926.035         250.153          49.000  
R07  25502678.160   136517800.827        3271.772          51.000    25502676.261   106180568.777        2544.765          50.000  
R06  24297960.715   129658662.863         404.029          45.000                                                                  
G27  24981585.242   131279131.250        1552.983          49.000    24981583.918   102295431.478        1210.123          45.000  
G08  27516687.111                1       2407.539          25.000    27516685.707   112676265.910        1876.289          33.000  
E31  29698590.193   156067264.575       -3628.361          42.000    29698595.735   119584076.426       -2780.328          47.000  
E25  28620826.368   150403405.219         889.940          44.000    28620829.168   115244190.853         682.008          48.000  
E14  31198403.839   163948883.323       -1146.096          45.000    31198405.741   125623145.126        -878.222          49.000  
E19  30620822.457   160913554.357        1054.438          40.000    30620823.541   123297418.308         808.062          42.000  
E24  27324351.699   143590477.019       -1848.260          47.000    27324352.618   110023893.770       -1416.193          51.000  
E12  27642401.061   145261911.313       -1692.325          45.000    27642399.163   111304664.209       -1296.933          49.000  
E10  27219648.550   143040408.199        -791.076          47.000    27219649.991   109602588.406        -606.141          52.000  
E33                                                                  30956204.296   124647946.974       -2090.224          39.000  
G15                                                                  28788885.370                3      -1268.076          19.000  
G29                                                                  28874404.759                3      -2590.481          16.000  
> 2024 04 16 07 34 00.0110000  0 26                     
G18  26524380.947   139386620.368       -3219.238          47.000    26524376.885   108612926.342       -2508.573          45.000  
G26  24653428.453   129554653.066       -3096.533          47.000    24653428.491   100951685.335       -2412.791          45.000  
G23  24108908.143   126693390.465       -1951.800          47.000    24108905.632    98722138.236       -1520.880          50.000  
G16  24092652.782   126607773.632        -359.192          47.000                                                                  
R11  25107616.632   134167575.245       -4419.846          47.000    25107615.362   104352611.507       -3437.863          45.000  
R13  26612904.676                        2087.586          26.000    26612900.461                        1623.333          26.000  
R21  24255236.988   129794865.006       -1841.644          51.000    24255234.185   100951632.555       -1432.471          49.000  
S33  43060443.969   226284225.929        -637.260          42.000  
S31  42106419.604   221270806.933        -637.772          44.000  
E33  30971766.430   162757707.3861      -2725.164          32.000    30971770.346   124710620.879       -2087.944          40.000  
G10  23650250.505   124283058.534         850.963          50.000    23650249.048    96843932.898         663.153          47.000  
E11  26989793.587   141832330.407         237.038          43.000    26989792.762   108676775.108         181.610          47.000  
R12  24214225.943   129348077.804        -793.585          52.000    24214226.204   100604185.954        -617.255          50.000  
R22  24039600.439   128325116.051         317.712          52.000    24039598.658    99808469.188         247.137          49.000  
R07  25484361.610   136419750.072        3265.272          51.000    25484358.831   106104307.165        2539.577          48.000  
R06  24295757.757   129646909.223         379.687          45.000    24297118.790                3        -26.992          11.000  
G27  24972731.302   131232603.277        1549.269          49.000    24972730.007   102259175.971        1207.131          45.000  
G08  27502946.102                        2409.508          28.000    27502931.432   112619964.964        1878.126          33.000  
E31  29719313.617   156176163.312       -3631.235          43.000    29719318.374   119667518.266       -2782.316          47.000  
E25  28615775.566   150376869.292         879.358          44.000    28615779.913   115223858.159         673.695          49.000  
E14  31204928.752   163983168.058       -1139.319          45.000    31204930.149   125649415.241        -872.885          49.000  
E19  30614823.691   160882029.215        1047.477          40.000    30614823.923   123273262.756         802.604          42.000  
E24  27334938.698   143646108.376       -1860.388          48.000    27334938.712   110066520.414       -1425.511          51.000  
E12  27652068.879   145312717.879       -1694.284          45.000    27652067.210   111343593.906       -1298.283          49.000  
E10  27224175.913   143064198.420        -794.776          48.000    27224176.999   109620817.320        -608.921          51.000  
G29                                                                  28893429.409                3      -2594.171          15.000  
> 2024 04 16 07 34 30.0110000  0 25                     
G18  26542761.752   139483211.411       -3220.024          47.000    26542758.279   108688192.102       -2509.302          46.000  
G26  24671144.886   129647757.886       -3110.356          46.000    24671145.142   101024234.512       -2423.767          45.000  
G23  24120103.017   126752222.830       -1970.428          47.000    24120100.705    98767981.700       -1535.400          50.000  
G16  24094760.202   126618851.733        -379.376          47.000                                                                  
R11  25132459.249   134300323.473       -4429.850          47.000    25132458.203   104455860.028       -3445.610          46.000  
R13  26601226.457                3       2070.748          25.000    26601220.511                        1608.747          27.000  
R21  24265572.516   129850162.139       -1844.849          51.000    24265567.290   100994641.470       -1434.784          49.000  
S33  43064082.831   226303347.720        -637.592          42.000  
S31  42110059.654   221289936.198        -637.760          44.000  
E33  30987321.392   162839424.119       -2722.584          35.000    30987320.562   124773235.029       -2086.302          40.000  
G10  23645450.295   124257832.584         830.719          50.000    23645448.507    96824276.419         647.422          46.000  
E11  26988454.581   141825295.012         232.091          43.000    26988453.756   108671384.450         177.950          47.000  
R12  24218758.221   129372285.394        -820.270          52.000    24218758.067   100623014.011        -637.915          50.000  
R22  24037828.336   128315655.833         313.098          52.000    24037826.359    99801111.257         243.488          49.000  
R07  25466083.924   136321909.413        3257.581          51.000    25466081.367   106028208.960        2533.618          48.000  
R06  24293692.916   129635892.320         354.551          44.000                                                                  
G27  24963900.698   131186199.021        1544.489          49.000    24963899.249   102223016.830        1203.411          45.000  
G08  27489182.868   144456631.2011       2410.867          33.000    27489170.040   112563624.886        1877.632          33.000  
E31  29740055.064   156285157.264       -3635.094          43.000    29740059.189   119751033.078       -2785.193          47.000  
E25  28610790.125   150350669.803         867.422          45.000    28610794.450   115203783.234         664.701          50.000  
E14  31211416.024   164017260.621       -1133.390          45.000    31211417.779   125675538.124        -868.411          49.000  
E19  30608866.321   160850722.678        1039.795          38.000    30608866.758   123249274.700         796.887          42.000  
E24  27345597.274   143702115.968       -1873.344          48.000    27345596.698   110109435.335       -1435.491          51.000  
E12  27661748.926   145363590.745       -1697.052          44.000    27661748.168   111382574.413       -1300.399          49.000  
E10  27228725.126   143088108.605        -799.191          47.000    27228726.878   109639138.175        -612.336          51.000  
> 2024 04 16 07 35 00.0110000  0 25                     
G18  26561144.914   139579816.838       -3220.556          47.000    26561141.615   108763469.012       -2509.358          45.000  
G26  24688939.900   129741270.883       -3123.990          47.000    24688940.461   101097101.754       -2434.281          45.000  
G23  24131403.257   126811605.563       -1988.586          47.000    24131400.728    98814253.997       -1549.591          50.000  
G16  24096981.852   126630526.086        -399.078          47.000                                                                  
R11  25157353.818   134433358.680       -4439.216          46.000    25157352.908   104559331.792       -3452.788          45.000  
R13  26589646.489                1       2050.074          26.000    26589663.353                        1594.209          28.000  
R21  24275920.426   129905544.313       -1847.394          49.000    24275915.067   101037716.525       -1436.975          48.000  
S33  43067720.521   226322465.251        -637.336          42.000  
S31  42113699.031   221309061.319        -637.393          45.000  
E33  31002856.714   162921069.221       -2720.480          36.000    31002856.947   124835794.303       -2084.415          40.000  
G10  23640763.204   124233205.434         810.915          50.000    23640762.116    96805086.518         631.663          46.000  
E11  26987143.229   141818404.891         227.301          43.000    26987142.466   108666105.099         174.071          46.000  
R12  24223438.281   129397282.498        -846.405          52.000    24223437.593   100642456.127        -658.417          50.000  
R22  24036081.314   128306328.846         308.588          51.000    24036079.263    99793856.935         239.990          49.000  
R07  25447847.666   136224290.211        3250.221          51.000    25447845.395   105952283.015        2527.893          49.000  
R06  24291768.293   129625620.969         329.764          44.000                                                                  
G27  24955095.712   131139926.656        1540.169          49.000    24955093.886   102186960.443        1200.275          45.000  
G08  27475413.165   144384285.248        2412.407          36.000    27475406.636   112507251.391        1879.378          33.000  
E31  29760815.241   156394251.175       -3637.984          43.000    29760819.056   119834624.499       -2787.549          47.000  
E25  28605869.981   150324814.481         856.059          45.000    28605874.383   115183972.029         656.074          50.000  
E14  31217868.382   164051168.162       -1127.110          45.000    31217870.131   125701519.223        -863.704          49.000  
E19  30602951.993   160819643.173        1032.308          39.000    30602952.869   123225460.626         791.023          42.000  
E24  27356327.299   143758505.427       -1885.986          48.000    27356327.427   110152642.850       -1445.128          51.000  
E12  27671443.233   145414535.720       -1699.374          43.000    27671442.723   111421610.229       -1302.087          49.000  
E10  27233299.367   143112144.332        -803.260          48.000    27233300.766   109657555.195        -615.506          52.000  
> 2024 04 16 07 35 30.0110000  0 26                     
G18  26579532.682   139676442.162       -3220.873          48.000    26579528.374   108838761.500       -2509.751          45.000  
G26  24706812.986   129835195.933       -3137.445          47.000    24706813.092   101170290.098       -2444.703          45.000  
G23  24142809.045   126871543.143       -2006.836          47.000    24142806.464    98860958.646       -1563.818          50.000  
G16  24099318.251   126642803.426        -418.994          47.000                                                                  
R11  25182303.147   134566682.914       -4448.625          45.000    25182302.796   104663028.292       -3459.918          45.000  
R13  26578187.670                        2030.859          28.000    26578199.167                        1580.259          30.000  
R21  24286288.645   129961017.926       -1850.288          51.000    24286283.134   101080862.685       -1439.058          48.000  
S33  43071359.088   226341585.005        -637.115          42.000  
S31  42117338.804   221328189.226        -637.325          44.000  
E33  31018381.037   163002648.853       -2718.040          37.000    31018381.778   124898303.434       -2082.599          40.000  
G10  23636191.826   124209184.655         790.826          49.000    23636190.716    96786368.965         616.398          46.000  
E11  26985860.867   141811665.820         222.244          43.000    26985860.090   108660941.459         170.344          46.000  
R12  24228266.373   129423075.117        -872.662          52.000    24228266.256   100662516.987        -678.729          50.000  
R22  24034359.342   128297141.260         304.248          51.000    24034358.297    99786711.036         236.603          50.000  
R07  25429655.079   136126903.614        3242.674          52.000    25429652.337   105876537.992        2522.092          49.000  
R06  24289985.293   129616103.733         304.921          44.000                                                                  
G27  24946316.677   131093794.511        1535.761          49.000    24946315.404   102151013.379        1196.762          45.000  
G08  27461637.285   144311904.353        2413.667          35.000    27461632.122   112450850.715        1880.568          33.000  
E31  29781594.945   156503449.788       -3641.464          44.000    29781599.187   119918296.129       -2790.047          48.000  
E25  28601017.549   150299311.064         844.601          46.000    28601021.168   115164430.466         647.091          50.000  
E14  31224287.460   164084897.886       -1121.032          45.000    31224288.674   125727364.063        -858.992          49.000  
E19  30597082.609   160788799.148        1024.615          40.000    30597083.359   123201826.956         784.825          41.000  
E24  27367131.211   143815282.397       -1898.636          48.000    27367131.959   110196147.278       -1454.838          51.000  
E12  27681152.457   145465558.162       -1701.787          43.000    27681152.123   111460705.394       -1303.866          50.000  
E10  27237897.876   143136311.127        -807.577          47.000    27237899.638   109676072.630        -618.765          52.000  
R05                                                                  27061903.059                3      -2714.257          25.000  
> 2024 04 16 07 36 00.0110000  0 26                     
G18  26597923.164   139773085.229       -3221.787          48.000    26597919.848   108914067.762       -2510.241          45.000  
G26  24724764.110   129929529.176       -3151.240          47.000    24724764.057   101243796.475       -2455.336          44.000  
G23  24154319.717   126932032.482       -2025.378          46.000    24154316.933    98908093.231       -1578.149          50.000  
G16  24101769.611   126655683.868        -439.496          47.000                                                                  
R11  25207306.714   134700289.865       -4458.347          47.000    25207305.963   104766944.771       -3467.515          46.000  
R13  26566847.820   141865381.7251       2011.525          29.000    26566841.919                        1564.812          28.000  
R21  24296669.110   130016581.912       -1853.719          49.000    24296666.337   101124079.126       -1441.675          49.000  
S33  43074997.421   226360705.481        -637.363          43.000  
S31  42120978.924   221347317.733        -637.672          44.000  
E33  31033892.596   163084161.657       -2716.232          36.000    31033892.149   124960761.335       -2080.655          39.000  
G10  23631736.029   124185770.508         770.338          48.000    23631735.523    96768124.162         600.277          46.000  
E11  26984607.189   141805075.806         217.374          44.000    26984605.986   108655892.021         166.501          47.000  
R12  24233242.981   129449661.040        -899.335          52.000    24233242.532   100683194.889        -699.432          49.000  
R22  24032663.224   128288091.264         299.432          50.000    24032662.846    99779672.122         232.916          50.000  
R07  25411506.864   136029752.735        3234.378          52.000    25411503.035   105800976.312        2515.663          48.000  
R06  24288342.396   129607341.283         279.418          43.000    24288566.514                3        -32.414          18.000  
G27  24937564.413   131047802.924        1530.759          49.000    24937563.503   102115175.779        1192.847          45.000  
G08  27447855.401   144239488.193        2414.023          36.000    27447851.678   112394422.558        1881.999          34.000  
E31  29802393.923   156612750.124       -3644.969          44.000    29802398.758   120002045.728       -2793.015          49.000  
E25  28596231.882   150274159.646         832.602          46.000    28596235.118   115145158.589         637.967          50.000  
E14  31230671.847   164118449.191       -1115.637          45.000    31230673.704   125753072.188        -854.578          50.000  
E19  30591256.187   160758191.134        1016.151          38.000    30591259.108   123178374.124         778.687          41.000  
E24  27378008.901   143872444.819       -1911.706          48.000    27378009.474   110239947.062       -1464.810          51.000  
E12  27690876.610   145516655.941       -1704.419          44.000    27690876.076   111499858.266       -1306.020          51.000  
E10  27242521.316   143160606.856        -811.849          47.000    27242523.086   109694688.884        -622.116          52.000  
R05                                                                  27081539.227                1      -2727.985          26.000  
> 2024 04 16 07 36 30.0110000  0 25                     
G18  26616317.090   139869742.894       -3222.086          48.000    26616312.344   108989385.446       -2510.702          44.000  
G26  24742792.273   130024265.750       -3164.551          46.000    24742791.079   101317617.167       -2466.025          43.000  
G23  24165934.080   126993069.488       -2043.652          45.000    24165932.055    98955654.578       -1592.346          50.000  
G16  24104334.874   126669164.911        -459.277          47.000                                                                  
R11  25232362.057   134834172.867       -4467.241          50.000    25232361.091   104871075.925       -3474.629          46.000  
R13  26555599.063                        1992.879          29.000    26555592.495                        1549.883          31.000  
R21  24307070.054   130072233.938       -1856.326          50.000    24307068.059   101167364.083       -1443.955          49.000  
S33  43078635.564   226379825.559        -637.164          42.000  
S31  42124618.894   221366445.687        -637.555          44.000  
E33  31049391.318   163165605.288       -2713.666          35.000    31049390.667   125023166.281       -2079.396          38.000  
G10  23627396.266   124162962.134         750.358          49.000    23627395.109    96750351.502         584.585          47.000  
E11  26983381.348   141798632.002         212.524          44.000    26983379.771   108650954.595         162.818          47.000  
R12  24238367.851   129477037.090        -925.586          51.000    24238366.682   100704487.329        -719.873          49.000  
R22  24030993.378   128279176.173         294.977          51.000    24030992.179    99772738.184         229.456          50.000  
R07  25393402.546   135932840.450        3226.469          51.000    25393399.452   105725600.184        2509.633          48.000  
R06  24286841.286   129599333.705         254.071          43.000                                                                  
G27  24928839.424   131001951.651        1526.175          49.000    24928838.196   102079447.526        1189.225          45.000  
G08  27434067.860   144167035.778        2415.676          37.000    27434066.596   112337966.154        1882.782          33.000  
E31  29823211.424   156722148.353       -3648.207          43.000    29823216.493   120085870.284       -2795.346          49.000  
E25  28591512.127   150249359.311         820.895          45.000    28591515.823   115126155.729         629.041          50.000  
E14  31237021.711   164151820.617       -1109.507          45.000    31237023.894   125778642.489        -849.943          50.000  
E19  30585475.495   160727818.717        1008.555          38.000    30585479.680   123155101.861         772.703          41.000  
E24  27388959.401   143929989.669       -1924.432          48.000    27388959.828   110284039.895       -1474.599          51.000  
E12  27700613.797   145567826.068       -1706.788          44.000    27700613.479   111539066.571       -1307.741          50.000  
E10  27247168.340   143185028.422        -816.031          48.000    27247170.258   109713401.551        -625.352          52.000  
> 2024 04 16 07 37 00.0110000  0 25                     
G18  26634713.521   139966419.687       -3222.885          47.000    26634708.734   109064718.021       -2511.229          43.000  
G26  24760897.218   130119408.432       -3178.197          46.000    24760896.742   101391754.263       -2476.390          44.000  
G23  24177654.439   127054657.650       -2062.128          46.000    24177652.274    99003645.396       -1606.854          50.000  
G16  24107015.624   126683252.452        -479.651          47.000                                                                  
R11  25257469.593   134968333.114       -4476.553          50.000    25257468.178   104975422.740       -3481.763          47.000  
R13  26544456.784                1       1973.628          28.000    26544446.932                1       1533.275          30.000  
R21  24317488.335   130127979.679       -1859.715          52.000    24317484.216   101210721.880       -1446.431          49.000  
S33  43082274.875   226398948.662        -637.647          43.000  
S31  42128259.569   221385577.639        -637.891          44.000  
E33  31064876.793   163246984.885       -2711.243          34.000    31064876.825   125085522.146       -2077.571          37.000  
G10  23623172.946   124140766.022         729.506          50.000    23623171.076    96733055.940         568.566          47.000  
E11  26982182.556   141792339.224         207.233          43.000    26982182.380   108646132.896         158.745          47.000  
R12  24243641.135   129505207.814        -952.325          51.000    24243640.663   100726397.815        -740.649          49.000  
R22  24029349.496   128270401.119         290.259          50.000    24029348.088    99765913.165         225.653          49.000  
R07  25375344.020   135836176.937        3217.912          49.000    25375341.978   105650417.548        2502.899          48.000  
R06  24285484.128   129592088.119         228.819          43.000                                                                  
G27  24920141.989   130956247.730        1521.034          47.000    24920140.677   102043834.062        1185.251          45.000  
G08  27420274.687   144094553.817        2416.398          36.000    27420272.073   112281486.766        1882.526          32.000  
E31  29844049.495   156831648.088       -3651.603          44.000    29844053.226   120169772.630       -2797.893          48.000  
E25  28586860.975   150224916.757         808.680          46.000    28586864.767   115107427.025         619.703          51.000  
E14  31243339.272   164185018.233       -1103.597          44.000    31243341.014   125804079.606        -845.666          49.000  
E19  30579743.139   160697689.062        1000.184          39.000    30579745.755   123132015.547         766.424          41.000  
E24  27399983.153   143987921.444       -1937.408          48.000    27399983.737   110328429.207       -1484.521          51.000  
E12  27710366.207   145619073.154       -1709.421          44.000    27710365.292   111578333.860       -1309.891          50.000  
E10  27251840.747   143209580.420        -820.520          47.000    27251842.210   109732214.156        -628.681          52.000  
> 2024 04 16 07 37 30.0110000  0 25                     
G18  26653115.045   140063119.515       -3223.565          47.000    26653110.447   109140068.570       -2511.940          44.000  
G26  24779079.878   130214959.298       -3191.624          47.000    24779078.983   101466209.500       -2487.210          43.000  
G23  24189479.726   127116799.757       -2080.371          45.000    24189477.363    99052067.851       -1621.118          50.000  
G16  24109813.033   126697952.229        -499.915          47.000                                                                  
R11  25282628.171   135102770.484       -4485.705          51.000    25282627.147   105079985.063       -3488.837          48.000  
R13  26533425.152                        1954.131          28.000    26533419.297                        1519.194          31.000  
R21  24327923.062   130183823.852       -1862.908          50.000    24327920.738   101254156.260       -1448.976          49.000  
S33  43085915.668   226418082.032        -637.921          43.000  
S31  42131902.051   221404718.444        -638.062          44.000  
E33  31080350.248   163328305.300       -2709.388          33.000    31080351.198   125147832.594       -2076.254          36.000  
G10  23619066.886   124119187.946         709.193          50.000    23619065.266    96716241.928         552.669          48.000  
E11  26981014.280   141786201.440         201.946          43.000    26981014.146   108641429.948         155.029          46.000  
R12  24249064.717   129534177.211        -978.668          52.000    24249063.875   100748929.578        -761.328          49.000  
R22  24027732.905   128261770.393         285.431          51.000    24027731.552    99759200.395         222.015          50.000  
R07  25357334.764   135739771.359        3209.378          49.000    25357332.289   105575435.499        2496.054          47.000  
R06  24284269.829   129585611.535         203.200          42.000                                                                  
G27  24911473.831   130910697.754        1516.076          47.000    24911472.381   102008340.566        1181.318          45.000  
G08  27406477.524   144022048.191        2417.095          36.000    27406472.060                        1883.258          31.000  
E31  29864906.180   156941252.400       -3654.877          44.000    29864910.058   120253755.146       -2800.524          47.000  
E25  28582279.149   150200838.016         796.731          46.000    28582282.752   115088977.093         610.487          51.000  
E14  31249623.830   164218047.531       -1097.871          45.000    31249625.898   125829387.790        -841.290          49.000  
E19  30574058.032   160667809.073         992.230          40.000    30574059.992   123109120.559         760.169          41.000  
E24  27411081.353   144046244.117       -1950.510          48.000    27411082.182   110373118.045       -1494.474          51.000  
E12  27720132.614   145670401.286       -1712.149          44.000    27720132.396   111617663.326       -1311.922          51.000  
E10  27256539.257   143234266.695        -825.009          48.000    27256539.870   109751129.641        -632.109          52.000  
> 2024 04 16 07 38 00.0110000  0 26                     
G18  26671519.517   140159835.819       -3224.191          46.000    26671515.393   109215431.884       -2512.269          44.000  
G26  24797338.296   130310910.067       -3205.108          46.000    24797337.912   101540976.305       -2497.532          43.000  
G23  24201408.677   127179488.222       -2098.828          45.000    24201405.934    99100916.057       -1635.406          49.000  
G16  24112725.373   126713258.624        -520.422          48.000                                                                  
R11  25307836.380   135237474.817       -4494.661          52.000    25307835.212   105184755.071       -3495.804          47.000  
R13  26522490.421                3       1934.523          25.000    26522498.828                        1503.912          28.000  
R21  24338378.090   130239760.814       -1866.286          52.000    24338372.691   101297662.824       -1451.443          48.000  
S33  43089557.375   226437218.021        -637.970          43.000  
S31  42135544.906   221423862.762        -638.346          45.000  
E33  31095814.809   163409560.590       -2708.226          34.000    31095813.191   125210093.148       -2074.508          35.000  
G10  23615076.637   124098223.317         688.639          50.000    23615076.309    96699905.852         536.620          48.000  
E11  26979875.624   141780212.339         197.139          44.000    26979874.071   108636840.927         151.044          46.000  
R12  24254635.559   129563938.393       -1005.273          50.000    24254635.119   100772077.188        -781.915          48.000  
R22  24026142.105   128253277.737         280.627          51.000    24026140.915    99752595.040         218.304          50.000  
R07  25339372.263   135643622.849        3200.563          49.000    25339370.727   105500653.338        2489.330          47.000  
R06  24283199.508   129579899.869         177.612          42.000                                                                  
G27  24902834.275   130865297.936        1510.781          47.000    24902833.238   101972964.108        1177.160          45.000  
G08  27392674.472   143949514.349        2417.982          36.000    27392670.762   112168469.044        1883.692          32.000  
E04  31375783.055                3       1826.296          25.000                                                                  
E31  29885781.289   157050953.949       -3658.503          43.000    29885785.663   120337812.152       -2803.190          47.000  
E25  28577766.056   150177118.748         784.587          46.000    28577769.063   115070802.594         601.154          51.000  
E14  31255876.929   164250903.675       -1092.500          45.000    31255878.227   125854563.264        -837.112          49.000  
E19  30568418.638   160638174.883         983.532          40.000    30568420.387   123086413.930         753.490          41.000  
E24  27422253.805   144104951.137       -1963.410          48.000    27422254.085   110418101.356       -1504.446          51.000  
E12  27729915.067   145721803.587       -1714.660          44.000    27729913.938   111657049.459       -1313.901          51.000  
E10  27261261.244   143259080.668        -829.358          48.000    27261261.906   109770142.954        -635.546          52.000  
> 2024 04 16 07 38 30.0110000  0 26                     
G18  26689927.138   140256565.460       -3224.556          46.000    26689921.466   109290805.646       -2512.505          44.000  
G26  24815672.410   130407255.747       -3217.947          46.000    24815671.385   101616050.830       -2507.600          43.000  
G23  24213441.604   127242718.756       -2116.705          46.000    24213438.519    99150186.615       -1649.262          49.000  
G16  24115753.471   126729169.724        -540.405          48.000                                                                  
R11  25333091.720   135372438.914       -4503.020          50.000    25333091.654   105289727.135       -3502.393          47.000  
R13  26511677.866                1       1914.981          28.000    26511688.380                        1489.575          24.000  
R21  24348847.389   130295788.164       -1868.977          51.000    24348843.870   101341239.650       -1453.852          48.000  
S33  43093199.251   226456355.906        -637.739          42.000  
S31  42139187.987   221443008.691        -638.063          45.000  
E33  31111264.587   163490748.203       -2705.269          35.000    31111262.376   125272301.944       -2072.734          34.000  
G10  23611204.195   124077871.158         668.292          50.000    23611202.632    96684047.037         520.639          47.000  
E11  26978764.343   141774368.922         192.405          45.000    26978762.053   108632363.502         147.468          46.000  
R12  24260353.816   129594488.233       -1031.415          49.000    24260353.503   100795838.200        -802.301          48.000  
R22  24024577.656   128244920.534         276.306          52.000    24024575.268    99746095.051         214.880          50.000  
R07  25321459.295   135547733.931        3191.968          48.000    25321457.849   105426073.081        2482.703          46.000  
R06  24282272.387   129574952.705         152.496          43.000                                                                  
G27  24894223.474   130820047.689        1505.833          47.000    24894222.095   101937704.177        1173.379          46.000  
G08  27378867.265   143876951.258        2419.625          34.000    27378864.599   112111926.300        1885.428          34.000  
E04  31365345.991                        1831.055          28.000                                                                  
E31  29906674.513   157160748.671       -3661.351          43.000    29906678.926   120421940.566       -2805.476          47.000  
E25  28573320.265   150153757.912         772.594          46.000    28573323.455   115052902.732         592.089          51.000  
E14  31262094.837   164283584.976       -1086.383          44.000    31262097.460   125879604.788        -832.548          49.000  
E19  30562826.295   160608785.898         975.655          41.000    30562827.328   123063895.202         747.335          40.000  
E24  27433498.200   144164039.364       -1976.064          49.000    27433498.041   110463376.760       -1514.063          52.000  
E12  27739710.245   145773277.209       -1716.891          44.000    27739709.105   111696490.260       -1315.560          50.000  
E10  27266006.478   143284019.244        -833.412          48.000    27266007.527   109789251.751        -638.643          52.000  
> 2024 04 16 07 39 00.0110000  0 26                     
G18  26708335.421   140353302.124       -3224.812          46.000    26708331.323   109366184.851       -2512.967          44.000  
G26  24834080.073   130503988.217       -3230.985          47.000    24834079.891   101691426.753       -2517.706          43.000  
G23  24225575.886   127306483.895       -2134.631          47.000    24225571.981    99199873.803       -1663.306          49.000  
G16  24118896.147   126745680.806        -560.486          48.000                                                                  
R11  25358394.986   135507652.775       -4511.403          49.000    25358395.430   105394893.422       -3508.850          47.000  
R13  26500985.892                        1894.857          26.000    26500974.434                3       1474.426          27.000  
R21  24359332.883   130351900.326       -1871.955          50.000    24359329.828   101384882.478       -1455.950          49.000  
S33  43096839.825   226475488.577        -637.949          43.000  
S31  42142830.567   221462149.674        -638.145          44.000  
E33  31126699.162   163571862.788       -2702.913          36.000    31126699.533   125334454.761       -2070.590          33.000  
G10  23607447.270   124058127.239         647.780          50.000    23607444.882    96668662.179         504.781          47.000  
E11  26977678.864   141768665.074         187.587          45.000    26977676.871   108627993.000         143.696          45.000  
R12  24266219.956   129625819.520       -1057.550          50.000    24266219.460   100820206.982        -822.516          49.000  
R22  24023035.177   128236692.807         271.936          51.000    24023033.904    99739695.744         211.493          50.000  
R07  25303595.976   135452103.386        3183.149          49.000    25303593.526   105351693.838        2475.839          47.000  
R06  24281488.377   129570766.343         126.770          42.000                                                                  
G27  24885640.522   130774943.476        1500.973          47.000    24885639.209   101902558.043        1169.570          45.000  
G08  27365052.322   143804354.802        2420.122          34.000    27365052.233   112055357.573        1885.964          37.000  
E04  31354879.797                        1834.622          30.000    31354886.684   126253133.4331       1405.895          36.000  
E31  29927583.276   157270629.479       -3664.231          42.000    29927588.502   120506134.926       -2807.661          47.000  
E25  28568941.902   150130751.305         760.871          45.000    28568945.401   115035274.311         583.054          51.000  
E14  31268279.647   164316086.772       -1080.496          43.000    31268282.384   125904508.746        -827.923          49.000  
E19  30557279.710   160579638.560         967.281          41.000    30557280.817   123041561.581         741.193          41.000  
E24  27444812.829   144223502.405       -1988.315          48.000    27444813.372   110508939.364       -1523.569          52.000  
E12  27749517.846   145824816.101       -1718.959          44.000    27749516.898   111735981.149       -1317.201          50.000  
E10  27270773.994   143309076.151        -837.253          48.000    27270775.590   109808451.276        -641.572          52.000  
> 2024 04 16 07 39 30.0110000  0 27                     
G18  26726746.507   140450056.382       -3225.556          44.000    26726742.032   109441577.827       -2513.533          43.000  
G26  24852563.295   130601116.195       -3244.314          47.000    24852562.537   101767110.873       -2528.151          44.000  
G23  24237813.804   127370793.048       -2152.911          48.000    24237809.302    99249984.865       -1677.496          48.000  
G16  24122154.052   126762803.273        -581.122          48.000                                                                  
R05  27221807.744                3      -3629.352          15.000                                                                  
R11  25383745.845   135643123.645       -4520.302          49.000    25383746.753   105500259.636       -3515.771          48.000  
R13  26490391.654                1       1875.329          26.000    26490387.008                        1458.489          29.000  
R21  24369838.168   130408109.349       -1875.457          50.000    24369832.832   101428600.576       -1458.742          48.000  
S33  43100482.106   226494627.782        -638.608          43.000  
S31  42146474.531   221481297.966        -638.835          44.000  
E33  31142123.085   163652915.633       -2701.155          36.000    31142122.221                       -2069.832          29.000  
G10  23603807.638   124039003.822         626.863          50.000    23603806.503    96653760.820         488.641          47.000  
E11  26976621.792   141763111.533         182.443          45.000    26976620.228   108623737.681         139.697          46.000  
R12  24272233.987   129657943.069       -1084.229          50.000    24272233.725   100845192.027        -843.323          49.000  
R22  24021519.273   128228605.730         266.901          51.000    24021518.754    99733405.816         207.642          50.000  
R07  25285782.861   135356748.042        3173.712          50.000    25285779.994   105277528.613        2468.499          47.000  
R06  24280848.798   129567354.054         100.610          42.000    24281165.417                3       -288.142          12.000  
G27  24877088.236   130729998.457        1495.276          47.000    24877086.334   101867535.952        1165.221          45.000  
G08  27351231.996   143731737.496        2420.667          35.000    27351234.524   111998772.683        1886.627          37.000  
E04  31344399.381   164715935.9811       1837.250          35.000    31344405.087   126210930.994        1407.803          38.000  
E31  29948511.305   157380606.041       -3667.718          41.000    29948516.416   120590402.652       -2810.326          47.000  
E25  28564633.382   150108111.618         748.225          45.000    28564637.233   115017927.037         573.355          51.000  
E14  31274432.949   164348421.188       -1075.362          43.000    31274435.120   125929284.460        -823.939          49.000  
E19  30551781.298   160550746.036         958.651          40.000    30551782.618   123019423.258         734.552          40.000  
E24  27456201.048   144283350.846       -2001.717          48.000    27456202.244   110554797.258       -1533.625          52.000  
E12  27759339.564   145876430.714       -1721.899          44.000    27759338.585   111775530.045       -1319.366          51.000  
E10  27275567.483   143334261.839        -841.836          49.000    27275568.060   109827749.456        -645.078          52.000  
> 2024 04 16 07 40 00.0110000  0 26                     
G18  26745160.883   140546823.566       -3225.800          45.000    26745158.179   109516980.800       -2513.734          46.000  
G26  24871120.070   130698633.082       -3257.178          47.000    24871120.115   101843098.032       -2537.853          45.000  
G23  24250153.580   127435640.343       -2170.709          48.000    24250149.547    99300515.261       -1691.382          48.000  
G16  24125527.776   126780533.571        -601.208          48.000                                                                  
R11  25409144.193   135778843.048       -4528.067          48.000    25409144.905   105605819.133       -3521.804          48.000  
R13  26479916.699                        1855.121          28.000    26479908.251   109978759.4091       1442.747          32.000  
R21  24380358.087   130464411.115       -1878.333          50.000    24380354.179   101472390.862       -1461.036          49.000  
S33  43104124.862   226513771.780        -638.352          42.000  
S31  42150118.962   221500449.393        -638.839          44.000  
E33  31157534.195   163733902.644       -2698.333          35.000    31157529.560                       -2068.140          26.000  
G10  23600286.186   124020498.276         606.438          50.000    23600284.726    96639340.925         472.532          47.000  
E11  26975592.258   141757703.773         177.796          44.000    26975591.229   108619594.060         136.301          46.000  
R12  24278393.519   129690853.741       -1110.284          49.000    24278393.748   100870789.192        -863.532          48.000  
R22  24020030.549   128220655.045         262.604          51.000    24020028.980    99727221.984         204.321          49.000  
R07  25268020.961   135261668.113        3164.665          50.000    25268017.816   105203577.592        2461.243          47.000  
R06  24280353.113   129564713.755          74.829          40.000    24280732.740                3        -50.109          15.000  
G27  24868565.487   130685210.691        1490.168          47.000    24868563.442   101832636.411        1161.149          46.000  
G08  27337409.599   143659096.899        2421.513          35.000    27337410.270   111942169.647        1886.897          35.000  
E04  31333900.580   164660758.703        1840.602          37.000    31333905.056   126168652.441        1410.516          40.000  
E31  29969456.179   157490672.781       -3670.654          41.000    29969461.116   120674739.469       -2812.425          46.000  
E25  28560394.833   150085836.226         736.351          46.000    28560398.168   115000858.884         564.187          51.000  
E14  31280553.667   164380585.115       -1069.341          44.000    31280555.573   125953929.557        -819.460          49.000  
E19  30546330.645   160522106.401         950.361          40.000    30546332.874   122997478.715         728.156          41.000  
E24  27467662.655   144343579.910       -2014.099          48.000    27467663.209   110600946.797       -1543.250          52.000  
E12  27769173.797   145928116.218       -1724.222          44.000    27769173.955   111815133.183       -1321.018          50.000  
E10  27280383.140   143359571.681        -845.812          48.000    27280384.241   109847142.774        -648.109          52.000  
> 2024 04 16 07 40 30.0110000  0 27                     
G18  26763576.329   140643601.614       -3226.396          42.000    26763572.836   109592392.281       -2513.727          44.000  
G26  24889749.479   130796534.942       -3269.768          46.000    24889750.586   101919385.200       -2547.967          45.000  
G23  24262594.597   127501022.523       -2188.226          47.000    24262591.484    99351462.458       -1705.261          48.000  
G16  24129017.408   126798870.443        -621.423          48.000                                                                  
R11  25434587.585   135914804.703       -4535.968          47.000    25434588.233   105711567.036       -3527.900          47.000  
R13  26469549.879                        1834.880          28.000    26469543.976                        1426.789          31.000  
R21  24390897.001   130520804.348       -1881.291          52.000    24390891.607   101516252.269       -1463.122          48.000  
S33  43107767.847   226532915.950        -638.521          43.000  
S31  42153763.722   221519602.826        -638.304          44.000  
E33  31172932.648   163814822.606       -2696.216          35.000    31172929.829                       -2066.160          28.000  
G10  23596882.274   124002610.407         585.828          50.000    23596880.907    96625402.387         456.508          47.000  
E11  26974590.502   141752439.860         172.942          44.000    26974589.630   108615560.673         132.643          46.000  
R12  24284703.185   129724548.844       -1136.298          52.000    24284701.759   100896996.535        -883.829          48.000  
R22  24018566.354   128212839.019         258.228          51.000    24018564.775    99721142.839         200.867          49.000  
R07  25250311.509   135166867.772        3155.333          50.000    25250308.713   105129844.048        2454.228          47.000  
R06  24280003.799   129562845.750          49.280          42.000    24278993.371                3        -52.000          15.000  
G27  24860072.740   130640580.702        1485.009          47.000    24860070.660   101797859.828        1157.184          46.000  
G08  27323582.148   143586432.951        2422.308          34.000    27323581.598   111885548.435        1888.022          34.000  
E04  31323381.993   164605482.689        1844.378          40.000    31323386.250   126126298.243        1413.195          43.000  
E31  29990416.902   157600826.723       -3672.946          39.000    29990422.200   120759143.135       -2814.399          46.000  
E25  28556225.536   150063925.123         724.334          46.000    28556228.583   114984069.862         554.971          51.000  
E14  31286642.393   164412578.009       -1063.531          44.000    31286643.551   125978443.610        -814.989          49.000  
E19  30540929.336   160493720.325         942.054          40.000    30540930.855   122975728.400         721.948          41.000  
E24  27479195.825   144404187.379       -2026.557          49.000    27479196.397   110647386.284       -1552.761          51.000  
E12  27779023.347   145979870.733       -1726.238          45.000    27779022.327   111854789.257       -1322.713          50.000  
E10  27285222.785   143385003.481        -849.722          48.000    27285223.510   109866629.527        -651.075          52.000  
R05                                                                  27262807.355                3      -2847.789          17.000  
> 2024 04 16 07 41 00.0110000  0 26                     
G18  26781995.730   140740389.797       -3226.502          44.000    26781991.977   109667811.646       -2514.037          45.000  
G26  24908452.619   130894819.224       -3282.537          47.000    24908453.054   101995970.330       -2557.870          44.000  
G23  24275137.190   127566937.604       -2206.030          47.000    24275134.868    99402824.927       -1719.000          48.000  
G16  24132623.059   126817815.299        -641.479          48.000                                                                  
R11  25460075.823   136051004.494       -4543.792          46.000    25460075.784   105817500.203       -3533.989          47.000  
R13  26459299.472                        1814.925          29.000    26459290.925                        1411.679          28.000  
R21  24401453.254   130577289.563       -1884.378          52.000    24401446.593   101560185.211       -1465.592          46.000  
S33  43111411.528   226552063.677        -638.365          42.000  
S31  42157408.705   221538758.416        -638.380          44.000  
E33  31188319.322   163895675.437       -2694.134          36.000    31188314.702                       -2064.176          28.000  
G10  23593596.330   123985341.234         565.454          51.000    23593595.084    96611945.935         440.481          48.000  
E11  26973615.825   141747319.202         168.318          44.000    26973615.031   108611637.075         128.937          47.000  
R12  24291156.658   129759027.386       -1162.290          50.000    24291156.862   100923813.191        -904.018          50.000  
R22  24017127.035   128205157.448         253.784          52.000    24017125.617    99715168.317         197.449          49.000  
R07  25232655.299   135072351.662        3145.808          50.000    25232653.917   105056331.535        2446.746          48.000  
R06  24279799.078   129561751.825          23.615          41.000                                                                  
G27  24851610.355   130596110.529        1479.757          47.000    24851608.568   101763207.802        1152.858          46.000  
G08  27309749.701   143513747.008        2422.795          34.000    27309749.074   111828910.112        1888.797          35.000  
E04  31312845.072   164550109.865        1847.535          42.000    31312849.002   126083869.843        1415.464          44.000  
E31  30011393.586   157711066.364       -3675.945          37.000    30011400.119   120843612.434       -2816.684          46.000  
E25  28552125.201   150042379.650         712.162          46.000    28552128.385   114967560.998         545.675          51.000  
E14  31292696.907   164444400.715       -1057.784          43.000    31292699.653   126002827.262        -810.524          49.000  
E19  30535576.352   160465589.538         933.466          41.000    30535578.207   122954173.693         715.154          42.000  
E24  27490800.829   144465172.480       -2039.167          48.000    27490801.564   110694115.120       -1562.453          51.000  
E12  27788885.936   146031693.615       -1728.566          45.000    27788883.982   111894497.682       -1324.517          51.000  
E10  27290085.520   143410556.531        -853.800          48.000    27290086.154   109886209.150        -654.165          52.000  
> 2024 04 16 07 41 30.0110000  0 27                     
G18  26800414.448   140837185.270       -3226.679          43.000    26800410.197   109743236.682       -2514.332          43.000  
G26  24927226.807   130993481.005       -3295.082          46.000    24927227.812   102072849.637       -2567.550          44.000  
G23  24287781.135   127633381.432       -2223.558          47.000    24287778.342    99454599.369       -1732.758          48.000  
G16  24136342.794   126837365.291        -661.810          48.000                                                                  
R11  25485607.918   136187435.427       -4551.778          45.000    25485607.464   105923613.126       -3540.165          47.000  
R13  26449160.276                        1795.073          31.000    26449148.010                        1395.981          27.000  
R21  24412025.736   130633864.536       -1887.333          51.000    24412020.132   101604187.996       -1468.076          47.000  
S33  43115054.916   226571210.738        -638.306          42.000  
S31  42161053.814   221557913.991        -638.624          44.000  
E33  31203691.836   163976458.920       -2691.536          35.000    31203686.721                       -2062.384          28.000  
G10  23590428.201   123968689.518         544.759          51.000    23590426.632    96598970.554         424.463          48.000  
E11  26972668.530   141742339.063         163.821          44.000    26972667.301   108607821.120         125.424          47.000  
R12  24297755.187   129794285.837       -1188.309          49.000    24297757.622   100951236.427        -924.161          49.000  
R22  24015713.585   128197607.895         249.402          52.000    24015711.558    99709296.540         194.012          50.000  
R07  25215052.074   134978121.556        3136.135          51.000    25215050.113   104983041.475        2439.347          49.000  
R06  24279738.125   129561431.456          -2.264          41.000                                                                  
G27  24843177.640   130551799.853        1474.370          47.000    24843176.541   101728680.056        1148.997          46.000  
G08  27295912.559   143441038.312        2424.228          33.000    27295912.769   111772254.111        1888.757          34.000  
E04  31302289.656   164494639.867        1850.542          43.000    31302293.539   126041366.963        1417.843          46.000  
E31  30032388.631   157821387.785       -3678.723          39.000    30032393.907   120928144.389       -2818.775          46.000  
E25  28548094.743   150021198.951         699.848          45.000    28548097.928   114951331.633         536.283          51.000  
E14  31298720.607   164476051.920       -1052.227          43.000    31298722.697   126027079.473        -806.245          49.000  
E19  30530272.671   160437713.624         924.756          41.000    30530273.224   122932814.291         708.463          41.000  
E24  27502477.588   144526532.086       -2051.631          49.000    27502478.104   110741130.914       -1571.882          51.000  
E12  27798759.220   146083582.001       -1730.751          45.000    27798758.079   111934256.321       -1326.170          51.000  
E10  27294970.571   143436227.876        -857.598          48.000    27294971.395   109905879.419        -657.205          52.000  
G32                                                                  28398304.830                3       1816.829          25.000  
> 2024 04 16 07 42 00.0110000  0 27                     
G18  26818836.772   140933988.258       -3227.047          44.000    26818831.668   109818667.587       -2514.613          44.000  
G26  24946073.406   131092518.671       -3307.582          47.000    24946074.033   102150021.806       -2577.292          44.000  
G23  24300526.492   127700352.975       -2241.255          48.000    24300522.201    99506785.016       -1746.450          48.000  
G16  24140178.082   126857522.072        -682.129          47.000                                                                  
R11  25511181.669   136324094.239       -4559.172          44.000    25511181.457   106029903.270       -3546.096          47.000  
R13  26439128.108   141183378.2041       1774.495          34.000    26439123.476                        1380.225          30.000  
R21  24422614.952   130690530.366       -1890.456          52.000    24422609.024   101648261.419       -1470.314          47.000  
S33  43118698.859   226590358.622        -638.382          42.000  
S31  42164699.234   221577070.538        -638.726          44.000  
E33  31219049.837   164057174.091       -2689.277          35.000    31219047.951   125706316.808       -2060.137          31.000  
G10  23587376.961   123952657.479         523.940          51.000    23587375.841    96586478.081         408.260          48.000  
E11  26971747.915   141737499.739         159.010          44.000    26971746.644   108604113.086         121.813          47.000  
R12  24304502.865   129830323.984       -1214.399          50.000    24304503.249   100979266.095        -944.441          48.000  
R22  24014324.547   128190190.900         244.928          52.000    24014322.366    99703527.850         190.424          50.000  
R07  25197503.262   134884183.927        3126.238          51.000    25197501.244   104909978.855        2431.568          48.000  
R06  24279823.394   129561887.473         -28.198          41.000                                                                  
G27  24834776.405   130507651.619        1468.677          48.000    24834775.238   101694278.889        1144.409          46.000  
G08  27282072.248   143368309.309        2425.047          32.000    27282072.747   111715582.244        1888.897          34.000  
E04  31291716.556   164439075.724        1853.775          43.000    31291720.008   125998791.919        1420.369          47.000  
E31  30053397.904   157931790.318       -3681.569          40.000    30053403.006   121012738.530       -2820.799          46.000  
E25  28544134.197   150000385.230         687.723          45.000    28544137.241   114935383.478         526.816          51.000  
E14  31304711.883   164507533.354       -1046.698          44.000    31304713.320   126051201.626        -802.019          49.000  
E19  30525016.048   160410095.693         916.084          40.000    30525017.375   122911652.541         702.095          41.000  
E24  27514224.302   144588266.431       -2064.160          48.000    27514225.853   110788433.872       -1581.596          51.000  
E12  27808645.430   146135536.288       -1732.982          44.000    27808644.770   111974065.463       -1327.887          51.000  
E10  27299877.706   143462017.723        -861.614          48.000    27299879.068   109925640.476        -660.197          52.000  
G32                                                                  28384969.722                3       1825.168          22.000  
> 2024 04 16 07 42 30.0110000  0 27                     
G18  26837258.370   141030799.283       -3227.664          43.000    26837253.865   109894104.683       -2514.747          42.000  
G26  24964991.271   131191930.658       -3320.073          47.000    24964990.184   102227485.690       -2587.054          42.000  
G23  24313371.052   127767851.379       -2258.886          47.000    24313367.022    99559381.212       -1760.169          48.000  
G16  24144129.255   126878286.851        -702.460          47.000                                                                  
R11  25536798.819   136460977.818       -4566.784          45.000    25536797.196   106136368.249       -3551.962          46.000  
R13  26429213.907   141130440.097        1753.875          34.000    26429214.405                        1364.921          30.000  
R21  24433220.637   130747288.948       -1893.674          51.000    24433216.292   101692407.015       -1472.978          48.000  
S33  43122343.008   226609509.266        -638.616          43.000  
S31  42168345.119   221596229.507        -638.746          44.000  
E33  31234391.228   164137822.236       -2687.833          31.000    31234396.858   125768112.194       -2059.042          32.000  
G10  23584444.409   123937247.176         503.155          50.000    23584443.079    96574470.091         392.146          48.000  
E11  26970854.116   141732801.944         153.836          45.000    26970852.670   108600513.510         118.006          47.000  
R12  24311396.160   129867141.584       -1240.497          51.000    24311394.567   101007902.012        -964.777          47.000  
R22  24012959.914   128182907.491         240.344          52.000    24012958.257    99697862.978         186.945          51.000  
R07  25180011.678   134790544.688        3116.153          51.000    25180008.340   104837148.300        2423.679          48.000  
R06  24280055.154   129563122.451         -54.755          41.000    24280207.624                3       -309.172          16.000  
G27  24826406.553   130463668.983        1463.093          47.000    24826405.542   101660006.729        1140.197          46.000  
G08  27268227.427   143295562.621        2424.615          33.000    27268229.353   111658896.571        1889.612          35.000  
E04  31281125.331   164383420.378        1856.391          42.000    31281128.503   125956147.008        1422.552          46.000  
E31  30074421.915   158042273.619       -3684.180          40.000    30074427.575   121097394.550       -2823.041          47.000  
E25  28540243.109   149979941.057         674.975          45.000    28540246.916   114919718.488         517.217          51.000  
E14  31310670.275   164538847.100       -1041.202          44.000    31310672.057   126075195.277        -797.802          49.000  
E19  30519809.650   160382738.675         907.326          40.000    30519812.095   122890690.750         695.192          42.000  
E24  27526043.725   144650375.747       -2076.690          48.000    27526045.109   110836024.138       -1591.295          51.000  
E12  27818544.117   146187556.903       -1735.327          44.000    27818544.033   112013925.461       -1329.683          51.000  
E10  27304807.795   143487926.613        -865.811          48.000    27304809.510   109945492.768        -663.455          52.000  
G32                                                                  28371615.661                3       1825.494          26.000  
> 2024 04 16 07 43 00.0110000  0 27                     
G18  26855683.963   141127622.720       -3227.496          43.000    26855679.618   109969551.575       -2515.115          44.000  
G26  24983980.892   131291719.540       -3332.459          47.000    24983980.270   102305243.235       -2596.722          44.000  
G23  24326315.599   127835879.708       -2276.330          48.000    24326312.469    99612390.366       -1773.913          48.000  
G16  24148197.790   126899665.302        -722.858          47.000                                                                  
R11  25562457.534   136598086.551       -4573.915          47.000    25562454.452   106243008.339       -3557.419          44.000  
R13  26419413.208   141078120.714        1733.227          34.000    26419418.342   109727478.960        1348.214          29.000  
R21  24443846.400   130804145.326       -1896.714          52.000    24443841.413   101736628.630       -1475.349          48.000  
S33  43125988.552   226628666.766        -638.513          43.000  
S31  42171992.138   221615396.094        -639.102          44.000  
E33  31249728.234   164218408.291       -2685.108          32.000    31249732.855   125829860.068       -2057.388          33.000  
G10  23581631.017   123922464.704         482.296          50.000    23581630.011    96562951.326         375.940          48.000  
E11  26969987.248   141728250.087         149.267          44.000    26969986.422   108597025.723         114.499          47.000  
R12  24318434.819   129904742.615       -1266.313          50.000    24318433.657   101037147.287        -984.917          47.000  
R22  24011620.456   128175762.732         235.822          51.000    24011619.827    99692305.972         183.331          50.000  
R07  25162576.401   134697213.842        3105.906          50.000    25162573.697   104764557.649        2415.584          47.000  
R06  24280433.098   129565142.990         -80.389          40.000    24280052.037                3       -317.000          18.000  
G27  24818069.637   130419859.105        1457.306          47.000    24818068.635   101625869.234        1135.780          46.000  
G08  27254382.109   143222804.759        2425.378          34.000    27254384.570   111602202.224        1889.728          36.000  
E04  31270517.894   164327681.005        1859.391          43.000    31270521.526   125913437.684        1424.714          46.000  
E31  30095461.958   158152841.133       -3686.749          40.000    30095468.198   121182115.073       -2825.155          47.000  
E25  28536423.133   149959872.808         662.631          44.000    28536428.125   114904341.532         507.800          51.000  
E14  31316598.385   164569999.064       -1035.693          44.000    31316600.218   126099064.968        -793.595          49.000  
E19  30514655.596   160355649.798         898.615          41.000    30514656.676   122869934.385         688.728          42.000  
E24  27537935.188   144712864.269       -2089.132          49.000    27537936.153   110883904.956       -1600.820          51.000  
E12  27828457.156   146239648.251       -1737.474          44.000    27828456.640   112053839.630       -1331.348          51.000  
E10  27309761.931   143513958.880        -869.681          49.000    27309763.306   109965439.596        -666.398          53.000  
G32                                                                  28358240.828                        1826.357          29.000  
> 2024 04 16 07 43 30.0110000  0 27                     
G18  26874108.806   141224452.538       -3227.687          44.000    26874106.065   110045003.353       -2514.911          43.000  
G26  25003040.048   131391877.182       -3344.572          46.000    25003039.960   102383288.126       -2606.071          44.000  
G23  24339361.160   127904430.576       -2293.531          49.000    24339356.949    99665806.670       -1787.218          48.000  
G16  24152381.819   126921651.873        -742.896          47.000                                                                  
R11  25588155.707   136735410.733       -4580.937          46.000    25588153.051   106349815.984       -3562.833          45.000  
R13  26409729.911   141026417.078        1713.338          35.000    26409737.156                        1332.505          26.000  
R21  24454489.228   130861094.382       -1899.786          51.000    24454483.713   101780922.360       -1477.680          48.000  
S33  43129634.522   226647827.009        -638.838          42.000  
S31  42175639.944   221634564.613        -638.939          44.000  
E33  31265053.337   164298927.006       -2682.291          31.000    31265052.985                       -2055.271          29.000  
G10  23578936.622   123908305.645         461.628          49.000    23578936.065    96551918.326         359.739          49.000  
E11  26969147.534   141723838.213         145.024          44.000    26969146.905   108593645.212         111.089          47.000  
R12  24325618.790   129943120.165       -1292.118          50.000    24325617.737   101066996.498       -1005.004          47.000  
R22  24010307.089   128168750.779         231.659          52.000    24010305.597    99686852.176         180.151          50.000  
R07  25145197.492   134604191.110        3095.633          48.000    25145195.778   104692206.746        2407.808          46.000  
R06  24280959.098   129567945.308        -106.372          41.000                                                                  
G27  24809765.107   130376218.444        1451.852          47.000    24809763.901   101591863.575        1131.472          46.000  
G08  27240534.501   143150031.396        2426.373          34.000    27240536.249   111545495.785        1890.277          37.000  
E04  31259894.052   164271854.068        1862.791          42.000    31259898.095   125870661.299        1427.100          47.000  
E31  30116518.534   158263485.860       -3689.279          42.000    30116523.428   121266894.740       -2826.785          47.000  
E25  28532675.556   149940176.364         650.422          44.000    28532680.034   114889249.455         498.469          51.000  
E14  31322494.116   164600984.673       -1030.019          44.000    31322496.550   126122807.204        -789.142          49.000  
E19  30509551.666   160328825.293         889.736          42.000    30509551.992   122849380.651         681.699          42.000  
E24  27549898.188   144775725.704       -2101.411          49.000    27549898.349   110932071.492       -1610.201          51.000  
G32  28344841.196   148953150.1001       2348.531          32.000    28344845.264                        1830.162          31.000  
E12  27838382.364   146291804.350       -1739.444          44.000    27838381.356   112093803.419       -1332.854          51.000  
E10  27314738.744   143540108.383        -873.418          49.000    27314739.572   109985476.261        -669.217          53.000  
> 2024 04 16 07 44 00.0110000  0 27                     
G18  26892535.629   141321288.276       -3228.143          44.000    26892532.854   110120459.790       -2515.614          43.000  
G26  25022169.091   131492401.017       -3357.127          46.000    25022169.013   102461618.372       -2615.963          44.000  
G23  24352505.011   127973502.044       -2311.265          49.000    24352500.861    99719628.638       -1801.109          48.000  
G16  24156681.172   126944247.069        -763.544          48.000                                                                  
R11  25613892.559   136872945.815       -4588.261          47.000    25613891.115   106456787.694       -3568.613          44.000  
R13  26400164.588   140975332.466        1691.838          34.000    26400169.211                        1316.207          26.000  
R21  24465146.874   130918136.743       -1903.293          50.000    24465143.011   101825288.649       -1480.308          47.000  
S33  43133281.188   226666989.374        -639.110          43.000  
S31  42179287.919   221653736.070        -639.485          44.000  
E33  31280365.994                       -2680.490          29.000    31280363.374   125953201.058       -2053.417          32.000  
G10  23576360.215   123894771.061         440.364          50.000    23576360.661    96541371.923         343.123          48.000  
E11  26968334.553   141719565.880         139.711          44.000    26968333.838   108590371.624         107.085          47.000  
R12  24332948.495   129982272.762       -1318.315          51.000    24332947.878   101097448.534       -1025.242          47.000  
R22  24009018.252   128161871.636         226.770          51.000    24009016.761    99681501.795         176.361          50.000  
R07  25127877.319   134511480.916        3084.707          49.000    25127875.757   104620098.827        2399.331          46.000  
R06  24281632.016   129571531.168        -132.886          42.000    24281447.844                3        -66.609          12.000  
G27  24801493.737   130332749.192        1445.865          47.000    24801491.943   101557991.462        1126.697          46.000  
G08  27226685.003   143077244.345        2426.831          37.000    27226685.728   111488778.679        1890.552          37.000  
E04  31249254.379   164215941.764        1864.755          42.000    31249257.948   125827819.515        1428.772          46.000  
E31  30137588.313   158374206.312       -3692.361          44.000    30137592.616   121351732.472       -2829.178          47.000  
E25  28528998.950   149920853.120         637.556          45.000    28529002.829   114874443.331         488.512          51.000  
E14  31328358.106   164631804.980       -1024.893          43.000    31328361.613   126146422.787        -785.387          49.000  
E19  30504497.845   160302267.454         880.504          41.000    30504497.450   122829031.225         674.553          41.000  
E24  27561930.682   144838959.328       -2114.325          48.000    27561931.123   110980523.223       -1620.058          51.000  
G32  28331425.902   148882659.336        2350.790          33.000    28331430.897   116012484.6171       1831.632          33.000  
E12  27848319.206   146344024.626       -1741.987          43.000    27848318.369   112133816.353       -1334.828          51.000  
E10  27319736.910   143566374.483        -877.825          49.000    27319737.725   110005602.254        -672.622          53.000  
> 2024 04 16 07 44 30.0110000  0 27                     
G18  26910964.429   141418133.510       -3228.492          43.000    26910962.390   110195923.615       -2515.829          43.000  
G26  25041368.872   131593292.600       -3369.236          47.000    25041368.676   102540235.149       -2625.514          44.000  
G23  24365748.643   128043096.254       -2328.691          48.000    24365744.543    99773857.916       -1814.596          49.000  
G16  24161098.049   126967455.606        -784.204          48.000                                                                  
R11  25639668.858   137010691.926       -4595.303          46.000    25639668.986   106563923.477       -3574.219          45.000  
R13  26390715.756   140924874.259        1670.951          35.000    26390695.497                3       1295.147          22.000  
R21  24475825.106   130975276.633       -1906.571          50.000    24475822.362   101869730.790       -1482.856          48.000  
S33  43136928.881   226686158.492        -639.403          42.000  
S31  42182937.606   221672914.097        -639.457          44.000  
E33  31295661.888                       -2678.259          31.000    31295662.116   126014797.665       -2052.409          35.000  
G10  23573904.488   123881866.136         419.393          49.000    23573904.730    96531316.144         326.797          48.000  
E11  26967548.835   141715436.663         134.963          44.000    26967547.954   108587207.688         103.438          46.000  
R12  24340423.351   130022203.448       -1344.168          50.000    24340423.339   101128505.720       -1045.503          48.000  
R22  24007754.776   128155129.361         222.235          52.000    24007753.905    99676257.845         172.815          50.000  
R07  25110619.704   134419092.411        3073.979          50.000    25110617.168   104548241.065        2390.769          46.000  
R06  24282451.793   129575906.078        -159.265          41.000                                                                  
G27  24793255.758   130289457.512        1439.934          48.000    24793253.600   101524257.715        1121.863          46.000  
G08  27212832.769   143004449.244        2426.770          38.000    27212833.201   111432055.254        1890.656          37.000  
E04  31238600.118   164159950.141        1867.569          42.000    31238603.041   125784916.878        1431.018          47.000  
E31  30158672.930   158485005.038       -3694.730          43.000    30158676.595   121436630.193       -2831.156          46.000  
E25  28525395.414   149901908.546         625.008          46.000    28525397.794   114859927.367         478.866          51.000  
E14  31334192.247   164662464.972       -1019.370          42.000    31334196.175   126169915.507        -781.202          49.000  
E19  30499496.165   160275981.981         871.289          41.000    30499495.866   122808890.431         667.715          42.000  
E24  27574034.860   144902568.369       -2126.787          48.000    27574035.213   111029262.593       -1629.616          51.000  
G32  28317995.034   148812075.982        2353.966          35.000    28317998.341   115957484.711        1834.362          35.000  
E12  27858269.233   146396312.772       -1744.242          44.000    27858268.447   112173881.313       -1336.490          50.000  
E10  27324757.405   143592760.673        -881.724          48.000    27324758.827   110025820.258        -675.563          53.000  
