     3.00           OBSERVATION DATA    M: Mixed            RINEX VERSION / TYPE
CONVBIN 2.4.3                           20240416 172942 UTC PGM / RUN BY / DATE 
format: u-blox UBX                                          COMMENT             
log: /home/regis/git/gnsspwv/obsdata/VERT00CHL/2024-04-16/VECOMMENT             
{self.marker}                                               MARKER NAME         
                                                            MARKER NUMBER       
GEODETIC                                                    MARKER TYPE         
{self.observer}     {self.institution}                      OBSERVER / AGENCY   
UNKNOWN             UBLOX-ZED-F9P                           REC # / TYPE / VERS 
UNKNOWN             TWIVSP6037L                             ANT # / TYPE        
  1713381.0000 -5047934.0000 -3490983.0000                  APPROX POSITION XYZ 
        0.0000        0.0000        0.0000                  ANTENNA: DELTA H/E/N
G    8 C1C L1C D1C S1C C2L L2L D2L S2L                      SYS / # / OBS TYPES 
R    8 C1C L1C D1C S1C C2C L2C D2C S2C                      SYS / # / OBS TYPES 
E    8 C1C L1C D1C S1C C7Q L7Q D7Q S7Q                      SYS / # / OBS TYPES 
S    4 C1C L1C D1C S1C                                      SYS / # / OBS TYPES 
  2024    04    16    17    15   00.4990000     GPS         TIME OF FIRST OBS   
  2024    04    16    17    29   30.4990000     GPS         TIME OF LAST OBS    
                                                            END OF HEADER       
> 2024 04 16 17 15 00.4990000  0 26                     
G04  23714241.392   124619102.8271      -3177.723          38.000    23714251.012    97105862.8171      -2476.534          37.000  
G06  21895025.994   115059115.5871      -3435.197          44.000    21895032.444    89656470.8761      -2676.483          41.000  
G07  19388823.843   101889120.4891      -1174.252          48.000    19388824.080    79394191.3781       -915.005          47.000  
G09  20959246.375   110141575.8031      -1939.872          48.000    20959249.346    85824615.5231      -1511.587          48.000  
R02  22264638.325   118808257.1571      -3016.194          48.000    22264649.694    92406406.3441      -2345.872          46.000  
R18  23057513.219                1      -4480.358          30.000                                                                  
R12  22936732.930   122523863.8421      -4660.969          33.000    22936733.574    95296371.5131      -3624.765          34.000  
R04  20973571.512   112312672.2161       1487.376          49.000    20973571.477    87354290.2361       1156.939          45.000  
R14  20082139.268   107049175.1651       2388.104          53.000    20082144.537    83260661.6681       1857.342          49.000  
G11  22096060.129   116115588.5451      -1257.151          47.000    22096063.194    90479833.2301       -979.604          45.000  
E08  26595499.748   139760353.1251        835.985          40.000    26595509.854   107089142.4531        640.566          44.000  
S31  38411609.766   201854361.7941       -818.814          44.000  
S33  39362634.098   206852020.5951       -818.527          42.000  
G20  21914702.860   115162591.8791       1927.343          44.000                                                                  
E03  23624902.614   124149777.2131       -338.107          47.000    23624908.911    95127808.9541       -259.058          52.000  
R03  19689011.242   105396879.7821       -781.490          52.000    19689011.709    81975382.9441       -607.751          51.000  
R13  19787210.896   105662867.5231      -2185.640          39.000    19787214.036    82182222.8141      -1699.918          44.000  
R19  22096303.808   118200408.2531      -2930.526          37.000    22096309.358    91933614.8411      -2278.972          43.000  
E05  23111352.458   121450937.7621      -1975.736          46.000    23111359.662    93059820.6601      -1513.800          48.000  
E13  26966737.576                1        650.426          28.000    26966746.160   108583935.1361        498.185          34.000  
E15  24768479.397   130159250.8041      -1837.595          44.000    24768487.795    99732479.4271      -1408.007          48.000  
G30  20477995.554   107612794.5381        992.139          49.000    20477999.135    83854246.2401        773.022          45.000  
E34  25811492.264   135640179.7691      -3689.110          45.000    25811506.102   103932076.4191      -2826.628          46.000  
G14  23860529.170   125387944.1433       2658.055          28.000    23860556.924    97704991.6541       2071.157          32.000  
E24  25883112.233   136016832.8821      -1056.716          44.000    25883120.915   104220808.5471       -809.641          49.000  
E25  24949606.223   131111267.2551       1298.405          46.000    24949616.041   100462000.4491        994.843          48.000  
> 2024 04 16 17 15 30.4990000  0 26                     
G04  23732387.282   124714456.257       -3179.304          37.000    23732397.690    97180163.929       -2477.235          39.000  
G06  21914668.130   115162333.648       -3446.556          45.000    21914674.634    89736900.321       -2685.795          42.000  
G07  19395582.665   101924631.805       -1193.528          49.000    19395581.682    79421862.522        -929.950          47.000  
G09  20970333.130   110199840.638       -1944.940          47.000    20970336.560    85870016.629       -1515.461          48.000  
R02  22281616.204   118898847.074       -3023.435          49.000    22281626.783    92476864.909       -2351.603          45.000  
R18  23082689.331                3      -4480.330          24.000                                                                  
R12  22962939.534                       -4672.862          27.000    22962942.837    95405266.599       -3634.575          34.000  
R04  20965243.154   112268074.162        1485.510          49.000    20965243.246    87319602.930        1155.346          45.000  
R14  20068748.881   106977802.383        2369.868          52.000    20068755.229    83205149.669        1843.133          49.000  
G11  22103289.187   116153579.208       -1275.887          46.000    22103292.420    90509436.251        -994.166          44.000  
E08  26590727.393   139735273.092         835.392          39.000    26590737.177   107069925.444         640.111          44.000  
S31  38416283.552   201878920.892        -819.112          43.000  
S33  39367306.345   206876572.001        -818.514          43.000  
G20  21903727.509   115104918.331        1917.333          44.000                                                                  
E03  23626838.040   124159946.891        -340.291          47.000    23626843.952    95135601.295        -260.853          52.000  
R03  19693415.977   105420454.856        -790.539          53.000    19693415.212    81993719.116        -614.924          50.000  
R13  19799560.598   105728810.936       -2211.010          40.000    19799562.353    82233512.092       -1719.684          44.000  
R19  22112789.002   118288590.985       -2949.138          38.000    22112793.731    92002201.135       -2293.616          45.000  
E05  23122634.914   121510226.308       -1977.236          46.000    23122642.229    93105249.440       -1515.039          49.000  
E15  24779008.577   130214579.007       -1851.378          45.000    24779016.952    99774873.673       -1418.608          49.000  
G30  20472374.678   107583258.245         976.697          49.000    20472378.678    83831231.045         760.956          45.000  
E34  25832562.074   135750898.099       -3692.435          46.000    25832574.902   104016912.183       -2829.356          45.000  
G14  23845355.393   125308171.0941       2660.038          33.000    23845374.424    97642831.966        2072.206          34.000  
E24  25889183.660   136048738.861       -1070.736          44.000    25889191.830   104245255.976        -820.448          47.000  
E25  24942216.126   131072437.229        1289.894          45.000    24942226.502   100432247.729         988.246          48.000  
E13                                                                  26963067.485   108569129.266         488.086          33.000  
> 2024 04 16 17 16 00.4990000  0 25                     
G04  23750538.292   124809840.739       -3180.172          37.000    23750548.841    97254489.223       -2477.897          38.000  
G06  21934374.331   115265888.302       -3457.440          44.000    21934380.699    89817592.036       -2693.985          42.000  
G07  19402449.424   101960715.558       -1212.198          49.000    19402448.148    79449979.725        -944.529          47.000  
G09  20981448.388   110258252.221       -1949.288          47.000    20981452.181    85915532.112       -1519.033          48.000  
R02  22298632.636   118989652.522       -3030.403          47.000    22298643.274    92547491.183       -2356.772          45.000  
R12  22989211.800                       -4682.022          26.000    22989215.183    95514414.226       -3642.771          33.000  
R04  20956923.681   112223525.489        1484.276          49.000    20956924.414    87284954.019        1154.320          46.000  
R14  20055462.581   106906975.430        2351.816          53.000    20055468.975    83150062.171        1829.202          50.000  
G11  22110624.505   116192126.185       -1294.070          46.000    22110626.941    90539472.746       -1008.336          43.000  
E08  26585958.462   139710209.566         835.340          41.000    26585967.319   107050721.085         640.088          44.000  
S31  38420958.037   201903484.288        -818.779          44.000  
S33  39371979.766   206901129.384        -818.221          43.000  
G20  21892810.051   115047542.511        1907.694          44.000                                                                  
E03  23628784.849   124170180.574        -342.171          46.000    23628791.558    95143442.666        -262.150          52.000  
R03  19697869.852   105444300.889        -799.372          52.000    19697869.803    82012266.004        -621.633          50.000  
R13  19812052.047   105795518.087       -2236.187          40.000    19812054.711    82285395.432       -1739.250          44.000  
R19  22129378.525   118377328.472       -2967.001          39.000    22129383.051    92071218.880       -2307.740          45.000  
E05  23133925.750   121569561.176       -1978.500          46.000    23133933.034    93150713.734       -1516.005          48.000  
E15  24789614.793   130270313.997       -1864.480          45.000    24789623.754    99817579.597       -1428.667          49.000  
G30  20466841.578   107554183.615         961.584          49.000    20466845.827    83808575.531         749.255          45.000  
E34  25853649.736   135861715.428       -3695.477          44.000    25853663.543   104101823.761       -2831.688          45.000  
G14  23830167.560   125228349.010        2661.846          36.000    23830183.593    97580633.557        2073.817          37.000  
E24  25895334.779   136081062.119       -1084.301          44.000    25895342.802   104270023.106        -830.802          46.000  
E25  24934876.557   131033862.477        1281.667          46.000    24934886.006   100402690.565         982.129          49.000  
E13                                                                  26959461.758   108554614.433         478.993          34.000  
> 2024 04 16 17 16 30.4990000  0 26                     
G04  23768694.884   124905251.572       -3181.205          38.000    23768703.962    97328835.078       -2479.036          35.000  
G06  21954142.229   115369771.584       -3468.603          44.000    21954150.866    89898539.769       -2702.700          44.000  
G07  19409423.674   101997365.836       -1231.365          48.000    19409422.167    79478538.375        -959.454          46.000  
G09  20992590.711   110316805.923       -1954.370          47.000    20992594.559    85961158.320       -1522.999          48.000  
R02  22315689.816   119080668.855       -3037.684          47.000    22315699.954    92618281.414       -2362.723          45.000  
R18  23133050.419                3      -4479.400          17.000                                                                  
R12  23015598.382                3      -4700.065          19.000    23015544.242                       -3650.370          31.000  
R04  20948613.843   112179022.660        1482.386          49.000    20948614.283    87250340.787        1152.857          47.000  
R14  20042277.490   106836693.350        2333.196          53.000    20042283.952    83095398.478        1814.746          50.000  
G11  22118065.112   116231223.618       -1312.721          48.000    22118066.775    90569938.152       -1022.997          44.000  
E08  26581191.178   139685157.568         834.490          42.000    26581200.006   107031525.522         639.498          44.000  
S31  38425631.926   201928046.507        -819.080          41.000  
S33  39376652.347   206925685.157        -819.095          43.000  
G20  21881947.796   114990462.212        1897.537          45.000                                                                  
E03  23630743.449   124180473.469        -344.477          46.000    23630750.326    95151329.413        -263.935          52.000  
R03  19702374.857   105468414.034        -808.539          52.000    19702374.113    82031020.663        -628.919          51.000  
R13  19824686.409   105862982.121       -2261.537          40.000    19824688.811    82337867.454       -1759.233          44.000  
R19  22146068.002   118466612.211       -2985.451          39.000    22146075.025    92140661.477       -2322.183          46.000  
E05  23145225.304   121628937.824       -1980.282          46.000    23145231.783    93196210.047       -1517.262          48.000  
E15  24800297.309   130326449.892       -1878.179          45.000    24800306.073    99860592.706       -1439.126          49.000  
G30  20461395.951   107525566.656         945.825          49.000    20461400.084    83786276.627         737.140          45.000  
E34  25874755.268   135972624.856       -3698.802          45.000    25874769.469   104186805.974       -2834.146          45.000  
G14  23814967.998   125148475.134        2663.119          39.000    23814983.259    97518394.850        2075.010          38.000  
E24  25901565.040   136113797.878       -1098.637          45.000    25901572.284   104295106.350        -841.727          45.000  
E25  24927583.532   130995540.122        1272.777          45.000    24927593.310   100373326.799         975.390          48.000  
E13                                                                  26955927.653   108540388.078         468.973          34.000  
> 2024 04 16 17 17 00.4990000  0 26                     
G04  23786860.742   125000712.098       -3183.069          36.000    23786868.756    97403219.573       -2480.368          33.000  
G06  21973977.452   115474003.354       -3480.076          44.000    21973985.891    89979759.079       -2711.798          43.000  
G07  19416509.845   102034604.548       -1250.948          48.000    19416508.686    79507555.573        -974.813          47.000  
G09  21003765.630   110375524.893       -1959.797          47.000    21003768.440    86006913.299       -1527.275          48.000  
R02  22332789.308   119171920.277       -3045.601          46.000    22332800.463    92689254.479       -2368.742          45.000  
R18  23158397.089                3      -4487.807          26.000                                                                  
R12  23041980.892                3      -4704.925          22.000    23041936.313                       -3659.586          29.000  
R04  20940317.445   112134590.356        1480.085          48.000    20940317.814    87215782.381        1151.082          48.000  
R14  20029200.134   106766983.388        2314.131          53.000    20029206.738    83041179.778        1799.962          50.000  
G11  22125613.908   116270893.417       -1331.929          46.000    22125616.476    90600849.568       -1037.416          44.000  
E08  26576430.194   139660139.743         833.523          42.000    26576439.617   107012356.153         638.748          45.000  
S31  38430310.252   201952631.174        -819.800          42.000  
S33  39381329.426   206950263.370        -819.368          43.000  
G20  21871147.203   114933703.202        1886.687          45.000                                                                  
E03  23632718.308   124190848.586        -347.046          46.000    23632724.700    95159279.159        -265.974          52.000  
R03  19706935.261   105492819.567        -818.343          52.000    19706933.958    82050002.704        -636.461          51.000  
R13  19837466.158   105931224.010       -2287.870          41.000    19837468.503    82390944.415       -1779.108          44.000  
R19  22162864.683   118556461.755       -3004.526          38.000    22162871.979    92210544.097       -2336.540          48.000  
E05  23156536.224   121688379.513       -1982.297          46.000    23156543.388    93241756.222       -1518.982          48.000  
E15  24811060.338   130383008.627       -1892.221          46.000    24811069.295    99903929.799       -1449.882          50.000  
G30  20456042.189   107497431.028         929.980          49.000    20456045.825    83764352.821         724.500          45.000  
E34  25895881.206   136083647.389       -3702.631          42.000    25895897.070   104271874.730       -2836.953          46.000  
G14  23799763.189   125068575.398        2664.297          41.000    23799779.237    97456135.989        2075.656          43.000  
E24  25907877.450   136146969.182       -1112.727          46.000    25907883.377   104320523.264        -852.690          43.000  
E25  24920343.745   130957495.064        1263.817          46.000    24920353.454   100344175.525         968.291          48.000  
E13                                                                  26952471.818   108526468.666         458.559          33.000  
> 2024 04 16 17 17 30.4990000  0 26                     
G04  23805035.685   125096218.802       -3184.637          40.000    23805041.923                       -2481.008          32.000  
G06  21993876.533   115578576.863       -3491.480          43.000    21993885.373    90061244.720       -2720.872          43.000  
G07  19423706.303   102072426.577       -1270.518          47.000    19423706.319    79537027.298        -990.161          47.000  
G09  21014969.825   110434405.746       -1965.413          48.000    21014972.943    86052794.408       -1531.497          48.000  
R02  22349934.765   119263403.306       -3053.436          48.000    22349943.550    92760407.678       -2374.862          45.000  
R12  23068395.058                3      -4715.910          25.000    23068392.077                       -3668.332          31.000  
R04  20932030.991   112090226.422        1477.505          47.000    20932033.072    87181277.153        1149.127          49.000  
R14  20016229.293   106697845.559        2294.901          52.000    20016236.442    82987406.070        1784.884          51.000  
G11  22133271.025   116311130.955       -1350.807          47.000    22133273.239    90632203.389       -1052.612          44.000  
E08  26571675.946   139635152.285         832.248          42.000    26571684.417   106993210.071         637.719          46.000  
S31  38434992.146   201977234.574        -820.341          44.000  
S33  39386010.256   206974860.134        -820.305          42.000  
G20  21860406.824   114877264.213        1875.720          45.000                                                                  
E03  23634707.323   124201302.403        -349.884          46.000    23634713.984    95167289.217        -268.161          52.000  
R03  19711547.917   105517515.416        -828.164          51.000    19711547.260    82069210.576        -644.181          51.000  
R13  19850389.780   106000238.024       -2313.356          40.000    19850392.356    82444621.984       -1799.238          44.000  
R19  22179766.505   118646869.530       -3022.855          41.000    22179772.657    92280860.974       -2351.334          46.000  
E05  23167859.524   121747883.035       -1984.536          45.000    23167866.434    93287349.730       -1520.755          47.000  
E15  24821902.688   130439985.571       -1906.353          46.000    24821911.951    99947587.344       -1460.688          50.000  
G30  20450778.965   107469773.920         913.831          48.000    20450782.888    83742801.863         712.140          45.000  
E34  25917029.845   136194777.402       -3706.368          42.000    25917044.720   104357025.894       -2839.804          47.000  
G14  23784552.629   124988649.015        2664.364          41.000    23784568.950    97393856.345        2076.201          43.000  
E24  25914272.833   136180572.510       -1127.437          46.000    25914278.585   104346271.271        -863.967          44.000  
E25  24913156.998   130919725.812        1254.196          47.000    24913165.930   100315235.554         961.030          48.000  
E13                                                                  26949087.665                         448.547          31.000  
R18                                                                  23183742.416                3      -3492.392          24.000  
> 2024 04 16 17 18 00.4990000  0 26                     
G04  23823217.662   125191766.885       -3184.818          39.000    23823224.781    97552092.979       -2481.765          35.000  
G06  22013839.670   115683483.795       -3501.917          42.000    22013848.705    90142990.171       -2728.839          42.000  
G07  19431013.450   102110825.822       -1289.098          48.000    19431012.801    79566948.749       -1004.599          46.000  
G09  21026204.313   110493443.510       -1970.063          47.000    21026207.291    86098797.786       -1535.219          47.000  
R02  22367121.810   119355113.626       -3060.274          48.000    22367130.683    92831737.692       -2380.427          45.000  
R12  23094910.015                3      -4722.043          23.000    23094904.411    95953525.844       -3675.696          29.000  
R04  20923758.273   112045926.681        1476.031          48.000    20923759.523    87146821.883        1148.044          48.000  
R14  20003367.062   106629278.487        2276.470          54.000    20003373.674    82934076.260        1770.562          51.000  
G11  22141034.866   116351929.972       -1368.987          47.000    22141037.487    90663994.697       -1066.563          45.000  
E08  26566924.817   139610189.854         832.062          42.000    26566934.565   106974083.125         637.561          47.000  
S31  38439676.879   202001851.625        -820.271          43.000  
S33  39390693.452   206999471.457        -820.121          43.000  
G20  21849726.933   114821142.898        1865.797          44.000                                                                  
E03  23636710.284   124211829.748        -351.693          46.000    23636717.412    95175355.607        -269.491          52.000  
R03  19716215.108   105542498.149        -837.007          51.000    19716214.263    82088641.551        -651.025          51.000  
R13  19863457.224   106070016.904       -2338.574          39.000    19863459.635    82498894.395       -1818.635          44.000  
R19  22196770.105   118737826.697       -3040.425          39.000    22196775.786    92351605.113       -2364.912          45.000  
E05  23179193.389   121807443.459       -1985.647          45.000    23179200.466    93332986.877       -1521.617          47.000  
E15  24832823.177   130497374.402       -1919.566          46.000    24832832.578    99991560.478       -1470.694          50.000  
G30  20445605.614   107442590.816         898.523          48.000    20445609.699    83721620.297         700.189          45.000  
E34  25938196.257   136306007.677       -3708.968          41.000    25938210.856   104442253.891       -2841.839          46.000  
G14  23769336.609   124908693.473        2666.555          38.000    23769353.326    97331554.011        2077.530          43.000  
E24  25920746.969   136214602.716       -1141.097          45.000    25920754.414   104372346.391        -874.345          44.000  
E25  24906020.455   130882229.080        1245.684          46.000    24906030.388   100286504.405         954.510          48.000  
E02                                                                  27198015.546                3       1626.487          25.000  
E13                                                                  26945781.336   108499542.061         440.228          29.000  
> 2024 04 16 17 18 30.4990000  0 27                     
G04  23841404.942   125287342.970       -3186.585          36.000    23841415.265    97626567.485       -2483.131          36.000  
G06  22033863.449   115788707.480       -3512.704          43.000    22033872.291    90224982.403       -2737.564          42.000  
G07  19438428.319   102149786.927       -1308.166          49.000    19438427.147    79597308.034       -1019.351          46.000  
G09  21037466.711   110552624.856       -1975.182          48.000    21037469.538    86144913.054       -1538.966          47.000  
R02  22384348.813   119447037.885       -3067.757          49.000    22384357.756    92903234.089       -2386.118          45.000  
R12  23121494.755                3      -4733.093          16.000    23121471.271                       -3683.037          27.000  
R04  20915494.737   112001679.304        1474.009          49.000    20915495.990    87112407.286        1146.531          48.000  
R14  19990608.086   106561272.083        2257.436          53.000    19990614.568    82881182.530        1755.832          50.000  
G11  22148901.893   116393275.793       -1387.346          46.000    22148906.162    90696212.132       -1081.018          46.000  
E08  26562175.346   139585238.580         831.382          41.000    26562186.572   106954964.753         637.138          47.000  
S31  38444361.522   202026469.752        -820.623          44.000  
S33  39395376.313   207024082.678        -820.390          42.000  
G20  21839105.267   114765328.259        1855.228          44.000                                                                  
E03  23638725.454   124222417.152        -354.057          46.000    23638732.144    95183468.035        -271.211          52.000  
R03  19720931.284   105567755.285        -846.556          51.000    19720932.416    82108285.966        -658.469          52.000  
R13  19876664.097   106140544.470       -2363.536          38.000    19876667.262    82553749.130       -1838.132          44.000  
R19  22213873.180   118829315.300       -3058.574          41.000    22213878.492    92422762.659       -2378.820          44.000  
E05  23190535.340   121867047.608       -1987.522          44.000    23190543.471    93378657.514       -1522.964          48.000  
E15  24843819.394   130555160.482       -1932.712          45.000    24843828.623   100035838.005       -1481.103          50.000  
G30  20440521.263   107415868.925         883.105          49.000    20440525.036    83700798.106         688.190          45.000  
E34  25959378.195   136417322.655       -3711.918          39.000    25959394.274   104527546.796       -2844.115          47.000  
G14  23754113.791   124828698.236        2666.771          39.000    23754129.898    97269220.734        2078.086          42.000  
E24  25927302.933   136249046.310       -1155.051          46.000    25927308.781   104398738.182        -885.005          43.000  
E25  24898934.940   130844993.326        1236.817          46.000    24898945.060   100257973.218         947.646          48.000  
E02                                                                  27185872.521                        1630.112          28.000  
E13                                                                  26942543.390                         428.939          27.000  
R18                                                                  23234293.804                3      -3493.093          25.000  
> 2024 04 16 17 19 00.4990000  0 26                     
G04  23859598.632   125382951.383       -3187.085          39.000    23859610.556    97701067.301       -2483.662          35.000  
G06  22053947.617   115894248.847       -3523.364          43.000    22053956.152    90307222.179       -2745.332          41.000  
G07  19445950.169   102189312.738       -1327.014          49.000    19445949.088    79628107.336       -1033.875          47.000  
G09  21048757.134   110611954.067       -1980.146          49.000    21048759.709    86191143.538       -1543.011          47.000  
R02  22401615.526   119539180.743       -3075.117          48.000    22401625.664    92974900.533       -2391.755          45.000  
R12  23148128.926                3      -4751.463          22.000    23148096.630                3      -3690.892          26.000  
R04  20907243.574   111957489.706        1471.924          48.000    20907244.399    87078037.650        1144.869          48.000  
R14  19977956.871   106493834.729        2238.340          52.000    19977962.565    82828731.399        1740.842          49.000  
G11  22156875.607   116435171.435       -1405.647          46.000    22156878.267    90728857.941       -1095.526          45.000  
E08  26557429.558   139560302.448         831.129          39.000    26557441.023   106935857.913         636.788          47.000  
S31  38449046.983   202051091.416        -821.090          44.000  
S33  39400060.903   207048698.022        -820.812          42.000  
G20  21828544.636   114709827.107        1844.818          44.000                                                                  
E03  23640752.461   124233068.753        -356.271          47.000    23640758.655    95191629.638        -272.916          51.000  
R03  19725703.496   105593292.717        -855.921          51.000    19725703.151    82128148.393        -665.774          52.000  
R13  19890012.928   106211822.481       -2388.145          39.000    19890015.647    82609187.570       -1857.729          44.000  
R19  22231075.955   118921335.850       -3076.104          40.000    22231081.468    92494333.901       -2392.467          44.000  
E05  23201887.032   121926699.920       -1989.146          45.000    23201895.055    93424365.025       -1524.154          48.000  
E15  24854892.327   130613346.824       -1946.223          46.000    24854901.373   100080422.214       -1491.260          50.000  
G30  20435525.487   107389613.010         867.297          49.000    20435528.162    83680339.015         675.787          45.000  
E34  25980579.693   136528724.346       -3714.645          41.000    25980594.012   104612906.155       -2846.405          48.000  
G14  23738884.237   124748670.228        2668.342          39.000    23738899.472    97206861.870        2079.035          40.000  
E02  27173694.623                1       2130.078          27.000    27173715.465                        1632.932          30.000  
E24  25933935.180   136283907.420       -1168.961          45.000    25933942.306   104425449.890        -895.746          41.000  
E25  24891900.283   130808024.596        1227.792          46.000    24891909.477   100229646.607         940.821          48.000  
E13                                                                  26939386.758                1        418.556          26.000  
> 2024 04 16 17 19 30.4990000  0 26                     
G04  23877799.463   125478594.621       -3188.506          37.000    23877811.240    97775594.291       -2485.071          34.000  
G06  22074092.012   116000106.869       -3534.081          44.000    22074101.194    90389708.685       -2753.738          42.000  
G07  19453578.689   102229404.097       -1345.971          48.000    19453578.635    79659347.352       -1048.574          47.000  
G09  21060075.862   110671433.510       -1985.370          49.000    21060078.414    86237491.084       -1547.062          48.000  
R02  22418924.004   119631544.703       -3082.652          49.000    22418935.852    93046738.949       -2397.643          47.000  
R12  23174830.082                3      -4753.497          15.000    23174779.900                3      -3701.781          21.000  
R04  20899003.804   111913361.267        1469.658          49.000    20899002.856    87043715.550        1143.034          47.000  
R14  19965413.477   106426972.328        2218.812          53.000    19965419.950    82776727.440        1725.716          50.000  
G11  22164953.159   116477617.765       -1424.335          47.000    22164955.669    90761932.866       -1109.786          45.000  
E08  26552687.641   139535383.244         830.171          40.000    26552698.920   106916764.098         636.209          47.000  
S31  38453733.787   202075720.501        -821.185          44.000  
S33  39404746.562   207073321.110        -821.100          42.000  
G20  21818044.057   114654644.314        1833.821          45.000                                                                  
E03  23642792.205   124243786.721        -358.589          47.000    23642798.289    95199842.118        -274.730          51.000  
R03  19730527.387   105619114.345        -865.804          51.000    19730526.730    82148231.875        -673.408          51.000  
R13  19903501.525   106283851.077       -2413.745          40.000    19903504.841    82665209.731       -1877.324          45.000  
R19  22248376.669   119013886.488       -3094.031          40.000    22248383.937    92566317.406       -2406.554          46.000  
E05  23213248.742   121986402.837       -1990.946          44.000    23213256.213    93470111.367       -1525.631          48.000  
E15  24866041.225   130671934.424       -1959.821          46.000    24866050.187   100125313.880       -1501.588          50.000  
G30  20430618.406   107363825.812         851.532          49.000    20430621.254    83660245.132         663.550          45.000  
E34  26001793.850   136640212.920       -3717.885          40.000    26001809.348   104698332.059       -2848.772          47.000  
G14  23723650.366   124668614.491        2668.644          40.000    23723664.179    97144481.383        2079.658          39.000  
E02  27161526.569                1       2131.604          26.000    27161550.849   109368325.3561       1633.231          32.000  
E24  25940648.496   136319188.252       -1183.176          44.000    25940655.755   104452483.285        -906.817          42.000  
E25  24884915.976   130771326.976        1218.592          45.000    24884926.493   100201527.721         933.716          49.000  
E13                                                                  26936304.370                         409.209          30.000  
> 2024 04 16 17 20 00.4990000  0 27                     
G04  23896009.715   125574279.806       -3190.232          38.000    23896019.312    97850153.835       -2485.671          36.000  
G06  22094297.603   116106285.393       -3544.407          44.000    22094306.211    90472444.962       -2761.991          41.000  
G07  19461317.021   102270066.666       -1364.666          49.000    19461316.316    79691032.456       -1063.403          47.000  
G09  21071424.197   110731070.369       -1990.224          49.000    21071426.346    86283961.300       -1550.774          47.000  
R02  22436276.185   119724137.782       -3090.061          49.000    22436287.646    93118755.567       -2403.307          45.000  
R18  23309986.259                       -4493.729          26.000                                                                  
R12  23201525.982                3      -4766.348          24.000                                                                  
R04  20890776.358   111869302.834        1467.780          48.000    20890774.638    87009447.989        1141.541          47.000  
R14  19952980.734   106360695.362        2199.716          53.000    19952986.614    82725178.833        1710.881          50.000  
G11  22173135.459   116520620.657       -1442.387          46.000    22173139.171    90795441.508       -1123.859          45.000  
E08  26547949.387   139510487.844         829.590          40.000    26547961.496   106897688.495         635.784          47.000  
S31  38458422.718   202100362.826        -821.259          44.000  
S33  39409434.502   207097957.733        -821.020          42.000  
G20  21807605.620   114599789.256        1823.274          45.000                                                                  
E03  23644845.767   124254578.134        -360.547          47.000    23644851.876    95208110.855        -276.335          51.000  
R03  19735405.316   105645228.900        -875.177          50.000    19735405.544    82168543.157        -680.637          51.000  
R13  19917131.896   106356634.781       -2438.539          40.000    19917134.986    82721819.236       -1896.405          45.000  
R19  22265777.435   119106970.520       -3111.397          40.000    22265784.680    92638715.755       -2419.939          45.000  
E05  23224621.734   122046163.713       -1992.595          44.000    23224628.360    93515902.087       -1526.779          48.000  
E15  24877267.424   130730929.147       -1972.938          45.000    24877276.928   100170517.507       -1511.730          50.000  
G30  20425801.554   107338514.970         836.145          49.000    20425804.313    83640522.465         651.349          45.000  
E34  26023025.755   136751793.306       -3720.415          39.000    26023042.761   104783828.313       -2850.779          47.000  
G14  23708411.557   124588540.765        2669.857          38.000    23708425.197    97082086.933        2079.994          37.000  
E02  27149350.058                        2133.795          29.000    27149376.358   109319307.817        1634.974          34.000  
E24  25947442.323   136354895.703       -1197.137          44.000    25947451.675   104479843.526        -917.241          43.000  
E25  24877985.918   130734909.403        1209.453          46.000    24877996.633   100173623.427         926.735          49.000  
E13                                                                  26933296.796                         399.077          31.000  
> 2024 04 16 17 20 30.4990000  0 27                     
G04  23914224.633   125669994.111       -3190.707          39.000    23914233.731    97924736.177       -2486.202          36.000  
G06  22114560.870   116212768.208       -3554.485          44.000    22114569.898    90555418.320       -2769.793          43.000  
G07  19469160.693   102311286.027       -1383.222          49.000    19469159.716    79723151.400       -1077.795          47.000  
G09  21082799.885   110790851.893       -1995.087          49.000    21082802.825    86330544.241       -1554.677          47.000  
R02  22453668.337   119816947.386       -3097.210          49.000    22453679.360    93190940.548       -2408.842          45.000  
R18  23335275.691                1      -4494.151          26.000                                                                  
R12  23228300.889                3      -4778.480          19.000    23228329.691                3      -3706.578          16.000  
R04  20882557.521   111825302.717        1465.628          47.000    20882557.416    86975225.704        1139.901          47.000  
R14  19940654.498   106294994.607        2180.425          52.000    19940661.091    82674078.372        1695.848          50.000  
G11  22181422.026   116564165.888       -1460.481          45.000    22181425.444    90829372.722       -1137.948          45.000  
E08  26543214.534   139485602.885         829.478          41.000    26543225.421   106878620.911         635.475          46.000  
S31  38463112.494   202125006.282        -821.260          44.000  
S33  39414123.201   207122594.312        -821.132          42.000  
G20  21797226.700   114545251.446        1812.472          44.000                                                                  
E03  23646910.693   124265430.003        -362.723          47.000    23646917.172    95216425.910        -277.823          52.000  
R03  19740336.804   105671624.823        -884.459          51.000    19740336.342    82189073.266        -687.965          51.000  
R13  19930900.135   106430157.856       -2463.012          39.000    19930903.570    82779003.817       -1915.669          45.000  
R19  22283275.221   119200570.246       -3128.362          40.000    22283282.963    92711515.207       -2433.225          47.000  
E05  23236001.567   122105969.793       -1994.372          44.000    23236009.236    93561727.444       -1528.069          49.000  
E15  24888569.029   130790316.817       -1986.204          45.000    24888578.280   100216022.183       -1521.793          50.000  
G30  20421073.486   107313668.112         820.532          49.000    20421076.042    83621161.307         639.301          45.000  
E34  26044272.738   136863450.525       -3723.034          38.000    26044290.968   104869383.418       -2852.809          47.000  
G14  23693168.179   124508439.005        2670.876          38.000    23693182.102    97019670.627        2080.795          37.000  
E02  27137163.757   142606778.2571       2135.574          34.000    27137190.557   109270243.853        1636.031          36.000  
E24  25954317.470   136391016.763       -1210.847          45.000    25954325.433   104507520.696        -927.886          42.000  
E25  24871107.607   130698760.765        1200.578          46.000    24871117.497   100145925.220         919.880          49.000  
E13                                                                  26930360.431                         389.879          30.000  
> 2024 04 16 17 21 00.4990000  0 26                     
G04  23932445.394   125765742.614       -3193.343          38.000    23932454.596    97999345.150       -2487.612          36.000  
G06  22134882.176   116319556.791       -3565.029          44.000    22134891.523    90638629.933       -2777.952          43.000  
G07  19477111.653   102353065.404       -1402.417          49.000    19477110.154    79755706.745       -1092.755          47.000  
G09  21094204.301   110850782.946       -2000.585          49.000    21094206.973    86377243.699       -1558.903          47.000  
R02  22471103.765   119909978.284       -3105.091          50.000    22471113.917    93263297.637       -2415.196          46.000  
R12  23255155.965                3      -4784.711          23.000                                                                  
R04  20874351.499   111781367.169        1463.069          44.000    20874354.435    86941053.670        1137.950          48.000  
R14  19928438.978   106229878.147        2160.366          52.000    19928445.242    82623432.387        1680.120          50.000  
G11  22189812.514   116608256.848       -1479.288          47.000    22189815.582    90863729.176       -1152.604          44.000  
E08  26538482.996   139460732.923         828.417          43.000    26538492.317   106859564.817         634.655          46.000  
S31  38467802.981   202149655.719        -822.110          44.000  
S33  39418812.665   207147236.419        -821.883          42.000  
G20  21786910.177   114491038.433        1801.634          45.000                                                                  
E03  23648988.287   124276347.103        -365.434          47.000    23648994.534    95224790.951        -279.980          51.000  
R03  19745323.331   105698308.173        -894.618          52.000    19745320.716    82209826.971        -695.824          51.000  
R13  19944807.497   106504422.615       -2488.094          39.000    19944811.051    82836765.271       -1935.438          45.000  
R19  22300869.877   119294687.207       -3146.347          41.000    22300877.044    92784716.967       -2447.086          45.000  
E05  23247391.167   122165826.111       -1996.194          44.000    23247399.266    93607591.324       -1529.747          48.000  
E15  24899945.539   130850100.924       -1999.670          46.000    24899954.978   100261830.656       -1532.344          50.000  
G30  20416433.864   107289290.529         804.260          49.000    20416437.311    83602165.830         626.709          45.000  
E34  26065538.834   136975187.169       -3726.201          41.000    26065554.491   104954999.362       -2855.209          48.000  
G14  23677921.289   124428316.770        2670.844          37.000    23677935.035    96957238.291        2081.165          38.000  
E02  27124972.771   142542690.809        2136.455          37.000    27124994.780   109221138.467        1637.149          39.000  
E24  25961272.005   136427556.096       -1225.262          45.000    25961277.850   104535518.298        -938.914          40.000  
E25  24864281.419   130662887.701        1190.750          47.000    24864291.041   100118438.171         912.336          49.000  
E13                                                                  26927499.424                         378.898          29.000  
> 2024 04 16 17 21 30.4990000  0 26                     
G04  23950670.843   125861534.270       -3193.741          36.000    23950682.361    98073987.645       -2488.574          35.000  
G06  22155262.703   116426656.757       -3575.078          44.000    22155271.295    90722084.157       -2785.868          42.000  
G07  19485169.909   102395412.172       -1421.014          49.000    19485168.392    79788704.218       -1107.315          47.000  
G09  21105639.061   110910872.586       -2005.769          49.000    21105642.266    86424066.731       -1562.980          47.000  
R02  22488580.573   120003239.943       -3112.650          49.000    22488591.945    93335834.242       -2420.904          46.000  
R12  23282069.615                3      -4793.951          25.000                                                                  
R04  20866160.553   111737506.336        1460.751          46.000    20866163.621    86906939.754        1136.078          47.000  
R14  19916334.565   106165358.774        2140.582          52.000    19916341.770    82573250.763        1664.855          50.000  
G11  22198308.361   116652901.075       -1497.439          47.000    22198311.579    90898516.745       -1166.678          44.000  
E08  26533756.480   139435886.518         827.755          44.000    26533764.295   106840526.711         634.291          46.000  
S31  38472496.721   202174319.566        -822.264          44.000  
S33  39423505.274   207171895.427        -822.071          43.000  
G20  21776658.087   114437161.563        1789.985          44.000                                                                  
E03  23651080.279   124287338.247        -367.569          47.000    23651086.172    95233212.741        -281.623          51.000  
R03  19750362.468   105725289.782        -904.447          51.000    19750361.008    82230812.649        -703.530          51.000  
R13  19958854.964   106579435.917       -2512.854          39.000    19958858.174    82895108.908       -1954.477          46.000  
R19  22318561.617   119389326.001       -3163.248          40.000    22318569.228    92858324.626       -2460.234          45.000  
E05  23258793.206   122225741.842       -1998.308          44.000    23258800.823    93653500.701       -1531.132          49.000  
E15  24911398.881   130910289.081       -2012.999          46.000    24911408.808   100307948.703       -1542.405          50.000  
G30  20411886.196   107265391.548         788.702          49.000    20411889.612    83583543.299         614.417          45.000  
E34  26086817.476   137087009.892       -3728.683          41.000    26086833.586   105040681.282       -2857.075          47.000  
G14  23662671.321   124348185.671        2670.935          35.000    23662686.905    96894799.092        2081.299          38.000  
E02  27112769.382   142478559.934        2138.682          39.000    27112790.634   109171999.803        1638.641          42.000  
E24  25968306.819   136464522.392       -1239.328          45.000    25968312.552   104563843.104        -949.579          41.000  
E25  24857509.877   130627300.882        1181.556          48.000    24857519.415   100091170.441         905.167          49.000  
E13                                                                  26924715.794                         368.730          28.000  
> 2024 04 16 17 22 00.4990000  0 26                     
G04  23968905.039   125957353.314       -3193.725          34.000    23968912.006    98148651.558       -2488.508          32.000  
G06  22175700.093   116534048.951       -3584.434          44.000    22175707.369    90805766.102       -2793.202          42.000  
G07  19493332.653   102438308.849       -1438.791          49.000    19493331.239    79822130.163       -1121.126          47.000  
G09  21117101.632   110971105.011       -2009.960          50.000    21117104.134    86471001.022       -1566.115          47.000  
R02  22506098.165   120096716.835       -3119.128          50.000    22506109.031    93408538.230       -2426.045          44.000  
R12  23309008.394                3      -4801.195          21.000                                                                  
R04  20857982.592   111693705.721        1459.323          48.000    20857983.212    86872872.652        1134.861          46.000  
R14  19904341.156   106101424.161        2121.623          52.000    19904347.532    82523523.948        1650.151          50.000  
G11  22206906.514   116698081.302       -1514.620          47.000    22206908.984    90933721.991       -1180.303          44.000  
E08  26529028.968   139411047.387         828.160          44.000    26529037.539   106821494.243         634.504          46.000  
S31  38477189.643   202198982.100        -821.779          44.000  
S33  39428196.958   207196551.116        -821.265          42.000  
G20  21766465.986   114383607.295        1779.976          44.000                                                                  
E03  23653182.465   124298387.593        -369.026          47.000    23653188.492    95241679.105        -282.789          51.000  
R03  19755454.855   105752555.223        -913.276          50.000    19755454.601    82252019.071        -710.416          51.000  
R13  19973039.400   106655178.967       -2536.305          39.000    19973042.704    82954020.122       -1972.889          45.000  
R19  22336347.613   119484465.952       -3179.419          41.000    22336354.021    92932322.061       -2472.752          45.000  
E05  23270204.131   122285701.281       -1999.098          45.000    23270210.901    93699443.572       -1531.768          49.000  
E15  24922925.672   130970864.098       -2025.346          45.000    24922935.646   100354363.172       -1551.919          50.000  
G30  20407426.900   107241955.793         773.700          49.000    20407429.737    83565281.721         602.765          45.000  
E34  26108109.136   137198900.797       -3730.572          41.000    26108125.908   105126415.425       -2858.488          47.000  
G14  23647416.893   124268032.562        2672.266          35.000    23647433.830    96832342.820        2082.208          37.000  
E02  27100555.112   142414371.645        2140.671          41.000    27100575.810   109122817.132        1640.258          44.000  
E24  25975418.683   136501899.591       -1252.505          44.000    25975424.890   104592482.763        -959.738          41.000  
E25  24850789.176   130591986.255        1172.960          47.000    24850799.065   100064111.275         898.709          49.000  
E13                                                                  26922003.021                         359.877          25.000  
> 2024 04 16 17 22 30.4990000  0 26                     
G04  23987144.097   126053192.836       -3194.982          35.000    23987151.669    98223331.445       -2489.741          33.000  
G06  22196189.704   116641722.887       -3594.192          43.000    22196197.628    90889667.558       -2800.659          42.000  
G07  19501598.602   102481746.729       -1457.213          48.000    19501597.000    79855977.814       -1135.486          46.000  
G09  21128589.481   111031473.257       -2014.822          50.000    21128592.422    86518041.141       -1570.060          48.000  
R02  22523655.329   120190401.992       -3126.585          51.000    22523665.820    93481404.226       -2431.816          44.000  
R12  23336028.045                3      -4807.618          14.000                                                                  
R04  20849814.177   111649959.448        1457.033          49.000    20849814.107    86838847.834        1133.250          46.000  
R14  19892456.611   106038070.543        2101.735          53.000    19892462.702    82474249.003        1634.727          50.000  
G11  22215603.997   116743789.034       -1532.628          46.000    22215607.063    90969338.264       -1194.454          44.000  
E08  26524301.633   139386208.171         827.816          43.000    26524311.067   106802461.683         634.267          46.000  
S31  38481880.992   202223635.801        -821.814          44.000  
S33  39432887.102   207221198.597        -821.574          42.000  
G20  21756335.019   114330371.249        1769.080          43.000                                                                  
E03  23655295.080   124309487.954        -371.148          47.000    23655300.877    95250184.563        -284.304          51.000  
R03  19760600.043   105780098.175        -923.001          50.000    19760600.036    82273441.325        -717.911          51.000  
R13  19987359.191   106731641.715       -2561.038          40.000    19987361.855    83013491.086       -1991.948          45.000  
R19  22354226.299   119580096.278       -3195.917          41.000    22354231.831    93006700.897       -2485.796          45.000  
E05  23281620.375   122345697.613       -2000.764          45.000    23281628.047    93745414.710       -1532.999          49.000  
E13  26919356.672                         454.980          27.000    26919365.984                         349.529          30.000  
E15  24934525.984   131031817.570       -2038.426          46.000    24934534.193   100401067.631       -1561.886          49.000  
G30  20403053.773   107218976.569         758.136          49.000    20403055.954    83547375.863         590.845          44.000  
E34  26129412.791   137310850.614       -3733.029          41.000    26129429.622   105212194.693       -2860.290          47.000  
G14  23632160.966   124187853.260        2672.699          38.000    23632175.468    96769866.038        2082.379          35.000  
E02  27088327.446   142350120.548        2142.462          39.000    27088348.794   109073586.363        1641.588          44.000  
E24  25982607.135   136539680.392       -1266.366          43.000    25982614.845   104621431.669        -970.399          41.000  
E25  24844120.431   130556938.514        1163.613          48.000    24844129.576   100037256.613         891.498          49.000  
> 2024 04 16 17 23 00.4990000  0 25                     
G04  24005383.505                       -3195.969          27.000    24005395.876    98298030.993       -2489.670          33.000  
G06  22216733.903   116749680.167       -3603.540          43.000    22216741.153    90973789.795       -2807.917          43.000  
G07  19509967.189   102525728.770       -1475.392          47.000    19509966.823    79890249.500       -1149.565          47.000  
G09  21140103.701   111091982.251       -2019.559          49.000    21140106.476    86565190.919       -1573.636          47.000  
R02  22541252.624   120284300.544       -3133.714          50.000    22541262.420    93554436.193       -2437.292          44.000  
R04  20841657.328   111606273.642        1455.005          50.000    20841656.932    86804870.021        1131.689          48.000  
R14  19880681.907   105975305.895        2082.169          52.000    19880687.990    82425432.161        1619.449          50.000  
G11  22224402.834   116790027.544       -1550.226          46.000    22224406.651    91005368.151       -1208.046          46.000  
E08  26519574.785   139361373.269         827.472          43.000    26519585.313   106783432.438         634.206          47.000  
S31  38486572.184   202248286.167        -821.672          44.000  
S33  39437577.070   207245842.478        -821.902          42.000  
G20  21746266.297   114277460.413        1757.974          42.000                                                                  
E03  23657418.287   124320644.067        -372.976          47.000    23657423.611    95258732.743        -285.736          51.000  
R03  19765798.054   105807925.645        -932.506          50.000    19765799.066    82295084.860        -725.253          52.000  
R13  20001812.931   106808826.362       -2584.833          38.000    20001815.886    83073523.540       -2010.501          45.000  
R19  22372195.219   119676217.253       -3212.293          42.000    22372201.748    93081461.314       -2498.493          46.000  
E05  23293045.188   122405735.869       -2002.045          44.000    23293052.857    93791417.973       -1534.068          50.000  
E15  24946196.740   131093152.940       -2051.156          45.000    24946206.056   100448064.706       -1571.566          49.000  
G30  20398768.610   107196459.086         742.633          49.000    20398771.303    83529829.831         578.839          44.000  
E34  26150728.593   137422861.930       -3734.990          42.000    26150745.552   105298021.112       -2861.759          47.000  
G14  23616899.834   124107655.234        2673.248          40.000    23616913.803    96707374.588        2082.837          35.000  
E02  27076089.334   142285813.186        2144.701          38.000    27076110.772   109024312.465        1643.051          43.000  
E24  25989876.296   136577869.405       -1279.844          44.000    25989881.826   104650693.387        -980.658          41.000  
E25  24837502.160   130522164.235        1154.427          48.000    24837511.823   100010611.488         884.523          48.000  
E13                                                                  26916803.583   108382776.6571        339.335          31.000  
> 2024 04 16 17 23 30.4990000  0 25                     
G04  24023635.003   126244955.870       -3196.665          33.000    24023644.155    98372756.746       -2491.585          33.000  
G06  22237332.745   116857925.376       -3612.885          43.000    22237339.630    91058136.421       -2815.509          43.000  
G07  19518442.066   102570261.712       -1493.645          48.000    19518440.506    79924950.468       -1163.984          46.000  
G09  21151646.102   111152640.116       -2024.475          49.000    21151649.275    86612456.693       -1577.587          46.000  
R02  22558891.349   120378421.387       -3141.216          50.000    22558901.926    93627641.008       -2443.063          46.000  
R04  20833511.858   111562658.357        1452.619          50.000    20833512.271    86770947.060        1129.738          48.000  
R14  19869020.489   105913142.210        2062.040          53.000    19869026.026    82377082.744        1603.657          50.000  
G11  22233303.981   116836803.413       -1568.304          47.000    22233307.472    91041816.749       -1221.903          45.000  
E08  26514850.800   139336550.393         827.414          42.000    26514861.454   106764412.384         633.903          47.000  
S31  38491263.968   202272941.080        -821.868          44.000  
S33  39442267.353   207270492.522        -822.142          42.000  
G20  21736263.294   114224885.419        1746.836          44.000                                                                  
E03  23659552.709   124331863.922        -375.027          47.000    23659558.799    95267329.771        -287.347          51.000  
R03  19771051.675   105836046.618        -942.490          50.000    19771052.083    82316956.692        -732.997          51.000  
R13  20016403.299   106886738.262       -2609.370          38.000    20016406.257    83134121.601       -2029.368          46.000  
R19  22390256.357   119772833.059       -3228.829          41.000    22390263.394    93156606.588       -2511.354          46.000  
E05  23304478.072   122465824.240       -2003.822          43.000    23304487.529    93837459.634       -1535.347          50.000  
E15  24957942.729   131154876.875       -2063.993          45.000    24957951.951   100495359.481       -1581.424          49.000  
G30  20394573.710   107174411.741         727.032          50.000    20394577.060    83512650.109         566.467          45.000  
E34  26172057.972   137534940.664       -3737.042          43.000    26172073.531   105383899.157       -2863.431          47.000  
G14  23601637.088   124027449.309        2673.151          39.000    23601650.750    96644877.030        2083.429          36.000  
E02  27063842.005   142221459.407        2145.848          37.000    27063863.546   108975002.932        1644.404          43.000  
E24  25997221.691   136616474.367       -1293.627          43.000    25997228.115   104680273.798        -991.195          42.000  
E25  24830938.819   130487673.174        1144.864          48.000    24830948.595    99984183.364         877.269          49.000  
E13                                                                  26914315.249                         329.414          30.000  
> 2024 04 16 17 24 00.4990000  0 25                     
G04  24041894.044                       -3198.056          29.000    24041900.182    98447507.495       -2492.213          34.000  
G06  22257985.593   116966453.816       -3622.152          43.000    22257991.975    91142703.747       -2822.452          42.000  
G07  19527021.288   102615342.277       -1511.617          49.000    19527019.577    79960078.133       -1177.857          47.000  
G09  21163217.141   111213445.561       -2029.198          49.000    21163219.449    86659837.483       -1581.169          46.000  
R02  22576569.932   120472762.934       -3148.261          48.000    22576581.926    93701017.497       -2448.802          45.000  
R04  20825379.490   111519113.227        1450.452          49.000    20825380.213    86737078.684        1128.221          47.000  
R14  19857472.018   105851581.235        2042.056          53.000    19857476.783    82329202.073        1588.230          50.000  
G11  22242307.058   116884113.736       -1585.659          46.000    22242311.043    91078681.769       -1235.808          46.000  
E08  26510129.488   139311737.792         827.179          42.000    26510140.044   106745400.224         633.707          48.000  
S31  38495955.674   202297598.591        -821.804          44.000  
S33  39446959.056   207295143.189        -821.441          43.000  
G20  21726322.121   114172647.341        1735.753          44.000                                                                  
E03  23661700.161   124343146.146        -376.877          47.000    23661705.762    95275974.579        -288.840          51.000  
R03  19776359.914   105864461.730        -951.844          51.000    19776360.317    82339057.281        -740.439          51.000  
R13  20031128.819   106965373.273       -2632.929          37.000    20031132.426    83195282.129       -2047.865          45.000  
R19  22408409.413   119869938.076       -3244.703          41.000    22408417.721    93232132.353       -2523.618          47.000  
E05  23315924.014   122525961.604       -2005.215          45.000    23315931.330    93883538.819       -1536.509          50.000  
E13  26911885.128                         416.540          30.000    26911903.078   108363031.821         318.665          33.000  
E15  24969761.448   131216986.580       -2076.557          45.000    24969771.466   100542949.912       -1591.212          49.000  
G30  20390466.929   107152833.531         711.548          49.000    20390470.411    83495835.947         554.541          45.000  
E34  26193397.234   137647083.285       -3738.816          42.000    26193414.271   105469826.159       -2864.892          47.000  
G14  23586372.759   123947236.844        2674.023          41.000    23586387.999    96582374.349        2083.765          38.000  
E02  27051586.753   142157059.543        2147.542          37.000    27051608.202   108925658.188        1645.577          43.000  
E24  26004645.077   136655493.692       -1307.430          41.000    26004654.138   104710171.762       -1001.716          42.000  
E25  24824429.617   130453465.717        1135.675          49.000    24824438.527    99957972.563         870.170          48.000  
> 2024 04 16 17 24 30.4990000  0 25                     
G04  24060148.026   126436899.6593      -3199.240          28.000    24060159.734    98522276.896       -2493.033          33.000  
G06  22278690.157   117075253.554       -3631.167          43.000    22278697.125    91227482.426       -2829.443          44.000  
G07  19535701.670   102660960.085       -1529.495          49.000    19535700.636    79995624.453       -1191.849          46.000  
G09  21174814.796   111274390.099       -2033.732          48.000    21174817.795    86707326.647       -1584.827          47.000  
R02  22594289.119   120567317.152       -3155.353          48.000    22594301.599    93774559.381       -2454.108          45.000  
R04  20817259.268   111475631.234        1448.343          48.000    20817259.982    86703259.424        1126.511          48.000  
R14  19846034.354   105790617.973        2022.209          51.000    19846040.079    82281786.312        1572.770          49.000  
G11  22251409.557   116931948.326       -1603.140          47.000    22251414.128    91115955.338       -1249.269          46.000  
E08  26505407.903   139286926.508         826.981          43.000    26505418.096   106726389.058         633.736          47.000  
S31  38500646.875   202322249.963        -821.609          43.000  
S33  39451648.780   207319788.616        -821.473          43.000  
G20  21716444.183   114120740.162        1724.682          43.000                                                                  
E03  23663857.827   124354482.038        -378.691          47.000    23663862.995    95284660.489        -290.089          51.000  
R03  19781722.113   105893163.596        -961.440          51.000    19781722.176    82361380.908        -747.748          52.000  
R13  20045987.598   107044719.923       -2656.511          38.000    20045991.315    83256996.113       -2066.386          46.000  
R19  22426651.557   119967518.802       -3260.393          41.000    22426658.681    93308028.171       -2535.947          47.000  
E05  23327375.407   122586139.534       -2006.577          44.000    23327383.112    93929649.055       -1537.472          50.000  
E15  24981653.314   131279472.084       -2089.030          46.000    24981661.979   100590828.247       -1600.776          49.000  
G30  20386447.968   107131716.153         696.112          48.000    20386452.290    83479380.900         542.548          45.000  
E34  26214748.069   137759278.990       -3740.716          42.000    26214764.756   105555793.841       -2866.244          47.000  
G14  23571106.379   123867012.044        2674.426          40.000    23571120.617    96519862.045        2084.277          38.000  
E02  27039320.704   142092606.875        2149.391          37.000    27039342.988   108876272.910        1646.903          44.000  
E24  26012148.430   136694918.399       -1320.823          40.000    26012157.213   104740380.313       -1012.018          42.000  
E25  24817972.947   130419534.957        1126.509          48.000    24817981.396    99931973.784         863.207          48.000  
E13                                                                  26909558.300                         308.804          28.000  
> 2024 04 16 17 25 00.4990000  0 25                     
G04  24078416.775   126532872.491       -3199.393          32.000    24078423.422    98597060.727       -2493.625          33.000  
G06  22299443.936   117184315.955       -3639.936          43.000    22299451.602    91312465.792       -2836.379          43.000  
G07  19544483.961   102707108.416       -1547.220          50.000    19544483.010    80031584.138       -1205.605          47.000  
G09  21186437.731   111335468.664       -2038.303          48.000    21186440.579    86754920.236       -1588.168          47.000  
R02  22612048.485   120662078.548       -3162.302          50.000    22612059.229    93848262.415       -2459.363          44.000  
R04  20809150.222   111432208.417        1446.332          48.000    20809151.264    86669486.207        1125.014          48.000  
R14  19834709.934   105730250.485        2002.151          52.000    19834715.421    82234833.913        1557.238          49.000  
G11  22260610.949   116980300.488       -1620.367          46.000    22260615.293    91153632.196       -1262.610          46.000  
E08  26500686.062   139262110.987         827.283          43.000    26500695.765   106707374.611         633.949          47.000  
S31  38505335.940   202346890.667        -821.333          43.000  
S33  39456337.176   207344424.098        -821.163          43.000  
G20  21706629.033   114069160.978        1713.831          43.000                                                                  
E03  23666024.452   124365866.370        -380.264          47.000    23666029.480    95293383.525        -291.409          52.000  
R03  19787136.289   105922148.152        -970.825          50.000    19787136.379    82383924.427        -755.127          51.000  
R13  20060979.109   107124770.106       -2679.948          38.000    20060982.284    83319257.290       -2084.562          46.000  
R19  22444979.984   120065566.102       -3275.874          41.000    22444987.638    93384286.860       -2547.891          47.000  
E05  23338833.536   122646353.067       -2007.944          44.000    23338841.445    93975786.570       -1538.465          50.000  
E13  26907283.948                         391.018          29.000    26907289.246   108344478.490         299.666          33.000  
E15  24993614.082   131342326.765       -2101.301          45.000    24993623.457   100638989.455       -1610.136          50.000  
G30  20382516.586   107111054.739         681.091          49.000    20382520.268    83463281.134         530.824          44.000  
E34  26236107.555   137871520.395       -3742.040          43.000    26236124.115   105641796.522       -2867.335          47.000  
G14  23555836.649   123786772.453        2674.792          38.000    23555850.272    96457338.221        2084.253          37.000  
E02  27027045.794   142028097.898        2151.415          38.000    27027066.984   108826844.493        1648.458          45.000  
E24  26019729.438   136734743.084       -1334.362          41.000    26019735.483   104770895.290       -1022.227          43.000  
E25  24811567.864   130385877.465        1117.306          48.000    24811576.375    99906184.357         856.094          48.000  
> 2024 04 16 17 25 30.4990000  0 25                     
G04  24096685.424   126628878.158       -3200.785          34.000    24096693.036                       -2494.926          30.000  
G06  22320249.368   117293651.754       -3649.058          42.000    22320257.388    91397662.164       -2843.407          43.000  
G07  19553369.185   102753799.452       -1565.503          50.000    19553368.643    80067966.707       -1219.839          48.000  
G09  21198088.741   111396695.409       -2043.475          49.000    21198091.845    86802629.342       -1592.345          47.000  
R02  22629848.566   120757061.800       -3169.898          49.000    22629857.948    93922138.011       -2465.339          43.000  
R04  20801054.415   111388860.414        1443.505          48.000    20801056.522    86635771.162        1122.667          49.000  
R14  19823498.707   105670496.017        1981.475          52.000    19823506.104    82188358.314        1541.131          50.000  
G11  22269912.606   117029182.607       -1638.417          45.000    22269917.748    91191721.990       -1276.518          46.000  
E08  26495965.426   139237304.882         826.632          43.000    26495975.228   106688367.401         633.488          47.000  
S31  38510025.232   202371534.423        -821.567          43.000  
S33  39461025.239   207369062.672        -821.324          43.000  
G20  21696879.184   114017926.342        1702.069          44.000                                                                  
E03  23668201.579   124377313.118        -382.580          47.000    23668207.876    95302154.397        -293.115          51.000  
R03  19792606.947   105951431.747        -981.268          51.000    19792606.730    82406700.498        -763.202          51.000  
R13  20076103.792   107205535.278       -2704.452          38.000    20076107.072    83382074.550       -2103.160          45.000  
R19  22463398.302   120164090.215       -3292.105          40.000    22463405.927    93460916.350       -2560.509          46.000  
E05  23350302.145   122706616.427       -2009.691          45.000    23350309.312    94021962.300       -1539.858          51.000  
E15  25005647.099   131405563.218       -2114.365          44.000    25005656.906   100687443.168       -1620.046          50.000  
G30  20378675.045   107090863.637         665.173          50.000    20378676.843    83447547.830         518.150          43.000  
E34  26257477.533   137983819.361       -3744.337          42.000    26257494.186   105727843.310       -2868.989          47.000  
G14  23540567.190   123706534.953        2674.341          39.000    23540580.903    96394816.068        2084.033          38.000  
E02  27014762.191   141963548.438        2152.761          37.000    27014783.040   108777385.118        1649.116          44.000  
E24  26027383.796   136774981.388       -1347.942          39.000    26027391.986   104801727.255       -1033.104          42.000  
E25  24805218.203   130352508.962        1107.350          48.000    24805226.488    99880616.391         848.418          48.000  
E13                                                                  26905096.258   108335653.899         288.670          34.000  
> 2024 04 16 17 26 00.4990000  0 25                     
G04  24114959.148                       -3200.886          30.000    24114969.171    98746701.357       -2494.598          36.000  
G06  22341105.786   117403252.550       -3657.498          44.000    22341114.525    91483065.127       -2849.798          44.000  
G07  19562355.810   102801026.685       -1582.874          49.000    19562355.430    80104767.122       -1233.455          47.000  
G09  21209766.868   111458065.531       -2047.682          48.000    21209770.713    86850450.084       -1595.576          47.000  
R02  22647688.652   120852262.246       -3176.715          48.000    22647697.907    93996182.557       -2470.666          43.000  
R04  20792973.743   111345583.986        1441.494          49.000    20792974.357    86602111.768        1121.236          49.000  
R14  19812403.206   105611353.100        1961.443          52.000    19812410.627    82142358.333        1525.534          50.000  
G11  22279314.084   117078588.160       -1655.413          44.000    22279319.255    91230219.678       -1289.896          45.000  
E08  26491246.306   139212502.996         826.969          44.000    26491255.019   106669363.389         633.702          47.000  
S31  38514714.696   202396176.482        -821.410          44.000  
S33  39465713.431   207393697.247        -820.969          43.000  
G20  21687194.916   113967033.973        1690.929          45.000                                                                  
E03  23670391.049   124388817.366        -384.131          47.000    23670396.872    95310969.321        -294.236          51.000  
R03  19798132.707   105981010.321        -990.533          51.000    19798132.255    82429705.998        -770.535          51.000  
R13  20091360.820   107287007.386       -2727.142          38.000    20091364.163    83445441.669       -2121.192          45.000  
R19  22481903.656   120263081.522       -3307.212          40.000    22481911.178    93537909.249       -2572.164          44.000  
E05  23361778.494   122766924.969       -2010.865          45.000    23361785.666    94068172.644       -1540.725          50.000  
E13  26902979.228                1        364.794          27.000    26902980.743   108327131.466         279.221          35.000  
E15  25017751.719   131469175.071       -2126.369          44.000    25017761.964   100736184.540       -1629.266          50.000  
G30  20374921.976   107071138.172         649.975          51.000    20374922.397    83432177.381         506.537          42.000  
E34  26278855.785   138096168.854       -3745.535          41.000    26278873.936   105813928.784       -2869.872          48.000  
G14  23525298.245   123626297.309        2674.768          37.000    23525312.017    96332293.691        2084.619          38.000  
E02  27002469.608   141898955.353        2153.824          37.000    27002490.901   108727892.286        1650.529          44.000  
E24  26035119.310   136815628.065       -1361.227          35.000    26035126.535   104832872.151       -1043.329          40.000  
E25  24798921.620   130319426.227        1098.153          47.000    24798931.121    99855267.362         841.560          48.000  
> 2024 04 16 17 26 30.4990000  0 25                     
G04  24133239.030   126820968.671       -3202.167          33.000    24133248.482    98821550.625       -2495.575          35.000  
G06  22362011.290   117513110.127       -3666.236          44.000    22362020.420    91568668.040       -2856.714          44.000  
G07  19571443.332   102848783.149       -1600.717          50.000    19571442.296    80141979.907       -1247.299          46.000  
G09  21221472.111   111519574.195       -2052.621          48.000    21221475.281    86898378.813       -1599.441          47.000  
R02  22665570.462   120947675.252       -3183.951          50.000    22665580.338    94070392.436       -2476.521          46.000  
R04  20784905.227   111302375.323        1439.162          50.000    20784905.435    86568505.089        1119.320          48.000  
R14  19801422.273   105552819.917        1940.905          52.000    19801430.022    82096832.656        1509.577          51.000  
G11  22288814.482   117128510.608       -1672.818          45.000    22288818.868    91269120.084       -1303.327          45.000  
E08  26486525.690   139187699.997         826.841          44.000    26486534.748   106650358.535         633.640          46.000  
S31  38519402.230   202420811.002        -820.856          44.000  
S33  39470399.842   207418325.581        -820.691          42.000  
G20  21677575.570   113916481.033        1679.284          45.000                                                                  
E03  23672590.432   124400374.130        -386.047          47.000    23672595.972    95319824.482        -295.735          51.000  
R03  19803712.941   106010880.538       -1000.512          50.000    19803712.508    82452938.322        -778.137          51.000  
R13  20106749.080   107369178.716       -2750.580          38.000    20106752.434    83509352.657       -2139.442          45.000  
R19  22500495.173   120362530.589       -3322.636          41.000    22500502.351    93615258.175       -2584.208          44.000  
E05  23373262.247   122827273.984       -2012.371          44.000    23373269.847    94114413.974       -1541.827          51.000  
E15  25029928.182   131533155.917       -2138.829          45.000    25029937.314   100785208.639       -1638.855          50.000  
G30  20371255.401   107051873.704         634.306          50.000    20371256.372    83417166.169         494.149          43.000  
E34  26300243.879   138208561.708       -3747.208          40.000    26300262.358   105900047.490       -2871.054          48.000  
G14  23510028.463   123546057.430        2674.866          39.000    23510041.412    96269769.595        2084.308          38.000  
E02  26990170.168   141834315.471        2155.519          39.000    26990190.124   108678363.596        1651.552          44.000  
E24  26042927.686   136856677.977       -1374.540          33.000    26042938.235   104864325.903       -1053.643          41.000  
E25  24792679.205   130286625.981        1088.647          47.000    24792689.390    99830134.846         834.023          49.000  
E13                                                                  26900939.789   108318908.049         268.981          39.000  
> 2024 04 16 17 27 00.4990000  0 25                     
G04  24151517.097   126917043.109       -3202.540          32.000    24151531.026    98896413.516       -2495.750          34.000  
G06  22382963.307   117623215.334       -3674.171          44.000    22382973.679    91654463.934       -2863.062          45.000  
G07  19580630.490   102897061.408       -1617.910          49.000    19580628.693    80179599.286       -1260.695          46.000  
G09  21233202.313   111581215.822       -2056.936          49.000    21233205.360    86946411.147       -1602.842          47.000  
R02  22683488.788   121043295.284       -3190.685          48.000    22683499.941    94144763.265       -2481.771          47.000  
R04  20776848.952   111259230.289        1437.185          51.000    20776848.804    86534947.886        1117.775          49.000  
R14  19790556.823   105494894.109        1920.700          53.000    19790563.249    82051779.343        1493.875          50.000  
G11  22298411.164   117178942.487       -1689.700          45.000    22298414.778    91308417.476       -1316.656          45.000  
E08  26481804.791   139162889.863         827.193          44.000    26481813.785   106631348.192         633.806          47.000  
S31  38524088.152   202445432.948        -820.504          43.000  
S33  39475084.585   207442942.710        -820.617          42.000  
G20  21668019.644   113866264.351        1668.137          45.000                                                                  
E03  23674798.616   124411977.661        -387.436          47.000    23674803.803    95328715.488        -296.956          51.000  
R03  19809345.398   106041037.917       -1010.074          49.000    19809346.100    82476393.999        -785.568          52.000  
R13  20122266.026   107452039.885       -2773.370          40.000    20122269.629    83573800.134       -2157.204          45.000  
R19  22519170.842   120462427.674       -3337.275          40.000    22519177.317    93692955.582       -2595.859          43.000  
E05  23384752.123   122887657.964       -2013.182          43.000    23384760.553    94160682.106       -1542.718          51.000  
E15  25042172.241   131597498.610       -2150.800          45.000    25042181.132   100834509.980       -1648.046          50.000  
G30  20367675.646   107033064.737         619.451          50.000    20367678.750    83402509.881         482.671          43.000  
E34  26321639.081   138320990.032       -3748.134          40.000    26321657.333   105986193.395       -2871.905          48.000  
G14  23494758.616   123465812.508        2675.043          40.000    23494770.761    96207241.567        2084.436          37.000  
E02  26977859.404   141769624.903        2157.261          39.000    26977879.212   108628796.016        1652.999          44.000  
E24  26050813.857                       -1387.834          30.000    26050825.239   104896083.944       -1063.526          41.000  
E25  24786491.422   130254104.297        1079.352          48.000    24786500.642    99805215.715         827.052          49.000  
E13                                                                  26898969.478   108310979.889         259.347          38.000  
> 2024 04 16 17 27 30.4990000  0 25                     
G04  24169805.866   127013141.688       -3203.591          36.000    24169816.333    98971295.484       -2497.042          32.000  
G06  22403963.825   117733571.473       -3682.675          43.000    22403974.307    91740455.363       -2869.828          44.000  
G07  19589917.669   102945866.096       -1635.765          49.000    19589916.792    80217628.880       -1274.664          47.000  
G09  21244958.844   111642997.126       -2062.003          49.000    21244961.373    86994552.313       -1606.781          47.000  
R02  22701448.675   121139129.109       -3198.172          49.000    22701460.439    94219300.420       -2487.491          47.000  
R04  20768804.581   111216157.021        1434.401          51.000    20768803.929    86501446.481        1115.537          49.000  
R14  19779805.639   105437585.828        1899.805          53.000    19779811.783    82007206.333        1477.633          50.000  
G11  22308105.518   117229888.762       -1706.799          44.000    22308109.724    91348115.732       -1330.090          45.000  
E08  26477084.166   139138078.817         826.845          44.000    26477092.858   106612337.156         633.600          47.000  
S31  38528771.683   202470048.607        -820.603          44.000  
S33  39479767.715   207467553.706        -820.300          42.000  
G20  21658528.789   113816393.082        1656.438          46.000                                                                  
E03  23677017.446   124423634.593        -389.583          47.000    23677022.324    95337647.394        -298.496          51.000  
R03  19815033.927   106071490.630       -1020.194          50.000    19815034.875    82500079.399        -793.478          51.000  
R13  20137913.563   107535595.486       -2797.012          39.000    20137917.183    83638787.736       -2175.560          45.000  
R19  22537929.342   120562774.976       -3352.695          38.000    22537936.623    93771003.146       -2607.358          43.000  
E05  23396251.037   122948083.773       -2015.174          43.000    23396259.724    94206982.295       -1544.056          51.000  
E15  25054484.738   131662208.215       -2163.233          44.000    25054495.336   100884092.493       -1657.627          50.000  
G30  20364184.359   107014718.121         603.796          50.000    20364187.750    83388213.855         470.311          44.000  
E34  26343040.494   138433458.354       -3749.703          40.000    26343059.575   106072369.906       -2873.202          48.000  
G14  23479488.561   123385571.871        2674.316          40.000    23479500.623    96144716.907        2084.015          38.000  
E02  26965540.929   141704891.983        2158.286          40.000    26965560.814   108579196.054        1653.665          44.000  
E24  26058771.996   136939975.208       -1401.853          29.000    26058788.027   104928150.968       -1074.117          40.000  
E25  24780358.057   130221869.405        1069.469          48.000    24780367.005    99780516.342         819.549          50.000  
E13                                                                  26897075.076   108303352.723         248.980          37.000  
> 2024 04 16 17 28 00.4990000  0 25                     
G04  24188094.919   127109255.462       -3204.238          32.000    24188105.333    99046188.938       -2496.545          32.000  
G06  22425009.332   117844165.776       -3690.321          45.000    22425020.070    91826632.410       -2875.647          44.000  
G07  19599303.196   102995186.003       -1652.386          49.000    19599302.320    80256059.947       -1287.705          47.000  
G09  21256740.591   111704908.893       -2065.731          49.000    21256742.637    87042795.130       -1609.607          46.000  
R02  22719446.606   121235167.674       -3204.487          50.000    22719457.138    94293996.826       -2492.545          47.000  
R04  20760772.876   111173147.462        1432.702          51.000    20760771.606    86467994.639        1114.433          48.000  
R14  19769169.936   105380888.086        1879.887          53.000    19769175.320    81963108.220        1462.209          50.000  
G11  22317896.477   117281338.394       -1723.122          44.000    22317901.538    91388206.190       -1342.668          45.000  
E08  26472360.340   139113257.187         827.787          44.000    26472369.512   106593318.032         634.255          48.000  
S31  38533453.394   202494648.790        -819.610          44.000  
S33  39484447.847   207492146.764        -819.241          42.000  
G20  21649102.496   113766860.182        1645.648          45.000                                                                  
E03  23679243.490   124435335.453        -390.570          46.000    23679248.803    95346612.968        -299.278          51.000  
R03  19820776.721   106102230.481       -1029.251          50.000    19820777.718    82523988.092        -800.602          51.000  
R13  20153688.565   107619832.408       -2818.794          39.000    20153692.087    83704305.292       -2192.549          45.000  
R19  22556770.153   120663558.595       -3366.616          40.000    22556777.517    93849390.068       -2618.576          44.000  
E05  23407756.649   123008542.255       -2015.559          43.000    23407764.439    94253307.504       -1544.455          51.000  
E15  25066867.382   131727273.900       -2174.575          44.000    25066877.180   100933947.825       -1666.244          50.000  
G30  20360779.117   106996824.624         589.004          49.000    20360782.534    83374270.859         459.019          44.000  
E34  26364450.560   138545955.027       -3750.298          41.000    26364467.295   106158568.172       -2873.498          47.000  
G14  23464218.903   123305329.048        2674.908          43.000    23464230.438    96082190.498        2084.070          38.000  
E02  26953211.677   141640109.112        2160.507          39.000    26953232.133   108529557.788        1655.381          43.000  
E24  26066809.345                       -1414.604          30.000    26066826.740   104960519.604       -1083.841          40.000  
E25  24774276.485   130189913.566        1060.742          48.000    24774286.160    99756030.820         812.747          50.000  
E13                                                                  26895253.037   108296019.943         239.411          35.000  
> 2024 04 16 17 28 30.4990000  0 25                     
G04  24206386.692   127205384.145       -3205.256          35.000    24206395.401                1      -2497.262          30.000  
G06  22446100.440   117954994.711       -3698.696          45.000    22446110.406    91912992.253       -2882.024          43.000  
G07  19608786.259   103045019.439       -1669.906          49.000    19608784.824    80294891.163       -1301.443          46.000  
G09  21268546.802   111766951.071       -2070.645          49.000    21268549.120    87091139.604       -1613.555          46.000  
R02  22737483.110   121331410.824       -3211.812          49.000    22737494.430    94368852.330       -2498.056          48.000  
R04  20752753.066   111130203.092        1429.971          51.000    20752751.711    86434593.522        1112.299          48.000  
R14  19758648.708   105324804.614        1858.871          53.000    19758654.012    81919487.867        1445.835          50.000  
G11  22327783.451   117333289.381       -1740.292          46.000    22327787.780    91428687.323       -1355.967          46.000  
E08  26467634.719   139088424.428         827.644          44.000    26467643.921   106574290.385         634.125          48.000  
S31  38538132.184   202519232.896        -819.553          43.000  
S33  39489125.180   207516725.083        -819.404          42.000  
G20  21639741.945   113717667.748        1633.726          46.000                                                                  
E03  23681478.556   124447080.119        -392.418          46.000    23681483.783    95355612.092        -300.733          51.000  
R03  19826574.059   106133259.120       -1039.375          51.000    19826574.284    82548121.393        -808.482          51.000  
R13  20169590.770   107704747.461       -2841.882          39.000    20169594.007    83770350.264       -2210.579          44.000  
R19  22575691.210   120764773.940       -3381.034          40.000    22575699.591    93928112.766       -2629.861          43.000  
E05  23419268.806   123069033.446       -2017.168          43.000    23419276.037    94299657.770       -1545.653          51.000  
E13  26893494.777                         300.189          28.000    26893505.633   108288982.046         229.642          33.000  
E15  25079317.008   131792693.987       -2186.835          44.000    25079326.683   100984074.707       -1675.651          50.000  
G30  20357460.890   106979384.333         573.590          49.000    20357464.375    83360681.023         446.923          44.000  
E34  26385862.317   138658477.684       -3751.110          40.000    26385880.264   106244786.365       -2874.478          47.000  
G14  23448949.199   123225086.622        2674.341          44.000    23448959.460    96019664.317        2084.045          37.000  
E02  26940874.478   141575277.916        2161.440          39.000    26940894.114   108479882.462        1656.149          42.000  
E24  26074929.945                       -1427.969          31.000    26074940.999   104993189.272       -1094.220          41.000  
E25  24768248.706   130158238.301        1050.900          48.000    24768258.477    99731760.284         805.197          50.000  
> 2024 04 16 17 29 00.4990000  0 25                     
G04  24224685.006   127301543.156       -3206.167          35.000    24224700.668    99196072.0631      -2498.367          35.000  
G06  22467237.394   118066069.985       -3706.667          43.000    22467247.394    91999544.075       -2888.356          43.000  
G07  19618369.502   103095379.646       -1687.568          49.000    19618367.589    80334132.844       -1314.956          46.000  
G09  21280380.309   111829139.034       -2075.597          48.000    21280384.020    87139597.654       -1617.399          46.000  
R02  22755558.999   121427874.131       -3219.212          49.000    22755571.222    94443879.075       -2503.880          47.000  
R04  20744747.820   111087341.037        1427.256          51.000    20744748.132    86401256.427        1110.036          48.000  
R14  19748245.706   105269353.365        1837.641          52.000    19748251.955    81876359.254        1429.222          51.000  
G11  22337767.602   117385755.252       -1757.590          46.000    22337772.627    91469569.669       -1369.556          47.000  
E08  26462908.754   139063595.465         827.359          43.000    26462919.237   106555265.651         634.051          48.000  
S31  38542810.288   202543816.344        -819.634          44.000  
S33  39493802.062   207541302.975        -819.427          42.000  
G20  21630448.827   113668833.413        1621.640          45.000                                                                  
E03  23683724.504   124458883.800        -394.530          46.000    23683730.222    95364656.427        -302.298          51.000  
R03  19832427.911   106164593.264       -1049.747          51.000    19832427.591    82572492.347        -816.502          51.000  
R13  20185621.417   107790353.088       -2865.132          39.000    20185625.551    83836932.318       -2228.302          44.000  
R19  22594695.589   120866431.920       -3395.895          39.000    22594703.476    94007179.748       -2641.336          43.000  
E05  23430789.051   123129572.815       -2018.838          43.000    23430796.146    94346044.949       -1546.849          51.000  
E15  25091835.909   131858482.168       -2199.174          44.000    25091846.284   101034483.642       -1685.036          50.000  
G30  20354231.730   106962412.616         557.596          50.000    20354235.371    83347456.329         434.543          45.000  
E34  26407283.705   138771039.482       -3752.604          41.000    26407300.800   106331034.507       -2875.443          48.000  
G14  23433682.165   123144862.621        2673.682          44.000    23433693.429    95957152.553        2083.478          39.000  
E02  26928532.184   141510415.387        2162.348          41.000    26928550.778   108430183.139        1656.907          42.000  
E25  24762278.366   130126860.513        1040.855          48.000    24762286.917    99707717.665         797.537          50.000  
E24                                                                  26083132.310   105026171.403       -1104.684          41.000  
E13                                                                  26891834.563   108282251.194         219.414          33.000  
> 2024 04 16 17 29 30.4990000  0 25                     
G04  24242994.026   127397745.979       -3207.317          36.000    24243008.303    99271035.095       -2499.214          36.000  
G06  22488422.993   118177401.818       -3715.343          43.000    22488432.378    92086295.821       -2895.088          42.000  
G07  19628054.081   103146278.270       -1705.696          48.000    19628053.128    80373794.071       -1329.018          46.000  
G09  21292244.873   111891486.330       -2080.972          48.000    21292247.873    87188179.846       -1621.409          45.000  
R02  22773680.042   121524571.651       -3227.203          49.000    22773692.853    94519087.995       -2510.113          46.000  
R04  20736762.782   111044576.429        1423.842          52.000    20736762.216    86367995.122        1107.397          49.000  
R14  19737965.932   105214551.781        1815.738          54.000    19737971.542    81833735.922        1412.292          51.000  
G11  22347851.584   117438747.620       -1775.286          46.000    22347856.347    91510862.251       -1383.315          46.000  
E08  26458187.271   139038783.352         826.734          44.000    26458197.427   106536253.859         633.508          48.000  
S31  38547490.841   202568412.631        -820.343          42.000  
S33  39498481.623   207565894.444        -819.884          43.000  
G20  21621227.190   113620373.095        1608.958          45.000                                                                  
E03  23685985.031   124470759.898        -397.177          47.000    23685990.110    95373756.274        -304.248          51.000  
R03  19838339.722   106196248.040       -1060.531          49.000    19838340.747    82597112.663        -824.906          51.000  
R13  20201784.162   107876660.209       -2888.668          41.000    20201787.434    83904060.011       -2246.792          44.000  
R19  22613783.344   120968542.018       -3411.072          40.000    22613792.526    94086598.272       -2653.285          43.000  
E05  23442320.543   123190174.025       -2021.240          43.000    23442328.290    94392479.554       -1548.793          51.000  
E15  25104427.348   131924650.376       -2212.005          43.000    25104437.612   101085183.769       -1694.903          50.000  
G30  20351093.830   106945923.053         541.563          49.000    20351096.813    83334607.338         421.916          45.000  
E34  26428713.412   138883651.608       -3754.710          42.000    26428730.569   106417321.217       -2876.970          48.000  
G14  23418422.038   123064673.354        2672.314          44.000    23418433.146    95894667.934        2082.343          39.000  
E02  26916186.402   141445536.779        2162.810          42.000    26916204.681   108380471.495        1657.246          43.000  
E24  26091400.217   137111180.5181      -1455.693          31.000    26091403.766   105059475.898       -1115.691          42.000  
E25  24756366.844   130095795.231        1030.216          48.000    24756375.416    99683914.494         789.385          50.000  
E13                                                                  26890240.284                         208.746          31.000  
