     3.00           OBSERVATION DATA    M: Mixed            RINEX VERSION / TYPE
CONVBIN 2.4.3                           20240416 115942 UTC PGM / RUN BY / DATE 
format: u-blox UBX                                          COMMENT             
log: /home/regis/git/gnsspwv/obsdata/VERT00CHL/2024-04-16/VECOMMENT             
{self.marker}                                               MARKER NAME         
                                                            MARKER NUMBER       
GEODETIC                                                    MARKER TYPE         
{self.observer}     {self.institution}                      OBSERVER / AGENCY   
UNKNOWN             UBLOX-ZED-F9P                           REC # / TYPE / VERS 
UNKNOWN             TWIVSP6037L                             ANT # / TYPE        
  1713381.0000 -5047934.0000 -3490983.0000                  APPROX POSITION XYZ 
        0.0000        0.0000        0.0000                  ANTENNA: DELTA H/E/N
G    8 C1C L1C D1C S1C C2L L2L D2L S2L                      SYS / # / OBS TYPES 
R    8 C1C L1C D1C S1C C2C L2C D2C S2C                      SYS / # / OBS TYPES 
E    8 C1C L1C D1C S1C C7Q L7Q D7Q S7Q                      SYS / # / OBS TYPES 
S    4 C1C L1C D1C S1C                                      SYS / # / OBS TYPES 
  2024    04    16    11    45   00.4960000     GPS         TIME OF FIRST OBS   
  2024    04    16    11    59   30.4960000     GPS         TIME OF LAST OBS    
                                                            END OF HEADER       
> 2024 04 16 11 45 00.4960000  0 27                     
G31  23107121.427   121428781.5801       1503.105          44.000    23107125.035    94619802.5441       1170.938          42.000  
G02  19019509.934    99948222.5771        423.010          48.000                                                                  
G03  20403830.723   107222874.4351        563.883          48.000    20403830.745    83550250.5921        439.291          46.000  
G04  21693897.132   114002139.1801       2890.279          46.000    21693897.800    88832808.1461       2252.151          44.000  
R23  18514522.643    99040316.6701      -1851.394          52.000                                                                  
R24  19073317.422   101993419.1151       2024.186          52.000    19073314.337    79328320.3821       1574.345          48.000  
R02  21482309.001   114633400.2701       2973.472          45.000    21482311.827    89159384.1461       2312.701          46.000  
R08  19513898.748   104496039.3561      -3737.616          50.000    19513896.148    81274738.0221      -2907.019          50.000  
G21  18483728.792    97132631.0111       -309.853          48.000                                                                  
S33  38569722.095   202685302.9071       -630.252          42.000  
S31  37617150.620   197679522.2611       -630.773          44.000  
E36  22823095.513   119936168.3111        615.956          47.000    22823099.226    91899205.8441        471.885          52.000  
E11  22107343.129   116174862.9631      -1446.552          45.000    22107342.078    89017153.7401      -1108.271          47.000  
R01  18276834.833    97700325.2721        192.583          50.000    18276834.099    75988990.7411        150.068          43.000  
R22  22060189.139   117758763.1031      -4287.181          48.000    22060194.534    91590163.4551      -3334.567          46.000  
G27  23092206.726   121350261.3021      -4461.725          38.000    23092211.151    94558620.4081      -3477.165          36.000  
G08  20650328.138   108518230.2921      -3680.569          46.000    20650330.552    84559669.4571      -2867.956          45.000  
E04  24100949.637   126651349.5681      -2456.573          46.000    24100951.800    97044562.3841      -1882.351          50.000  
G28  22662641.482   119092954.9401        594.714          43.000    22662643.068    92799712.9241        463.306          43.000  
E09  22411223.740   117771821.0101        115.742          47.000    22411226.561    90240720.1371         88.702          53.000  
E05  23500781.674   123497385.0161       2193.549          42.000    23500788.386    94627882.4151       1680.842          47.000  
G32  22523942.440   118364088.9871      -3934.027          45.000    22523944.228    92231773.0761      -3065.454          40.000  
E12  27278940.008   143351752.5171      -2768.281          36.000    27278951.070   109840991.2991      -2120.979          43.000  
E10  25011581.473   131436870.3521      -2342.978          45.000    25011586.847   100711547.9061      -1795.371          48.000  
E34  26374144.345                3       1688.276          26.000                                                                  
E18  26514743.017   139335905.9341      -1373.012          37.000                                                                  
G17                                                                  22517627.499                1       1990.369          31.000  
> 2024 04 16 11 45 30.4960000  0 27                     
G31  23098562.308   121383801.676        1495.874          45.000    23098564.614    94584753.262        1165.709          42.000  
G02  19017140.680    99935769.885         407.104          48.000                                                                  
G03  20400637.925   107206098.314         554.707          48.000    20400638.144    83537178.259         432.069          46.000  
G04  21677424.224   113915573.682        2880.817          45.000    21677425.106    88765354.479        2244.804          44.000  
R23  18524971.783    99096211.992       -1874.730          52.000                                                                  
R24  19062005.293   101932928.660        2008.661          53.000    19062002.428    79281272.179        1562.286          48.000  
R02  21465628.475   114544394.524        2960.431          46.000    21465631.337    89090157.311        2302.689          45.000  
R08  19534875.143   104608360.896       -3750.391          51.000    19534871.064    81362099.109       -2916.986          50.000  
G21  18485553.088    97142217.100        -329.036          48.000                                                                  
S33  38573327.147   202704247.275        -632.314          42.000  
S31  37620758.822   197698481.628        -632.975          44.000  
E36  22819597.800   119917788.522         609.472          47.000    22819601.788    91885122.555         467.062          52.000  
E11  22115626.446   116218394.181       -1455.616          45.000    22115625.917    89050508.713       -1115.318          47.000  
R01  18275819.159    97694895.168         169.536          50.000    18275818.595    75984767.271         131.934          44.000  
R22  22084315.080   117887551.827       -4298.484          47.000    22084321.334    91690332.061       -3343.231          45.000  
G27  23117687.427   121484169.294       -4465.520          33.000    23117693.887    94662963.838       -3479.713          34.000  
G08  20671378.270   108628847.213       -3693.710          46.000    20671379.699    84645864.286       -2878.194          45.000  
E04  24115007.931   126725226.053       -2468.260          46.000    24115010.187    97101168.894       -1891.325          50.000  
G28  22659291.914   119075353.829         579.102          44.000    22659293.988    92785997.836         451.215          43.000  
E09  22410606.036   117768580.370         100.361          46.000    22410610.093    90238237.016          76.868          54.000  
E05  23488279.573   123431688.500        2186.033          42.000    23488286.516    94577543.495        1675.175          47.000  
G17  22503093.648                3       2540.607          30.000    22503089.261    92146370.0091       1979.541          32.000  
G32  22546431.622   118482268.900       -3944.568          47.000    22546434.098    92323861.058       -3073.682          40.000  
E12  27294760.719   143434893.409       -2774.634          37.000    27294772.460   109904696.410       -2125.758          42.000  
E10  25024982.561   131507286.084       -2351.234          47.000    25024986.820   100765502.648       -1801.692          48.000  
E34  26364499.068   138546398.7191       1687.916          29.000                                                                  
E18  26522590.349   139377148.875       -1376.924          37.000                                                                  
> 2024 04 16 11 46 00.4960000  0 27                     
G31  23090044.652   121339040.484        1488.480          46.000    23090047.095    94549874.445        1159.783          43.000  
G02  19014864.751    99923808.332         390.537          48.000                                                                  
G03  20397498.633   107189603.695         545.438          47.000    20397499.027    83524325.259         425.103          45.000  
G04  21661007.532   113829303.158        2870.905          44.000    21661008.644    88698130.700        2237.029          45.000  
R23  18535553.108    99152813.979       -1898.378          52.000                                                                  
R24  19050781.167   101872912.809        1992.736          52.000    19050778.916    79234593.095        1550.039          48.000  
R02  21449023.229   114455788.120        2946.888          46.000    21449025.996    89021241.085        2292.130          43.000  
R08  19555923.773   104721077.584       -3763.678          51.000    19555919.487    81449767.490       -2927.228          50.000  
G21  18487489.035    97152388.164        -348.659          48.000                                                                  
S33  38576946.414   202723265.740        -635.213          42.000  
S31  37624380.719   197717514.798        -635.328          44.000  
E36  22816137.973   119899606.355         602.956          47.000    22816142.003    91871190.695         462.004          52.000  
E11  22123964.651   116262213.036       -1465.239          44.000    22123964.700    89084084.083       -1122.593          47.000  
R01  18274934.546    97690165.323         146.219          50.000    18274934.235    75981088.462         113.612          45.000  
R22  22108505.590   118016683.869       -4309.867          47.000    22108512.630    91790767.708       -3352.081          46.000  
G27  23143188.932                       -4468.992          32.000    23143196.254                       -3481.328          31.000  
G08  20692504.759   108739867.163       -3707.225          47.000    20692507.065    84732373.190       -2888.652          45.000  
E04  24129133.731   126799461.931       -2480.349          45.000    24129136.798    97158050.789       -1900.547          50.000  
G28  22656033.110   119058232.161         562.775          43.000    22656036.387    92772656.269         438.580          45.000  
E09  22410078.279   117765810.642          84.689          46.000    22410083.028    90236114.722          64.837          54.000  
E05  23475822.467   123366223.661        2178.463          42.000    23475829.030    94527382.114        1669.154          47.000  
G17  22488637.061                2       2525.970          31.000    22488628.707    92087156.387        1968.970          32.000  
G32  22568982.724   118600771.814       -3955.346          47.000    22568985.267    92416200.747       -3081.885          39.000  
E12  27310620.209   143518234.674       -2781.009          36.000    27310631.849   109968555.029       -2131.051          43.000  
E10  25038429.882   131577956.727       -2359.812          46.000    25038435.523   100819652.719       -1808.241          48.000  
E34  26354873.629                        1687.774          25.000    26354858.596                3       1293.294          25.000  
E18  26530465.706   139418533.325       -1381.669          36.000                                                                  
> 2024 04 16 11 46 30.4960000  0 27                     
G31  23081570.867   121294508.751        1480.284          46.000    23081573.446    94515174.374        1153.475          43.000  
G02  19012683.795    99912347.927         373.460          47.000                                                                  
G03  20394414.385   107173398.309         535.158          47.000    20394416.096    83511697.649         416.914          46.000  
G04  21644649.126   113743338.364        2860.116          44.000    21644650.433    88631145.154        2228.684          45.000  
R23  18546268.614    99210131.170       -1922.647          52.000                                                                  
R24  19039648.692   101813383.595        1975.938          52.000    19039646.913    79188292.538        1536.838          48.000  
R02  21432495.055   114367592.243        2932.773          46.000    21432498.643    88952644.180        2281.098          43.000  
R08  19577047.786   104834194.531       -3777.490          52.000    19577042.885    81537747.200       -2938.050          49.000  
G21  18489537.645    97163154.156        -369.005          48.000                                                                  
S33  38580581.174   202742365.700        -638.176          42.000  
S31  37628017.927   197736629.258        -638.805          44.000  
E36  22812717.459   119881631.329         595.592          46.000    22812721.440    91857417.537         456.301          52.000  
E11  22132359.426   116306328.449       -1475.523          45.000    22132359.515    89117886.697       -1130.613          47.000  
R01  18274182.396    97686143.481         122.134          50.000    18274182.161    75977960.338          94.936          45.000  
R22  22132762.915   118146165.594       -4322.028          48.000    22132769.699    91891475.368       -3361.636          45.000  
G08  20713709.198   108851295.366       -3721.128          47.000    20713710.609    84819200.255       -2899.561          45.000  
E04  24143329.942   126874063.888       -2492.932          45.000    24143333.103    97215213.192       -1910.155          50.000  
G28  22652868.821   119041600.462         545.990          44.000    22652871.972    92759696.496         425.507          44.000  
E09  22409642.877   117763520.220          68.206          46.000    22409647.430    90234359.677          52.213          54.000  
E05  23463411.381   123301000.275        2169.883          43.000    23463417.595    94477405.720        1662.567          48.000  
G17  22474265.957                3       2511.278          29.000    22474249.882    92028276.411        1957.333          32.000  
G32  22591595.811   118719603.208       -3966.784          48.000    22591598.510    92508796.361       -3091.028          39.000  
E12  27326521.102   143601784.446       -2788.875          37.000    27326531.120   110032573.384       -2136.790          41.000  
E10  25051926.882   131648890.762       -2369.003          45.000    25051933.743   100874004.597       -1815.241          48.000  
E34  26345230.143                3       1685.472          23.000    26345223.971                3       1292.894          23.000  
E18  26538369.857   139460067.164       -1387.456          36.000                                                                  
G27                                                                  23168719.753                       -3485.139          27.000  
> 2024 04 16 11 47 00.4960000  0 27                     
G31  23073143.346   121250220.846        1472.295          45.000    23073145.521    94480664.311        1147.471          43.000  
G02  19010600.696    99901402.147         356.413          47.000                                                                  
G03  20391388.466   107157492.989         525.161          48.000    20391389.824    83499303.825         409.318          46.000  
G04  21628351.674   113657693.259        2849.621          43.000    21628352.191    88564408.709        2220.514          45.000  
R23  18557118.706    99268175.399       -1946.757          52.000                                                                  
R24  19028610.583   101754356.416        1959.251          52.000    19028608.692    79142382.453        1523.981          48.000  
R02  21416047.929   114279820.356        2918.658          48.000    21416050.585    88884377.067        2270.062          43.000  
R08  19598247.983   104947719.199       -3790.692          52.000    19598243.664    81626044.006       -2948.377          50.000  
G21  18491702.647    97174528.293        -389.053          48.000                                                                  
S33  38584233.824   202761558.876        -641.058          42.000  
S31  37631673.001   197755836.602        -641.644          44.000  
E36  22809338.875   119863876.088         588.248          46.000    22809342.628    91843812.795         450.691          52.000  
E11  22140813.406   116350752.560       -1485.499          45.000    22140813.063    89151925.860       -1138.369          46.000  
R01  18273563.943    97682840.660          98.212          50.000    18273564.042    75975391.451          76.346          45.000  
R22  22157087.480   118276006.646       -4333.795          49.000    22157092.521    91992462.430       -3370.877          44.000  
G08  20734992.117   108963140.168       -3734.928          46.000    20734994.412    84906351.861       -2910.518          45.000  
E04  24157597.797   126949041.828       -2505.355          45.000    24157601.432    97272663.681       -1919.655          50.000  
G28  22649799.865   119025472.448         529.407          44.000    22649801.954    92747129.202         412.299          42.000  
E09  22409301.212   117761720.725          52.070          47.000    22409305.099    90232980.777          39.822          54.000  
E05  23451047.428   123236031.184        2161.390          43.000    23451054.710    94427624.171        1656.323          48.000  
G32  22614273.048   118838771.614       -3977.637          47.000    22614274.730    92601654.600       -3099.548          37.000  
E12  27342461.659   143685554.036       -2795.793          37.000    27342472.109   110096760.127       -2142.135          42.000  
E10  25065478.829   131720099.830       -2378.116          46.000    25065484.494   100928567.197       -1822.197          48.000  
E18  26546304.360   139501761.353       -1392.297          36.000                                                                  
E34                                                                  26335603.779                3       1291.392          25.000  
G27                                                                  23194264.757                       -3488.470          26.000  
G17                                                                  22459951.781                        1945.423          31.000  
> 2024 04 16 11 47 30.4960000  0 27                     
G31  23064759.252   121206163.477        1465.136          46.000    23064761.479    94446333.901        1141.781          43.000  
G02  19008612.473    99890956.737         340.335          47.000                                                                  
G03  20388416.664   107141870.878         516.455          49.000    20388416.873    83487130.699         402.455          46.000  
G04  21612111.859   113572354.069        2840.043          43.000    21612112.120    88497910.660        2212.943          44.000  
R23  18568102.067    99326930.287       -1969.809          51.000                                                                  
R24  19017663.415   101695818.374        1943.581          52.000    19017662.151    79096852.810        1511.677          49.000  
R02  21399676.190   114192458.072        2905.783          49.000    21399679.593    88816428.505        2259.984          44.000  
R08  19619520.236   105061631.254       -3802.893          51.000    19619516.242    81714642.110       -2957.941          49.000  
G21  18493980.109    97186495.838        -408.323          48.000                                                                  
S33  38587900.757   202780828.504        -643.066          42.000  
S31  37635342.736   197775120.478        -643.560          44.000  
E36  22805999.412   119846325.577         581.982          47.000    22806002.986    91830364.931         445.850          52.000  
E11  22149322.718   116395469.791       -1495.188          45.000    22149322.711    89186189.601       -1145.732          47.000  
R01  18273077.210    97680239.599          75.403          49.000    18273077.176    75973368.355          58.757          44.000  
R22  22181475.522   118406188.409       -4344.590          48.000    22181480.690    92093714.511       -3379.267          45.000  
G08  20756350.666   109075382.463       -3747.542          45.000    20756353.181    84993813.213       -2920.101          43.000  
E04  24171934.396   127024377.952       -2516.851          46.000    24171937.396    97330388.628       -1928.472          50.000  
G28  22646824.655   119009834.091         513.507          44.000    22646826.553    92734943.451         400.104          44.000  
E09  22409048.754   117760396.005          36.664          46.000    22409053.320    90231965.681          28.023          54.000  
E05  23438730.283   123171301.547        2154.055          44.000    23438737.306    94378026.128        1650.495          49.000  
G17  22445749.984                3       2481.648          30.000    22445740.458                        1934.840          31.000  
G32  22637010.883   118958258.069       -3987.659          48.000    22637012.188    92694760.623       -3107.312          36.000  
E12  27358442.293   143769526.938       -2802.245          40.000    27358451.549   110161102.666       -2147.018          41.000  
E10  25079078.349   131791567.836       -2386.210          46.000    25079085.203   100983328.200       -1828.358          48.000  
E18  26554266.189   139543599.228       -1396.517          37.000                                                                  
E34                                                                  26325987.158                        1291.523          26.000  
G27                                                                  23219825.838                3      -3489.989          25.000  
> 2024 04 16 11 48 00.4960000  0 27                     
G31  23056414.736   121162314.025        1458.233          45.000    23056416.124    94412165.501        1136.424          42.000  
G02  19006715.989    99880988.619         324.454          47.000                                                                  
G03  20385493.033   107126506.571         507.920          49.000    20385493.177    83475158.463         395.815          46.000  
G04  21595925.731   113487298.509        2830.494          43.000    21595927.256    88431633.619        2205.428          45.000  
R23  18579214.276    99386370.807       -1992.685          52.000                                                                  
R24  19006803.785   101637747.795        1927.962          52.000    19006802.474    79051686.755        1499.434          49.000  
R02  21383377.085   114105482.515        2892.847          48.000    21383379.460    88748780.751        2250.145          43.000  
R08  19640859.824   105175902.157       -3814.850          51.000    19640855.825    81803519.328       -2967.182          49.000  
G21  18496365.279    97199032.860        -427.269          48.000                                                                  
S33  38591577.792   202800150.970        -644.709          42.000  
S31  37639022.384   197794456.620        -645.442          44.000  
E36  22802693.930   119828956.188         576.116          47.000    22802697.896    91817055.852         441.418          52.000  
E11  22157883.285   116440455.933       -1503.996          45.000    22157883.479    89220659.392       -1152.457          47.000  
R01  18272717.229    97678314.502          53.102          49.000    18272716.902    75971871.010          41.364          44.000  
R22  22205922.212   118536683.584       -4354.915          48.000    22205928.644    92195210.323       -3387.314          47.000  
G08  20777780.172   109187994.415       -3759.625          46.000    20777782.722    85081562.611       -2929.791          45.000  
E04  24186333.225   127100045.818       -2527.740          46.000    24186336.509    97388367.780       -1936.835          49.000  
G28  22643937.700   118994662.808         497.913          46.000    22643939.243    92723121.712         388.123          44.000  
E09  22408882.353   117759521.377          21.720          46.000    22408886.810    90231295.440          16.695          54.000  
E05  23426453.724   123106788.024        2146.975          44.000    23426460.856    94328593.662        1645.099          49.000  
G17  22431619.567                        2469.269          30.000    22431605.477                        1924.938          31.000  
G32  22659803.562   119078034.855       -3997.180          48.000    22659804.560    92788092.923       -3114.362          38.000  
E12  27374455.936   143853678.275       -2807.855          39.000    27374465.694   110225581.923       -2151.363          40.000  
E10  25092723.002   131863270.171       -2393.935          46.000    25092730.134   101038268.727       -1834.315          49.000  
E18  26562249.640   139585555.512       -1400.449          38.000                                                                  
E34                                                                  26316356.676                3       1292.401          24.000  
G27                                                                  23245408.833                3      -3491.042          22.000  
> 2024 04 16 11 48 30.4960000  0 27                     
G31  23048110.159   121118669.315        1451.782          46.000    23048112.124    94378156.667        1131.073          43.000  
G02  19004908.904    99871493.052         308.768          47.000                                                                  
G03  20382616.652   107111392.820         499.889          48.000    20382616.719    83463381.488         389.491          45.000  
G04  21579793.611   113402522.399        2821.436          45.000    21579795.025    88365574.324        2198.383          46.000  
R23  18590453.310    99446490.354       -2015.129          52.000                                                                  
R24  18996031.753   101580141.659        1912.614          52.000    18996029.676    79006881.918        1487.596          48.000  
R02  21367147.988   114018889.058        2880.302          47.000    21367151.892    88681430.208        2240.105          44.000  
R08  19662263.954   105290520.964       -3826.257          51.000    19662260.115    81892667.123       -2975.989          50.000  
G21  18498858.086    97212135.127        -445.983          47.000                                                                  
S33  38595263.285   202819517.712        -646.197          42.000  
S31  37642710.429   197813838.082        -646.586          44.000  
E36  22799422.189   119811762.516         570.421          47.000    22799426.222    91803881.424         437.006          52.000  
E11  22166494.127   116485704.949       -1512.489          45.000    22166494.116    89255330.628       -1158.922          47.000  
R01  18272481.979    97677057.743          30.976          49.000    18272482.387    75970893.497          23.967          44.000  
R22  22230426.504   118667483.319       -4364.819          49.000    22230433.114    92296943.032       -3394.874          48.000  
G08  20799278.544   109300966.328       -3771.458          47.000    20799279.867    85169592.487       -2938.972          43.000  
E04  24200794.519   127176037.233       -2538.070          47.000    24200797.586    97446594.846       -1944.931          50.000  
G28  22641138.831   118979954.176         482.654          45.000    22641139.752    92711660.445         376.086          43.000  
E09  22408800.129   117759090.249           7.117          46.000    22408804.526    90230965.048           5.414          53.000  
E05  23414217.130   123042485.335        2140.151          44.000    23414224.614    94279322.783        1639.719          50.000  
G17  22417559.076                1       2454.280          32.000    22417545.428    91796088.965        1913.545          31.000  
G32  22682649.673   119198092.548       -4006.378          48.000    22682651.662    92881644.060       -3121.796          39.000  
E12  27390501.673   143938001.332       -2813.603          34.000    27390512.113   110290192.764       -2155.805          38.000  
E10  25106411.641   131935200.338       -2401.285          45.000    25106417.532   101093383.827       -1839.950          48.000  
E18  26570254.842   139627623.146       -1403.837          38.000                                                                  
E34                                                                  26306755.861                3       1291.716          25.000  
G27                                                                  23270992.181                3      -3487.407          19.000  
> 2024 04 16 11 49 00.4960000  0 26                     
G31  23039841.846   121075225.166        1444.854          45.000    23039844.905    94344304.084        1125.852          43.000  
G02  19003190.834    99862464.891         293.241          48.000                                                                  
G03  20379786.662   107096522.190         491.781          48.000    20379786.594    83451793.963         383.057          45.000  
G04  21563713.591   113318021.337        2812.214          45.000    21563715.411    88299729.351        2191.254          46.000  
R23  18601818.118    99507281.718       -2037.556          52.000                                                                  
R24  18985345.828   101522996.657        1897.171          52.000    18985343.403    78962435.757        1475.495          48.000  
R02  21350991.526   113932672.828        2867.595          48.000    21350994.942    88614373.068        2230.321          44.000  
R08  19683731.039   105405477.331       -3837.335          51.000    19683728.120    81982077.483       -2984.614          50.000  
G21  18501457.819    97225797.094        -464.727          46.000                                                                  
S33  38598956.324   202838925.146        -647.708          42.000  
S31  37646406.203   197833258.085        -648.113          44.000  
E36  22796183.019   119794738.854         564.746          47.000    22796186.722    91790837.260         432.691          52.000  
E11  22175153.624   116531210.653       -1520.953          45.000    22175153.516    89290198.532       -1165.530          47.000  
R01  18272370.754    97676461.324           8.906          49.000    18272370.407    75970429.554           7.028          44.000  
R22  22254983.658   118798578.488       -4374.704          48.000    22254991.549    92398905.541       -3402.479          48.000  
G08  20820843.820   109414288.330       -3783.239          47.000    20820846.191    85257895.183       -2948.033          45.000  
E04  24215315.227   127252343.721       -2548.680          47.000    24215318.360    97505063.334       -1952.906          50.000  
G28  22638426.677   118965703.503         467.316          44.000    22638427.188    92700556.019         364.209          43.000  
E09  22408802.148   117759095.856          -7.344          46.000    22408805.540    90230969.289          -5.706          53.000  
E05  23402020.513   122978388.115        2133.217          45.000    23402027.475    94230209.295        1634.527          50.000  
G32  22705547.318   119318421.458       -4015.454          48.000    22705549.397    92975406.601       -3128.802          39.000  
E12  27406579.399   144022488.975       -2818.327          31.000    27406589.759   110354929.749       -2160.143          35.000  
E10  25120143.683   132007351.593       -2408.648          47.000    25120147.476   101148668.351       -1845.519          48.000  
E18  26578280.737   139669794.819       -1407.339          38.000                                                                  
G27                                                                  23296590.451                3      -3502.953          16.000  
G17                                                                  22403564.678                        1903.017          30.000  
> 2024 04 16 11 49 30.4960000  0 27                     
G31  23031615.068   121031992.243        1436.885          46.000    23031617.432    94310616.125        1119.658          42.000  
G02  19001563.867    99853913.721         276.437          48.000                                                                  
G03  20377004.487   107081901.770         482.701          48.000    20377004.523    83440401.383         376.141          45.000  
G04  21547687.516   113233805.393        2801.766          45.000    21547689.197    88234106.571        2183.301          45.000  
R23  18613309.015    99568752.813       -2061.010          52.000                                                                  
R24  18974748.136   101466324.450        1880.490          52.000    18974745.327    78918357.323        1462.720          49.000  
R02  21334907.856   113846843.677        2853.814          49.000    21334911.893    88547616.942        2219.659          46.000  
R08  19705262.313   105520775.058       -3849.463          51.000    19705259.170    82071753.323       -2994.007          50.000  
G21  18504165.828    97240027.693        -484.499          47.000                                                                  
S33  38602658.198   202858376.565        -649.698          42.000  
S31  37650110.573   197852724.022        -650.066          44.000  
E36  22792977.740   119777894.165         557.838          47.000    22792981.242    91777930.216         427.441          52.000  
E11  22183864.247   116576981.416       -1530.682          45.000    22183863.417    89325269.516       -1172.834          46.000  
R01  18272383.879    97676532.216         -14.208          49.000    18272383.715    75970484.664         -10.851          44.000  
R22  22279599.412   118929974.725       -4385.561          49.000    22279606.772    92501102.204       -3410.890          48.000  
G08  20842475.280   109527965.114       -3795.682          47.000    20842478.380    85346474.300       -2957.766          45.000  
E04  24229896.810   127328971.428       -2560.296          47.000    24229900.162    97563777.942       -1961.707          49.000  
G28  22635804.130   118951920.596         451.422          43.000    22635804.757    92689816.138         351.392          43.000  
E09  22408888.159   117759545.965         -23.034          46.000    22408891.048    90231314.124         -17.664          53.000  
E05  23389863.566   122914505.397        2125.312          45.000    23389871.268    94181260.186        1628.440          50.000  
G32  22728498.335   119439026.415       -4025.372          48.000    22728501.487    93069384.184       -3136.609          42.000  
E12  27422687.101                       -2825.299          28.000    27422700.802   110419798.680       -2164.909          33.000  
E10  25133916.583   132079731.779       -2417.104          46.000    25133921.204   101204128.323       -1852.029          48.000  
E18  26586326.828   139712077.792       -1411.972          37.000                                                                  
E34                                                                  26287460.906                3       1293.760          25.000  
G27                                                                  23322240.965                3      -3491.661          19.000  
G17                                                                  22389661.205                        1891.911          28.000  
> 2024 04 16 11 50 00.4960000  0 27                     
G31  23023430.630   120988981.558        1428.896          47.000    23023433.158    94277101.339        1113.201          43.000  
G02  19000029.698    99845850.595         259.677          48.000                                                                  
G03  20374271.130   107067539.705         473.306          48.000    20374271.557    83429210.125         368.887          46.000  
G04  21531719.081   113149885.976        2791.309          46.000    21531719.927    88168714.817        2175.085          46.000  
R23  18624929.635    99630912.479       -2084.594          52.000                                                                  
R24  18964240.790   101410137.487        1863.734          52.000    18964238.312    78874656.305        1449.656          48.000  
R02  21318898.896   113761412.730        2839.995          48.000    21318902.208    88481170.558        2208.876          45.000  
R08  19726857.857   105636419.493       -3861.548          50.000    19726855.784    82161698.861       -3003.406          50.000  
G21  18506983.961    97254837.324        -504.396          46.000                                                                  
S33  38606370.350   202877884.017        -652.309          42.000  
S31  37653825.366   197872244.938        -652.653          44.000  
E36  22789808.438   119761238.410         551.001          48.000    22789811.895    91765167.929         422.280          52.000  
E11  22192626.146   116623026.645       -1540.376          45.000    22192625.545    89360550.813       -1180.305          46.000  
R01  18272523.862    97677278.439         -37.254          49.000    18272523.288    75971065.050         -29.038          44.000  
R22  22304272.457   119061678.781       -4396.255          49.000    22304278.780    92603538.297       -3419.258          46.000  
G08  20864176.115   109642002.379       -3808.280          46.000    20864179.112    85435334.323       -2967.390          44.000  
E04  24244541.586   127405927.513       -2571.714          47.000    24244544.641    97622744.173       -1970.482          49.000  
G28  22633272.847   118938616.470         434.528          43.000    22633273.525    92679449.242         338.550          44.000  
E09  22409059.815   117760449.364         -38.627          46.000    22409063.018    90232006.292         -29.620          53.000  
E05  23377750.166   122850847.424        2117.166          45.000    23377757.398    94132483.270        1622.227          50.000  
G32  22751503.086   119559913.409       -4035.229          48.000    22751506.113    93163581.551       -3144.061          42.000  
E10  25147734.607   132152349.864       -2425.610          45.000    25147740.484   101259770.566       -1858.514          48.000  
E18  26594396.072   139754480.361       -1416.308          38.000                                                                  
E12                                                                  27438846.144   110484806.053       -2170.012          32.000  
E34                                                                  26277829.717                        1292.528          29.000  
G27                                                                  23347881.948                3      -3501.340          13.000  
G17                                                                  22375834.857                        1881.122          26.000  
> 2024 04 16 11 50 30.4960000  0 26                     
G31  23015291.319   120946211.781        1421.854          47.000    23015293.938    94243774.280        1107.915          42.000  
G02  18998591.776    99838292.422         243.924          49.000                                                                  
G03  20371590.449   107053451.100         465.394          49.000    20371590.878    83418231.941         362.618          46.000  
G04  21515809.327   113066281.196        2781.808          46.000    21515810.480    88103568.233        2167.626          45.000  
R23  18636680.779    99693776.933       -2106.930          52.000                                                                  
R24  18953827.702   101354455.463        1847.914          51.000    18953825.654    78831348.022        1437.270          48.000  
R02  21302966.464   113676397.557        2827.271          47.000    21302969.918    88415047.527        2198.858          45.000  
R08  19748520.566   105752422.809       -3872.370          50.000    19748518.723    82251923.481       -3011.823          50.000  
G21  18509915.817    97270243.028        -523.178          46.000                                                                  
S33  38610096.206   202897461.805        -653.218          42.000  
S31  37657553.236   197891836.281        -653.929          44.000  
E36  22786677.961   119744788.531         545.349          48.000    22786681.786    91752563.409         417.750          52.000  
E11  22201443.547   116669362.579       -1549.285          45.000    22201443.221    89396054.876       -1186.994          47.000  
R01  18272793.154    97678715.510         -59.104          50.000    18272791.658    75972182.725         -46.004          44.000  
R22  22329005.477   119193704.600       -4405.867          48.000    22329011.899    92706224.680       -3426.697          46.000  
G08  20885947.579   109756412.834       -3819.640          45.000    20885950.561    85524485.151       -2976.218          43.000  
E04  24259251.416   127483226.100       -2581.980          47.000    24259253.869    97681972.850       -1978.447          48.000  
G28  22630835.873   118925808.937         418.854          43.000    22630836.920    92669469.331         326.489          44.000  
E09  22409322.652   117761821.843         -53.362          47.000    22409324.472    90233057.864         -40.789          53.000  
E05  23365681.678   122787431.243        2110.252          43.000    23365689.285    94083891.625        1616.833          49.000  
G32  22774563.890   119681095.301       -4043.994          48.000    22774566.236    93258008.718       -3151.056          43.000  
E10  25161602.987   132225221.653       -2432.976          46.000    25161607.587   101315607.213       -1864.238          48.000  
E18  26602491.364   139797017.801       -1419.974          39.000                                                                  
E12                                                                  27455028.473                       -2174.356          30.000  
E34                                                                  26268198.929                        1292.666          30.000  
G17                                                                  22362091.722                        1870.228          29.000  
> 2024 04 16 11 51 00.4960000  0 26                     
G31  23007193.607   120903660.522        1414.529          47.000    23007195.472    94210617.486        1102.388          41.000  
G02  18997245.641    99831216.131         227.727          48.000                                                                  
G03  20368956.748   107039610.204         457.129          49.000    20368957.354    83407446.793         356.392          46.000  
G04  21499955.641   112982968.301        2772.170          46.000    21499956.545    88038649.087        2160.065          45.000  
R23  18648559.372    99757319.915       -2129.544          52.000                                                                  
R24  18943505.180   101299256.539        1831.793          50.000    18943503.337    78788415.473        1424.589          49.000  
R02  21287107.722   113591775.162        2814.074          45.000    21287111.640    88349229.996        2188.643          46.000  
R08  19770245.212   105868755.787       -3883.337          49.000    19770242.698    82342404.539       -3020.374          49.000  
G21  18512956.575    97286221.210        -542.285          47.000                                                                  
S33  38613830.670   202917085.951        -655.104          42.000  
S31  37661290.457   197911473.397        -655.375          44.000  
E36  22783582.463   119728520.605         539.092          48.000    22783586.263    91740098.312         413.011          53.000  
E11  22210311.307   116715964.753       -1558.198          45.000    22210311.595    89431762.945       -1193.950          47.000  
R01  18273185.636    97680816.354         -81.129          50.000    18273185.020    75973816.692         -63.139          44.000  
R22  22353794.150   119326024.483       -4415.717          48.000    22353799.670    92809139.735       -3434.412          45.000  
G08  20907785.337   109871168.236       -3831.149          45.000    20907787.576    85613904.764       -2985.237          43.000  
E04  24274020.654   127560840.395       -2592.530          47.000    24274023.432    97741443.441       -1986.537          48.000  
G28  22628488.545   118913474.865         403.198          41.000    22628490.497    92659858.445         314.160          45.000  
E09  22409667.242   117763638.225         -68.120          46.000    22409670.396    90234449.581         -52.176          54.000  
E05  23353655.524   122724233.092        2102.808          43.000    23353662.885    94035467.038        1611.260          49.000  
G32  22797675.390   119802544.175       -4052.807          47.000    22797677.250    93352643.904       -3158.133          42.000  
E10  25175512.776   132298322.139       -2440.492          45.000    25175518.396   101371619.096       -1870.090          48.000  
E18  26610608.050   139839664.476       -1423.723          40.000                                                                  
E12                                                                  27471243.754                       -2178.701          28.000  
E34                                                                  26258567.135                        1293.304          30.000  
G17                                                                  22348433.487                        1859.284          31.000  
> 2024 04 16 11 51 30.4960000  0 26                     
G31  22999140.526   120861336.012        1407.260          46.000    22999141.971    94177637.432        1096.432          42.000  
G02  18995992.093    99824628.799         211.614          48.000                                                                  
G03  20366371.023   107026021.760         448.787          49.000    20366371.454    83396858.362         349.984          46.000  
G04  21484158.495   112899955.139        2762.171          46.000    21484159.616    87973963.463        2152.736          44.000  
R23  18660566.236    99821547.353       -2152.059          52.000                                                                  
R24  18933274.577   101244549.763        1815.545          51.000    18933273.432    78745865.701        1412.121          49.000  
R02  21271324.896   113507552.618        2801.072          45.000    21271329.516    88283723.494        2178.543          47.000  
R08  19792031.490   105985420.572       -3894.135          50.000    19792028.449    82433143.618       -3028.858          50.000  
G21  18516107.189    97302778.583        -561.293          47.000                                                                  
S33  38617574.801   202936760.620        -656.483          42.000  
S31  37665037.302   197931161.123        -656.704          44.000  
E36  22780522.838   119712441.214         533.069          48.000    22780526.281    91727777.672         408.437          52.000  
E11  22219231.203   116762839.096       -1566.777          45.000    22219231.694    89467679.537       -1200.458          47.000  
R01  18273703.367    97683585.479        -103.215          49.000    18273703.633    75975970.419         -80.377          44.000  
R22  22378638.016   119458641.610       -4425.213          48.000    22378644.116    92912285.962       -3441.859          46.000  
G08  20929688.690   109986270.902       -3842.271          46.000    20929691.778    85703595.015       -2994.042          45.000  
E04  24288851.105   127638774.225       -2602.959          47.000    24288854.143    97801158.859       -1994.389          48.000  
G28  22626233.934   118901621.842         387.341          40.000    22626235.572    92650622.311         301.862          45.000  
E09  22410096.976   117765903.895         -82.791          46.000    22410101.656    90236185.564         -63.420          54.000  
E34  26248923.488                        1687.562          27.000    26248934.974                        1293.609          32.000  
E05  23341673.179   122661259.756        2095.566          44.000    23341679.579    93987214.713        1605.695          49.000  
G32  22820837.335   119924262.514       -4061.351          45.000    22820840.286    93447489.074       -3164.589          43.000  
E10  25189466.252   132371656.844       -2448.139          44.000    25189473.674   101427810.395       -1875.859          48.000  
E18  26618744.512   139882425.297       -1427.006          40.000                                                                  
E12                                                                  27487491.886                       -2183.342          27.000  
G17                                                                  22334855.774    91457477.702        1848.304          32.000  
> 2024 04 16 11 52 00.4960000  0 26                     
G31  22991128.176   120819230.466        1399.867          46.000    22991129.776    94144828.001        1090.552          42.000  
G02  18994829.898    99818521.853         195.640          48.000                                                                  
G03  20363831.309   107012674.550         441.063          49.000    20363831.896    83386457.930         343.617          46.000  
G04  21468416.481   112817233.471        2752.500          45.000    21468418.193    87909505.036        2144.728          45.000  
R23  18672698.986    99886448.021       -2174.561          51.000                                                                  
R24  18923134.720   101190328.183        1799.319          51.000    18923134.209    78703693.284        1399.478          49.000  
R02  21255614.690   113423721.398        2787.981          44.000    21255619.520    88218521.384        2168.315          46.000  
R08  19813878.073   106102402.017       -3904.598          50.000    19813874.280    82524129.060       -3036.934          50.000  
G21  18519366.190    97319906.052        -580.289          46.000                                                                  
S33  38621326.428   202956475.505        -658.000          42.000  
S31  37668791.188   197950889.551        -658.173          44.000  
E36  22777496.782   119696540.938         527.070          48.000    22777500.611    91715594.281         403.834          52.000  
E11  22228200.857   116809975.639       -1575.429          46.000    22228201.376    89503797.019       -1207.016          46.000  
R01  18274344.395    97687011.508        -125.044          50.000    18274344.869    75978635.053         -97.164          45.000  
R22  22403535.865   119591542.957       -4434.725          49.000    22403542.103    93015653.274       -3449.165          45.000  
G08  20951655.968   110101707.125       -3853.420          47.000    20951658.191    85793545.140       -3002.550          44.000  
E04  24303740.240   127717015.287       -2613.091          47.000    24303743.228    97861109.689       -2002.202          49.000  
G28  22624067.279   118890241.188         371.301          36.000    22624069.012    92641754.279         289.496          44.000  
E09  22410611.983   117768608.251         -97.464          46.000    22410616.536    90238257.677         -74.613          54.000  
E34  26239304.732                        1688.330          28.000    26239300.020   105654784.1261       1293.437          32.000  
E05  23329731.187   122598501.978        2088.381          44.000    23329737.171    93939127.550        1600.223          48.000  
G17  22321363.012                1       2358.143          28.000    22321355.544                        1836.775          32.000  
G32  22844048.743   120046236.999       -4070.063          43.000    22844051.860    93542533.791       -3171.568          44.000  
E10  25203464.940   132445215.216       -2455.602          45.000    25203471.665   101484173.095       -1881.575          48.000  
E18  26626900.203   139925289.229       -1430.255          39.000                                                                  
E12                                                                  27503771.449                3      -2186.902          26.000  
> 2024 04 16 11 52 30.4960000  0 26                     
G31  22983158.648   120777349.607        1392.619          45.000    22983159.756    94112193.599        1085.280          41.000  
G02  18993759.820    99812899.630         179.554          48.000                                                                  
G03  20361336.973   106999570.950         432.979          48.000    20361338.046    83376247.313         337.222          46.000  
G04  21452732.009   112734808.749        2742.645          46.000    21452732.597    87845277.911        2137.337          45.000  
R23  18684957.675    99952024.804       -2197.012          51.000                                                                  
R24  18913087.509   101136598.248        1783.002          51.000    18913085.958    78661903.260        1386.686          48.000  
R02  21239979.517   113340286.527        2774.709          43.000    21239983.859    88153627.530        2158.059          46.000  
R08  19835782.325   106219699.827       -3914.917          49.000    19835779.554    82615360.500       -3044.977          50.000  
G21  18522734.982    97337607.971        -599.520          47.000                                                                  
S33  38625086.649   202976234.034        -658.995          42.000  
S31  37672553.721   197970660.295        -659.512          44.000  
E36  22774506.228   119680824.032         521.050          49.000    22774509.863    91703551.392         399.188          52.000  
E11  22237222.218   116857377.965       -1584.137          46.000    22237221.916    89540118.182       -1213.831          47.000  
R01  18275108.984    97691096.035        -147.000          50.000    18275108.849    75981811.864        -114.235          45.000  
R22  22428486.493   119724729.473       -4444.036          49.000    22428492.662    93119242.424       -3456.304          46.000  
G08  20973686.286   110217476.872       -3864.359          47.000    20973688.698    85883755.211       -3011.130          44.000  
E04  24318687.599   127795564.956       -2623.253          47.000    24318691.098    97921296.997       -2010.091          49.000  
G28  22621990.337   118879337.906         355.414          39.000    22621994.735    92633258.345         277.075          44.000  
E09  22411210.919   117771754.249        -111.992          46.000    22411215.146    90240668.193         -85.818          54.000  
E34  26229664.751   137837764.6171       1688.086          32.000    26229663.151   105615980.013        1293.872          33.000  
E05  23317830.461   122535964.123        2080.971          44.000    23317836.346    93891208.891        1594.574          47.000  
G17  22307942.664                3       2342.418          29.000    22307937.855                        1826.732          32.000  
G32  22867308.310   120168467.793       -4078.593          42.000    22867311.458    93637778.215       -3178.046          43.000  
E10  25217506.750   132519000.381       -2463.108          46.000    25217512.942   101540709.572       -1887.344          48.000  
E18  26635077.216   139968258.859       -1433.865          39.000                                                                  
E12                                                                  27520082.609                       -2191.525          26.000  
> 2024 04 16 11 53 00.4960000  0 26                     
G31  22975230.874   120735690.354        1385.208          45.000    22975232.913    94079731.886        1079.521          43.000  
G02  18992781.987    99807758.317         163.803          48.000                                                                  
G03  20358888.932   106986704.634         425.320          48.000    20358889.109    83366221.552         331.324          45.000  
G04  21437103.017   112652677.684        2733.177          47.000    21437103.638    87781279.612        2129.910          45.000  
R23  18697342.840   100018271.758       -2218.999          52.000                                                                  
R24  18903130.723   101083358.104        1766.908          51.000    18903129.039    78620494.200        1374.267          48.000  
R02  21224418.165   113257244.130        2761.852          45.000    21224422.840    88089038.917        2148.228          48.000  
R08  19857743.805   106337304.638       -3924.767          49.000    19857741.925    82706830.745       -3052.644          50.000  
G21  18526212.491    97355880.024        -618.303          48.000                                                                  
S33  38628853.623   202996030.530        -659.987          42.000  
S31  37676323.421   197990469.817        -660.637          44.000  
E36  22771549.672   119665285.971         515.256          49.000    22771553.073    91691645.529         394.816          53.000  
E11  22246292.231   116905040.895       -1592.631          46.000    22246292.359    89576639.012       -1220.392          47.000  
R01  18275995.427    97695832.413        -168.333          50.000    18275994.855    75985495.677        -131.059          45.000  
R22  22453488.535   119858193.074       -4453.021          47.000    22453496.100    93223047.077       -3463.439          45.000  
G08  20995778.121   110333571.329       -3874.850          47.000    20995780.786    85974218.286       -3019.270          44.000  
E04  24333693.389   127874415.934       -2633.010          47.000    24333695.800    97981715.152       -2017.451          48.000  
G28  22620006.124   118868908.456         339.972          38.000    22620008.474    92625131.560         265.241          42.000  
E09  22411892.596   117775336.113        -126.336          46.000    22411896.523    90243412.677         -96.802          54.000  
E34  26220022.975   137787107.150        1689.583          34.000    26220023.647   105577164.408        1294.368          33.000  
E05  23305970.605   122473641.803        2074.296          44.000    23305977.151    93843455.364        1589.306          48.000  
G32  22890615.417   120290946.248       -4086.518          38.000    22890618.237    93733215.676       -3184.292          44.000  
E10  25231589.740   132593006.682       -2470.185          46.000    25231596.030   101597415.489       -1892.718          48.000  
E18  26643272.460   140011327.940       -1436.969          39.000                                                                  
E12                                                                  27536424.424                3      -2194.682          25.000  
G17                                                                  22294597.744                        1815.529          32.000  
> 2024 04 16 11 53 30.4960000  0 26                     
G31  22967343.045   120694242.409        1378.227          43.000    22967345.451    94047434.818        1073.816          42.000  
G02  18991893.125    99803086.924         147.868          49.000                                                                  
G03  20356482.888   106974061.815         417.631          48.000    20356483.243    83356369.928         325.607          45.000  
G04  21421528.450   112570829.483        2723.580          46.000    21421529.180    87717501.751        2122.206          46.000  
R23  18709849.652   100085174.955       -2240.945          52.000                                                                  
R24  18893264.319   101030597.778        1750.657          51.000    18893262.201    78579458.360        1361.656          48.000  
R02  21208925.790   113174582.764        2748.935          44.000    21208931.716    88024746.738        2138.105          47.000  
R08  19879759.999   106455199.312       -3934.694          48.000    19879757.610    82798526.465       -3060.302          50.000  
G21  18529795.364    97374710.410        -637.101          48.000                                                                  
S33  38632625.659   203015850.614        -661.329          42.000  
S31  37680097.781   198010304.182        -661.229          45.000  
E36  22768624.191   119649914.806         509.701          49.000    22768628.192    91679867.554         390.547          53.000  
E11  22255409.832   116952951.929       -1601.300          47.000    22255409.796    89613349.938       -1227.003          47.000  
R01  18277000.207    97701206.069        -189.590          50.000    18277000.436    75989675.144        -147.417          44.000  
R22  22478539.516   119991918.272       -4461.848          49.000    22478547.531    93327055.211       -3470.369          47.000  
G08  21017928.956   110449974.233       -3885.087          47.000    21017932.433    86064921.713       -3027.448          44.000  
E04  24348751.522   127953553.396       -2642.584          45.000    24348755.409    98042352.856       -2024.855          48.000  
G28  22618110.106   118858941.723         324.866          37.000    22618111.497    92617365.260         252.863          42.000  
E09  22412654.722   117779340.601        -140.404          47.000    22412658.433    90246481.012        -107.653          53.000  
E34  26210375.810   137736422.202        1689.648          35.000    26210378.761   105538327.728        1295.033          32.000  
E05  23294149.943   122411523.303        2067.318          44.000    23294156.458    93795858.002        1584.026          48.000  
G32  22913967.471   120413656.489       -4093.940          37.000    22913970.214    93828833.714       -3190.239          44.000  
E10  25245712.259   132667221.035       -2477.253          47.000    25245718.717   101654280.827       -1898.098          48.000  
E18  26651485.892   140054482.865       -1440.029          40.000                                                                  
E12                                                                  27552796.012                3      -2207.735          24.000  
G17                                                                  22281338.172    91238331.766        1804.795          30.000  
> 2024 04 16 11 54 00.4960000  0 26                     
G31  22959494.829   120653005.612        1371.314          44.000    22959498.073    94015302.306        1068.354          42.000  
G02  18991093.239    99798884.061         132.600          49.000                                                                  
G03  20354118.554   106961638.983         410.775          47.000    20354119.147    83346689.761         319.995          45.000  
G04  21406007.359   112489263.829        2714.431          46.000    21406008.443    87653944.029        2115.063          47.000  
R23  18722478.783   100152731.419       -2262.488          52.000                                                                  
R24  18883488.620   100978317.944        1734.926          52.000    18883485.877    78538796.226        1349.378          48.000  
R02  21193506.128   113092301.481        2736.750          43.000    21193512.441    87960750.089        2128.457          47.000  
R08  19901829.123   106573377.553       -3943.701          47.000    19901826.946    82890442.697       -3067.227          50.000  
G21  18533484.416    97394097.287        -655.209          47.000                                                                  
S33  38636401.633   203035692.988        -661.410          43.000  
S31  37683876.256   198030158.679        -661.869          45.000  
E36  22765730.760   119634708.981         504.401          48.000    22765734.691    91668216.268         386.519          53.000  
E11  22264573.923   117001108.774       -1609.217          47.000    22264573.876    89650249.227       -1233.079          47.000  
R01  18278123.585    97707212.902        -210.455          50.000    18278124.270    75994347.073        -163.635          45.000  
R22  22503639.079   120125899.820       -4470.043          46.000    22503647.076    93431262.754       -3476.556          45.000  
G08  21040136.930   110566679.732       -3894.978          47.000    21040140.553    86155860.926       -3035.079          44.000  
E04  24363864.421   128032972.888       -2651.655          45.000    24363868.454    98103206.644       -2031.710          48.000  
G28  22616299.920   118849436.682         309.357          34.000    22616302.465    92609958.731         241.168          42.000  
E09  22413497.218   117783764.829        -154.176          47.000    22413500.109    90249870.960        -118.155          53.000  
E34  26200723.418   137685707.495        1691.139          34.000    26200728.513   105499468.253        1295.925          32.000  
E05  23282367.222   122349607.016        2060.845          44.000    23282374.283    93748415.575        1579.092          48.000  
G17  22268158.067                        2302.898          31.000    22268152.639                        1794.375          26.000  
G32  22937361.595   120536592.922       -4101.066          35.000    22937364.068    93924627.992       -3195.854          43.000  
E10  25259874.164   132741640.720       -2483.897          46.000    25259880.670   101711303.467       -1903.102          48.000  
E18  26659714.230   140097720.300       -1442.353          40.000                                                                  
E12                                                                  27569193.169                3      -2191.441          20.000  
> 2024 04 16 11 54 30.4960000  0 25                     
G31  22951687.493   120611975.187        1364.283          46.000    22951690.972    93983330.619        1062.972          42.000  
G02  18990381.282    99795143.737         116.998          49.000                                                                  
G03  20351795.397   106949427.857         403.578          47.000    20351796.299    83337174.555         314.323          46.000  
G04  21390537.584   112407975.329        2704.812          45.000    21390539.829    87590602.321        2107.712          47.000  
R23  18735227.518   100220933.050       -2284.066          51.000                                                                  
R24  18873800.922   100926514.562        1718.726          52.000    18873798.441    78498504.668        1336.755          48.000  
R02  21178155.818   113010394.636        2723.660          44.000    21178163.412    87897044.744        2118.712          47.000  
R08  19923948.033   106691827.237       -3952.979          47.000    19923946.272    82982570.029       -3074.370          49.000  
G21  18537278.840    97414034.867        -673.702          47.000                                                                  
S33  38640180.261   203055548.339        -662.274          42.000  
S31  37687657.090   198050027.711        -662.646          44.000  
E36  22762867.313   119619661.979         498.826          48.000    22762871.506    91656686.698         382.168          53.000  
E11  22273783.158   117049504.228       -1617.213          47.000    22273783.248    89687331.333       -1239.267          47.000  
R01  18279364.290    97713844.273        -231.389          49.000    18279365.370    75999504.764        -180.062          45.000  
R22  22528783.448   120260127.721       -4478.112          39.000    22528792.940    93535661.931       -3483.087          41.000  
G08  21062401.693   110683676.876       -3904.951          47.000    21062404.735    86247027.345       -3042.695          45.000  
E04  24379030.442   128112665.027       -2660.911          45.000    24379033.301    98164269.346       -2039.062          48.000  
G28  22614578.547   118840387.617         293.994          39.000    22614580.967    92602907.549         229.156          42.000  
E09  22414417.610   117788601.001        -168.069          48.000    22414420.615    90253576.558        -128.793          53.000  
E34  26191065.904   137634956.026        1692.440          32.000    26191069.985                        1296.741          31.000  
E05  23270623.175   122287886.691        2053.782          44.000    23270629.148    93701123.317        1573.821          48.000  
G17  22255056.759   116951038.7861       2288.574          33.000    22255046.617                        1783.718          25.000  
G32  22960792.996   120659745.089       -4108.610          31.000    22960799.432    94020590.322       -3201.607          43.000  
E10  25274072.489   132816258.096       -2490.694          46.000    25274080.082   101768477.599       -1908.343          48.000  
E18  26667956.944   140141032.076       -1444.751          41.000                                                                  
> 2024 04 16 11 55 00.4960000  0 25                     
G31  22943919.898   120571150.816        1357.049          47.000    22943922.472    93951519.478        1057.476          42.000  
G02  18989757.549    99791865.099         101.213          49.000                                                                  
G03  20349511.555   106937425.160         396.360          47.000    20349512.980    83327821.775         308.944          47.000  
G04  21375122.237   112326963.706        2695.533          46.000    21375123.477    87527476.300        2100.381          46.000  
R23  18748097.301   100289776.691       -2305.707          52.000                                                                  
R24  18864202.795   100875188.525        1702.637          52.000    18864200.525    78458584.368        1324.286          48.000  
R02  21162877.242   112928860.932        2711.256          45.000    21162884.022    87833629.609        2108.861          46.000  
R08  19946117.526   106810542.516       -3961.795          46.000    19946115.682    83074903.982       -3081.287          49.000  
G21  18541178.093    97434521.543        -692.286          48.000                                                                  
S33  38643960.853   203075415.842        -662.426          42.000  
S31  37691440.689   198069908.280        -663.076          44.000  
E36  22760034.117   119604772.403         493.514          48.000    22760038.130    91645277.749         378.108          53.000  
E11  22283037.755   117098136.287       -1625.179          47.000    22283037.552    89724594.739       -1245.136          47.000  
R01  18280720.842    97721095.803        -252.156          50.000    18280721.763    76005144.813        -196.144          44.000  
R22  22553973.236   120394597.203       -4486.737          36.000    22553983.508    93640248.947       -3489.679          36.000  
G08  21084720.260   110800960.004       -3914.442          47.000    21084722.788    86338416.641       -3050.247          45.000  
E04  24394245.053   128192625.541       -2670.093          44.000    24394249.106    98225537.691       -2045.973          48.000  
G28  22612944.524   118831793.949         278.699          38.000    22612946.499    92596211.214         217.218          41.000  
E09  22415415.598   117793846.417        -181.898          47.000    22415419.003    90257595.725        -139.401          54.000  
E34  26181400.869                        1693.422          30.000    26181404.549                        1296.994          30.000  
E05  23258915.678   122226360.965        2047.323          45.000    23258921.002    93653980.161        1568.766          47.000  
G17  22242029.601                        2275.150          31.000    22242005.341                1       1772.626          28.000  
G32  22984268.900   120783107.424       -4115.685          35.000    22984275.410    94116716.432       -3207.214          44.000  
E10  25288309.379   132891070.598       -2497.210          46.000    25288316.837   101825801.253       -1913.533          48.000  
E18  26676212.370   140184415.134       -1447.560          40.000                                                                  
> 2024 04 16 11 55 30.4960000  0 25                     
G31  22936193.536   120530548.305        1349.651          47.000    22936195.650    93919881.232        1051.658          42.000  
G02  18989224.046    99789062.900          85.423          49.000                                                                  
G03  20347269.843   106925643.086         388.979          48.000    20347271.441    83318640.896         303.081          47.000  
G04  21359762.416   112246244.239        2685.685          46.000    21359763.223    87464577.938        2092.787          46.000  
R23  18761089.576   100359275.008       -2327.581          52.000                                                                  
R24  18854697.123   100824356.666        1686.056          52.000    18854695.057    78419048.410        1311.474          49.000  
R02  21147670.053   112847716.145        2698.294          44.000    21147678.620    87770516.925        2098.712          46.000  
R08  19968338.559   106929532.626       -3971.005          47.000    19968336.701    83167451.671       -3088.576          49.000  
G21  18545183.748    97455571.219        -711.113          48.000                                                                  
S33  38647745.914   203095306.557        -663.709          42.000  
S31  37695228.215   198089812.287        -663.739          44.000  
E36  22757232.979   119590054.292         487.621          48.000    22757237.521    91634000.172         373.704          53.000  
E11  22292339.719   117147018.283       -1633.410          46.000    22292339.433    89762049.674       -1251.632          47.000  
R01  18282195.449    97728979.428        -273.422          50.000    18282195.091    76011276.493        -212.552          44.000  
R22  22579211.837                       -4494.647          31.000    22579221.702                3      -3496.417          30.000  
G08  21107094.877   110918538.844       -3924.237          47.000    21107097.159    86430036.360       -3057.919          44.000  
E04  24409514.793   128272865.576       -2679.529          44.000    24409518.485    98287020.197       -2053.095          48.000  
G28  22611398.884   118823670.483         262.592          38.000    22611400.281    92589881.201         204.700          42.000  
E09  22416493.900   117799513.719        -196.028          47.000    22416497.671    90261938.160        -150.180          54.000  
E34  26171736.595   137533350.479        1694.576          30.000    26171734.280                        1298.053          30.000  
E05  23247247.495   122165044.034        2040.185          45.000    23247253.446    93606997.001        1563.357          48.000  
G17  22229078.340                1       2260.872          30.000    22229081.667    91024298.2561       1761.714          31.000  
G32  23007787.551   120906689.814       -4123.067          35.000    23007793.436    94213014.151       -3212.696          44.000  
E10  25302586.553   132966091.053       -2504.265          47.000    25302592.295   101883284.219       -1918.811          48.000  
E18  26684483.720   140227881.780       -1450.421          41.000                                                                  
> 2024 04 16 11 56 00.4960000  0 25                     
G31  22928512.269   120490183.239        1341.018          47.000    22928514.257    93888428.001        1044.930          41.000  
G02  18988783.627    99786751.285          68.542          48.000                                                                  
G03  20345072.177   106914093.839         380.537          47.000    20345073.500    83309641.445         296.556          47.000  
G04  21344460.678   112165832.077        2674.821          46.000    21344461.130    87401919.026        2084.288          47.000  
R23  18774206.714   100429440.605       -2350.265          52.000                                                                  
R24  18845286.700   100774035.403        1668.534          53.000    18845284.841    78379909.604        1297.694          49.000  
R02  21132538.611   112766974.145        2684.367          45.000    21132546.359    87707717.566        2087.870          43.000  
R08  19990612.819   107048807.014       -3980.834          47.000    19990610.381    83260220.490       -3096.300          48.000  
G21  18549299.150    97477198.281        -730.919          48.000                                                                  
S33  38651538.381   203115234.772        -665.179          42.000  
S31  37699022.742   198109753.708        -665.602          44.000  
E36  22754467.764   119575521.692         480.952          48.000    22754472.092    91622864.761         368.494          53.000  
E11  22301691.312   117196163.583       -1642.861          46.000    22301691.539    89799706.351       -1258.860          47.000  
R01  18283790.873    97737507.245        -295.240          49.000    18283790.427    76017909.204        -229.485          44.000  
R22  22604498.907                1      -4504.248          26.000    22604524.414                1      -3503.436          28.000  
G08  21129527.200   111036423.131       -3934.827          46.000    21129529.349    86521894.101       -3066.067          42.000  
E04  24424840.048   128353396.350       -2689.465          44.000    24424843.511    98348725.461       -2060.680          49.000  
G28  22609945.261   118816031.765         246.283          35.000    22609948.205    92583928.944         191.730          43.000  
E09  22417655.152   117805615.639        -210.880          47.000    22417659.110    90266613.624        -161.667          54.000  
E05  23235621.431   122103949.964        2032.385          45.000    23235627.402    93560184.604        1557.247          48.000  
G17  22216214.974   116747001.2641       2246.116          33.000    22216218.153                        1749.923          31.000  
G32  23031347.600   121030502.682       -4131.253          33.000    23031354.492    94309491.349       -3218.868          44.000  
E10  25316904.178   133041332.375       -2512.068          47.000    25316909.931   101940936.420       -1924.891          47.000  
E18  26692772.543   140271444.351       -1454.061          40.000                                                                  
E34                                                                  26162063.183                        1297.419          31.000  
> 2024 04 16 11 56 30.4960000  0 25                     
G31  22920880.014   120450077.881        1332.273          46.000    22920881.231    93857177.150        1038.406          40.000  
G02  18988441.195    99784951.470          51.317          48.000                                                                  
G03  20342921.790   106902796.274         372.031          47.000    20342923.493    83300838.111         290.103          47.000  
G04  21329220.726   112085749.135        2663.654          45.000    21329221.474    87339516.691        2075.622          46.000  
R23  18787450.845   100500292.901       -2373.343          51.000                                                                  
R24  18835976.912   100724248.399        1650.473          53.000    18835974.701    78341186.333        1283.694          49.000  
R02  21117488.046   112686657.352        2670.003          47.000    21117494.456    87645248.957        2076.789          41.000  
R08  20012941.725   107168382.005       -3990.924          47.000    20012939.481    83353223.096       -3104.099          48.000  
G21  18553528.564    97499423.490        -750.969          48.000                                                                  
S33  38655341.633   203135218.878        -667.149          42.000  
S31  37702828.387   198129751.103        -667.520          44.000  
E36  22751741.558   119561195.367         473.998          48.000    22751745.920    91611887.398         363.202          53.000  
E11  22311097.416   117245592.278       -1652.657          46.000    22311097.885    89837580.178       -1266.291          47.000  
R01  18285510.283    97746697.610        -317.448          49.000    18285509.816    76025057.233        -246.961          44.000  
R22  22629849.546                3      -4513.116          25.000    22629863.642                       -3510.675          27.000  
G08  21152021.420   111154629.169       -3945.747          47.000    21152022.861    86614002.559       -3074.669          42.000  
E04  24440221.676   128434235.713       -2699.863          43.000    24440226.663    98410667.172       -2068.743          49.000  
G28  22608585.566   118808899.223         229.321          36.000    22608589.263    92578371.123         178.607          41.000  
E09  22418903.175   117812171.558        -226.233          48.000    22418906.599    90271636.955        -173.316          54.000  
E05  23224041.700   122043099.702        2024.135          45.000    23224047.721    93513559.004        1550.970          48.000  
G17  22203438.478   116679867.111        2230.270          35.000    22203443.782                        1737.284          30.000  
G32  23054956.409   121154562.620       -4139.631          32.000    23054962.913    94406161.015       -3225.721          43.000  
E10  25331268.203   133116814.098       -2520.201          47.000    25331273.490   101998772.837       -1931.129          46.000  
E18  26701083.859   140315121.961       -1458.010          40.000                                                                  
E34                                                                  26152393.600   105304842.214        1297.609          32.000  
> 2024 04 16 11 57 00.4960000  0 25                     
G31  22913298.475   120410242.310        1323.138          46.000    22913300.941    93826136.582        1030.987          40.000  
G02  18988197.970    99783673.004          33.804          48.000                                                                  
G03  20340820.962   106891757.303         363.573          46.000    20340822.230    83292236.275         283.302          46.000  
G04  21314046.158   112006005.288        2652.378          47.000    21314046.298    87277378.571        2066.740          47.000  
R23  18800826.893   100571839.161       -2396.512          52.000    18801842.508                3      -2227.946          17.000  
R24  18826768.446   100675006.813        1632.231          52.000    18826766.110    78302887.276        1269.497          49.000  
R02  21102520.515   112606775.044        2655.334          48.000    21102523.943    87583118.255        2065.258          38.000  
R08  20035329.622   107288261.457       -4001.038          49.000    20035326.160    83446462.490       -3112.086          48.000  
G21  18557872.780    97522255.049        -771.290          47.000                                                                  
S33  38659157.037   203155267.211        -669.562          42.000  
S31  37706645.989   198149812.393        -669.904          44.000  
E36  22749056.200   119547084.045         466.763          47.000    22749060.650    91601074.774         357.634          53.000  
E11  22320558.675   117295312.378       -1662.488          46.000    22320559.390    89875677.287       -1273.795          47.000  
R01  18287354.520    97756557.085        -339.733          49.000    18287354.839    76032725.670        -264.386          45.000  
R22  22655233.121                3      -4527.109          23.000    22655249.521                3      -3508.936          16.000  
G08  21174577.356   111273161.339       -3956.479          46.000    21174579.324    86706365.171       -3083.189          42.000  
E04  24455665.540   128515389.471       -2710.376          44.000    24455670.539    98472849.786       -2076.666          50.000  
G28  22607326.635   118802282.388         211.700          35.000    22607331.234    92573215.150         165.125          42.000  
E09  22420238.452   117819188.778        -241.623          48.000    22420241.881    90277013.749        -185.185          54.000  
E05  23212509.829   121982501.970        2015.620          45.000    23212516.318    93467126.898        1544.426          48.000  
G17  22190757.443   116613204.148        2213.623          37.000    22190761.653                        1725.563          29.000  
G32  23078612.156   121278874.295       -4147.995          38.000    23078618.982    94503026.840       -3232.333          43.000  
E10  25345679.607   133192543.804       -2528.539          46.000    25345685.371   102056799.274       -1937.509          47.000  
E18  26709418.830   140358921.594       -1462.099          39.000                                                                  
E34                                                                  26142726.985   105265915.890        1297.341          33.000  
> 2024 04 16 11 57 30.4960000  0 25                     
G31  22905771.409   120370683.194        1314.111          46.000    22905773.787    93795311.334        1024.078          41.000  
G02  18988055.613    99782920.948          16.498          49.000                                                                  
G03  20338769.733   106880980.025         354.944          45.000    20338771.443    83283838.373         276.641          46.000  
G04  21298937.355   111926606.660        2641.017          46.000    21298937.427    87215509.485        2057.773          46.000  
R23  18814332.068   100644082.543       -2419.646          52.000                                                                  
R24  18817663.890   100626318.119        1613.839          53.000    18817661.634    78265018.262        1255.165          49.000  
R02  21087634.411   112527332.802        2640.830          50.000    21087635.927    87521329.855        2053.920          38.000  
R08  20057773.901   107408446.005       -4010.985          48.000    20057770.251    83539939.199       -3119.723          47.000  
G21  18562334.351    97545698.266        -791.603          48.000                                                                  
S33  38662984.888   203175382.206        -671.611          42.000  
S31  37710476.409   198169941.449        -672.153          45.000  
E36  22746412.506   119533192.700         459.492          47.000    22746417.288    91590430.708         352.084          53.000  
E11  22330076.154   117345328.118       -1672.025          46.000    22330077.219    89914000.937       -1281.116          47.000  
R01  18289324.672    97767088.093        -362.057          49.000    18289325.356    76040916.396        -281.593          45.000  
R22  22680691.019                3      -4541.864          20.000    22680704.270                3      -3521.087          21.000  
G08  21197195.873   111392020.385       -3967.344          46.000    21197198.352    86798982.462       -3091.572          44.000  
E04  24471169.710   128596859.785       -2720.914          44.000    24471173.609    98535274.952       -2084.716          49.000  
G28  22606167.367   118796186.860         194.238          37.000    22606171.090    92568465.332         151.208          40.000  
E09  22421662.220   117826670.883        -257.101          48.000    22421666.007    90282746.751        -196.968          54.000  
E05  23201027.073   121922161.934        2007.158          44.000    23201033.963    93420892.243        1537.995          48.000  
G17  22178164.317   116547018.684        2198.429          37.000    22178167.709                        1712.843          27.000  
G32  23102317.362   121403438.506       -4156.107          39.000    23102322.514    94600089.570       -3238.517          42.000  
E10  25360138.107   133268525.241       -2536.853          46.000    25360144.783   102115018.570       -1943.704          48.000  
E18  26717778.214   140402846.550       -1466.353          39.000                                                                  
E34                                                                  26133064.714   105227005.769        1297.282          35.000  
> 2024 04 16 11 58 00.4960000  0 25                     
G31  22898295.350   120331394.239        1305.060          46.000    22898297.272    93764696.636        1016.878          42.000  
G02  18988010.992    99782688.258          -1.047          50.000                                                                  
G03  20336767.363   106870454.948         346.364          45.000    20336768.365    83275636.977         270.120          46.000  
G04  21283892.702   111847546.654        2629.568          47.000    21283893.345    87153904.219        2049.179          46.000  
R23  18827965.345   100717013.624       -2442.532          52.000                                                                  
R24  18808660.734   100578176.833        1595.398          52.000    18808659.091    78227575.019        1240.870          49.000  
R02  21072828.786   112448323.209        2626.396          49.000    21072831.838    87459877.948        2042.656          39.000  
R08  20080271.215   107528922.810       -4020.872          49.000    20080268.765    83633643.226       -3127.363          47.000  
G21  18566910.382    97569745.475        -811.697          47.000                                                                  
S33  38666824.129   203195556.512        -673.472          42.000  
S31  37714318.081   198190128.483        -674.044          45.000  
E36  22743809.562   119519513.692         452.369          47.000    22743814.305    91579949.345         346.564          53.000  
E11  22339649.211   117395631.184       -1681.490          46.000    22339649.785    89952544.728       -1288.483          47.000  
R01  18291418.609    97778280.102        -384.071          49.000    18291419.063    76049621.254        -298.994          45.000  
R22  22706188.376                3      -4542.691          16.000    22706196.629                3      -3532.677          20.000  
G08  21219873.038   111511194.245       -3977.781          45.000    21219876.840    86891845.078       -3099.699          43.000  
E04  24486729.976   128678636.053       -2731.183          42.000    24486735.464    98597934.551       -2092.572          50.000  
G28  22605107.114                         176.965          34.000    22605108.075    92564116.209         138.007          39.000  
E09  22423172.986   117834608.828        -272.307          48.000    22423176.634    90288829.037        -208.639          54.000  
E05  23189592.904   121862071.911        1998.760          45.000    23189599.639    93374849.158        1531.412          49.000  
G17  22165658.318   116481304.972        2181.612          36.000    22165666.842                        1700.968          28.000  
G32  23126066.843   121528243.867       -4164.217          37.000    23126072.551    94697340.124       -3244.658          42.000  
E10  25374642.118   133344749.505       -2544.881          45.000    25374649.675   102173423.940       -1950.037          48.000  
E18  26726159.960   140446887.431       -1470.090          40.000                                                                  
E34                                                                  26123403.759   105188105.559        1296.613          34.000  
> 2024 04 16 11 58 30.4960000  0 24                     
G31  22890870.294   120292380.143        1295.673          46.000    22890873.129    93734296.130        1009.547          42.000  
G02  18988066.921    99782978.637         -18.594          50.000                                                                  
G03  20334813.424   106860183.592         338.086          46.000    20334813.420    83267633.298         263.418          46.000  
G04  21268913.343   111768829.836        2617.955          47.000    21268914.498    87092566.363        2040.111          46.000  
R23  18841727.260   100790633.888       -2465.629          51.000                                                                  
R24  18799761.069   100530588.808        1576.888          52.000    18799760.023    78190562.071        1226.461          50.000  
R02  21058103.413   112369750.592        2611.719          47.000    21058107.346    87398765.993        2031.449          40.000  
R08  20102823.384   107649690.817       -4030.453          48.000    20102821.420    83727573.715       -3134.819          47.000  
G21  18571601.586    97594399.885        -832.180          47.000                                                                  
S33  38670674.638   203215792.074        -675.674          42.000  
S31  37718171.201   198210376.933        -676.055          44.000  
E36  22741247.708   119506050.502         444.987          48.000    22741252.449    91569633.332         341.083          53.000  
E11  22349277.289   117446224.301       -1691.298          46.000    22349277.245    89991310.781       -1295.866          47.000  
R01  18293636.043    97790134.044        -406.414          49.000    18293636.714    76058840.930        -315.971          45.000  
G08  21242611.385   111630682.020       -3988.232          46.000    21242614.191    86984952.268       -3107.479          43.000  
E04  24502350.711   128760718.805       -2741.376          43.000    24502354.997    98660829.015       -2100.448          49.000  
G28  22604144.224   118785542.459         159.985          36.000    22604145.251    92560170.882         124.750          40.000  
E09  22424770.617   117843004.635        -287.687          48.000    22424774.284    90295262.149        -220.403          54.000  
E05  23178207.171   121802235.417        1990.355          45.000    23178213.208    93329000.326        1524.935          49.000  
G17  22153243.327   116416068.082        2166.374          36.000    22153258.472                        1688.218          30.000  
G32  23149862.085   121653289.785       -4172.479          37.000    23149868.146    94794778.120       -3251.328          42.000  
E10  25389193.464   133421218.829       -2553.203          43.000    25389201.989   102232017.035       -1956.316          48.000  
E18  26734562.635   140491046.004       -1474.207          40.000                                                                  
E34                                                                  26113745.955   105149217.522        1295.245          34.000  
> 2024 04 16 11 59 00.4960000  0 24                     
G31  22883500.380   120253647.501        1286.512          47.000    22883502.284    93704114.938        1002.460          43.000  
G02  18988222.875    99783797.614         -35.853          50.000                                                                  
G03  20332907.786   106850168.914         329.926          46.000    20332907.336    83259829.623         257.115          45.000  
G04  21254001.103   111690462.117        2606.569          48.000    21254001.386    87031500.575        2031.073          46.000  
R23  18855619.613   100864946.530       -2488.337          52.000                                                                  
R24  18790966.862   100483561.109        1558.472          52.000    18790965.792    78153984.922        1212.259          49.000  
R02  21043460.641   112291620.372        2597.285          46.000    21043466.355    87337998.066        2020.593          38.000  
R08  20125430.897   107770749.617       -4039.734          48.000    20125427.642    83821730.418       -3141.865          45.000  
G21  18576409.560    97619666.332        -852.167          47.000                                                                  
S33  38674537.621   203236090.443        -677.430          42.000  
S31  37722036.764   198230689.050        -677.908          44.000  
E36  22738727.857   119492807.862         437.900          48.000    22738732.596    91559486.337         335.629          53.000  
E11  22358959.990   117497111.504       -1700.939          46.000    22358960.636    90030302.189       -1303.268          47.000  
R01  18295977.924    97802652.223        -428.059          49.000    18295978.416    76068577.265        -332.850          45.000  
G08  21265409.172   111750483.927       -3998.445          47.000    21265411.471    87078304.294       -3115.676          42.000  
E04  24518031.219   128843109.924       -2751.402          43.000    24518033.949    98723959.705       -2108.140          50.000  
G28  22603280.383   118781003.043         142.694          35.000    22603281.237    92556633.554         111.469          41.000  
E09  22426455.010   117851861.581        -302.760          47.000    22426459.639    90302048.615        -231.964          54.000  
E34  26104098.422                1       1691.288          29.000    26104091.934   105110344.762        1295.842          34.000  
E05  23166870.668   121742657.389        1981.835          45.000    23166875.524    93283349.574        1518.563          48.000  
G17  22140921.207   116351313.940        2150.461          34.000    22140937.765                        1675.922          30.000  
G32  23173703.336   121778576.972       -4180.260          40.000    23173711.126    94892404.096       -3257.227          42.000  
E10  25403794.148   133497936.767       -2561.152          45.000    25403801.020   102290800.664       -1962.595          48.000  
E18  26742988.729   140535325.289       -1477.716          40.000                                                                  
> 2024 04 16 11 59 30.4960000  0 24                     
G31  22876180.297   120215178.627        1277.998          47.000    22876182.843    93674139.276         995.582          44.000  
G02  18988475.728    99785126.113         -52.801          49.000                                                                  
G03  20331045.531   106840389.957         322.106          44.000    20331046.661    83252209.632         251.086          45.000  
G04  21239150.982   111612425.482        2595.634          47.000    21239150.792    86970692.771        2022.633          45.000  
R23  18869637.511   100939930.060       -2510.570          52.000    18870793.753                3      -2296.805          17.000  
R24  18782273.922   100437076.922        1540.380          52.000    18782273.002    78117830.508        1198.069          49.000  
R02  21028898.181   112213913.438        2583.110          43.000    21028902.219    87277559.384        2008.961          37.000  
R08  20148087.811   107892075.103       -4048.563          48.000    20148085.054    83916094.540       -3148.951          46.000  
G21  18581330.260    97645525.621        -871.953          47.000                                                                  
S33  38678409.019   203256433.600        -678.894          42.000  
S31  37725910.364   198251045.413        -679.369          44.000  
E36  22736246.115   119479766.775         431.218          48.000    22736251.095    91549493.769         330.448          53.000  
E11  22368695.226   117548273.027       -1710.182          45.000    22368696.912    90069503.777       -1310.228          47.000  
R01  18298439.781    97815812.537        -449.311          48.000    18298440.334    76078813.029        -349.373          45.000  
G08  21288261.774   111870576.754       -4007.794          46.000    21288263.623    87171883.012       -3123.229          42.000  
E04  24533761.729   128925787.429       -2760.848          42.000    24533767.225    98787309.869       -2115.429          50.000  
G28  22602510.806   118776968.591         126.190          35.000    22602514.540    92553489.886          98.157          41.000  
E09  22428223.832   117861159.205        -317.294          47.000    22428228.724    90309172.749        -243.112          54.000  
E34  26094440.787                        1690.760          28.000    26094438.266   105071472.536        1295.377          34.000  
E05  23155579.046   121683318.700        1973.872          46.000    23155583.676    93237882.207        1512.545          48.000  
G17  22128688.264   116287025.260        2135.709          35.000    22128702.548                        1663.794          29.000  
G32  23197587.276   121904082.381       -4187.021          44.000    23197595.064    94990200.141       -3262.621          42.000  
E10  25418436.726   133574883.032       -2568.605          46.000    25418444.139   102349759.238       -1968.157          49.000  
E18  26751432.922   140579704.558       -1480.827          40.000                                                                  
