     3.00           OBSERVATION DATA    M: Mixed            RINEX VERSION / TYPE
CONVBIN 2.4.3                           20240416 085942 UTC PGM / RUN BY / DATE 
format: u-blox UBX                                          COMMENT             
log: /home/regis/git/gnsspwv/obsdata/VERT00CHL/2024-04-16/VECOMMENT             
{self.marker}                                               MARKER NAME         
                                                            MARKER NUMBER       
GEODETIC                                                    MARKER TYPE         
{self.observer}     {self.institution}                      OBSERVER / AGENCY   
UNKNOWN             UBLOX-ZED-F9P                           REC # / TYPE / VERS 
UNKNOWN             TWIVSP6037L                             ANT # / TYPE        
  1713381.0000 -5047934.0000 -3490983.0000                  APPROX POSITION XYZ 
        0.0000        0.0000        0.0000                  ANTENNA: DELTA H/E/N
G    8 C1C L1C D1C S1C C2L L2L D2L S2L                      SYS / # / OBS TYPES 
R    8 C1C L1C D1C S1C C2C L2C D2C S2C                      SYS / # / OBS TYPES 
E    8 C1C L1C D1C S1C C7Q L7Q D7Q S7Q                      SYS / # / OBS TYPES 
S    4 C1C L1C D1C S1C                                      SYS / # / OBS TYPES 
  2024    04    16    08    45   00.4920000     GPS         TIME OF FIRST OBS   
  2024    04    16    08    59   30.4920000     GPS         TIME OF LAST OBS    
                                                            END OF HEADER       
> 2024 04 16 08 45 00.4920000  0 28                     
G26  21404593.147   112481902.9151      -4084.790          41.000    21404592.698    87648242.1581      -3182.977          37.000  
G23  20252157.103   106426045.9221      -3771.985          43.000    20252153.991    82929406.0211      -2939.288          42.000  
G16  19205802.648   100927195.0261      -2971.792          48.000                                                                  
R23  19807583.955   105957332.1751       1603.663          39.000                                                                  
R13  19908998.013   106312985.4921      -1181.368          41.000    19908998.442    82687864.1871       -918.626          40.000  
R21  19621170.003   104997032.5621      -2394.825          46.000    19621166.537    81664429.4091      -1862.589          42.000  
R08  19483709.815   104334390.6181       3571.657          50.000    19483705.047    81149014.4591       2777.987          47.000  
G21  21331996.085   112100357.6101       1993.848          43.000                                                                  
S33  37281224.119   195914228.6221       -635.291          42.000  
S31  36327494.250   190902360.0011       -635.693          44.000  
E36  24570678.580   129119759.2631        930.993          42.000    24570684.928    98935976.5091        713.398          47.000  
G10  17850682.735    93806143.0031      -2004.992          50.000    17850679.902    73095691.6741      -1562.389          48.000  
E11  20728466.080   108928848.8831       -250.020          43.000    20728463.799    83465021.5531       -191.766          48.000  
R12  19860661.030   106092096.0961      -3709.222          50.000    19860661.079    82516196.4731      -2884.835          49.000  
R22  17737990.684    94686719.3811       -327.353          51.000    17737987.277    73645277.1731       -254.662          50.000  
R07  17412767.075    93211913.5261        736.250          52.000    17412763.186    72498221.7951        572.686          50.000  
R06  19165382.743   102270260.8931      -3199.229          33.000                                                                  
G27  17856831.402    93838316.0941        243.521          49.000    17856829.409    73120774.2541        189.743          46.000  
G08  19314460.598   101498247.1921       2052.511          47.000    19314460.007    79089565.0331       1599.320          45.000  
E04  23643865.520   124249378.4921       1726.995          45.000    23643866.518    95204096.6281       1323.281          48.000  
E25  22360598.064   117505687.1951      -1037.021          47.000    22360600.721    90036849.7691       -794.601          51.000  
E14  25553013.490   134282152.6181       -535.379          45.000    25553014.864   102891493.9431       -410.209          48.000  
E19  24056479.247   126417720.3841       -540.605          37.000    24056478.507    96865553.3521       -414.265          41.000  
E24  23182526.254   121825028.9771      -3256.176          45.000    23182527.026    93346470.9181      -2494.959          49.000  
G32  20428375.785   107351875.5251       2000.952          45.000    20428376.158    83650842.4801       1559.002          43.000  
E12  22818996.835   119914770.0011      -1863.860          41.000    22818996.043    91882831.5641      -1428.176          47.000  
E10  21753668.851   114316507.5491      -1171.017          48.000    21753669.540    87593370.1361       -897.378          52.000  
G18                                                                  22819760.813                3      -2441.326          26.000  
> 2024 04 16 08 45 30.4920000  0 28                     
G26  21427910.098   112604437.135       -4084.735          39.000    21427909.643    87743723.477       -3183.063          37.000  
G23  20273708.439   106539298.045       -3778.779          43.000    20273706.644    83017654.469       -2944.382          45.000  
G16  19222806.430   101016548.385       -2985.704          48.000                                                                  
R23  19798587.671   105909208.683        1603.739          39.000                                                                  
R13  19915697.227   106348763.745       -1204.684          40.000    19915698.061    82715691.691        -936.974          40.000  
R21  19634608.664   105068950.690       -2400.327          45.000    19634607.055    81720365.717       -1867.021          44.000  
R08  19463723.044   104227361.264        3563.016          50.000    19463717.957    81065769.505        2771.366          48.000  
G21  21320614.483   112040546.217        1993.427          44.000                                                                  
S33  37284849.325   195933279.470        -635.410          42.000  
S31  36331121.958   190921424.480        -635.739          44.000  
E36  24565366.237   129091841.097         929.773          42.000    24565372.516    98914584.695         712.105          47.000  
G10  17862177.374    93866545.843       -2022.374          51.000    17862174.166    73142758.844       -1575.928          48.000  
E11  20729899.400   108936381.769        -252.399          43.000    20729897.227    83470793.503        -193.425          48.000  
R12  19881522.902   106203534.673       -3720.677          49.000    19881522.230    82602870.893       -2893.883          48.000  
R22  17739845.260    94696617.114        -333.184          52.000    17739841.491    73652975.476        -259.149          51.000  
R07  17408713.262    93190212.187         709.909          52.000    17408708.751    72481343.037         552.137          50.000  
R06  19183424.797   102366545.840       -3220.400          36.000                                                                  
G27  17855480.578    93831216.721         229.225          49.000    17855478.043    73115242.286         178.496          46.000  
G08  19302763.574   101436778.024        2044.724          47.000    19302762.443    79041667.042        1593.432          45.000  
E04  23634019.765   124197641.260        1721.508          45.000    23634021.629    95164453.908        1319.079          49.000  
E25  22366556.868   117537000.923       -1051.217          47.000    22366559.432    90060843.406        -805.431          51.000  
E14  25556061.343   134298172.994        -533.129          44.000    25556063.560   102903769.282        -408.531          48.000  
E19  24059601.829   126434135.148        -554.177          38.000    24059602.221    96878130.930        -424.512          42.000  
E24  23201129.636   121922792.636       -3262.047          46.000    23201131.418    93421380.728       -2499.423          49.000  
G32  20416978.146   107291987.107        1991.208          46.000    20416978.678    83604176.305        1551.470          42.000  
E12  22829637.218   119970686.664       -1864.478          42.000    22829636.538    91925676.824       -1428.632          47.000  
E10  21760357.189   114351655.569       -1172.691          48.000    21760357.892    87620301.760        -898.591          52.000  
G18                                                                  22837653.182                3      -2431.549          19.000  
> 2024 04 16 08 46 00.4920000  0 28                     
G26  21451229.119   112726972.824       -4084.552          41.000    21451227.869    87839205.888       -3182.745          38.000  
G23  20295298.914   106652749.099       -3785.230          45.000    20295293.958    83106057.955       -2949.169          45.000  
G16  19239890.239   101106327.834       -2999.635          46.000                                                                  
R23  19789591.401   105861079.946        1604.253          41.000                                                                  
R13  19922529.702   106385248.387       -1227.979          41.000    19922530.328    82744068.631        -955.344          40.000  
R21  19648081.953   105141041.139       -2405.890          48.000    19648078.802    81776436.020       -1871.367          42.000  
R08  19443785.333   104120596.188        3554.441          50.000    19443780.835    80982730.094        2764.583          48.000  
G21  21309235.760   111980747.524        1993.176          44.000                                                                  
S33  37288475.388   195952334.888        -635.088          42.000  
S31  36334751.088   190940494.601        -635.724          44.000  
E36  24560062.185   129063970.093         928.333          42.000    24560068.571    98893229.005         711.276          46.000  
G10  17873771.021    93927471.083       -2039.477          50.000    17873768.213    73190233.087       -1589.208          48.000  
E11  20731345.806   108943982.963        -254.319          43.000    20731343.523    83476617.862        -195.017          48.000  
R12  19902448.450   106315320.115       -3731.872          49.000    19902449.155    82689815.043       -2902.578          48.000  
R22  17741732.648    94706692.635        -338.815          51.000    17741729.244    73660812.043        -263.524          50.000  
R07  17404807.603    93169308.704         683.485          51.000    17404803.938    72465084.829         531.635          50.000  
R06  19201589.218   102463462.941       -3240.488          35.000                                                                  
G27  17854211.982    93824547.278         215.058          49.000    17854208.967    73110045.300         167.541          45.000  
G08  19291110.276   101375539.924        2037.330          47.000    19291109.215    78993949.092        1587.598          45.000  
E04  23624206.056   124146071.572        1716.304          45.000    23624208.364    95124939.576        1314.924          50.000  
E25  22372596.624   117568739.536       -1065.075          47.000    22372599.047    90085162.609        -816.052          51.000  
E14  25559098.163   134314128.965        -530.864          45.000    25559099.845   102915995.276        -406.774          48.000  
E19  24062803.674   126450962.608        -568.009          37.000    24062803.050    96891024.736        -434.891          40.000  
E24  23219768.540   122020735.614       -3267.749          47.000    23219769.348    93496427.932       -2503.841          49.000  
G32  20405639.286   107232392.149        1981.638          47.000    20405637.895    83557738.768        1544.047          43.000  
E12  22840282.626   120026624.462       -1864.982          42.000    22840281.056    91968538.258       -1429.049          47.000  
E10  21767055.769   114386854.055       -1174.128          48.000    21767055.941    87647272.086        -899.672          52.000  
G18                                                                  22855520.076                3      -2446.383          19.000  
> 2024 04 16 08 46 30.4920000  0 27                     
G26  21474547.549   112849509.066       -4085.064          40.000    21474546.954    87934688.724       -3182.690          38.000  
G23  20316926.350   106766398.515       -3791.817          45.000    20316920.966    83194615.945       -2954.622          44.000  
G16  19257055.931   101196532.009       -3013.927          48.000                                                                  
R23  19780594.201   105812948.353        1604.326          41.000                                                                  
R13  19929494.313   106422439.642       -1251.672          41.000    19929494.669    82772995.199        -973.265          39.000  
R21  19661586.230   105213306.655       -2411.882          45.000    19661582.193    81832642.542       -1875.991          41.000  
R08  19423898.528   104014101.452        3545.220          50.000    19423893.259    80899900.910        2757.418          48.000  
G21  21297860.001   111920963.543        1992.401          45.000                                                                  
S33  37292102.963   195971398.415        -635.864          42.000  
S31  36338381.070   190959571.294        -636.127          44.000  
E36  24554768.385   129036147.805         926.467          43.000    24554774.034    98871910.567         709.941          46.000  
G10  17885463.808    93988918.504       -2057.020          51.000    17885461.593    73238114.237       -1602.845          49.000  
E11  20732805.276   108951654.090        -257.142          43.000    20732803.170    83482495.796        -196.994          48.000  
R12  19923439.686   106427449.978       -3743.393          49.000    19923439.904    82777027.112       -2911.537          48.000  
R22  17743654.005    94716948.816        -345.022          51.000    17743649.872    73668789.072        -268.237          49.000  
R07  17401052.608    93149207.602         656.558          52.000    17401049.354    72449450.658         510.684          50.000  
R06  19219868.495   102561010.756       -3261.682          32.000                                                                  
G27  17853025.002    93818311.602         200.579          49.000    17853022.830    73105186.347         156.292          46.000  
G08  19279501.901   101314537.388        2029.393          47.000    19279500.786    78946414.697        1581.293          45.000  
E04  23614424.786   124094673.463        1710.210          44.000    23614427.818    95085556.720        1310.470          50.000  
E25  22378716.873   117600904.530       -1079.375          46.000    22378720.087    90109808.526        -827.008          51.000  
E14  25562122.567   134330023.313        -528.723          44.000    25562124.455   102928174.063        -405.254          48.000  
E19  24066083.853   126468204.941        -581.750          36.000    24066084.196    96904236.464        -445.910          40.000  
E24  23238441.174   122118857.953       -3273.816          47.000    23238441.269    93571612.573       -2508.553          49.000  
G32  20394356.309   107173095.865        1971.400          48.000    20394354.239    83511533.953        1536.080          43.000  
E12  22850930.584   120082585.329       -1866.005          42.000    22850929.949    92011417.389       -1429.677          47.000  
E10  21773763.647   114422104.610       -1175.870          49.000    21773764.018    87674282.270        -901.014          52.000  
> 2024 04 16 08 47 00.4920000  0 27                     
G26  21497863.965   112972038.647       -4084.576          38.000    21497864.137    88030166.443       -3182.953          38.000  
G23  20338589.346   106880239.240       -3798.298          46.000    20338583.978    83283323.021       -2959.580          45.000  
G16  19274299.931   101287154.894       -3027.911          47.000                                                                  
R23  19771594.915   105764809.713        1604.001          41.000                                                                  
R13  19936590.206   106460331.346       -1275.235          40.000    19936590.586    82802466.511        -991.355          39.000  
R21  19675122.388   105285743.845       -2417.861          45.000    19675119.838    81888982.573       -1880.404          42.000  
R08  19404061.788   103907877.236        3535.926          50.000    19404056.582    80817282.146        2750.110          48.000  
G21  21286485.599   111861189.835        1991.962          45.000                                                                  
S33  37295731.192   195990464.920        -635.987          42.000  
S31  36342011.974   190978652.326        -636.383          44.000  
E36  24549483.026   129008369.198         924.883          44.000    24549487.935    98850625.674         708.652          46.000  
G10  17897254.743    94050881.419       -2074.417          50.000    17897252.723    73286397.072       -1616.432          49.000  
E11  20734277.578   108959390.248        -259.495          44.000    20734275.287    83488423.546        -198.814          48.000  
R12  19944493.132   106539915.310       -3754.742          48.000    19944492.877    82864500.100       -2920.340          46.000  
R22  17745608.498    94727382.174        -351.037          50.000    17745604.240    73676903.925        -273.196          48.000  
R07  17397448.017    93129906.013         629.721          53.000    17397443.044    72434438.335         489.762          50.000  
R06  19238266.369   102659181.560       -3282.358          32.000                                                                  
G27  17851919.458    93812507.174         185.899          47.000    17851917.810    73100663.432         144.841          46.000  
G08  19267937.856   101253768.449        2021.331          47.000    19267936.645    78899062.332        1574.932          45.000  
E04  23604677.125   124043444.576        1704.333          44.000    23604679.531    95046303.528        1305.931          50.000  
E25  22384918.097   117633490.992       -1093.738          46.000    22384921.205    90134777.391        -838.014          52.000  
E14  25565134.988   134345852.423        -526.814          45.000    25565136.795   102940302.864        -403.811          48.000  
E19  24069443.091   126485858.308        -595.446          36.000    24069443.469    96917763.099        -456.522          39.000  
E24  23257146.015   122217153.263       -3279.790          47.000    23257146.167    93646929.761       -2513.121          49.000  
G32  20383128.968   107114097.043        1961.283          48.000    20383126.787    83465560.908        1528.123          43.000  
E12  22861583.600   120138564.873       -1866.716          43.000    22861582.392    92054310.828       -1430.226          46.000  
E10  21780481.260   114457402.657       -1177.800          49.000    21780480.859    87701328.826        -902.453          52.000  
> 2024 04 16 08 47 30.4920000  0 28                     
G26  21521178.894   113094562.424       -4084.039          37.000    21521179.976    88125639.613       -3182.501          38.000  
G23  20360288.272   106994272.355       -3804.229          45.000    20360282.093    83372180.002       -2964.319          43.000  
G16  19291624.774   101378196.767       -3041.510          47.000                                                                  
R23  19762594.431   105716667.928        1604.810          41.000                                                                  
R13  19943817.766   106498925.625       -1298.233          40.000    19943817.863    82832484.316       -1009.764          40.000  
R21  19688692.742   105358357.061       -2423.372          47.000    19688690.030    81945459.551       -1884.694          43.000  
R08  19384277.652   103801931.142        3526.919          51.000    19384272.423    80734879.697        2743.145          48.000  
G21  21275113.706   111801430.223        1991.673          44.000                                                                  
S33  37299360.608   196009537.190        -635.827          42.000  
S31  36345643.919   190997738.249        -636.343          44.000  
E36  24544206.284   128980637.518         923.695          45.000    24544211.020    98829376.731         707.765          47.000  
G10  17909143.504    94113361.219       -2091.176          49.000    17909141.997    73335082.665       -1629.408          48.000  
E11  20735763.105   108967194.704        -261.228          44.000    20735760.408    83494403.643        -200.115          48.000  
R12  19965608.755   106652715.096       -3765.489          48.000    19965610.253    82952233.237       -2928.778          47.000  
R22  17747597.044    94737997.476        -356.855          52.000    17747593.943    73685160.304        -277.502          50.000  
R07  17393993.036    93111410.136         603.161          52.000    17393987.855    72420052.708         469.133          50.000  
R06  19256777.853   102757975.386       -3303.778          34.000                                                                  
G27  17850897.894    93807139.422         171.746          48.000    17850896.046    73096480.791         133.813          46.000  
G08  19256420.144   101193239.218        2013.574          47.000    19256418.106    78851896.726        1569.143          46.000  
E04  23594962.829   123992390.592        1698.892          45.000    23594964.271    95007184.338        1301.737          50.000  
E02  25013610.227                        1203.494          27.000    25013603.207                1        921.622          27.000  
E25  22391199.701   117666502.055       -1107.372          47.000    22391203.036    90160071.610        -848.487          52.000  
E14  25568136.006   134361620.762        -524.498          44.000    25568137.325   102952385.071        -401.793          48.000  
E19  24072881.132   126503926.804        -609.319          36.000    24072882.121    96931607.827        -466.751          39.000  
E24  23275883.857   122315623.224       -3285.132          47.000    23275884.615    93722380.758       -2517.188          49.000  
G32  20371958.875   107055402.603        1951.517          46.000    20371958.323    83419825.070        1520.766          44.000  
E12  22872240.841   120194566.818       -1867.035          43.000    22872239.278    92097221.435       -1430.640          47.000  
E10  21787207.164   114492751.728       -1179.131          48.000    21787207.160    87728414.540        -903.488          51.000  
> 2024 04 16 08 48 00.4920000  0 28                     
G26  21544491.351   113217069.847       -4083.594          38.000    21544492.577    88221100.017       -3182.001          37.000  
G23  20382022.881   107108487.428       -3810.129          45.000    20382017.333    83461178.779       -2969.091          44.000  
G16  19309027.355   101469646.765       -3055.351          47.000                                                                  
R23  19753591.904   105668515.545        1604.951          41.000                                                                  
R13  19951174.797   106538212.230       -1321.299          40.000    19951175.351    82863040.531       -1027.664          41.000  
R21  19702294.041   105431139.046       -2428.963          47.000    19702291.677    82002067.758       -1889.250          42.000  
R08  19364544.054   103696260.076        3517.792          50.000    19364538.329    80652691.166        2735.978          48.000  
G21  21263742.531   111741676.841        1991.615          44.000                                                                  
S33  37302989.855   196028609.126        -635.804          42.000  
S31  36349275.862   191016824.412        -636.451          44.000  
E36  24538937.349   128952944.495         922.348          46.000    24538941.261    98808157.420         706.667          47.000  
G10  17921129.749    94176347.959       -2108.229          50.000    17921127.452    73384163.286       -1642.750          47.000  
E11  20737260.189   108975059.374        -263.228          45.000    20737257.028    83500429.839        -201.596          48.000  
R12  19986785.222   106765836.928       -3776.180          47.000    19986787.017    83040216.837       -2937.085          47.000  
R22  17749618.216    94748787.792        -362.774          52.000    17749615.374    73693552.788        -282.234          50.000  
R07  17390686.075    93093713.833         576.335          52.000    17390681.495    72406288.960         448.290          50.000  
R06  19275406.825   102857380.938       -3324.392          34.000                                                                  
G27  17849959.026    93802202.571         157.153          49.000    17849957.181    73092633.900         122.365          46.000  
G08  19244945.963   101132944.356        2005.693          47.000    19244944.427    78804913.789        1562.832          45.000  
E04  23585278.545   123941505.749        1693.154          44.000    23585280.483    94968194.746        1297.340          49.000  
E25  22397560.809   117699929.487       -1121.505          47.000    22397563.989    90185684.839        -859.257          52.000  
E14  25571123.333   134377321.276        -522.284          44.000    25571125.358   102964415.332        -400.373          48.000  
E19  24076397.795   126522402.816        -623.000          37.000    24076397.490    96945764.796        -477.023          39.000  
E24  23294653.302   122414258.144       -3290.771          46.000    23294654.131    93797958.138       -2521.443          49.000  
G32  20360846.906   106997008.131        1941.399          46.000    20360847.598    83374322.965        1512.586          45.000  
E12  22882900.587   120250583.278       -1867.660          43.000    22882898.682    92140143.138       -1431.052          46.000  
E10  21793941.314   114528143.758       -1180.617          48.000    21793942.124    87755533.125        -904.681          51.000  
E02                                                                  25006772.472   100691884.6331        912.978          31.000  
> 2024 04 16 08 48 30.4920000  0 29                     
G26  21567799.801   113339564.943       -4083.392          35.000    21567802.898    88316550.867       -3181.683          37.000  
G23  20403792.865   107222888.770       -3816.660          46.000    20403788.006    83550322.724       -2974.009          45.000  
G16  19326507.834   101561509.342       -3068.982          46.000                                                                  
R23  19744592.432   105620360.092        1605.066          42.000                                                                  
R13  19958662.851   106578196.956       -1344.650          40.000    19958663.754    82894139.823       -1045.896          40.000  
R21  19715927.375   105504098.060       -2435.163          47.000    19715926.399    82058813.614       -1893.901          42.000  
R08  19344863.978   103590875.265        3507.698          51.000    19344857.711    80570725.312        2728.134          47.000  
G21  21252373.845   111681936.913        1990.953          43.000                                                                  
S33  37306619.764   196047686.533        -636.202          42.000  
S31  36352908.804   191035916.588        -636.499          44.000  
E36  24533675.466   128925296.455         920.624          45.000    24533680.434    98786972.576         705.352          47.000  
G10  17933213.296    94239846.155       -2125.423          49.000    17933210.814    73433642.423       -1656.132          47.000  
E11  20738768.803   108982990.693        -265.402          44.000    20738766.312    83506507.142        -203.517          48.000  
R12  20008023.165   106879283.365       -3787.108          47.000    20008024.487    83128452.917       -2945.459          47.000  
R22  17751674.221    94759761.136        -369.071          52.000    17751670.797    73702087.663        -287.076          51.000  
R07  17387530.649    93076825.861         549.171          52.000    17387526.238    72393153.919         427.173          50.000  
R06  19294150.672   102957401.840       -3344.614          34.000                                                                  
G27  17849102.718    93797705.200         142.311          49.000    17849101.258    73089129.493         110.729          46.000  
G08  19233519.147   101072893.284        1997.440          48.000    19233517.049    78758120.802        1556.338          46.000  
E04  23575628.988   123890798.993        1687.041          43.000    23575630.636    94929341.582        1292.678          49.000  
E25  22404001.872   117733779.486       -1135.565          47.000    22404005.540    90211621.856        -870.038          52.000  
E14  25574098.678   134392961.695        -520.663          43.000    25574101.805   102976399.522        -398.883          48.000  
E19  24079992.803   126541293.582        -636.648          37.000    24079991.918    96960239.616        -488.042          39.000  
E24  23313454.708   122513062.902       -3296.574          46.000    23313455.958    93873665.658       -2525.981          49.000  
G32  20349794.080   106938923.669        1930.769          47.000    20349795.025    83329062.405        1504.413          46.000  
E12  22893564.764   120306621.199       -1868.388          44.000    22893562.314    92183081.311       -1431.712          46.000  
E10  21800685.607   114563585.397       -1182.269          47.000    21800686.319    87782689.742        -905.962          52.000  
E02                                                                  25000000.472   100664601.741         905.286          33.000  
G18                                                                  22944850.536                       -2437.116          27.000  
> 2024 04 16 08 49 00.4920000  0 28                     
G26  21591105.714   113462036.118       -4082.020          37.000    21591107.939    88411983.024       -3180.860          34.000  
G23  20425596.376   107337464.993       -3822.417          45.000    20425591.601    83639602.920       -2978.367          46.000  
G16  19344064.713   101653772.407       -3082.620          45.000                                                                  
R23  19735586.964   105572192.712        1605.512          40.000                                                                  
R13  19966279.158   106618868.416       -1367.422          39.000    19966279.632    82925773.209       -1063.615          40.000  
R21  19729593.887   105577225.435       -2440.614          46.000    19729591.413    82115690.506       -1898.290          41.000  
R08  19325237.100   103485772.073        3498.269          51.000    19325230.230    80488978.482        2720.821          47.000  
G21  21241006.643   111622202.084        1990.647          43.000                                                                  
S33  37310249.702   196066760.519        -635.786          42.000  
S31  36356540.901   191055004.322        -636.580          44.000  
E36  24528419.758   128897684.089         919.666          44.000    24528425.789    98765815.088         704.745          47.000  
G10  17945391.925    94303844.618       -2141.711          49.000    17945389.260    73483511.388       -1668.884          48.000  
E11  20740288.066   108990979.471        -267.739          43.000    20740286.566    83512628.469        -204.964          48.000  
R12  20029318.417   106993040.630       -3797.270          46.000    20029320.342    83216930.777       -2953.383          47.000  
R22  17753762.769    94770909.601        -374.738          52.000    17753759.293    73710758.741        -291.505          50.000  
R07  17384526.029    93060739.080         522.559          52.000    17384521.398    72380642.025         406.454          50.000  
R06  19313007.481   103058025.236       -3364.212          36.000                                                                  
G27  17848329.949    93793640.257         128.007          50.000    17848327.562    73085961.970          99.818          46.000  
G08  19222136.776   101013079.494        1989.420          48.000    19222134.906    78711512.677        1550.353          46.000  
E04  23566012.520   123840263.464        1681.356          44.000    23566014.038    94890619.594        1288.345          49.000  
E25  22410522.120   117768042.678       -1149.232          47.000    22410525.384    90237875.480        -880.565          52.000  
E14  25577062.286   134408533.911        -518.202          44.000    25577065.211   102988331.471        -397.098          48.000  
E19  24083664.955   126560590.297        -650.077          37.000    24083664.466    96975025.421        -498.072          40.000  
E24  23332286.866   122612026.630       -3301.561          46.000    23332288.109    93949495.025       -2529.811          49.000  
G32  20338799.438   106881143.569        1920.568          47.000    20338799.307    83284039.029        1496.501          45.000  
E12  22904230.866   120362671.805       -1868.932          43.000    22904228.534    92226029.176       -1432.000          46.000  
E10  21807436.682   114599067.701       -1183.767          46.000    21807438.653    87809877.510        -906.973          52.000  
E02                                                                  24993284.653   100637560.635         897.404          33.000  
> 2024 04 16 08 49 30.4920000  0 29                     
G26  21614404.380                       -4080.781          34.000    21614407.337    88507393.140       -3179.795          34.000  
G23  20447431.248   107452211.821       -3827.601          45.000    20447426.968    83729016.068       -2982.505          46.000  
G16  19361696.771   101746431.482       -3095.103          45.000                                                                  
R23  19726578.680   105524012.485        1606.140          42.000                                                                  
R13  19974023.921   106660222.913       -1390.158          40.000    19974024.085    82957937.815       -1080.975          41.000  
R21  19743289.817   105650520.383       -2445.691          46.000    19743287.185    82172697.643       -1902.138          39.000  
R08  19305662.228   103380953.759        3489.168          51.000    19305655.598    80407453.164        2713.699          46.000  
G21  21229639.264   111562470.280        1991.235          43.000                                                                  
S33  37313878.486   196085829.764        -635.462          42.000  
S31  36360172.884   191074088.418        -635.873          44.000  
E36  24523171.759   128870105.281         918.798          44.000    24523177.430    98744683.310         704.092          46.000  
G10  17957664.865    94368339.402       -2157.952          49.000    17957662.254    73533767.080       -1681.559          47.000  
E11  20741819.139   108999023.580        -269.021          44.000    20741817.220    83518792.200        -206.165          48.000  
R12  20050672.260   107107102.483       -3806.797          47.000    20050671.894    83305645.500       -2960.884          46.000  
R22  17755884.529    94782232.457        -380.228          53.000    17755880.501    73719565.402        -295.718          50.000  
R07  17381670.468    93045453.638         496.224          52.000    17381666.075    72368753.402         385.916          50.000  
R06  19331977.098   103159246.353       -3383.809          38.000                                                                  
G27  17847638.820    93790007.917         113.934          49.000    17847636.455    73083131.591          88.629          46.000  
G08  19210799.723   100953503.890        1981.904          48.000    19210797.929    78665090.182        1544.330          46.000  
E04  23556428.297   123789899.529        1676.144          44.000    23556430.341    94852029.112        1284.201          50.000  
E25  22417120.510   117802716.760       -1162.361          47.000    22417123.441    90264443.938        -890.685          51.000  
E14  25580012.971   134424037.066        -515.530          44.000    25580015.003   103000210.508        -395.032          48.000  
E19  24087412.611   126580291.925        -663.106          36.000    24087414.521    96990121.516        -508.242          41.000  
E24  23351148.121   122711145.739       -3306.454          46.000    23351149.859    94025443.415       -2533.545          49.000  
G32  20327862.545   106823669.424        1910.910          46.000    20327861.860    83239254.046        1489.034          44.000  
E12  22914898.521   120418733.348       -1868.792          43.000    22914896.848    92268985.460       -1431.980          47.000  
E10  21814196.735   114634588.757       -1184.494          46.000    21814198.416    87837094.973        -907.597          52.000  
E02                                                                  24986629.284                         889.314          31.000  
G18                                                                  22980547.648                       -2435.088          26.000  
> 2024 04 16 08 50 00.4920000  0 29                     
G26  21637698.491   113706890.998       -4080.194          35.000    21637701.439    88602779.229       -3178.822          33.000  
G23  20469298.114   107567127.101       -3833.531          45.000    20469293.492    83818560.478       -2987.139          45.000  
G16  19379405.419   101839484.683       -3108.338          46.000                                                                  
R23  19717568.531   105475819.849        1606.439          41.000                                                                  
R13  19981895.948   106702259.158       -1412.844          40.000    19981896.785    82990632.702       -1098.512          42.000  
R21  19757017.585   105723984.142       -2451.641          46.000    19757013.998    82229836.082       -1907.213          39.000  
R08  19286142.282   103276424.409        3479.300          51.000    19286136.553    80326152.606        2706.127          47.000  
G21  21218274.400   111502742.638        1990.705          44.000                                                                  
S33  37317506.366   196104894.782        -635.804          42.000  
S31  36363803.386   191093166.864        -636.183          44.000  
E36  24517930.272   128842559.866         917.447          44.000    24517935.290    98723577.128         702.797          46.000  
G10  17970031.171    94433328.568       -2174.676          49.000    17970029.486    73584408.038       -1694.499          48.000  
E11  20743361.062   109007123.108        -271.181          45.000    20743358.483    83524998.398        -207.796          48.000  
R12  20072081.215   107221464.681       -3817.263          47.000    20072081.482    83394593.782       -2968.727          45.000  
R22  17758038.941    94793731.219        -386.425          52.000    17758034.367    73728508.901        -300.573          50.000  
R07  17378965.215    93030972.150         469.196          52.000    17378960.662    72357490.069         364.924          50.000  
R06  19351056.252   103261061.823       -3404.113          38.000                                                                  
G27  17847030.633    93786810.421          99.220          50.000    17847028.167    73080640.037          77.327          46.000  
G08  19199508.582   100894169.362        1973.611          48.000    19199507.020    78618855.534        1537.679          45.000  
E04  23546877.031   123739709.625        1669.952          44.000    23546879.492    94813572.001        1279.476          50.000  
E25  22423796.556   117837801.648       -1176.622          46.000    22423799.830    90291327.185        -901.566          51.000  
E14  25582950.637   134439472.334        -513.633          45.000    25582952.237   103012037.541        -393.541          48.000  
E19  24091239.774   126600398.914        -677.043          38.000    24091240.297    97005528.200        -518.809          41.000  
E24  23370039.534   122810418.671       -3311.871          46.000    23370040.899    94101509.665       -2537.762          49.000  
G32  20316983.325   106766504.849        1899.989          46.000    20316983.591    83194710.300        1480.480          44.000  
E12  22925569.026   120474806.425       -1869.605          43.000    22925567.361    92311950.563       -1432.577          47.000  
E10  21820964.226   114670148.755       -1186.257          47.000    21820965.509    87864342.256        -908.950          53.000  
E02                                                                  24980033.231   100584204.163         880.576          32.000  
G18                                                                  22998373.690                3      -2432.035          15.000  
> 2024 04 16 08 50 30.4920000  0 28                     
G26  21660986.353   113829267.575       -4079.165          36.000    21660988.503    88698137.713       -3178.893          33.000  
G23  20491196.423   107682206.270       -3838.919          45.000    20491192.722    83908232.563       -2991.189          46.000  
G16  19397186.736   101932926.213       -3121.403          46.000                                                                  
R23  19708556.564   105427613.290        1606.886          43.000                                                                  
R13  19989894.564   106744972.991       -1435.025          40.000    19989894.857    83023854.624       -1116.451          40.000  
R21  19770778.907   105797615.426       -2457.240          49.000    19770775.019    82287104.810       -1911.177          40.000  
R08  19266676.189   103172186.568        3469.513          50.000    19266670.797    80245078.766        2698.451          48.000  
G21  21206909.068   111443016.878        1990.643          45.000                                                                  
S33  37321132.947   196123952.682        -635.204          42.000  
S31  36367432.623   191112239.268        -635.934          44.000  
E36  24512694.915   128815045.417         916.266          44.000    24512699.121    98702494.624         702.192          46.000  
G10  17982490.759    94498807.846       -2191.029          48.000    17982489.959    73635430.886       -1707.170          48.000  
E11  20744912.925   109015275.707        -272.728          45.000    20744909.721    83531245.247        -209.028          48.000  
R12  20093545.584   107336120.856       -3826.892          47.000    20093545.020    83483770.807       -2976.388          43.000  
R22  17760225.127    94805404.926        -392.223          53.000    17760221.428    73737588.470        -305.122          51.000  
R07  17376410.050    93017293.763         442.334          53.000    17376405.539    72346851.349         344.120          50.000  
R06  19370247.702   103363465.989       -3423.711          37.000                                                                  
G27  17846504.603    93784047.452          84.706          50.000    17846502.105    73078487.046          66.148          46.000  
G08  19188263.234   100835076.355        1965.453          47.000    19188261.849    78572809.060        1531.807          45.000  
E04  23537359.731   123689693.753        1663.918          44.000    23537361.612    94775248.233        1274.990          49.000  
E25  22430550.705   117873294.664       -1189.922          46.000    22430553.994    90318523.124        -911.843          51.000  
E14  25585874.850   134454838.486        -511.325          45.000    25585875.689   103023811.601        -391.733          47.000  
E19  24095143.434   126620909.719        -690.506          38.000    24095143.003    97021244.295        -529.327          41.000  
E24  23388959.225   122909841.368       -3316.780          47.000    23388960.240    94177690.669       -2541.391          49.000  
G32  20306163.429   106709651.049        1889.864          44.000    20306164.691    83150408.726        1472.640          44.000  
E12  22936240.958   120530888.815       -1869.694          43.000    22936239.468    92354922.810       -1432.634          47.000  
E10  21827738.650   114705745.553       -1187.544          47.000    21827739.467    87891617.735        -909.785          53.000  
E02                                                                  24973496.276   100557889.748         872.931          32.000  
> 2024 04 16 08 51 00.4920000  0 28                     
G26  21684267.194   113951613.871       -4077.868          36.000    21684269.319    88793472.634       -3177.557          32.000  
G23  20513127.912   107797454.803       -3844.436          47.000    20513123.879    83998036.644       -2995.642          46.000  
G16  19415043.106   102026762.066       -3134.408          45.000                                                                  
R23  19699546.462   105379401.483        1607.112          45.000                                                                  
R13  19998021.300   106788370.424       -1457.955          40.000    19998021.777    83057608.165       -1133.855          41.000  
R21  19784571.823   105871423.386       -2463.249          48.000    19784568.589    82344511.005       -1915.708          40.000  
R08  19247268.067   103068253.032        3459.238          51.000    19247262.828    80164241.648        2690.524          49.000  
G21  21195545.706   111383301.360        1990.434          45.000                                                                  
S33  37324759.861   196143013.461        -635.387          42.000  
S31  36371062.289   191131313.781        -635.901          44.000  
E36  24507465.287   128787569.361         915.312          43.000    24507470.537    98681441.588         701.354          46.000  
G10  17995046.420    94564782.815       -2207.511          50.000    17995044.600    73686839.971       -1720.095          48.000  
E11  20746475.395   109023488.964        -274.489          45.000    20746472.498    83537538.565        -210.300          48.000  
R12  20115064.505   107451074.328       -3836.614          46.000    20115064.784    83573179.057       -2983.928          43.000  
R22  17762446.234    94817262.690        -398.438          52.000    17762442.910    73746811.220        -309.868          50.000  
R07  17374007.346    93004428.790         415.253          53.000    17374002.454    72336845.290         322.964          50.000  
R06  19389549.650   103466463.697       -3442.815          38.000                                                                  
G27  17846063.074    93781728.979          69.874          50.000    17846061.008    73076680.462          54.427          47.000  
G08  19177066.161   100776235.441        1957.065          47.000    19177064.913    78526959.075        1525.012          45.000  
E04  23527877.968   123639861.921        1657.989          45.000    23527878.468    94737065.458        1270.568          49.000  
E02  24967027.477                1       1128.198          27.000    24967022.135   100531824.811         865.285          32.000  
E25  22437383.671   117909203.197       -1203.590          45.000    22437387.264    90346037.435        -922.355          51.000  
E14  25588787.275   134470144.331        -509.164          45.000    25588787.788   103035539.465        -390.055          46.000  
E19  24099125.724   126641832.435        -704.511          38.000    24099123.986    97037275.980        -539.558          41.000  
E24  23407908.011   123009419.892       -3321.816          47.000    23407909.432    94253991.103       -2545.324          49.000  
G32  20295406.180   106653119.303        1879.013          45.000    20295407.048    83106358.120        1463.952          44.000  
E12  22946916.780   120586988.775       -1870.365          43.000    22946915.078    92397908.521       -1432.986          46.000  
E10  21834520.966   114741386.911       -1188.623          48.000    21834521.698    87918927.393        -910.799          53.000  
> 2024 04 16 08 51 30.4920000  0 29                     
G26  21707543.072   114073928.326       -4076.645          38.000    21707544.953    88888782.675       -3176.463          33.000  
G23  20535091.567   107912871.331       -3850.139          48.000    20535087.315    84087971.629       -3000.196          47.000  
G16  19432974.020   102120990.476       -3147.654          45.000                                                                  
R23  19690532.844   105331186.022        1607.023          44.000                                                                  
R13  20006276.151   106832450.631       -1480.804          40.000    20006276.170    83091892.758       -1151.447          40.000  
R21  19798398.377   105945409.798       -2469.295          48.000    19798393.661    82402056.029       -1920.812          40.000  
R08  19227916.601   102964629.205        3448.676          51.000    19227912.022    80083645.416        2682.334          49.000  
G21  21184184.067   111323597.314        1989.719          44.000                                                                  
S33  37328387.153   196162075.049        -635.596          42.000  
S31  36374692.458   191150390.345        -636.052          44.000  
E36  24502244.152   128760132.480         913.750          42.000    24502250.020    98660418.548         700.248          47.000  
G10  18007695.581    94631252.305       -2224.149          49.000    18007693.058    73738634.377       -1733.090          48.000  
E11  20748049.284   109031763.683        -276.998          45.000    20748047.109    83543878.942        -212.215          48.000  
R14  21989311.697                3       1765.525          11.000                                                                  
R12  20136638.672   107566321.807       -3846.638          46.000    20136640.170    83662815.995       -2991.875          43.000  
R22  17764701.716    94829306.844        -404.714          50.000    17764698.956    73756178.942        -314.816          50.000  
R07  17371756.496    92992380.173         387.837          53.000    17371751.095    72327474.178         301.688          50.000  
R06  19408962.515   103570052.375       -3463.018          38.000                                                                  
G27  17845707.498    93779857.854          54.726          50.000    17845704.822    73075222.446          42.622          47.000  
G08  19165917.902   100717650.259        1948.330          47.000    19165916.325    78481308.356        1518.231          46.000  
E04  23518430.679   123590217.388        1651.569          45.000    23518431.565    94699026.204        1265.488          49.000  
E02  24960609.904                        1117.666          30.000    24960610.211   100506011.359         856.097          32.000  
E25  22444296.180   117945527.815       -1217.718          46.000    22444299.744    90373870.553        -933.187          51.000  
E14  25591689.325   134485391.858        -507.506          45.000    25591689.104   103047222.630        -388.719          46.000  
E19  24103185.335   126663168.503        -718.258          38.000    24103184.462    97053624.430        -550.217          42.000  
E24  23426886.935   123109153.459       -3327.187          47.000    23426888.188    94330410.320       -2549.326          50.000  
G32  20284711.169   106596913.994        1867.934          46.000    20284711.587    83062561.836        1455.530          43.000  
E12  22957595.603   120643107.447       -1871.124          43.000    22957594.043    92440908.561       -1433.640          46.000  
E10  21841311.264   114777073.914       -1190.437          47.000    21841312.565    87946272.004        -912.171          53.000  
> 2024 04 16 08 52 00.4920000  0 28                     
G26  21730811.158   114196201.751       -4075.903          35.000    21730812.897                       -3174.746          32.000  
G23  20557084.865   108028446.845       -3855.430          47.000    20557079.888    84178030.501       -3004.107          47.000  
G16  19450977.594   102215601.322       -3160.387          45.000                                                                  
R23  19681515.351   105282961.032        1607.605          42.000                                                                  
R13  20014657.301   106877204.614       -1503.027          40.000    20014656.699    83126701.433       -1169.259          40.000  
R21  19812256.080   106019569.093       -2475.094          47.000    19812251.424    82459735.410       -1924.809          39.000  
R08  19208623.585   102861312.772        3438.648          52.000    19208618.156    80003288.232        2674.597          49.000  
G21  21172823.865   111263898.633        1989.593          44.000                                                                  
S33  37332014.116   196181134.491        -635.317          42.000  
S31  36378321.994   191169463.200        -636.027          44.000  
E36  24497029.175   128732727.754         912.535          42.000    24497035.333    98639420.168         699.283          47.000  
G10  18020436.531    94698207.454       -2239.978          49.000    18020433.840    73790807.249       -1745.434          47.000  
E11  20749633.906   109040093.182        -278.825          44.000    20749632.129    83550261.347        -213.824          48.000  
R12  20158265.737   107681851.970       -3855.891          46.000    20158268.343    83752672.784       -2998.979          42.000  
R22  17766992.026    94841531.889        -410.686          52.000    17766989.383    73765687.344        -319.402          51.000  
R07  17369656.968    92981142.545         360.818          53.000    17369651.524    72318733.835         280.712          50.000  
R06  19428483.563   103674222.011       -3481.958          39.000                                                                  
G27  17845435.571    93778429.331          40.051          50.000    17845433.716    73074109.327          31.294          47.000  
G08  19154817.704   100659316.750        1939.969          47.000    19154815.903    78435853.754        1511.676          45.000  
E04  23509017.525   123540755.638        1645.531          44.000    23509019.336    94661127.030        1260.831          49.000  
E02  24954266.589   131135562.3411       1106.844          30.000    24954261.701   100480445.400         848.147          32.000  
E25  22451286.910   117982261.352       -1231.448          46.000    22451289.830    90402016.979        -943.559          51.000  
E14  25594578.180   134500575.354        -505.282          45.000    25594578.563   103058856.747        -387.121          46.000  
E19  24107322.777   126684911.739        -731.847          37.000    24107322.074    97070284.873        -560.533          42.000  
E24  23445893.741   123209033.621       -3331.839          46.000    23445894.999    94406941.845       -2553.078          50.000  
G32  20274078.044   106541031.863        1857.046          47.000    20274076.965    83019017.338        1447.179          43.000  
E12  22968276.706   120699238.473       -1871.505          42.000    22968275.093    92483918.077       -1433.981          46.000  
E10  21848108.875   114812799.932       -1191.790          47.000    21848110.788    87973646.509        -913.153          53.000  
> 2024 04 16 08 52 30.4920000  0 28                     
G26  21754071.077   114318434.631       -4074.526          33.000    21754073.394                       -3174.763          31.000  
G23  20579108.239   108144182.063       -3860.317          47.000    20579104.436    84268213.834       -3008.116          48.000  
G16  19469054.502   102310595.376       -3172.604          45.000                                                                  
R23  19672497.431   105234729.729        1607.913          41.000                                                                  
R13  20023164.865   106922634.213       -1525.555          40.000    20023165.307    83162035.540       -1186.302          41.000  
R21  19826146.754   106093905.101       -2480.808          46.000    19826140.493    82517552.278       -1929.381          36.000  
R08  19189388.081   102758311.962        3428.127          52.000    19189383.254    79923176.571        2666.312          49.000  
G21  21161465.042   111204208.742        1989.740          45.000                                                                  
S33  37335640.581   196200192.028        -634.824          42.000  
S31  36381951.369   191188536.517        -635.605          44.000  
E36  24491820.684   128705357.918         911.996          42.000    24491827.318    98618448.520         698.725          48.000  
G10  18033270.512    94765649.187       -2256.026          50.000    18033267.928    73843359.300       -1758.047          47.000  
E11  20751230.116   109048480.259        -280.395          44.000    20751228.283    83556687.848        -214.886          48.000  
R12  20179945.823   107797663.708       -3864.898          45.000    20179947.213    83842748.574       -3005.775          41.000  
R22  17769316.812    94853942.241        -416.633          51.000    17769314.372    73775339.846        -324.043          51.000  
R07  17367709.894    92970721.156         333.925          52.000    17367704.722    72310628.353         259.732          50.000  
R06  19448113.484   103778972.039       -3501.100          39.000                                                                  
G27  17845248.902    93777448.395          25.239          49.000    17845247.004    73073344.929          19.724          48.000  
G08  19143765.760   100601240.719        1931.646          47.000    19143764.135    78390599.762        1505.327          45.000  
E04  23499641.071   123491481.975        1639.487          45.000    23499643.068    94623371.977        1256.120          50.000  
E02  24947968.457                        1095.837          27.000    24947974.355   100455130.404         840.205          33.000  
E25  22458354.958   118019406.414       -1244.801          46.000    22458358.194    90430478.741        -953.808          50.000  
E14  25597455.798   134515698.857        -502.999          45.000    25597456.787   103070444.874        -385.301          46.000  
E19  24111537.583   126707065.369        -745.109          37.000    24111537.876    97087259.760        -570.904          42.000  
E24  23464928.175   123309061.614       -3336.555          46.000    23464929.615    94483586.643       -2556.519          50.000  
G32  20263505.797   106485479.305        1846.360          47.000    20263505.390    82975729.721        1438.921          42.000  
E12  22978961.352   120755385.104       -1871.744          41.000    22978959.101    92526939.523       -1434.152          46.000  
E10  21854915.123   114848568.035       -1192.858          47.000    21854917.099    88001053.256        -913.905          53.000  
> 2024 04 16 08 53 00.4920000  0 28                     
G26  21777321.386   114440621.870       -4072.232          29.000    21777324.686                       -3173.097          26.000  
G23  20601161.295   108260071.968       -3865.757          46.000    20601157.309    84358517.697       -3012.291          47.000  
G16  19487202.791   102405967.347       -3185.476          45.000                                                                  
R23  19663480.111   105186490.401        1608.033          44.000                                                                  
R13  20031797.757   106968733.987       -1548.094          40.000    20031798.309    83197890.848       -1203.913          42.000  
R21  19840072.735   106168416.104       -2486.778          47.000    19840066.283    82575505.299       -1934.347          38.000  
R08  19170212.368   102655627.999        3417.345          52.000    19170206.508    79843311.321        2657.896          47.000  
G21  21150107.450   111144525.536        1989.089          44.000                                                                  
S33  37339266.901   196219247.585        -635.180          42.000  
S31  36385580.233   191207605.580        -635.974          44.000  
E36  24486619.504   128678020.099         910.620          42.000    24486625.046    98597501.364         697.799          48.000  
G10  18046196.516    94833572.572       -2272.245          50.000    18046193.727    73896286.651       -1770.628          47.000  
E11  20752836.805   109056922.084        -282.391          44.000    20752834.667    83563156.295        -216.358          48.000  
R12  20201677.133   107913749.837       -3874.317          45.000    20201679.666    83933037.757       -3013.273          44.000  
R22  17771676.442    94866536.400        -423.086          51.000    17771673.306    73785135.348        -329.003          50.000  
R07  17365915.476    92961114.785         306.509          52.000    17365910.890    72303156.783         238.265          50.000  
R06  19467850.952   103884296.449       -3520.090          38.000                                                                  
G27  17845147.274    93776914.222          10.292          50.000    17845145.292    73072928.661           7.898          48.000  
G08  19132762.945   100543422.191        1922.804          46.000    19132761.661    78345546.414        1498.361          45.000  
E04  23490300.084   123442395.963        1633.012          44.000    23490302.204    94585760.685        1251.235          50.000  
E25  22465501.378   118056959.870       -1258.542          46.000    22465504.139    90459253.445        -964.447          50.000  
E14  25600320.955   134530760.636        -501.091          44.000    25600323.454   103081985.733        -384.066          47.000  
E19  24115832.434   126729627.217        -758.903          37.000    24115831.391    97104547.441        -581.484          43.000  
E24  23483990.547   123409232.946       -3341.376          45.000    23483991.405    94560341.286       -2560.356          49.000  
G32  20252997.684   106430257.075        1835.068          47.000    20252996.327    82932699.506        1430.103          42.000  
E12  22989647.900   120811544.925       -1872.014          41.000    22989646.111    92569971.107       -1434.542          46.000  
E10  21861729.717   114884375.580       -1194.253          47.000    21861730.907    88028490.236        -915.144          53.000  
E02                                                                  24941747.821   100430065.467         831.445          32.000  
> 2024 04 16 08 53 30.4920000  0 28                     
G23  20623243.647   108376117.445       -3870.741          46.000    20623239.349    84448942.762       -3016.213          47.000  
G16  19505422.943   102501717.503       -3197.863          45.000                                                                  
R23  19654464.818   105138247.205        1608.302          47.000                                                                  
R13  20040556.437   107015505.260       -1569.804          39.000    20040557.301    83234268.422       -1221.037          42.000  
R21  19854031.926   106243106.356       -2492.780          46.000    19854026.567    82633597.696       -1938.542          39.000  
R08  19151096.914   102553269.354        3406.481          51.000    19151091.266    79763699.119        2649.463          47.000  
G21  21138752.035   111084852.316        1989.012          44.000                                                                  
S33  37342893.057   196238303.495        -634.955          42.000  
S31  36389209.026   191226675.695        -635.630          44.000  
E36  24481423.849   128650717.114         909.525          42.000    24481429.562    98576580.930         696.867          48.000  
G10  18059213.384    94901978.599       -2288.272          51.000    18059210.732    73949590.081       -1783.041          48.000  
E11  20754454.299   109065421.729        -283.928          44.000    20754452.255    83569669.073        -217.697          48.000  
R12  20223460.081   108030109.151       -3883.114          45.000    20223463.285    84023539.457       -3020.217          44.000  
R22  17774070.990    94879318.928        -429.260          52.000    17774068.058    73795077.298        -333.893          52.000  
R07  17364273.294    92952328.725         279.203          52.000    17364268.335    72296323.201         217.081          50.000  
R06  19487696.596   103990195.029       -3539.395          38.000                                                                  
G27  17845131.514    93776832.226          -4.848          49.000    17845129.480    73072864.819          -3.784          48.000  
G08  19121810.277   100485867.057        1914.226          47.000    19121809.455    78300698.321        1491.605          45.000  
E04  23480996.035   123393502.912        1626.581          44.000    23480998.381    94548297.244        1246.270          50.000  
E25  22472725.996   118094924.386       -1272.176          47.000    22472728.387    90488343.103        -974.826          50.000  
E14  25603176.019   134545764.890        -499.182          44.000    25603178.994   103093482.466        -382.446          48.000  
E19  24120203.052   126752601.163        -772.704          36.000    24120202.500    97122150.889        -592.072          42.000  
E24  23503079.838   123509549.076       -3346.101          45.000    23503080.956    94637206.884       -2563.958          49.000  
G32  20242553.490   106375371.743        1823.858          47.000    20242551.367    82889931.775        1421.351          42.000  
E12  23000337.575   120867721.477       -1872.715          41.000    23000336.027    92613015.457       -1434.889          46.000  
E10  21868552.268   114920225.802       -1195.657          47.000    21868552.887    88055959.896        -916.135          53.000  
E02                                                                  24935586.380   100405254.193         822.768          33.000  
G26                                                                  21800561.525                3      -3170.851          22.000  
> 2024 04 16 08 54 00.4920000  0 28                     
G23  20645354.962   108492312.534       -3875.513          46.000    20645351.025    84539484.419       -3019.940          47.000  
G16  19523714.145   102597839.438       -3210.078          45.000                                                                  
R23  19645445.506   105089997.036        1608.512          48.000                                                                  
R13  20049440.144   107062942.408       -1592.472          39.000    20049440.850    83271163.927       -1238.335          41.000  
R21  19868020.907   106317973.276       -2498.458          45.000    19868015.560    82691827.504       -1943.327          38.000  
R08  19132043.488   102451236.704        3395.601          51.000    19132037.022    79684340.449        2640.998          46.000  
G21  21127397.973   111025185.715        1988.761          45.000                                                                  
S33  37346518.566   196257355.742        -634.718          42.000  
S31  36392837.054   191245742.770        -635.540          44.000  
E36  24476233.870   128623445.086         908.565          42.000    24476239.376    98555684.222         696.191          48.000  
G10  18072321.394    94970861.405       -2303.927          51.000    18072318.615    74003265.017       -1795.284          47.000  
E11  20756082.204   109073975.456        -285.870          45.000    20756079.727    83576223.263        -219.111          48.000  
R12  20245293.945   108146733.720       -3891.763          47.000    20245295.823    84114247.443       -3027.124          43.000  
R22  17776500.649    94892287.548        -435.257          51.000    17776497.842    73805164.031        -338.635          50.000  
R07  17362785.132    92944360.642         252.046          52.000    17362780.465    72290125.847         196.023          51.000  
R06  19507647.951   104096660.612       -3558.394          39.000                                                                  
G27  17845201.115    93777200.205         -19.564          49.000    17845199.568    73073151.493         -15.422          47.000  
G08  19110907.795   100428574.424        1905.364          46.000    19110906.925    78256054.774        1484.739          45.000  
E04  23471727.405   123344801.429        1620.394          43.000    23471730.611    94510980.599        1241.489          50.000  
E25  22480027.678   118133295.852       -1285.783          47.000    22480030.806    90517744.565        -985.205          51.000  
E14  25606020.416   134560709.004        -496.936          44.000    25606022.913   103104933.146        -380.857          48.000  
E19  24124653.289   126775983.590        -786.112          37.000    24124651.523    97140067.333        -602.166          41.000  
E24  23522195.724   123610004.550       -3350.648          44.000    23522197.351    94714179.246       -2567.536          50.000  
G32  20232172.216   106320823.042        1812.771          46.000    20232171.676    82847426.380        1412.746          43.000  
E12  23011030.567   120923911.267       -1873.100          42.000    23011028.743    92656069.988       -1435.337          46.000  
E10  21875381.896   114956115.193       -1196.803          48.000    21875382.645    88083459.580        -917.129          53.000  
E02                                                                  24929487.366   100380694.989         814.519          33.000  
G26                                                                  21823788.367                3      -3171.930          21.000  
> 2024 04 16 08 54 30.4920000  0 28                     
G23  20667495.254   108608659.041       -3880.596          47.000    20667490.673    84630144.105       -3023.883          47.000  
G16  19542075.746   102694334.415       -3222.604          46.000                                                                  
R23  19636424.435   105041744.611        1608.449          46.000                                                                  
R13  20058449.209   107111047.714       -1614.379          39.000    20058449.468    83308579.188       -1255.776          40.000  
R21  19882045.536   106393021.774       -2504.636          42.000    19882039.476    82750198.557       -1947.430          36.000  
R08  19113051.912   102349538.594        3384.524          51.000    19113046.336    79605241.952        2632.407          47.000  
G21  21116046.224   110965530.130        1988.303          45.000                                                                  
S33  37350144.312   196276409.532        -635.176          42.000  
S31  36396466.060   191264810.910        -635.626          44.000  
E36  24471049.896   128596207.782         907.474          42.000    24471056.053    98534814.132         695.267          47.000  
G10  18085519.871    95040222.867       -2319.776          51.000    18085517.624    74057312.956       -1807.593          47.000  
E11  20757720.420   109082587.099        -287.856          44.000    20757718.382    83582821.797        -220.608          48.000  
R12  20267176.329   108263623.171       -3900.580          48.000    20267176.239    84205161.493       -3034.040          42.000  
R22  17778965.430    94905447.713        -441.782          51.000    17778963.314    73815399.707        -343.638          51.000  
R07  17361450.662    92937216.066         224.507          52.000    17361445.304    72284569.009         174.697          50.000  
R06  19527706.020   104203693.770       -3577.124          39.000                                                                  
G27  17845358.545    93778024.609         -34.884          49.000    17845356.472    73073793.874         -27.248          47.000  
G08  19100056.831   100371551.056        1896.251          47.000    19100056.188    78211621.039        1477.635          46.000  
E04  23462498.222   123296297.823        1613.668          44.000    23462500.672    94473815.555        1236.306          51.000  
E25  22487407.043   118172077.783       -1299.422          46.000    22487411.131    90547460.524        -995.713          51.000  
E14  25608853.415   134575597.992        -495.265          44.000    25608856.171   103116341.584        -379.550          48.000  
E19  24129181.622   126799779.003        -799.614          37.000    24129180.004    97158300.236        -613.111          41.000  
E24  23541338.905   123710601.633       -3355.364          45.000    23541340.534    94791260.106       -2571.046          50.000  
G32  20221858.402   106266618.422        1801.299          47.000    20221858.440    82805189.095        1403.550          44.000  
E12  23021726.300   120980118.827       -1873.526          41.000    23021724.332    92699138.142       -1435.749          46.000  
E10  21882220.691   114992047.855       -1198.371          48.000    21882220.348    88110992.414        -918.247          53.000  
E02                                                                  24923451.664   100356392.097         805.622          33.000  
G26                                                                  21847013.112                3      -3171.629          20.000  
> 2024 04 16 08 55 00.4920000  0 28                     
G23  20689663.694   108725156.490       -3885.455          47.000    20689659.186    84720921.360       -3027.860          46.000  
G16  19560509.585   102791201.987       -3234.920          47.000                                                                  
R23  19627403.018   104993492.568        1608.732          45.000                                                                  
R13  20067582.507   107159820.618       -1636.546          39.000    20067582.969    83346513.627       -1273.131          40.000  
R21  19896103.575   106468255.119       -2510.635          45.000    19896095.878    82808713.269       -1952.665          37.000  
R08  19094123.940   102248181.850        3372.921          50.000    19094119.154    79526408.918        2623.498          48.000  
G21  21104696.531   110905888.167        1988.240          45.000                                                                  
S33  37353770.794   196295466.040        -634.984          42.000  
S31  36400095.023   191283882.271        -635.485          44.000  
E36  24465874.128   128569006.727         906.367          42.000    24465879.817    98513971.809         694.372          48.000  
G10  18098809.483    95110062.515       -2335.732          50.000    18098806.912    74111733.484       -1820.101          47.000  
E11  20759370.306   109091258.463        -289.995          44.000    20759368.401    83589466.094        -222.248          48.000  
R12  20289106.490   108380775.195       -3909.068          47.000    20289108.640    84296279.748       -3040.408          42.000  
R22  17781466.880    94918802.448        -448.256          52.000    17781464.644    73825786.789        -348.672          51.000  
R07  17360269.357    92930898.657         197.029          51.000    17360265.159    72279655.497         153.281          50.000  
R06  19547869.578   104311292.930       -3596.074          40.000                                                                  
G27  17845602.784    93779309.022         -50.313          50.000    17845600.939    73074794.798         -39.180          48.000  
G08  19089257.824   100314801.434        1887.405          47.000    19089257.101    78167400.605        1470.626          46.000  
E04  23453306.857   123247996.063        1606.936          43.000    23453309.201    94436805.159        1231.174          51.000  
E25  22494865.341   118211271.496       -1313.043          46.000    22494869.726    90577492.002       -1006.166          51.000  
E14  25611676.903   134590434.642        -493.361          44.000    25611679.346   103127709.906        -378.063          48.000  
E19  24133788.584   126823989.707        -814.027          37.000    24133787.448    97176851.325        -623.411          42.000  
E24  23560508.199   123811340.380       -3359.903          43.000    23560510.240    94868449.489       -2574.536          49.000  
G32  20211609.131   106212763.030        1789.599          46.000    20211610.071    82763223.947        1394.482          44.000  
E12  23032425.595   121036346.129       -1874.402          41.000    23032424.111    92742221.411       -1436.313          46.000  
E10  21889066.572   115028025.661       -1199.816          48.000    21889066.627    88138559.851        -919.335          53.000  
E02                                                                  24917478.149                         797.450          31.000  
G26                                                                  21870253.161                3      -3160.348          18.000  
> 2024 04 16 08 55 30.4920000  0 28                     
G23  20711860.084   108841799.117       -3890.522          45.000    20711856.085    84811811.738       -3031.556          47.000  
G16  19579013.025   102888435.198       -3247.295          47.000                                                                  
R23  19618382.267   104945238.233        1608.458          46.000                                                                  
R13  20076839.977   107209255.504       -1658.589          38.000    20076840.683    83384962.972       -1290.312          39.000  
R21  19910196.905   106543670.430       -2516.833          43.000    19910191.479    82867369.620       -1957.327          39.000  
R08  19075260.174   102147167.158        3361.422          51.000    19075255.983    79447842.007        2614.405          49.000  
G21  21093348.478   110846256.786        1987.579          45.000                                                                  
S33  37357397.171   196314522.878        -635.205          42.000  
S31  36403724.145   191302953.758        -635.725          44.000  
E36  24460704.306   128541838.196         904.949          43.000    24460710.009    98493154.436         693.450          48.000  
G10  18112189.932    95180374.664       -2351.562          50.000    18112186.741    74166522.183       -1832.460          46.000  
E11  20761031.039   109099986.010        -291.917          44.000    20761029.308    83596153.462        -223.580          48.000  
R12  20311084.969   108498181.570       -3917.827          46.000    20311087.395    84387595.812       -3047.191          43.000  
R22  17784005.034    94932349.663        -454.761          51.000    17784002.605    73836323.524        -353.768          51.000  
R07  17359243.525    92925406.402         169.235          51.000    17359239.760    72275383.808         131.797          50.000  
R06  19568138.379   104419451.042       -3614.271          39.000                                                                  
G27  17845934.286    93781051.700         -65.812          50.000    17845932.647    73076152.773         -51.192          48.000  
G08  19078510.631   100258324.914        1878.043          47.000    19078510.182    78123392.980        1463.251          46.000  
E04  23444153.827   123199894.863        1600.044          44.000    23444155.631    94399948.467        1226.055          50.000  
E25  22502400.710   118250872.969       -1326.984          46.000    22502405.397    90607835.907       -1016.642          51.000  
E14  25614490.324   134605216.441        -492.062          44.000    25614491.877   103139036.208        -376.979          47.000  
E19  24138473.889   126848612.400        -827.681          37.000    24138473.232    97195718.114        -634.215          42.000  
E24  23579705.258   123912215.511       -3364.767          44.000    23579706.016    94945743.382       -2578.260          49.000  
G32  20201427.523   106159256.812        1777.485          47.000    20201426.986    82721530.846        1384.994          43.000  
E12  23043128.048   121092589.961       -1875.296          41.000    23043127.341    92785317.342       -1436.907          47.000  
E10  21895921.131   115064045.222       -1201.326          49.000    21895921.102    88166159.294        -920.536          53.000  
E02                                                                  24911568.614                         789.255          28.000  
G26                                                                  21893460.989                3      -3182.222          11.000  
> 2024 04 16 08 56 00.4920000  0 28                     
G23  20734084.776   108958585.990       -3895.174          45.000    20734079.861    84902814.565       -3035.161          47.000  
G16  19597585.730   102986033.416       -3259.159          47.000                                                                  
R23  19609360.926   104896983.732        1608.672          44.000                                                                  
R13  20086221.591   107259351.784       -1680.802          38.000    20086221.433    83423926.715       -1307.689          39.000  
R21  19924323.387   106619270.091       -2523.258          41.000    19924320.470    82926169.392       -1962.398          41.000  
R08  19056461.392   102046500.619        3349.819          50.000    19056458.435    79369545.875        2605.364          49.000  
G21  21082003.924   110786637.490        1987.194          45.000                                                                  
S33  37361023.700   196333581.159        -635.275          42.000  
S31  36407353.659   191322026.522        -635.557          44.000  
E36  24455541.005   128514703.331         903.887          43.000    24455546.084    98472362.853         692.656          48.000  
G10  18125659.677    95251158.436       -2367.300          50.000    18125656.444    74221678.390       -1844.686          47.000  
E11  20762702.556   109108770.943        -293.449          44.000    20762701.079    83602884.808        -224.924          48.000  
R12  20333109.977   108615839.435       -3926.085          46.000    20333112.303    84479107.511       -3053.813          41.000  
R22  17786579.178    94946092.230        -461.254          51.000    17786577.368    73847012.235        -358.840          52.000  
R07  17358372.063    92920742.057         141.805          51.000    17358368.905    72271756.034         110.262          51.000  
R06  19588511.496   104528165.887       -3632.830          38.000                                                                  
G27  17846353.478    93783255.847         -81.125          49.000    17846352.406    73077870.291         -63.216          48.000  
G08  19067815.912   100202125.528        1868.875          48.000    19067815.629    78079601.288        1456.311          46.000  
E04  23435039.042   123151997.817        1593.314          44.000    23435041.082    94363248.194        1220.753          50.000  
E25  22510015.709   118290883.002       -1340.473          47.000    22510018.885    90638492.888       -1027.041          50.000  
E14  25617291.918   134619945.825        -490.088          43.000    25617294.547   103150322.332        -375.530          47.000  
E19  24143238.751   126873648.654        -841.276          38.000    24143237.094    97214901.803        -644.542          41.000  
E24  23598927.444   124013226.583       -3369.237          45.000    23598928.025    95023141.454       -2581.613          49.000  
G32  20191313.136   106106104.465        1765.876          47.000    20191311.170    82680113.499        1375.862          42.000  
E12  23053836.221   121148852.101       -1875.676          42.000    23053833.668    92828427.305       -1437.228          47.000  
E10  21902783.477   115100108.046       -1202.761          49.000    21902783.656    88193791.870        -921.557          53.000  
E02                                                                  24905721.722                         779.672          27.000  
G26                                                                  21916628.663                3      -3164.161          19.000  
> 2024 04 16 08 56 30.4920000  0 28                     
G23  20756335.356   109075515.870       -3900.048          45.000    20756331.152    84993928.762       -3039.045          47.000  
G16  19616226.954   103083994.008       -3271.491          46.000                                                                  
R23  19600339.761   104848730.754        1608.249          45.000                                                                  
R13  20095726.799   107310108.039       -1703.278          37.000    20095725.889    83463403.796       -1324.492          38.000  
R21  19938485.147   106695056.010       -2529.310          44.000    19938483.438    82985114.015       -1967.437          40.000  
R08  19037728.251   101946187.998        3337.515          50.000    19037725.753    79291524.943        2595.866          49.000  
G21  21070661.412   110727032.066        1986.554          46.000                                                                  
S33  37364650.884   196352642.111        -635.669          43.000  
S31  36410983.426   191341102.245        -635.961          45.000  
E36  24450383.994   128487602.674         902.671          44.000    24450388.768    98451597.494         691.604          47.000  
G10  18139218.312    95322412.419       -2382.916          50.000    18139215.884    74277201.020       -1857.027          47.000  
E11  20764385.976   109117614.130        -295.760          45.000    20764383.918    83609660.804        -226.643          48.000  
R12  20355181.685   108733745.272       -3934.405          46.000    20355183.787    84570811.960       -3060.121          42.000  
R22  17789191.364    94960032.311        -468.048          52.000    17789188.262    73857854.537        -364.213          51.000  
R07  17357656.403    92916908.288         113.838          52.000    17357652.926    72268774.253          88.426          51.000  
R06  19608987.553   104637434.875       -3652.093          37.000                                                                  
G27  17846860.878    93785924.325         -96.872          50.000    17846859.773    73079949.630         -75.417          48.000  
G08  19057174.509   100146206.979        1859.068          48.000    19057174.462    78036028.443        1448.840          46.000  
E04  23425964.111   123104308.005        1586.114          44.000    23425965.922    94326706.723        1215.329          50.000  
E25  22517707.596   118331301.917       -1354.281          47.000    22517710.286    90669463.161       -1037.680          50.000  
E14  25620085.572   134634624.617        -488.461          43.000    25620087.745   103161569.692        -374.385          47.000  
E19  24148081.190   126899099.679        -855.514          37.000    24148080.281    97234403.313        -655.571          42.000  
E24  23618174.514   124114372.713       -3373.834          46.000    23618175.500    95100643.022       -2585.154          49.000  
G32  20181266.334   106053310.262        1753.679          47.000    20181264.230    82638975.231        1366.434          41.000  
E12  23064546.151   121205133.617       -1876.583          43.000    23064543.857    92871552.110       -1437.819          47.000  
E10  21909653.726   115136215.135       -1204.345          48.000    21909654.600    88221458.364        -922.872          54.000  
E02                                                                  24899946.038                         771.014          28.000  
G26                                                                  21939815.678                3      -3165.156          17.000  
> 2024 04 16 08 57 00.4920000  0 27                     
G23  20778612.287   109192588.808       -3904.624          44.000    20778608.395    85085154.475       -3042.748          46.000  
G16  19634937.382   103182317.503       -3283.387          46.000                                                                  
R23  19591321.946   104800482.714        1608.362          46.000                                                                  
R13  20105354.482   107361524.370       -1724.867          37.000    20105354.650    83503394.223       -1341.401          38.000  
R21  19952684.259   106771031.915       -2535.463          43.000    19952680.759    83044206.390       -1972.315          39.000  
R08  19019063.222   101846236.035        3325.599          50.000    19019059.382    79213784.578        2586.484          48.000  
G21  21059322.323   110667443.098        1986.076          47.000                                                                  
S33  37368279.085   196371708.001        -635.320          42.000  
S31  36414614.418   191360183.154        -636.135          44.000  
E36  24445233.218   128460538.450         901.448          44.000    24445238.463    98430860.033         690.812          47.000  
G10  18152867.029    95394136.803       -2398.617          50.000    18152864.689    74333090.201       -1869.076          47.000  
E11  20766080.765   109126517.790        -297.875          45.000    20766078.086    83616483.117        -228.242          48.000  
R12  20377299.640   108851896.998       -3942.366          44.000    20377302.456    84662707.603       -3065.983          43.000  
R22  17791840.881    94974173.725        -474.711          53.000    17791837.635    73868853.438        -369.198          52.000  
R07  17357094.968    92913908.385          86.207          51.000    17357092.061    72266441.013          67.007          51.000  
R06  19629567.798   104747257.052       -3669.941          35.000    19629928.561                3      -2869.068          13.000  
G27  17847458.206    93789061.353        -112.471          49.000    17847456.754    73082394.055         -87.636          48.000  
G08  19046588.117   100090574.324        1849.873          48.000    19046587.715    77992678.345        1441.460          46.000  
E04  23416929.772   123056830.059        1579.103          44.000    23416931.004    94290327.573        1209.931          50.000  
E25  22525477.920   118372131.660       -1367.745          47.000    22525480.207    90700748.222       -1048.055          50.000  
E14  25622870.474   134649256.273        -487.081          44.000    25622872.311   103172780.923        -373.084          47.000  
E19  24153002.701   126924968.363        -868.912          35.000    24153002.909    97254224.821        -665.932          41.000  
E24  23637447.067   124215654.563       -3378.256          46.000    23637448.773    95178248.573       -2588.488          49.000  
G32  20171289.458   106000879.967        1741.565          47.000    20171287.329    82598120.504        1357.084          41.000  
E12  23075259.905   121261437.383       -1877.239          42.000    23075257.999    92914693.964       -1438.340          47.000  
E10  21916533.661   115172368.968       -1205.782          48.000    21916534.304    88249160.684        -923.948          53.000  
E02                                                                  24894238.620                         761.932          31.000  
> 2024 04 16 08 57 30.4920000  0 27                     
G23  20800917.539   109309802.331       -3909.218          44.000    20800914.627    85176489.729       -3046.137          48.000  
G16  19653716.509   103281000.055       -3295.151          46.000                                                                  
R23  19582304.512   104752239.711        1608.161          47.000                                                                  
R13  20115107.313   107413598.169       -1746.519          38.000    20115107.183    83543896.079       -1357.963          39.000  
R21  19966916.602   106847198.127       -2541.785          41.000    19966913.497    83103446.729       -1976.888          38.000  
R08  19000466.002   101746648.882        3313.740          50.000    19000461.427    79136327.904        2577.339          48.000  
G21  21047985.547   110607870.916        1985.742          45.000                                                                  
S33  37371908.061   196390779.429        -635.449          42.000  
S31  36418246.149   191379268.649        -635.922          44.000  
E36  24440089.860   128433510.041         900.360          44.000    24440094.531    98410150.039         689.997          46.000  
G10  18166604.814    95466328.904       -2413.972          51.000    18166602.675    74389343.809       -1880.995          47.000  
E11  20767786.073   109135481.675        -299.823          45.000    20767783.780    83623351.623        -229.714          48.000  
R12  20399463.368   108970290.255       -3950.216          44.000    20399465.107    84754791.087       -3072.410          41.000  
R22  17794527.291    94988517.661        -481.355          52.000    17794524.425    73880009.847        -374.380          51.000  
R07  17356690.863    92911743.874          58.391          51.000    17356687.406    72264757.559          45.505          51.000  
R06  19650251.517   104857628.225       -3687.922          36.000                                                                  
G27  17848145.205    93792668.504        -127.807          49.000    17848143.360    73085204.815         -99.692          48.000  
G08  19036056.489   100035230.091        1840.083          47.000    19036056.076    77949552.997        1433.906          46.000  
E04  23407934.955   123009565.879        1571.924          43.000    23407936.564    94254112.222        1204.611          49.000  
E25  22533326.223   118413371.261       -1381.405          48.000    22533327.488    90732347.352       -1058.380          50.000  
E14  25625647.030   134663841.400        -485.268          45.000    25625648.214   103183956.543        -371.800          47.000  
E19  24158002.756   126951254.500        -883.021          34.000    24158005.300    97274366.201        -676.663          41.000  
E24  23656745.677   124317070.021       -3382.475          45.000    23656747.509    95255956.515       -2591.786          48.000  
G32  20161382.540   105948816.617        1729.500          48.000    20161379.974    82557551.713        1347.797          41.000  
E12  23085978.639   121317763.430       -1877.766          42.000    23085976.053    92957852.886       -1438.807          47.000  
E10  21923422.245   115208569.402       -1207.295          48.000    21923422.924    88276898.701        -925.093          53.000  
E02                                                                  24888593.090   100216029.287         753.862          32.000  
> 2024 04 16 08 58 00.4920000  0 27                     
G23  20823248.930   109427150.433       -3913.405          44.000    20823243.835    85267929.882       -3049.460          47.000  
G16  19672562.124   103380035.283       -3306.707          46.000                                                                  
R23  19573285.624   104703999.328        1608.280          46.000                                                                  
R13  20124980.901   107466323.213       -1768.011          38.000    20124981.159    83584904.443       -1375.145          40.000  
R21  19981185.780   106923551.880       -2548.000          45.000    19981182.488    83162833.008       -1981.487          40.000  
R08  18981937.316   101647427.817        3301.608          51.000    18981933.603    79059156.016        2567.876          49.000  
G21  21036651.324   110548312.085        1985.408          45.000                                                                  
S33  37375537.523   196409852.129        -635.465          42.000  
S31  36421878.653   191398356.696        -636.052          44.000  
E36  24434952.043   128406513.543         899.571          43.000    24434957.025    98389464.503         689.375          45.000  
G10  18180430.922    95538982.905       -2429.149          51.000    18180428.225    74445957.355       -1892.834          48.000  
E11  20769502.351   109144501.845        -301.439          45.000    20769500.346    83630263.246        -231.017          48.000  
R12  20421670.401   109088916.966       -3957.861          44.000    20421671.487    84847056.241       -3078.524          40.000  
R22  17797252.319    95003061.559        -487.753          52.000    17797248.342    73891321.809        -379.349          50.000  
R07  17356442.648    92910412.285          30.774          52.000    17356439.094    72263721.933          23.983          51.000  
R06  19671037.706   104968541.599       -3705.764          36.000                                                                  
G27  17848920.555    93796743.921        -143.432          49.000    17848918.455    73088380.515        -111.805          47.000  
G08  19025579.262    99980173.286        1830.697          47.000    19025578.593    77906651.647        1426.414          46.000  
E04  23398980.185   122962513.899        1564.973          42.000    23398983.001    94218059.486        1199.145          49.000  
E25  22541249.908   118455016.436       -1394.771          47.000    22541252.247    90764257.245       -1068.647          50.000  
E14  25628413.376   134678377.302        -483.582          45.000    25628414.386   103195094.439        -370.624          47.000  
E19  24163085.170   126977954.829        -896.262          34.000    24163085.915    97294824.927        -687.093          41.000  
E24  23676068.880   124418613.629       -3386.562          45.000    23676070.638    95333762.638       -2594.949          49.000  
G32  20151544.487   105897119.857        1717.400          48.000    20151542.731    82517268.596        1338.448          42.000  
E12  23096701.109   121374108.308       -1878.326          43.000    23096698.339    93001026.238       -1439.224          47.000  
E10  21930318.861   115244812.828       -1208.550          48.000    21930319.728    88304669.658        -926.118          53.000  
E02                                                                  24883010.877   100193555.902         744.926          31.000  
> 2024 04 16 08 58 30.4920000  0 28                     
G23  20845605.576   109544627.563       -3918.018          45.000    20845599.529    85359470.519       -3052.879          47.000  
G16  19691473.477   103479417.037       -3318.400          45.000                                                                  
R23  19564268.364   104655758.941        1607.962          45.000                                                                  
R13  20134975.448   107519694.238       -1789.683          39.000    20134976.101    83626415.215       -1391.909          40.000  
R21  19995491.080   107000090.901       -2554.339          46.000    19995486.059    83222363.343       -1986.881          41.000  
R08  18963476.483   101548573.820        3288.894          49.000    18963472.722    78982269.592        2558.206          48.000  
G21  21025319.077   110488763.824        1984.914          44.000                                                                  
S33  37379166.521   196428923.301        -635.610          42.000  
S31  36425510.679   191417442.550        -635.989          44.000  
E36  24429820.555   128379545.206         898.525          43.000    24429825.164    98368800.512         688.380          45.000  
G10  18194343.186    95612092.996       -2444.507          50.000    18194340.222    74502926.294       -1904.828          47.000  
E11  20771228.765   109153574.883        -303.112          45.000    20771226.911    83637215.373        -232.262          48.000  
R12  20443920.439   109207768.950       -3965.455          43.000    20443919.808    84939496.482       -3084.253          39.000  
R22  17800013.181    95017803.497        -494.715          51.000    17800010.474    73902787.784        -384.742          51.000  
R07  17356349.086    92909911.258           2.865          52.000    17356344.985    72263332.273           2.274          51.000  
R06  19691924.052   105079989.604       -3723.998          36.000                                                                  
G27  17849784.637    93801285.851        -159.125          48.000    17849782.891    73091919.675        -124.062          47.000  
G08  19015157.173    99925403.324        1820.863          47.000    19015155.820    77863973.798        1419.008          45.000  
E04  23390066.100   122915672.905        1557.985          43.000    23390069.532    94182168.423        1193.736          50.000  
E25  22549250.584   118497063.157       -1408.296          47.000    22549253.716    90796474.852       -1078.949          50.000  
E14  25631168.629   134692861.590        -481.917          45.000    25631170.541   103206192.795        -369.217          47.000  
E19  24168244.717   127005066.215        -910.345          35.000    24168245.018    97315598.607        -697.594          40.000  
E24  23695415.735   124520280.128       -3390.766          45.000    23695417.253    95411662.930       -2598.253          49.000  
G32  20141776.769   105845789.586        1704.904          47.000    20141774.051    82477271.009        1328.607          41.000  
E12  23107424.744   121430468.942       -1878.782          41.000    23107423.554    93044211.686       -1439.814          47.000  
E10  21937223.159   115281095.992       -1210.130          48.000    21937224.072    88332471.057        -927.192          53.000  
E02                                                                  24877494.849                         736.252          30.000  
R14                                                                  22173923.776                3        905.039          12.000  
> 2024 04 16 08 59 00.4920000  0 29                     
G23  20867984.988   109662235.698       -3922.450          43.000    20867979.099    85451113.236       -3056.404          46.000  
G16  19710452.047   103579146.694       -3330.041          46.000                                                                  
R23  19555249.120   104607523.388        1607.759          43.000                                                                  
R13  20145091.470   107573712.386       -1810.762          38.000    20145092.292    83668429.386       -1408.894          39.000  
R21  20009828.741   107076820.270       -2560.858          45.000    20009826.904    83282041.646       -1991.695          41.000  
R08  18945085.928   101450095.714        3276.313          50.000    18945082.418    78905675.625        2548.316          48.000  
G21  21013990.438   110429230.883        1984.259          44.000                                                                  
S33  37382796.379   196447997.619        -636.072          42.000  
S31  36429143.196   191436531.554        -636.188          44.000  
E36  24424694.729   128352609.019         897.524          42.000    24424699.723    98348161.153         687.570          46.000  
G10  18208342.475    95685661.148       -2459.950          51.000    18208339.877    74560252.170       -1916.859          47.000  
E11  20772966.313   109162705.087        -305.297          45.000    20772964.243    83644211.301        -233.792          48.000  
R12  20466213.262   109326846.519       -3972.926          44.000    20466211.818    85032112.215       -3090.005          40.000  
R22  17802813.622    95032749.119        -501.614          52.000    17802810.252    73914412.167        -390.101          52.000  
R07  17356412.085    92910245.880         -25.156          52.000    17356408.325    72263592.577         -19.564          51.000  
R06  19712907.881   105191973.080       -3741.822          34.000                                                                  
G27  17850738.949    93806300.493        -175.125          49.000    17850737.109    73095827.188        -136.409          48.000  
G08  19004790.402    99870927.144        1810.924          48.000    19004789.416    77821524.900        1411.233          45.000  
E04  23381194.874   122869049.358        1550.513          44.000    23381197.044    94146443.945        1187.930          50.000  
E02  24872047.509                3        948.731          25.000    24872044.609                         727.289          30.000  
E25  22557327.696   118539515.013       -1421.987          45.000    22557331.974    90829002.869       -1089.381          50.000  
E14  25633915.619   134707299.513        -480.581          44.000    25633917.851   103217255.614        -368.268          47.000  
E19  24173484.465   127032592.921        -924.517          36.000    24173483.173    97336690.540        -708.279          39.000  
E24  23714784.893   124622072.049       -3395.191          45.000    23714787.427    95489659.311       -2601.437          48.000  
G32  20132079.950   105794833.323        1692.198          47.000    20132077.996    82437564.899        1318.674          42.000  
E12  23118154.594   121486849.866       -1879.881          42.000    23118152.594    93087412.637       -1440.203          47.000  
E10  21944136.671   115317423.284       -1211.721          48.000    21944136.769    88360306.275        -928.413          53.000  
G18                                                                  23318531.205                3      -2409.054          15.000  
R14                                                                  22160051.689                3        880.969          12.000  
> 2024 04 16 08 59 30.4920000  0 27                     
G23  20890388.299   109779967.889       -3926.278          42.000    20890382.569    85542852.642       -3059.374          46.000  
G16  19729494.947   103679216.384       -3341.098          47.000                                                                  
R23  19546231.628   104559289.165        1608.075          44.000                                                                  
R13  20155326.460   107628371.160       -1831.955          37.000    20155327.600    83710941.843       -1425.344          39.000  
R21  20024202.664   107153736.077       -2566.953          46.000    20024197.886    83341864.930       -1996.381          36.000  
R08  18926767.312   101351993.800        3263.871          50.000    18926761.510    78829374.166        2538.677          46.000  
G21  21002665.280   110369708.985        1984.125          45.000                                                                  
S33  37386425.683   196467069.711        -635.500          42.000  
S31  36432775.337   191455619.031        -635.811          44.000  
E36  24419574.647   128325700.060         896.716          43.000    24419579.627    98327542.665         687.033          47.000  
G10  18222427.343    95759680.258       -2474.302          50.000    18222425.229    74617929.456       -1928.106          48.000  
E11  20774713.684   109171887.460        -306.743          45.000    20774711.589    83651247.231        -235.117          49.000  
R12  20488546.501   109446140.457       -3979.747          44.000    20488543.488    85124896.372       -3095.400          38.000  
R22  17805650.917    95047895.087        -508.015          52.000    17805647.431    73926192.357        -395.105          52.000  
R07  17356629.471    92911413.232         -52.599          52.000    17356625.542    72264500.565         -40.936          50.000  
R06  19733990.639   105304483.864       -3758.866          34.000                                                                  
G27  17851782.469    93811784.936        -190.407          49.000    17851780.376    73100100.844        -148.415          47.000  
G08  18994479.224    99816742.732        1801.410          47.000    18994478.452    77779303.334        1403.795          45.000  
E04  23372363.819   122822640.685        1543.496          44.000    23372366.281    94110884.082        1182.854          50.000  
E02  24866671.709                3        937.984          26.000    24866660.895                         718.637          27.000  
E25  22565482.127   118582366.618       -1434.946          45.000    22565486.693    90861837.167       -1099.410          51.000  
E14  25636653.583   134721687.270        -478.588          44.000    25636655.715   103228279.980        -366.621          47.000  
E19  24178799.842   127060530.533        -938.104          36.000    24178800.300    97358097.335        -718.730          39.000  
E24  23734178.496   124723982.800       -3398.874          45.000    23734180.519    95567746.743       -2604.158          48.000  
G32  20122453.716   105744249.634        1680.176          47.000    20122452.219    82398149.102        1309.192          43.000  
E12  23128886.228   121543246.805       -1880.021          42.000    23128884.560    93130625.898       -1440.500          47.000  
E10  21951057.147   115353790.080       -1212.722          48.000    21951057.056    88388171.759        -929.134          52.000  
