     3.00           OBSERVATION DATA    M: Mixed            RINEX VERSION / TYPE
CONVBIN 2.4.3                           20240416 185942 UTC PGM / RUN BY / DATE 
format: u-blox UBX                                          COMMENT             
log: /home/regis/git/gnsspwv/obsdata/VERT00CHL/2024-04-16/VECOMMENT             
{self.marker}                                               MARKER NAME         
                                                            MARKER NUMBER       
GEODETIC                                                    MARKER TYPE         
{self.observer}     {self.institution}                      OBSERVER / AGENCY   
UNKNOWN             UBLOX-ZED-F9P                           REC # / TYPE / VERS 
UNKNOWN             TWIVSP6037L                             ANT # / TYPE        
  1713381.0000 -5047934.0000 -3490983.0000                  APPROX POSITION XYZ 
        0.0000        0.0000        0.0000                  ANTENNA: DELTA H/E/N
G    8 C1C L1C D1C S1C C2L L2L D2L S2L                      SYS / # / OBS TYPES 
R    8 C1C L1C D1C S1C C2C L2C D2C S2C                      SYS / # / OBS TYPES 
E    8 C1C L1C D1C S1C C7Q L7Q D7Q S7Q                      SYS / # / OBS TYPES 
S    4 C1C L1C D1C S1C                                      SYS / # / OBS TYPES 
  2024    04    16    18    45   00.0020000     GPS         TIME OF FIRST OBS   
  2024    04    16    18    59   30.0020000     GPS         TIME OF LAST OBS    
                                                            END OF HEADER       
> 2024 04 16 18 45 00.0020000  0 25                     
G13  23556044.675   123787876.0361       1460.711          42.000                                                                  
G07  21992808.340   115573104.5761      -3488.247          50.000    21992809.290    90057026.3591      -2718.140          44.000  
G09  23433562.262   123144102.4701      -2927.375          44.000    23433571.105    95956431.3151      -2281.209          42.000  
R05  22442062.094   119965889.6541       2516.896          49.000    22442065.729    93306678.0491       1957.454          45.000  
R04  19941631.433   106786700.4591        141.885          51.000    19941631.449    83056317.4791        110.398          51.000  
R14  19761159.921   105338214.8521      -1922.381          52.000    19761164.718    81929923.9591      -1495.155          52.000  
G11  24728170.995   129947326.6821      -3396.551          42.000    24728186.631   101257649.8721      -2646.627          36.000  
E08  25738734.844   135258072.8271        833.883          45.000    25738741.249   103639357.7601        638.979          49.000  
S31  39252195.113   206271611.8181       -816.669          44.000  
S33  40203112.238   211268690.7451       -816.773          42.000  
G20  21249843.180   111668729.1481       -942.048          47.000                                                                  
E03  24184137.461   127088560.9011       -816.090          47.000    24184144.306    97379601.2071       -625.242          53.000  
R15  20859503.470   111467189.6231       2085.232          51.000    20859510.170    86696547.9111       1621.854          49.000  
R03  21529576.967   115249499.4191      -3050.214          52.000    21529580.207    89638514.2771      -2372.437          48.000  
R13  23716854.188   126646866.8791      -4906.470          37.000    23716862.265    98503091.5231      -3816.030          39.000  
E05  25332016.297   133120517.3081      -2419.928          43.000    25332030.050   102001423.2171      -1854.112          49.000  
E13  27557269.785   144814397.3881      -1786.254          39.000    27557285.026   110961689.0771      -1368.750          42.000  
G05  22833520.163   119990924.1541       1542.785          45.000    22833522.971    93499480.8291       1202.173          44.000  
E15  27603938.353   145059456.2981      -3330.600          41.000    27603961.316   111149459.6541      -2552.247          43.000  
G30  20856596.219   109602362.0671      -1601.156          49.000    20856598.045    85404560.5651      -1247.770          44.000  
G14  21494882.040   112956552.1141       1413.171          45.000    21494886.460    88018245.9871       1101.160          48.000  
E02  25198504.416   132419212.6741       1582.867          47.000    25198514.358   101464236.3911       1212.808          50.000  
G22  23355117.102   122732190.3731       2677.494          46.000                                                                  
E24  28137382.272   147862877.7691      -3140.954          44.000    28137392.655   113297780.5071      -2406.723          41.000  
E25  24662060.469   129600255.5691       -919.126          44.000    24662070.781    99304222.6401       -704.202          52.000  
> 2024 04 16 18 45 30.0020000  0 25                     
G13  23547704.267   123744047.413        1460.819          41.000                                                                  
G07  22012738.928   115677839.115       -3494.197          50.000    22012740.378    90138637.637       -2722.820          44.000  
G09  23450293.739   123232021.514       -2933.922          45.000    23450301.208    96024939.437       -2286.266          41.000  
R05  22427941.480   119890404.242        2515.199          50.000    22427945.060    93247967.266        1956.185          46.000  
R04  19940878.165   106782667.821         126.767          50.000    19940878.107    83053180.995          98.611          50.000  
R14  19772043.552   105396228.563       -1945.511          53.000    19772047.315    81975045.711       -1513.244          51.000  
G11  24747569.902   130049261.583       -3399.494          42.000    24747582.778   101337078.897       -2648.176          33.000  
E08  25733974.966   135233060.530         833.416          45.000    25733981.130   103620192.554         638.606          49.000  
S31  39256858.501   206296113.037        -816.781          44.000  
S33  40207774.641   211293191.978        -816.829          42.000  
G20  21255277.083   111697281.954        -961.647          48.000                                                                  
E03  24188806.875   127113104.031        -820.178          46.000    24188814.722    97398406.986        -628.478          53.000  
R15  20847848.533   111404906.070        2066.690          51.000    20847854.266    86648105.339        1607.419          49.000  
R03  21546710.575   115341221.131       -3064.709          51.000    21546714.832    89709853.175       -2383.740          48.000  
R13  23744429.544   126794112.636       -4909.758          37.000    23744436.235    98617615.862       -3818.779          37.000  
E05  25345840.793   133193162.392       -2423.425          43.000    25345853.835   102057086.129       -1856.910          48.000  
E13  27567501.826   144868166.807       -1798.371          38.000    27567517.307   111002888.837       -1378.009          42.000  
G05  22824750.482   119944839.535        1529.257          45.000    22824752.621    93463570.769        1191.662          43.000  
E15  27622959.536   145159406.494       -3332.699          41.000    27622981.526   111226044.133       -2553.520          42.000  
G30  20865768.534   109650562.052       -1612.380          50.000    20865770.599    85442118.976       -1256.211          43.000  
G14  21486857.458   112914386.895        1397.650          45.000    21486862.688    87985390.092        1089.136          48.000  
E02  25189492.347   132371853.376        1574.182          47.000    25189501.956   101427948.224        1206.274          50.000  
G22  23339846.905   122651947.513        2671.759          46.000                                                                  
E24  28155335.280   147957220.048       -3148.649          42.000    28155345.252   113370068.680       -2412.428          41.000  
E25  24667347.032   129628032.101        -933.013          45.000    24667356.363    99325505.926        -714.889          52.000  
> 2024 04 16 18 46 00.0020000  0 25                     
G13  23539364.128   123700223.732        1460.927          42.000                                                                  
G07  22032703.485   115782755.167       -3500.189          50.000    22032704.990    90220390.347       -2727.544          44.000  
G09  23467060.253   123320131.675       -2940.206          43.000    23467068.725    96093596.526       -2291.248          43.000  
R05  22413830.775   119814973.711        2513.328          50.000    22413834.182    93189299.157        1954.767          45.000  
R04  19940210.454   106779090.178         111.647          52.000    19940209.870    83050398.371          86.753          50.000  
R14  19783056.660   105454939.768       -1968.636          52.000    19783061.940    82020709.950       -1531.141          52.000  
G11  24766986.614   130151295.945       -3402.819          41.000    24767000.234                       -2651.577          31.000  
E08  25729217.913   135208064.199         833.023          45.000    25729224.007   103601039.561         638.372          48.000  
S31  39261520.869   206320616.918        -816.941          43.000  
S33  40212438.103   211317697.165        -816.763          42.000  
G20  21260821.131   111726422.036        -980.969          46.000                                                                  
E03  24193501.827   127137774.951        -824.386          46.000    24193509.376    97417310.651        -631.715          53.000  
R15  20836297.659   111343182.850        2048.107          51.000    20836302.925    86600098.563        1592.862          48.000  
R03  21563926.925   115433380.197       -3079.205          52.000    21563931.179    89781532.179       -2394.897          48.000  
R13  23772025.036   126941468.130       -4914.034          35.000    23772031.333    98732225.556       -3821.695          36.000  
E05  25359686.797   133265921.979       -2427.321          44.000    25359699.471   102112836.826       -1859.851          48.000  
E13  27577802.374   144922298.816       -1810.643          39.000    27577817.452   111044366.342       -1387.153          42.000  
G05  22816058.632   119899165.926        1515.661          46.000    22816060.785    93427980.996        1180.708          42.000  
E15  27641991.961   145259419.038       -3334.787          41.000    27642013.487   111302676.347       -2554.991          41.000  
G30  20875004.918   109699100.905       -1623.623          49.000    20875006.698    85479941.450       -1265.040          44.000  
G14  21478923.285   112872690.942        1381.970          45.000    21478928.058    87952899.844        1076.892          48.000  
E02  25180528.566   132324751.300        1565.720          47.000    25180539.198   101391857.180        1199.760          51.000  
G22  23324609.912   122571879.156        2666.038          46.000                                                                  
E24  28173331.473   148051793.342       -3156.323          43.000    28173341.907   113442533.926       -2418.263          40.000  
E25  24672714.662   129656235.555        -947.247          45.000    24672723.423    99347116.355        -725.858          52.000  
> 2024 04 16 18 46 30.0020000  0 25                     
G13  23531024.810   123656401.909        1460.489          41.000                                                                  
G07  22052701.852   115887847.030       -3506.064          50.000    22052702.814    90302280.008       -2731.838          44.000  
G09  23483862.336   123408429.609       -2946.437          43.000    23483871.060    96162399.874       -2295.900          42.000  
R05  22399729.020   119739597.088        2511.459          49.000    22399733.927    93130672.947        1953.396          46.000  
R04  19939626.383   106775967.111          96.513          51.000    19939626.378    83047969.311          75.077          50.000  
R14  19794200.933   105514342.360       -1991.619          52.000    19794205.722    82066911.981       -1549.068          51.000  
G11  24786420.644   130253423.088       -3406.120          36.000    24786436.379   101496164.365       -2653.011          32.000  
E08  25724464.059   135183080.741         832.546          44.000    25724470.009   103581896.437         637.768          48.000  
S31  39266183.363   206345118.841        -816.579          44.000  
S33  40217100.742   211342199.822        -816.781          42.000  
G20  21266477.319   111756145.351       -1000.439          46.000                                                                  
E03  24198220.516   127162570.763        -828.789          46.000    24198227.861    97436310.020        -634.972          53.000  
R15  20824850.708   111282018.632        2029.268          51.000    20824857.626    86552526.546        1578.417          49.000  
R03  21581225.234   115525972.806       -3093.738          52.000    21581226.563    89853548.434       -2406.128          46.000  
R13  23799639.261   127088926.188       -4917.573          33.000    23799645.956    98846914.995       -3824.588          35.000  
E05  25373552.774   133338792.923       -2430.985          43.000    25373566.686   102168672.792       -1862.777          48.000  
E13  27588172.297   144976788.235       -1822.154          36.000    27588186.859   111086117.807       -1396.437          40.000  
G05  22807445.447   119853902.103        1501.789          46.000    22807446.744    93392710.481        1170.305          42.000  
E15  27661033.763   145359488.086       -3336.387          40.000    27661056.044   111379351.915       -2556.598          40.000  
G30  20884305.523   109747973.432       -1634.687          49.000    20884306.609    85518023.938       -1273.924          44.000  
G14  21471078.264   112831462.952        1366.394          46.000    21471082.115    87920774.209        1064.691          48.000  
E02  25171613.854   132277904.520        1557.229          47.000    25171624.486   101355961.742        1193.187          51.000  
G22  23309406.739   122491984.964        2660.142          46.000                                                                  
E24  28191371.185   148146592.299       -3163.823          42.000    28191382.149   113515172.017       -2424.132          44.000  
E25  24678163.212   129684862.072        -961.371          47.000    24678170.913    99369050.941        -736.540          52.000  
> 2024 04 16 18 47 00.0020000  0 25                     
G13  23522686.889   123612588.229        1460.116          41.000                                                                  
G07  22072734.129   115993118.793       -3511.928          49.000    22072734.917    90384309.904       -2736.569          42.000  
G09  23500701.770   123496921.390       -2952.846          43.000    23500710.732    96231354.270       -2301.062          43.000  
R05  22385639.950   119664282.631        2509.496          50.000    22385645.198    93072095.125        1951.986          47.000  
R04  19939129.749   106773306.796          81.100          51.000    19939129.587    83045900.170          63.030          50.000  
R14  19805475.182   105574439.521       -2014.722          52.000    19805479.822    82113654.214       -1567.001          52.000  
G11  24805872.222   130355645.901       -3408.514          36.000    24805887.576                       -2655.449          30.000  
E08  25719713.455   135158116.565         831.914          45.000    25719719.379   103562768.096         637.499          48.000  
S31  39270846.717   206369624.858        -816.745          44.000  
S33  40221764.258   211366705.660        -816.982          43.000  
G20  21272246.024   111786457.910       -1020.122          47.000                                                                  
E03  24202963.878   127187498.163        -832.970          46.000    24202971.265    97455410.223        -638.346          53.000  
R15  20813510.888   111221422.100        2010.449          51.000    20813517.460    86505396.063        1563.641          49.000  
R03  21598604.328   115619004.035       -3108.255          52.000    21598606.424    89925905.848       -2417.535          47.000  
R13  23827273.502   127236489.589       -4920.839          32.000    23827281.860    98961686.441       -3827.307          34.000  
E05  25387442.949   133411781.586       -2434.675          44.000    25387456.180   102224598.920       -1865.607          48.000  
E13  27598609.440   145031639.876       -1834.476          37.000    27598624.211   111128146.747       -1405.630          38.000  
G05  22798911.813   119809055.934        1488.070          46.000    22798912.751    93357765.462        1159.540          42.000  
E15  27680088.131   145459617.479       -3338.744          39.000    27680111.488   111456073.686       -2558.115          40.000  
G30  20893669.489   109797184.063       -1645.865          49.000    20893671.090    85556369.898       -1282.787          44.000  
G14  21463323.657   112790711.225        1350.592          46.000    21463327.612    87889019.703        1052.222          48.000  
E02  25162749.916   132231320.606        1548.496          48.000    25162759.998   101320267.720        1186.394          51.000  
G22  23294239.197   122412273.828        2653.984          47.000                                                                  
E24  28209453.927   148241621.293       -3171.407          41.000    28209465.577   113587986.370       -2430.156          44.000  
E25  24683691.926   129713917.384        -975.626          47.000    24683700.172    99391314.090        -747.588          52.000  
> 2024 04 16 18 47 30.0020000  0 25                     
G13  23514350.326   123568784.743        1460.244          42.000                                                                  
G07  22092801.135   116098569.963       -3518.076          50.000    22092802.080    90466479.568       -2741.119          43.000  
G09  23517580.415   123585608.714       -2959.407          45.000    23517587.314    96300461.016       -2305.840          43.000  
R05  22371563.445   119589034.628        2507.296          50.000    22371568.595    93013568.967        1950.067          47.000  
R04  19938720.390   106771113.483          65.418          50.000    19938719.481    83044194.276          50.806          50.000  
R14  19816879.487   105635230.596       -2037.840          52.000    19816884.046    82160936.147       -1585.056          51.000  
G11  24825342.998   130457963.018       -3411.971          32.000    24825356.130                       -2658.607          29.000  
E08  25714966.698   135133173.760         831.168          45.000    25714973.071   103543656.146         636.970          49.000  
S31  39275511.630   206394137.296        -817.222          44.000  
S33  40226428.780   211391218.438        -816.950          43.000  
G20  21278126.608   111817361.131       -1039.865          47.000                                                                  
E03  24207732.181   127212559.493        -837.308          46.000    24207740.217    97474613.051        -641.719          53.000  
R15  20802277.691   111161397.089        1991.333          51.000    20802284.130    86458710.087        1548.842          49.000  
R03  21616065.069   115712475.771       -3123.026          52.000    21616069.382    89998605.882       -2428.991          48.000  
R13  23854927.132                       -4924.040          28.000    23854936.241    99076538.425       -3829.748          32.000  
E05  25401355.043   133484889.841       -2438.820          43.000    25401368.556   102280616.723       -1868.717          49.000  
E13  27609116.437   145086853.973       -1846.964          33.000    27609131.462   111170453.483       -1414.573          36.000  
G05  22790458.661   119764632.074        1473.857          46.000    22790459.867    93323149.498        1148.504          42.000  
E15  27699151.878   145559806.577       -3340.521          37.000    27699177.624   111532841.207       -2559.630          40.000  
G30  20903097.905   109846732.857       -1657.226          49.000    20903100.255    85594979.329       -1291.270          44.000  
G14  21455660.027   112750439.676        1334.430          45.000    21455664.233    87857639.365        1039.850          48.000  
E02  25153936.044   132185002.735        1539.584          48.000    25153945.484   101284777.526        1179.693          51.000  
G22  23279105.342   122332749.721        2647.730          47.000                                                                  
E24  28227581.208   148336880.174       -3179.060          41.000    28227592.755   113660976.893       -2435.872          44.000  
E25  24689302.307   129743402.789        -989.863          47.000    24689311.232    99413906.801        -758.486          52.000  
> 2024 04 16 18 48 00.0020000  0 25                     
G13  23506016.025   123524986.765        1459.679          43.000                                                                  
G07  22112900.237   116204193.225       -3523.599          50.000    22112902.005    90548783.341       -2745.983          44.000  
G09  23534493.688   123674486.680       -2965.655          43.000    23534500.563    96369716.332       -2310.959          42.000  
R05  22357499.259   119513850.548        2504.887          50.000    22357504.088    92955092.581        1948.235          46.000  
R04  19938398.243   106769384.839          49.814          51.000    19938397.405    83042849.762          38.762          51.000  
R14  19828414.280   105696708.264       -2060.780          53.000    19828417.252    82208752.093       -1602.716          52.000  
G11  24844832.132   130560366.417       -3415.119          35.000    24844840.351                1      -2661.114          29.000  
E08  25710222.797   135108247.852         830.509          44.000    25710229.688   103524557.152         636.453          48.000  
S31  39280176.055   206418650.924        -817.375          44.000  
S33  40231094.223   211415733.846        -817.201          42.000  
G20  21284118.219   111848849.886       -1059.500          47.000                                                                  
E03  24212526.395   127237750.484        -841.868          46.000    24212533.823    97493915.228        -645.161          53.000  
R15  20791150.788   111101940.650        1972.211          51.000    20791157.228    86412466.361        1534.023          49.000  
R03  21633608.197   115806382.118       -3137.598          51.000    21633612.020    90071643.903       -2440.397          48.000  
R13  23882598.657                       -4926.923          27.000    23882607.058                       -3832.409          28.000  
E05  25415289.345   133558113.107       -2442.782          43.000    25415303.381   102336722.642       -1871.711          49.000  
E13  27619692.121   145142424.110       -1858.302          34.000    27619706.515   111213032.949       -1424.126          33.000  
G05  22782084.399   119720627.630        1459.837          46.000    22782086.256    93288860.377        1137.310          44.000  
E15  27718227.329   145660048.162       -3342.400          37.000    27718254.048   111609648.977       -2560.942          41.000  
G30  20912589.843   109896613.258       -1668.183          49.000    20912592.518    85633847.164       -1299.892          44.000  
G14  21448087.232   112710645.559        1318.298          46.000    21448091.419    87826631.087        1027.301          48.000  
E02  25145171.107   132138947.539        1530.688          47.000    25145181.893   101249488.621        1172.783          51.000  
G22  23264007.072   122253411.010        2641.395          46.000                                                                  
E24  28245750.247   148432362.356       -3186.523          41.000    28245762.435   113734138.515       -2441.601          44.000  
E25  24694994.792   129773313.047       -1004.048          47.000    24695002.905    99436825.027        -769.396          52.000  
> 2024 04 16 18 48 30.0020000  0 25                     
G13  23497682.705   123481190.003        1459.777          42.000                                                                  
G07  22133031.552   116309981.952       -3528.960          50.000    22133033.123    90631216.044       -2749.796          44.000  
G09  23551440.299   123763550.481       -2971.713          41.000    23551449.676    96439116.499       -2315.818          43.000  
R05  22343445.227   119438728.467        2503.055          49.000    22343450.170    92896664.408        1946.798          47.000  
R04  19938161.137   106768118.446          34.598          51.000    19938160.480    83041864.799          26.896          50.000  
R14  19840073.434   105758864.298       -2083.156          52.000    19840077.292    82257095.665       -1620.280          51.000  
G11  24864335.128   130662848.098       -3417.331          32.000    24864347.192                       -2662.714          31.000  
E08  25705481.190   135083334.371         830.242          44.000    25705488.996   103505467.706         636.190          48.000  
S31  39284840.659   206443160.984        -816.950          44.000  
S33  40235758.416   211440243.595        -817.103          43.000  
G20  21290221.427   111880918.801       -1078.510          48.000                                                                  
E03  24217343.970   127263066.941        -846.040          46.000    24217351.444    97513313.541        -648.234          53.000  
R15  20780131.128   111043050.337        1953.599          51.000    20780134.961    86366663.005        1519.500          47.000  
R03  21651229.883   115900717.841       -3151.623          51.000    21651233.890    90145015.854       -2451.240          47.000  
R13  23910287.064                       -4929.290          27.000    23910295.937                3      -3834.748          25.000  
E05  25429242.647   133631446.753       -2446.226          42.000    25429258.236   102392913.181       -1874.483          49.000  
E13  27630332.276   145198343.958       -1870.103          30.000    27630347.470   111255880.379       -1432.033          32.000  
G05  22773789.595   119677040.320        1446.116          46.000    22773791.770    93254896.290        1126.630          43.000  
E15  27737313.460   145760335.223       -3343.878          38.000    27737338.870   111686491.550       -2561.986          42.000  
G30  20922143.411   109946818.766       -1678.859          49.000    20922146.146    85672968.322       -1308.143          44.000  
G14  21440605.576   112671326.362        1302.704          46.000    21440609.213    87795992.845        1015.204          48.000  
E02  25136456.859   132093151.666        1522.216          48.000    25136467.130   101214398.418        1166.409          52.000  
G22  23248943.715   122174255.307        2635.480          46.000                                                                  
E24  28263961.955   148528061.168       -3193.532          40.000    28263973.773   113807466.123       -2447.113          44.000  
E25  24700765.765   129803642.929       -1017.986          47.000    24700774.414    99460064.776        -780.080          52.000  
> 2024 04 16 18 49 00.0020000  0 25                     
G13  23489349.743   123437396.588        1459.936          43.000                                                                  
G07  22153193.631   116415935.673       -3534.451          50.000    22153195.020    90713777.316       -2754.142          42.000  
G09  23568424.687   123852802.188       -2977.991          43.000    23568433.048    96508663.070       -2320.481          42.000  
R05  22329404.051   119363672.016        2500.850          49.000    22329408.823    92838287.294        1945.036          47.000  
R04  19938012.120   106767318.550          19.004          51.000    19938011.735    83041242.649          14.773          50.000  
R14  19851860.561   105821698.173       -2105.771          52.000    19851865.334    82305966.433       -1637.677          52.000  
G11  24883854.178   130765406.784       -3420.273          34.000    24883850.336                3      -2665.958          19.000  
E08  25700743.786   135058435.800         829.796          44.000    25700750.769   103486389.648         635.905          48.000  
S31  39289504.407   206467668.574        -816.781          44.000  
S33  40240422.427   211464752.405        -816.797          43.000  
G20  21296435.235   111913569.426       -1097.882          48.000                                                                  
E03  24222186.950   127288511.481        -850.158          47.000    24222193.191    97532809.996        -651.433          52.000  
R15  20769216.463   110984730.432        1934.556          51.000    20769221.252    86321303.274        1504.706          47.000  
R03  21668934.703   115995484.502       -3165.977          52.000    21668937.250    90218723.040       -2462.354          47.000  
R13  23937985.678                3      -4931.293          25.000    23937992.466                3      -3830.722          21.000  
E05  25443220.306   133704893.245       -2450.147          43.000    25443234.856   102449190.122       -1877.250          49.000  
E13  27641039.913                       -1882.081          29.000    27641056.640   111298996.191       -1441.749          32.000  
G05  22765574.527   119633874.489        1431.862          45.000    22765577.482    93221260.639        1115.775          43.000  
E15  27756407.691   145860667.356       -3344.929          38.000    27756432.182   111763368.698       -2563.004          42.000  
G30  20931759.688   109997349.732       -1689.619          49.000    20931761.836    85712343.108       -1316.729          44.000  
G14  21433213.753   112632486.161        1286.719          45.000    21433218.220    87765727.860        1002.741          49.000  
E02  25127791.566   132047618.648        1513.529          47.000    25127801.996   101179509.634        1159.677          51.000  
G22  23233916.513   122095287.530        2629.135          46.000                                                                  
E24  28282213.954   148623976.841       -3200.824          41.000    28282225.589   113880959.880       -2452.507          44.000  
E25  24706617.626   129834394.025       -1031.980          47.000    24706625.999    99483627.277        -790.692          53.000  
> 2024 04 16 18 49 30.0020000  0 25                     
G13  23481018.546   123393615.209        1459.083          43.000                                                                  
G07  22173389.307   116522060.460       -3540.292          51.000    22173389.642    90796471.892       -2758.666          43.000  
G09  23585447.051   123942250.040       -2985.021          43.000    23585453.886    96578362.507       -2325.902          41.000  
R05  22315376.363   119288693.021        2498.009          47.000    22315381.976    92779970.453        1942.876          48.000  
R04  19937951.180   106766996.084           2.765          51.000    19937951.303    83040991.838           2.189          50.000  
R14  19863775.363   105885215.458       -2128.601          52.000    19863780.719    82355368.767       -1655.648          51.000  
E08  25696010.859   135033560.811         828.771          44.000    25696017.038   103467329.675         635.083          48.000  
S31  39294169.079   206492182.660        -817.377          44.000  
S33  40245087.336   211489266.598        -817.206          42.000  
G20  21302760.026   111946809.696       -1117.828          47.000                                                                  
E03  24227054.533   127314093.051        -854.929          46.000    24227061.217    97552411.443        -655.108          53.000  
R15  20758411.494   110926991.497        1914.955          51.000    20758416.124    86276395.382        1489.388          48.000  
R03  21686719.877   116090689.662       -3180.841          52.000    21686722.876    90292771.272       -2473.729          47.000  
R13  23965715.004                3      -4933.742          25.000    23965714.825                3      -3831.133          25.000  
E05  25457219.938   133778460.939       -2454.172          42.000    25457233.808   102505559.969       -1880.424          47.000  
E13  27651816.309                1      -1893.728          26.000    27651832.565                       -1450.469          31.000  
G05  22757442.125   119591140.016        1417.149          45.000    22757445.500    93187961.101        1104.485          43.000  
E15  27775510.225   145961050.621       -3346.855          38.000    27775534.754   111840285.016       -2564.361          41.000  
G30  20941438.997   110048212.751       -1700.844          50.000    20941441.315    85751976.614       -1325.463          45.000  
G14  21425915.724   112594135.372        1270.325          46.000    21425919.666    87735844.257         989.679          48.000  
E02  25119179.224   132002358.267        1504.087          47.000    25119188.758   101144829.729        1152.487          51.000  
G22  23218927.600   122016518.433        2622.283          47.000                                                                  
E24  28300508.429   148720115.870       -3208.318          40.000    28300520.297   113954624.773       -2458.422          44.000  
E25  24712550.505   129865574.186       -1046.383          46.000    24712559.549    99507518.540        -801.723          53.000  
G11                                                                  24903418.483                       -2667.726          27.000  
> 2024 04 16 18 50 00.0020000  0 25                     
G13  23472688.688   123349843.830        1459.292          42.000                                                                  
G07  22193615.723   116628352.443       -3545.688          50.000    22193616.198    90879296.769       -2762.947          42.000  
G09  23602504.570   124031891.549       -2991.083          43.000    23602513.217    96648212.790       -2330.770          42.000  
R05  22301363.782   119213791.068        2495.674          45.000    22301369.848    92721713.537        1941.096          46.000  
R04  19937979.795   106767151.104         -13.051          50.000    19937980.169    83041112.413         -10.034          50.000  
R14  19875818.691   105949411.005       -2150.979          53.000    19875823.677    82405298.625       -1672.910          51.000  
G11  24922936.903   130970870.2471      -3424.391          32.000    24922953.924                1      -2668.942          27.000  
E08  25691281.648   135008707.345         828.203          44.000    25691287.524   103448286.221         634.661          48.000  
S31  39298834.643   206516700.676        -816.875          44.000  
S33  40249753.461   211513785.825        -817.130          42.000  
G20  21309197.021   111980637.062       -1137.189          46.000                                                                  
E03  24231947.582   127339809.842        -859.336          45.000    24231955.104    97572116.504        -658.462          53.000  
R15  20747714.709   110869832.983        1895.836          52.000    20747720.483    86231938.935        1474.547          49.000  
R03  21704585.618   116186330.715       -3195.168          51.000    21704588.969    90367158.572       -2485.294          47.000  
R13  23993460.337                3      -4943.316          22.000    23993447.876                3      -3844.336          23.000  
E05  25471242.882   133852147.706       -2457.980          42.000    25471256.475   102562021.053       -1883.395          48.000  
E13  27662661.312                       -1904.680          28.000    27662675.070                       -1459.426          28.000  
G05  22749392.944   119548837.305        1403.000          46.000    22749396.046    93154998.036        1093.187          44.000  
E15  27794623.981   146061480.337       -3348.298          38.000    27794646.615   111917236.914       -2565.230          39.000  
G30  20951180.070   110099403.724       -1711.617          49.000    20951182.132    85791865.659       -1333.710          44.000  
G14  21418711.613   112556273.696        1253.992          47.000    21418714.750    87706341.775         977.161          48.000  
E02  25110618.015   131957369.461        1495.246          47.000    25110627.577   101110357.928        1145.649          51.000  
G22  23203976.366   121937948.549        2615.832          47.000                                                                  
E24  28318845.237   148816473.978       -3215.286          42.000    28318856.806   114028457.551       -2463.736          45.000  
E25  24718564.608   129897180.540       -1060.423          46.000    24718574.131    99531736.394        -812.549          53.000  
> 2024 04 16 18 50 30.0020000  0 25                     
G13  23464360.103   123306080.015        1458.663          42.000                                                                  
G07  22213873.545   116734806.345       -3550.962          50.000    22213874.205    90962247.789       -2767.210          42.000  
G09  23619599.962   124121723.824       -2997.462          44.000    23619608.124    96718211.700       -2335.847          42.000  
R05  22287365.248   119138965.809        2492.879          46.000    22287372.252    92663516.253        1938.848          47.000  
R04  19938098.696   106767783.039         -28.963          50.000    19938098.189    83041603.907         -22.495          50.000  
R14  19887988.826   106014278.965       -2173.330          53.000    19887992.704    82455751.500       -1690.388          51.000  
G11  24942492.573                       -3427.718          28.000    24942522.804                       -2670.798          27.000  
E08  25686556.740   134983873.032         827.620          46.000    25686561.522   103429257.422         634.146          48.000  
S31  39303500.194   206541218.583        -817.382          44.000  
S33  40254419.155   211538304.241        -817.434          42.000  
G20  21315745.282   112015048.181       -1156.775          47.000                                                                  
E03  24236865.976   127365659.646        -863.786          45.000    24236874.107    97591923.479        -661.866          53.000  
R15  20737127.566   110813254.204        1876.304          52.000    20737132.422    86187933.366        1459.372          49.000  
R03  21722532.805   116282404.050       -3209.568          50.000    21722535.807    90441882.068       -2496.388          47.000  
R13  24021208.031                3      -4937.471          20.000    24021194.536                3      -3843.199          24.000  
E05  25485287.607   133925950.918       -2462.020          43.000    25485301.442   102618571.350       -1886.387          48.000  
E13  27673567.663                3      -1917.461          25.000    27673583.158                3      -1467.606          25.000  
G05  22741425.010   119506965.606        1388.647          47.000    22741428.546    93122370.797        1081.985          45.000  
E15  27813740.737   146161951.290       -3349.827          36.000    27813766.167   111994220.449       -2566.619          40.000  
G30  20960983.054   110150918.161       -1722.301          49.000    20960985.030    85832006.772       -1342.009          45.000  
G14  21411599.771   112518900.431        1237.689          47.000    21411602.678    87677219.879         964.404          48.000  
E02  25102107.699   131912650.943        1486.382          47.000    25102117.725   101076093.219        1138.816          51.000  
G22  23189063.367   121859578.195        2608.984          48.000                                                                  
E24  28337222.531   148913046.573       -3222.577          41.000    28337234.308   114102454.679       -2469.354          45.000  
E25  24724660.274   129929209.791       -1074.547          47.000    24724668.795    99556278.274        -823.438          52.000  
> 2024 04 16 18 51 00.0020000  0 26                     
G13  23456032.692   123262322.091        1458.624          41.000                                                                  
G07  22234161.412   116841418.291       -3556.468          50.000    22234161.676    91045321.956       -2771.206          42.000  
G09  23636731.235   124211745.018       -3003.772          46.000    23636737.844    96788357.851       -2340.502          41.000  
R05  22273382.961   119064218.049        2490.192          48.000    22273389.430    92605379.226        1936.880          48.000  
R04  19938305.286   106768892.282         -44.962          49.000    19938305.467    83042466.677         -35.014          50.000  
R14  19900282.558   106079814.563       -2195.590          53.000    19900287.017    82506723.615       -1707.678          51.000  
G11  24962061.869   131176512.026       -3429.279          29.000    24962078.290                3      -2679.596          21.000  
E08  25681833.360   134959056.389         826.961          46.000    25681839.072   103410242.177         633.625          48.000  
S31  39308165.503   206565735.837        -817.169          43.000  
S33  40259085.030   211562822.611        -817.286          42.000  
G20  21322404.621   112050040.869       -1176.172          47.000                                                                  
E03  24241809.999   127391641.276        -868.301          45.000    24241818.465    97611831.462        -665.263          53.000  
R15  20726648.670   110757255.324        1856.856          52.000    20726652.567    86144378.858        1444.317          49.000  
R03  21740561.517   116378906.880       -3224.000          52.000    21740565.470    90516939.604       -2507.491          48.000  
R13  24048968.289                3      -4944.544          22.000    24048966.297                3      -3846.466          25.000  
E05  25499350.950   133999869.006       -2465.790          40.000    25499366.763   102675209.681       -1889.507          47.000  
G05  22733539.029   119465525.283        1374.089          47.000    22733542.450    93090079.679        1070.796          45.000  
E15  27832867.479   146262459.426       -3350.291          34.000    27832892.606   112071232.419       -2567.269          39.000  
G30  20970846.492   110202752.538       -1733.177          49.000    20970849.007    85872397.199       -1350.659          44.000  
G14  21404580.999   112482015.984        1221.277          46.000    21404583.093    87648478.861         951.672          47.000  
E02  25093649.766   131868202.326        1477.102          47.000    25093659.256   101042035.318        1131.774          50.000  
G22  23174187.520   121781408.241        2602.233          47.000                                                                  
E24  28355640.111   149009829.996       -3229.539          39.000    28355651.643   114176613.336       -2474.622          45.000  
E25  24730836.337   129961659.648       -1088.603          47.000    24730843.631    99581142.430        -834.120          52.000  
E13                                                                  27684559.996                       -1477.069          23.000  
R16                                                                  26663069.780                3       2949.252          14.000  
> 2024 04 16 18 51 30.0020000  0 25                     
G13  23447706.053   123218568.854        1459.057          40.000                                                                  
G07  22254478.050   116948184.415       -3560.951          50.000    22254479.448    91128516.256       -2774.777          43.000  
G09  23653896.014   124301953.437       -3009.479          44.000    23653905.050    96858649.850       -2345.403          41.000  
R05  22259415.261   118989548.418        2488.142          49.000    22259420.825    92547302.981        1935.316          48.000  
R04  19938601.472   106770479.709         -60.432          49.000    19938601.584    83043701.340         -47.048          49.000  
R14  19912700.893   106146013.238       -2217.230          52.000    19912705.538    82558211.461       -1724.539          51.000  
G11  24981642.274                1      -3431.107          30.000    24981681.074   102295737.1121      -2673.675          33.000  
E08  25677113.898   134934256.087         826.882          46.000    25677119.238   103391239.426         633.630          48.000  
S31  39312830.562   206590249.678        -816.679          43.000  
S33  40263750.006   211587338.230        -816.366          42.000  
G20  21329173.661   112085612.134       -1194.812          47.000                                                                  
E03  24246779.209   127417753.563        -871.983          45.000    24246787.555    97631839.558        -668.217          53.000  
R15  20716277.490   110701836.790        1838.071          52.000    20716281.736    86101275.700        1429.580          50.000  
R03  21758668.753   116475836.999       -3237.770          51.000    21758673.238    90592329.450       -2518.263          48.000  
R13  24076739.073                3      -4944.703          21.000    24076725.779                3      -3843.586          18.000  
E05  25513440.972   134073900.437       -2469.044          43.000    25513454.274   102731934.869       -1891.832          46.000  
G05  22725735.509   119424517.112        1360.172          47.000    22725738.681    93058125.298        1059.900          45.000  
E15  27851998.003   146363000.603       -3350.855          33.000    27852025.381   112148269.778       -2567.502          38.000  
G30  20980770.451   110254903.373       -1743.116          49.000    20980773.040    85913034.206       -1358.284          45.000  
G14  21397654.357   112445620.387        1205.402          45.000    21397657.148    87620118.759         939.331          47.000  
E02  25085243.534   131824023.200        1468.579          47.000    25085252.009   101008183.886        1125.410          50.000  
G22  23159350.247   121703439.264        2596.211          47.000                                                                  
E24  28374097.021   149106820.687       -3235.950          39.000    28374108.383   114250930.789       -2479.556          44.000  
E25  24737091.280   129994527.767       -1101.970          48.000    24737098.060    99606327.089        -844.425          52.000  
E13                                                                  27695598.619                3      -1475.707          20.000  
> 2024 04 16 18 52 00.0020000  0 25                     
G13  23439381.192   123174819.374        1458.151          40.000                                                                  
G07  22274824.178   117055101.363       -3566.532          50.000    22274825.075    91211828.083       -2779.045          42.000  
G09  23671097.372   124392347.930       -3016.282          44.000    23671107.286    96929086.845       -2350.420          42.000  
R05  22245461.675   118914958.563        2484.818          49.000    22245467.211    92489288.786        1932.663          48.000  
R04  19938988.402   106772546.481         -76.974          50.000    19938986.966    83045308.822         -59.898          49.000  
R14  19925242.433   106212871.072       -2239.646          51.000    19925247.542    82610212.002       -1741.964          51.000  
G11  25001244.647   131382386.2281      -3433.129          35.000    25001270.449                       -2675.689          28.000  
E08  25672397.340   134909471.547         825.831          46.000    25672402.619   103372248.747         632.716          47.000  
S31  39317494.693   206614759.519        -817.083          43.000  
S33  40268414.282   211611848.673        -817.140          42.000  
G20  21336052.191   112121760.910       -1214.618          46.000                                                                  
E03  24251773.547   127443996.105        -877.073          45.000    24251781.390    97651947.469        -672.053          53.000  
R15  20706014.986   110646999.332        1818.013          52.000    20706019.434    86058624.506        1414.089          49.000  
R03  21776855.434   116573193.054       -3252.396          51.000    21776860.025    90668050.574       -2529.510          47.000  
R13  24104524.415                3      -4950.921          22.000    24104537.089                3      -3850.438          18.000  
E05  25527548.757   134148044.441       -2473.475          41.000    25527563.944   102788746.301       -1895.170          46.000  
G05  22718014.117   119383941.679        1345.131          46.000    22718017.109    93026508.147        1048.282          44.000  
E15  27871143.934   146463571.528       -3352.616          34.000    27871164.042   112225329.924       -2569.372          38.000  
G30  20990754.430   110307367.964       -1754.109          49.000    20990756.710    85953915.689       -1366.797          45.000  
G14  21390820.925   112409714.743        1188.617          46.000    21390824.715    87592140.461         926.147          48.000  
E02  25076887.894   131780114.005        1459.001          47.000    25076896.451   100974539.323        1117.916          50.000  
G22  23144551.555   121625673.083        2588.617          47.000                                                                  
E24  28392592.811   149204015.821       -3243.549          38.000    28392604.258   114325404.878       -2485.081          43.000  
E25  24743424.410   130027812.653       -1116.556          48.000    24743431.707    99631831.092        -855.475          52.000  
E13                                                                  27706703.142                3      -1495.590          21.000  
> 2024 04 16 18 52 30.0020000  0 26                     
G13  23431058.255   123131080.104        1457.927          40.000                                                                  
G07  22295198.628   117162173.145       -3571.396          49.000    22295200.663    91295260.566       -2782.980          42.000  
G09  23688336.100   124482934.432       -3022.604          45.000    23688344.991    96999673.466       -2355.219          42.000  
R05  22231524.910   118840457.340        2482.270          49.000    22231529.384    92431343.519        1930.663          47.000  
R16  23613201.998                3       3301.535          11.000                                                                  
R04  19939465.706   106775101.169         -93.028          50.000    19939464.874    83047295.789         -72.384          50.000  
R14  19937909.752   106280390.743       -2261.291          52.000    19937914.211    82662727.299       -1758.859          51.000  
G11  25020850.422   131485416.652       -3435.109          34.000    25020872.134                       -2676.215          29.000  
E08  25667685.277   134884709.229         825.217          46.000    25667690.424   103353275.092         632.365          48.000  
S31  39322159.456   206639271.039        -816.767          44.000  
S33  40273078.758   211636360.750        -816.658          42.000  
G20  21343041.679   112158492.641       -1233.911          46.000                                                                  
E03  24256793.446   127470375.631        -881.449          45.000    24256801.278    97672160.328        -675.357          52.000  
R15  20695863.403   110592751.300        1798.673          52.000    20695867.524    86016431.747        1399.017          49.000  
R03  21795123.383   116670980.124       -3266.510          51.000    21795125.971    90744106.926       -2540.572          47.000  
R13  24132325.850                3      -4951.994          12.000    24132333.388                3      -3852.745          21.000  
E05  25541682.481   134222307.332       -2477.085          43.000    25541695.981   102845648.806       -1897.956          46.000  
G05  22710377.355   119343807.475        1330.796          47.000    22710379.546    92995234.803        1036.815          44.000  
E15  27890285.246   146564175.935       -3353.452          32.000    27890309.783   112302415.695       -2569.579          39.000  
G30  21000798.580   110360150.683       -1764.528          49.000    21000801.264    85995045.072       -1374.884          45.000  
G14  21384083.344   112374307.190        1172.040          46.000    21384086.942    87564550.296         913.397          47.000  
E02  25068583.652   131736482.217        1449.906          46.000    25068593.106   100941107.319        1111.034          50.000  
G22  23129793.280   121548118.760        2581.747          47.000                                                                  
E24  28411128.770   149301419.535       -3249.909          38.000    28411139.466   114400038.847       -2490.340          43.000  
E25  24749838.133   130061519.875       -1130.363          47.000    24749846.181    99657658.705        -866.133          52.000  
E13                                                                  27717874.758                       -1503.259          27.000  
> 2024 04 16 18 53 00.0020000  0 26                     
G13  23422737.793   123087351.408        1457.307          42.000                                                                  
G07  22315602.763   117269397.562       -3576.745          48.000    22315603.941    91378811.968       -2787.037          42.000  
G09  23705611.375   124573712.748       -3029.383          45.000    23705620.412    97070409.543       -2360.620          42.000  
R05  22217603.672   118766047.106        2478.769          48.000    22217608.869    92373469.023        1927.961          48.000  
R04  19940034.648   106778145.859        -109.809          51.000    19940033.823    83049663.874         -85.391          50.000  
R14  19950700.945   106348569.422       -2283.622          52.000    19950704.497    82715755.142       -1776.206          51.000  
G11  25040471.186   131588544.1021      -3437.399          32.000    25040487.307                1      -2677.415          30.000  
E08  25662977.308   134859969.399         824.086          46.000    25662982.314   103334318.664         631.551          47.000  
S31  39326823.613   206663783.968        -817.069          42.000  
S33  40277743.978   211660874.376        -817.035          43.000  
G20  21350142.209   112195806.610       -1253.558          45.000                                                                  
E03  24261840.584   127496892.560        -886.401          46.000    24261847.132    97692478.482        -679.181          52.000  
R15  20685821.562   110539094.475        1778.566          52.000    20685825.432    85974698.789        1383.301          48.000  
R03  21813471.655   116769197.500       -3281.217          51.000    21813475.179    90820497.982       -2551.934          48.000  
R13  24160143.467                3      -4951.219          20.000    24160144.706                3      -3850.699          21.000  
E05  25555835.817   134296689.025       -2481.565          42.000    25555850.783   102902642.379       -1901.370          46.000  
G05  22702824.625   119304116.642        1315.513          48.000    22702826.803    92964306.922        1025.176          44.000  
E15  27909427.114                       -3355.096          29.000    27909461.543   112379525.225       -2570.647          40.000  
G30  21010903.356   110413249.618       -1775.288          50.000    21010905.841    86036420.860       -1383.425          46.000  
G14  21377440.514   112339399.479        1155.170          47.000    21377443.935    87537349.608         900.104          48.000  
E02  25060334.485   131693129.081        1440.365          47.000    25060343.184   100907888.817        1103.641          50.000  
G22  23115075.365   121470778.554        2574.380          46.000                                                                  
E24  28429704.664   149399029.966       -3257.002          37.000    28429714.083   114474831.183       -2495.928          42.000  
E25  24756331.788   130095648.633       -1144.719          47.000    24756340.813    99683809.326        -877.191          52.000  
E13                                                                  27729111.299                       -1512.310          28.000  
R20                                                                  25118477.225                3      -2576.375          12.000  
> 2024 04 16 18 53 30.0020000  0 25                     
G13  23414419.761   123043642.186        1456.159          42.000                                                                  
G07  22336036.979   117376781.214       -3582.181          49.000    22336039.439    91462487.422       -2791.223          41.000  
G09  23722924.222   124664691.571       -3036.036          46.000    23722932.659    97141301.883       -2365.616          41.000  
R05  22203702.647   118691739.509        2475.033          49.000    22203707.817    92315674.356        1925.073          46.000  
R04  19940696.348   106781691.868        -126.574          51.000    19940695.671    83052421.853         -98.521          50.000  
R14  19963615.114   106417413.078       -2305.869          52.000    19963619.535    82769300.177       -1793.493          50.000  
G11  25060097.216   131691692.402       -3439.503          35.000    25060115.728                       -2679.251          31.000  
E08  25658274.716   134835261.255         822.893          46.000    25658280.958   103315386.530         630.568          48.000  
S31  39331490.350   206688306.807        -817.408          43.000  
S33  40282410.938   211685398.852        -817.706          42.000  
G20  21357356.574   112233710.887       -1273.389          46.000                                                                  
E03  24266913.877   127523556.300        -891.383          46.000    24266920.837    97712909.115        -683.018          52.000  
R15  20675892.527   110486039.589        1758.328          51.000    20675897.392    85933434.016        1367.568          48.000  
R03  21831901.113   116867853.303       -3295.867          51.000    21831905.676    90897230.022       -2563.434          48.000  
R13  24187975.272                3      -4965.456          15.000    24187957.571                3      -3857.297          19.000  
E05  25570015.222   134371198.634       -2485.969          42.000    25570030.091   102959733.918       -1904.751          48.000  
G05  22695357.736   119264880.091        1300.120          47.000    22695360.726    92933733.026        1013.129          45.000  
E15  27928590.696                       -3356.177          30.000    27928619.359   112456663.498       -2571.724          39.000  
G30  21021069.264   110466671.868       -1786.256          50.000    21021071.063    86078048.563       -1391.761          45.000  
G14  21370895.828   112305002.426        1137.854          47.000    21370898.349    87510546.807         886.780          48.000  
E02  25052140.020   131650064.741        1430.605          48.000    25052147.980   100874891.605        1096.102          50.000  
G22  23100401.184   121393664.355        2566.643          45.000                                                                  
E24  28448317.882   149496853.977       -3264.037          32.000    28448329.521   114549787.108       -2501.024          41.000  
E25  24762909.222   130130207.218       -1159.153          48.000    24762917.237    99710289.271        -888.204          52.000  
E13                                                                  27740412.971                3      -1522.076          22.000  
> 2024 04 16 18 54 00.0020000  0 25                     
G13  23406107.800   122999964.396        1455.346          42.000                                                                  
G07  22356503.541   117484333.473       -3587.778          48.000    22356506.015    91546294.350       -2795.518          42.000  
G09  23740276.950   124755882.074       -3043.211          44.000    23740285.306    97212359.142       -2371.302          41.000  
R05  22189823.066   118617548.139        2471.096          48.000    22189828.930    92257970.112        1921.896          47.000  
R04  19941454.939   106785753.008        -143.999          51.000    19941453.865    83055580.517        -111.918          50.000  
R14  19976654.734   106486930.104       -2328.487          51.000    19976660.383    82823368.990       -1810.976          51.000  
G11  25079739.155   131794910.458       -3442.024          35.000    25079757.547                       -2681.434          29.000  
E08  25653580.829   134810596.499         821.374          46.000    25653587.406   103296487.632         629.468          48.000  
S31  39336161.040   206712850.496        -818.374          44.000  
S33  40287081.524   211709944.428        -818.449          42.000  
G20  21364682.967   112272216.031       -1293.597          46.000                                                                  
E03  24272018.226   127550378.709        -896.699          46.000    24272025.095    97733461.346        -687.154          52.000  
R15  20666078.486   110433600.015        1737.632          51.000    20666083.811    85892647.820        1351.489          48.000  
R03  21850415.691   116966958.294       -3310.983          52.000    21850420.121    90974311.447       -2575.127          48.000  
R13  24215810.022                3      -4956.923          13.000    24215801.494                3      -3848.616          19.000  
E05  25584221.268   134445847.482       -2490.691          43.000    25584235.105   103016932.153       -1908.425          47.000  
G05  22687980.046   119226111.484        1284.406          48.000    22687982.622    92903523.767        1000.964          44.000  
E15  27947757.174                       -3356.535          30.000    27947786.726   112533837.385       -2573.102          37.000  
G30  21031298.600   110520426.968       -1797.334          49.000    21031300.946    86119935.667       -1400.650          45.000  
G14  21364449.556   112271129.167        1120.325          47.000    21364452.978    87484152.165         872.937          48.000  
E02  25044001.463   131607301.839        1420.509          47.000    25044010.493   100842125.362        1088.329          50.000  
G22  23085771.707   121316789.682        2558.547          45.000                                                                  
E24  28466976.278   149594900.986       -3272.154          34.000    28466987.311   114624913.988       -2507.166          41.000  
E25  24769570.141   130165206.241       -1173.898          48.000    24769577.424    99737106.720        -899.471          52.000  
E13                                                                  27751782.846                3      -1528.281          23.000  
> 2024 04 16 18 54 30.0020000  0 25                     
G13  23397800.735   122956315.095        1454.403          42.000                                                                  
G07  22377001.580   117592049.371       -3593.374          48.000    22377003.279    91630228.720       -2800.037          42.000  
G09  23757670.233   124847281.133       -3050.206          44.000    23757679.573    97283578.876       -2376.499          42.000  
R05  22175966.387   118543473.341        2467.084          48.000    22175971.572    92200356.498        1918.881          47.000  
R04  19942308.880   106790328.247        -161.075          51.000    19942308.171    83059139.038        -125.307          50.000  
R14  19989821.888   106557113.910       -2350.689          52.000    19989826.933    82877956.400       -1828.260          51.000  
G11  25099393.210   131898192.140       -3443.949          36.000    25099409.826                       -2683.300          26.000  
E08  25648894.946   134785972.499         819.908          46.000    25648901.604   103277619.954         628.286          48.000  
S31  39340835.318   206737412.579        -818.991          44.000  
S33  40291756.073   211734506.753        -819.287          42.000  
G20  21372123.849   112311318.198       -1313.501          47.000                                                                  
E03  24277152.183   127577357.349        -902.053          46.000    24277158.998    97754133.280        -691.172          52.000  
R15  20656380.194   110381774.296        1717.095          51.000    20656385.206    85852339.080        1335.573          48.000  
R03  21869014.793   117066508.757       -3325.771          52.000    21869016.911    91051739.369       -2586.714          48.000  
E05  25598452.232   134520632.759       -2495.116          43.000    25598466.282   103074234.942       -1911.912          47.000  
G05  22680691.075   119187809.381        1268.853          48.000    22680694.042    92873678.008         988.778          44.000  
E15  27966930.334   146966964.421       -3359.923          32.000    27966960.758   112611042.741       -2574.254          36.000  
G30  21041590.289   110574510.125       -1808.309          50.000    21041592.548    86162078.376       -1409.003          45.000  
G14  21358102.816   112237778.580        1102.893          46.000    21358106.196    87458164.810         859.393          48.000  
E02  25035921.302   131564838.694        1410.354          47.000    25035929.653   100809588.813        1080.600          50.000  
G22  23071188.891   121240154.380        2550.467          47.000                                                                  
E24  28485674.754   149693166.052       -3279.336          32.000    28485686.848   114700207.950       -2512.615          41.000  
E25  24776312.957   130200642.073       -1188.658          48.000    24776320.621    99764258.879        -910.810          52.000  
E13                                                                  27763221.509                       -1540.240          26.000  
R13                                                                  24243656.400                3      -3857.981          16.000  
> 2024 04 16 18 55 00.0020000  0 25                     
G13  23389499.229   122912690.867        1453.778          42.000                                                                  
G07  22397528.854   117699922.523       -3598.360          47.000    22397530.667    91714285.607       -2803.896          41.000  
G09  23775101.909   124938884.528       -3056.695          45.000    23775111.064    97354957.902       -2381.936          41.000  
R05  22162130.514   118469513.264        2463.373          48.000    22162135.154    92142832.120        1915.907          46.000  
R04  19943257.646   106795415.904        -178.062          49.000    19943257.510    83063096.102        -138.469          49.000  
R14  20003111.745   106627957.603       -2372.362          52.000    20003116.577    82933057.054       -1845.235          50.000  
G11  25119059.290   132001530.253       -3445.862          34.000    25119077.658   102858408.6271      -2684.777          33.000  
E08  25644216.140   134761385.633         819.190          47.000    25644222.844   103258780.733         627.565          49.000  
S31  39345511.657   206761988.424        -819.290          43.000  
S33  40296433.005   211759084.668        -819.297          42.000  
G20  21379677.376   112351012.936       -1333.081          46.000                                                                  
E03  24282315.534   127604488.826        -906.874          46.000    24282321.997    97774922.330        -694.841          52.000  
R15  20646795.976   110330560.365        1696.925          51.000    20646801.435    85812506.156        1319.813          48.000  
R03  21887692.809   117166499.210       -3340.289          52.000    21887696.075    91129509.470       -2597.853          48.000  
E05  25612710.195   134595550.599       -2499.367          45.000    25612723.294   103131639.286       -1915.028          47.000  
G05  22673491.022   119149971.968        1253.489          48.000    22673493.702    92844194.355         976.824          45.000  
E15  27986111.225   147067759.647       -3360.383          33.000    27986143.968   112688274.763       -2574.780          36.000  
G30  21051942.983   110628915.618       -1818.776          50.000    21051945.775    86204472.271       -1417.323          46.000  
G14  21351855.311   112204948.624        1085.577          47.000    21351858.766    87432583.138         845.972          48.000  
E02  25027897.364   131522672.618        1400.570          48.000    25027905.962   100777279.891        1073.289          50.000  
G22  23056650.834   121163757.304        2542.624          47.000                                                                  
E24  28504413.418   149791643.237       -3285.638          32.000    28504426.175   114775664.547       -2517.826          40.000  
E25  24783137.775   130236510.018       -1202.686          47.000    24783145.816    99791742.131        -921.597          52.000  
E13                                                                  27774724.944                1      -1548.610          28.000  
R13                                                                  24271519.561                3      -3858.831          16.000  
> 2024 04 16 18 55 30.0020000  0 25                     
G13  23381203.084   122869093.672        1452.768          43.000                                                                  
G07  22418086.862   117807952.774       -3603.523          48.000    22418088.351    91798464.930       -2807.679          41.000  
G09  23792571.879   125030693.975       -3063.809          41.000    23792582.440    97426497.536       -2387.208          43.000  
R13  24299418.071                3      -4958.219          13.000    24299386.821                3      -3840.658          13.000  
R05  22148318.591   118395672.255        2459.432          50.000    22148322.128    92085400.366        1912.832          47.000  
R04  19944305.424   106801020.114        -195.395          51.000    19944305.120    83067454.931        -151.948          51.000  
R14  20016525.982   106699459.878       -2394.309          52.000    20016530.228    82988669.923       -1862.126          51.000  
G11  25138734.502                       -3446.931          32.000    25138752.834   102938973.958       -2686.091          33.000  
E08  25639544.471   134736838.187         817.630          46.000    25639551.747   103239971.707         626.566          49.000  
S31  39350191.070   206786579.294        -820.118          42.000  
S33  40301112.785   211783677.498        -820.042          42.000  
G20  21387344.760   112391301.305       -1352.698          47.000                                                                  
E03  24287508.069   127631775.525        -912.031          47.000    24287514.694    97795830.336        -698.842          52.000  
R15  20637327.363   110279961.976        1676.442          52.000    20637332.554    85773152.008        1303.819          49.000  
R03  21906453.735   117266931.202       -3354.973          50.000    21906457.715    91207623.005       -2609.419          47.000  
E05  25626991.179   134670603.023       -2503.937          44.000    25627005.077   103189146.747       -1918.565          47.000  
G05  22666379.954   119112603.251        1237.814          48.000    22666382.712    92815075.914         964.632          45.000  
E15  28005301.555   147168589.235       -3361.567          32.000    28005330.719   112765532.956       -2575.156          35.000  
G30  21062357.446   110683643.494       -1829.561          50.000    21062360.633    86247117.369       -1425.623          47.000  
G14  21345708.005   112172642.913        1068.384          47.000    21345711.104    87407409.951         832.483          48.000  
E02  25019930.839   131480806.789        1390.685          48.000    25019938.611   100745201.022        1065.614          50.000  
G22  23042159.528   121087602.861        2534.552          47.000                                                                  
E24  28523190.554   149890332.754       -3292.671          32.000    28523205.893   114851283.749       -2523.492          40.000  
E25  24790045.468   130272811.273       -1217.065          47.000    24790053.915    99819557.381        -932.571          52.000  
E13                                                                  27786295.779                       -1557.147          24.000  
> 2024 04 16 18 56 00.0020000  0 24                     
G13  23372911.204   122825519.113        1451.926          43.000                                                                  
G07  22438673.028   117916133.180       -3608.597          47.000    22438674.579    91882761.293       -2811.932          41.000  
G09  23810081.119   125122704.444       -3070.544          43.000    23810091.039    97498193.739       -2392.752          41.000  
R05  22134526.494   118321947.999        2455.341          50.000    22134530.683    92028059.335        1909.719          46.000  
R04  19945448.606   106807137.926        -212.560          51.000    19945447.205    83072213.219        -165.305          50.000  
R14  20030061.109   106771612.549       -2416.054          51.000    20030066.103    83044788.651       -1879.058          51.000  
E08  25634880.843   134712325.574         816.317          47.000    25634887.382   103221189.364         625.567          49.000  
S31  39354873.417   206811180.657        -820.456          43.000  
S33  40305794.565   211808279.625        -820.019          42.000  
G20  21395123.670   112432177.273       -1372.479          48.000                                                                  
E03  24292729.260   127659213.048        -917.191          46.000    24292735.945    97816853.868        -702.836          53.000  
R15  20627973.643   110229975.549        1655.889          52.000    20627978.176    85734273.821        1287.850          48.000  
R03  21925296.689   117367798.680       -3369.583          51.000    21925299.886    91286075.205       -2620.681          47.000  
E05  25641298.234   134745785.228       -2508.308          44.000    25641311.906   103246753.673       -1921.924          47.000  
G05  22659357.881   119075700.346        1222.205          48.000    22659360.162    92786320.447         952.471          44.000  
E15  28024493.533                       -3362.848          29.000    28024523.846   112842811.817       -2576.352          36.000  
G30  21072831.834   110738687.033       -1840.096          50.000    21072835.027    86290008.415       -1433.741          46.000  
G14  21339659.095   112140858.362        1050.616          46.000    21339662.774    87382642.860         818.768          48.000  
E02  25012020.755   131439237.514        1380.623          49.000    25012028.426   100713349.380        1057.859          50.000  
G22  23027712.382   121011688.809        2526.416          47.000                                                                  
E24  28542012.009   149989227.554       -3299.640          32.000    28542024.964   114927060.187       -2528.652          39.000  
E25  24797034.027   130309540.128       -1231.478          47.000    24797043.191    99847700.309        -943.630          52.000  
E13                                                                  27797930.582                3      -1566.246          22.000  
G11                                                                  25158435.829   103019575.881       -2687.257          34.000  
> 2024 04 16 18 56 30.0020000  0 24                     
G13  23364622.485   122781959.193        1452.321          44.000                                                                  
G07  22459285.419   118024453.524       -3612.489          47.000    22459288.362    91967166.607       -2814.700          42.000  
G09  23827627.773   125214907.674       -3076.089          43.000    23827637.454    97570040.135       -2397.183          42.000  
R05  22120755.688   118248335.046        2452.515          50.000    22120759.474    91970804.934        1907.600          45.000  
R04  19946685.597   106813763.413        -228.751          51.000    19946684.420    83077366.386        -177.837          50.000  
R14  20043718.209   106844404.074       -2436.516          53.000    20043722.455    83101404.302       -1895.025          51.000  
E08  25630221.508   134687840.164         816.355          48.000    25630228.099   103202427.883         625.483          49.000  
S31  39359554.650   206835784.631        -819.626          42.000  
S33  40310477.028   211832884.937        -819.549          43.000  
G20  21403011.838   112473632.072       -1391.070          46.000                                                                  
E03  24297977.551   127686793.950        -921.147          47.000    24297984.314    97837987.268        -705.844          53.000  
R15  20618732.747   110180594.757        1636.357          52.000    20618737.633    85695866.692        1272.748          49.000  
R03  21944219.384   117469092.707       -3383.029          51.000    21944223.401    91364859.226       -2631.098          47.000  
E05  25655627.275   134821089.190       -2511.486          43.000    25655641.758   103304453.894       -1924.413          47.000  
G05  22652422.768   119039257.158        1207.742          49.000    22652425.460    92757923.230         941.014          45.000  
E15  28043690.526   147370541.6761      -3362.249          31.000    28043721.130   112920103.272       -2576.340          34.000  
G30  21083364.225   110794036.389       -1849.452          49.000    21083366.566    86333137.801       -1441.305          45.000  
G14  21333708.855   112109588.708        1034.222          48.000    21333712.381    87358276.970         805.847          48.000  
E02  25004164.761   131397957.988        1371.707          48.000    25004173.110   100681719.733        1051.080          51.000  
G22  23013311.191   120936009.724        2519.200          48.000                                                                  
E24  28560870.372                1      -3305.369          30.000    28560881.485   115002986.341       -2532.798          40.000  
E25  24804104.103   130346687.906       -1244.526          48.000    24804111.802    99876164.220        -953.652          51.000  
E13                                                                  27809629.165                3      -1572.444          25.000  
G11                                                                  25178129.340   103100205.562       -2687.335          35.000  
> 2024 04 16 18 57 00.0020000  0 24                     
G13  23356333.860   122738402.533        1451.725          43.000                                                                  
G07  22479922.531   118132899.719       -3616.988          48.000    22479925.004    92051670.018       -2818.246          42.000  
G09  23845207.791   125307291.471       -3082.542          43.000    23845217.311    97642027.301       -2402.218          42.000  
R05  22107004.265   118174823.624        2448.618          50.000    22107008.155    91913629.518        1904.595          47.000  
R04  19948015.840   106820886.429        -245.809          51.000    19948015.256    83082906.493        -191.104          51.000  
R14  20057490.480   106917818.970       -2457.522          52.000    20057494.555    83158504.789       -1911.286          51.000  
G11  25197810.953                3      -3449.599          29.000    25197826.404   103180851.447       -2688.557          34.000  
E08  25625565.078   134663370.496         815.442          48.000    25625571.415   103183678.427         624.810          49.000  
S31  39364234.743   206860377.448        -819.519          40.000  
S33  40315156.915   211857479.787        -819.756          43.000  
G20  21411008.103   112515652.926       -1410.034          47.000                                                                  
E03  24303250.650   127714506.853        -925.933          46.000    24303257.948    97859221.842        -709.521          53.000  
R15  20609603.180   110131809.143        1616.286          52.000    20609607.641    85657922.474        1257.114          49.000  
R03  21963218.371   117570800.010       -3397.176          49.000    21963224.152    91443964.593       -2642.145          49.000  
E05  25669979.467   134896503.241       -2515.629          44.000    25669993.421   103362238.464       -1927.541          48.000  
G05  22645573.835   119003263.942        1192.246          48.000    22645576.463    92729876.604         929.133          45.000  
E15  28062887.608   147471417.022       -3362.897          33.000    28062915.831   112997396.453       -2576.664          34.000  
G30  21093952.066   110849677.923       -1859.552          49.000    21093954.527    86376494.832       -1449.056          45.000  
G14  21327854.773   112078823.809        1017.059          47.000    21327857.854    87334304.397         792.590          48.000  
E02  24996361.950   131356957.622        1362.162          46.000    24996371.036   100650304.016        1043.643          51.000  
G22  22998953.012   120860556.413        2511.391          47.000                                                                  
E24  28579756.577                1      -3312.281          27.000    28579772.233   115079051.659       -2537.833          40.000  
E25  24811250.307   130384241.958       -1258.505          48.000    24811258.178    99904939.407        -964.321          52.000  
E13                                                                  27821388.163                3      -1581.863          27.000  
> 2024 04 16 18 57 30.0020000  0 24                     
G13  23348048.759   122694863.705        1450.981          43.000                                                                  
G07  22500585.244   118241483.549       -3621.801          47.000    22500587.592    92136280.806       -2822.209          40.000  
G09  23862826.141   125399869.862       -3089.159          45.000    23862834.944    97714166.002       -2407.261          42.000  
R05  22093274.582   118101431.313        2444.330          51.000    22093277.977    91856546.663        1901.254          45.000  
R04  19949441.606   106828523.566        -263.151          51.000    19949440.833    83088846.497        -204.730          49.000  
R14  20071380.477   106991868.801       -2478.930          52.000    20071385.356    83216099.117       -1928.044          51.000  
E08  25620914.421   134638931.015         814.160          48.000    25620920.449   103164952.160         623.934          49.000  
S31  39368915.231   206884974.471        -819.983          43.000  
S33  40319838.379   211882078.502        -819.924          43.000  
G20  21419114.294   112558252.961       -1429.590          46.000                                                                  
E03  24308552.412   127742366.450        -931.060          46.000    24308559.602    97880568.775        -713.385          53.000  
R15  20600587.093   110083634.861        1595.673          52.000    20600592.168    85620453.719        1241.024          49.000  
R03  21982299.030   117672933.962       -3411.610          50.000    21982302.537    91523401.820       -2653.469          47.000  
E05  25684352.082   134972041.476       -2519.740          41.000    25684367.973   103420118.254       -1930.904          48.000  
G05  22638812.555   118967736.392        1176.490          47.000    22638815.977    92702192.858         916.734          45.000  
E15  28082085.787   147572336.2061      -3362.406          33.000    28082113.693                       -2577.130          29.000  
G30  21104598.295   110905623.926       -1869.886          49.000    21104600.435    86420089.117       -1457.217          45.000  
G14  21322099.382   112048579.548         999.487          47.000    21322101.661    87310737.534         778.790          47.000  
E02  24988615.945   131316251.791        1352.020          47.000    24988625.099   100619113.950        1035.976          51.000  
G22  22984640.043   120785345.551        2502.930          47.000                                                                  
E25  24818477.368   130422215.659       -1272.600          48.000    24818484.337    99934036.168        -975.209          52.000  
E24                                                                  28598699.959   115155265.406       -2542.993          41.000  
E13                                                                  27833210.511                       -1590.856          26.000  
G11                                                                  25217528.610   103261521.862       -2690.213          35.000  
> 2024 04 16 18 58 00.0020000  0 24                     
G13  23339768.580   122651351.099        1449.730          43.000                                                                  
G07  22521275.779   118350211.533       -3626.900          48.000    22521278.264    92221003.781       -2826.117          42.000  
G09  23880481.978   125492650.461       -3096.297          45.000    23880490.456    97786462.365       -2412.592          42.000  
R05  22079567.509   118028168.451        2439.698          49.000    22079572.407    91799564.586        1897.472          45.000  
R04  19950965.087   106836685.277        -281.017          51.000    19950965.118    83095194.486        -218.597          51.000  
R14  20085392.059   107066557.782       -2500.477          51.000    20085397.648    83274190.541       -1944.734          51.000  
G11  25237218.104                1      -3452.932          29.000    25237237.568   103342220.508       -2690.885          36.000  
E08  25616270.894   134614530.153         812.573          48.000    25616276.742   103146255.449         622.534          48.000  
S31  39373598.245   206909583.478        -820.931          43.000  
S33  40324521.359   211906688.466        -820.778          42.000  
G20  21427332.837   112601439.214       -1449.548          47.000                                                                  
E03  24313883.185   127770381.243        -936.621          46.000    24313890.609    97902034.661        -717.673          53.000  
R15  20591688.180   110036081.481        1574.512          52.000    20591694.073    85583467.909        1224.674          49.000  
R03  22001460.403   117775502.126       -3426.348          51.000    22001462.977    91603176.817       -2664.967          47.000  
E05  25698753.759   135047712.116       -2524.817          43.000    25698767.873   103478099.388       -1934.567          49.000  
G05  22632142.470   118932684.664        1160.259          48.000    22632146.059    92674879.836         904.167          45.000  
E15  28101288.163   147673245.171       -3364.074          31.000    28101318.161                       -2578.057          27.000  
G30  21115303.371   110961880.544       -1880.444          49.000    21115306.671    86463925.452       -1465.339          45.000  
G14  21316444.667   112018865.602         981.360          46.000    21316447.911    87287583.881         764.667          48.000  
E02  24980927.882   131275849.686        1341.482          47.000    24980936.856   100588156.637        1027.948          52.000  
G22  22970376.265   120710387.935        2494.129          49.000                                                                  
E24  28617657.830                       -3325.730          30.000    28617665.648   115231632.232       -2548.305          39.000  
E25  24825784.384   130460616.156       -1287.315          49.000    24825791.713    99963459.961        -986.417          52.000  
E13                                                                  27845098.052                       -1599.364          28.000  
> 2024 04 16 18 58 30.0020000  0 24                     
G13  23331494.161   122607871.247        1448.947          43.000                                                                  
G07  22541993.099   118459088.093       -3631.623          44.000    22541997.050    92305842.606       -2829.670          39.000  
G09  23898177.504   125585639.657       -3102.975          44.000    23898185.018    97858921.240       -2417.900          40.000  
R05  22065887.894   117955044.335        2435.359          50.000    22065893.000    91742690.398        1893.998          44.000  
R04  19952589.321   106845379.809        -298.497          51.000    19952588.453    83101956.897        -232.279          50.000  
R14  20099524.736   107141889.262       -2521.595          52.000    20099529.446    83332781.728       -1961.312          50.000  
G11  25256933.312                3      -3454.321          32.000    25256953.445   103422949.899       -2691.571          33.000  
E08  25611636.181   134590174.669         811.189          48.000    25611641.762   103127593.534         621.582          48.000  
S31  39378284.898   206934210.058        -821.013          43.000  
S33  40329208.242   211931316.335        -821.218          42.000  
G20  21435663.707   112645217.347       -1468.976          47.000                                                                  
E03  24319244.499   127798558.189        -941.817          46.000    24319252.457    97923624.758        -721.576          53.000  
R15  20582906.459   109989157.169        1553.884          52.000    20582911.800    85546971.364        1208.547          49.000  
R03  22020704.331   117878509.560       -3440.783          51.000    22020707.867    91683293.449       -2676.269          48.000  
E05  25713178.496   135123521.434       -2529.249          41.000    25713193.953   103536186.852       -1937.929          48.000  
G05  22625564.530   118898117.236        1144.315          48.000    22625567.007    92647944.236         891.513          43.000  
E15  28120495.766   147774177.710       -3363.984          32.000    28120527.376   113229356.499       -2577.896          34.000  
G30  21126068.780   111018452.449       -1890.909          49.000    21126071.767    86508007.452       -1473.471          45.000  
G14  21310892.393   111989690.044         963.629          46.000    21310896.103    87264849.797         750.940          48.000  
E02  24973298.505   131235758.912        1331.348          47.000    24973307.686   100557437.883        1020.120          51.000  
G22  22956161.946   120635692.422        2485.603          47.000                                                                  
E25  24833173.657   130499449.068       -1301.500          48.000    24833181.161    99993215.069        -997.169          52.000  
E24                                                                  28636670.156   115308155.590       -2553.215          40.000  
E13                                                                  27857050.010                3      -1608.200          25.000  
> 2024 04 16 18 59 00.0020000  0 25                     
G13  23323223.594   122564409.348        1448.183          43.000                                                                  
G07  22562737.247   118568095.019       -3635.906          47.000    22562739.848    92390782.945       -2833.443          40.000  
G09  23915909.302   125678821.667       -3109.543          44.000    23915918.240    97931530.311       -2422.656          42.000  
R05  22052231.939   117882045.926        2430.991          48.000    22052237.418    91685913.939        1890.862          47.000  
R04  19954310.283   106854593.742        -315.967          51.000    19954309.678    83109123.279        -245.735          51.000  
R14  20113773.116   107217844.109       -2542.285          52.000    20113778.552    83391857.689       -1977.305          51.000  
G11  25276652.170                1      -3453.708          30.000    25276673.499   103503695.619       -2692.423          34.000  
E08  25607007.396   134565849.556         810.157          48.000    25607012.972   103108954.876         620.797          48.000  
S31  39382971.630   206958838.538        -821.168          44.000  
S33  40333895.435   211955946.614        -821.309          43.000  
G20  21444103.478   112689570.776       -1488.098          47.000                                                                  
E03  24324635.167   127826882.371        -946.889          46.000    24324642.389    97945327.691        -725.421          53.000  
R15  20574240.212   109942847.443        1533.173          51.000    20574245.639    85510952.804        1192.443          48.000  
R03  22040025.362   117981939.594       -3454.873          51.000    22040030.065    91763738.752       -2687.173          48.000  
E05  25727628.222   135199454.268       -2533.336          42.000    25727643.885   103594368.920       -1941.178          48.000  
G05  22619076.144   118864020.559        1128.490          48.000    22619078.738    92621375.438         879.314          45.000  
E15  28139709.740   147875116.237       -3365.667          31.000    28139737.175   113306698.075       -2578.008          33.000  
G30  21136891.051   111075322.331       -1900.747          49.000    21136893.324    86552321.656       -1481.167          46.000  
G14  21305440.413   111961039.133         946.112          46.000    21305443.050    87242524.511         737.225          47.000  
E02  24965725.809   131195965.233        1321.362          47.000    24965735.192   100526946.764        1012.356          52.000  
G22  22941994.672   120561246.200        2477.292          47.000                                                                  
E24  28655695.251   150586706.7621      -3338.073          29.000    28655710.781   115384822.077       -2557.780          37.000  
E25  24840642.321   130538698.129       -1315.431          48.000    24840650.037   100023289.072       -1007.874          51.000  
E13                                                                  27869061.394                       -1615.991          26.000  
R13                                                                  24494810.317                3      -3868.922          13.000  
> 2024 04 16 18 59 30.0020000  0 24                     
G13  23314956.412   122520967.461        1447.582          44.000                                                                  
G07  22583505.592   118677232.673       -3640.196          46.000    22583507.575    92475825.159       -2836.301          40.000  
G09  23933678.378   125772198.167       -3115.864          43.000    23933687.417    98004290.988       -2427.910          43.000  
R05  22038600.487   117809177.861        2426.743          49.000    22038605.440    91629238.867        1887.477          45.000  
R04  19956128.928   106864331.095        -333.396          51.000    19956128.112    83116696.770        -259.242          50.000  
R14  20128139.155   107294421.151       -2562.921          52.000    20128144.060    83451417.617       -1993.405          51.000  
E08  25602384.293   134541557.141         809.233          48.000    25602390.077   103090341.307         620.029          48.000  
S31  39387658.782   206983471.370        -821.230          43.000  
S33  40338582.981   211980580.776        -821.222          43.000  
G20  21452653.306   112734500.515       -1507.141          48.000                                                                  
E03  24330053.156   127855356.319        -951.602          47.000    24330060.600    97967145.399        -729.213          53.000  
R15  20565690.309   109897155.996        1512.714          51.000    20565694.509    85475415.141        1176.473          48.000  
R03  22059425.152   118085793.314       -3468.838          50.000    22059430.599    91844513.588       -2698.003          48.000  
E05  25742101.696   135275512.595       -2537.495          41.000    25742117.467   103652647.172       -1944.299          48.000  
G05  22612677.967   118830398.679        1112.736          48.000    22612680.911    92595176.633         867.123          46.000  
E15  28158914.787                       -3365.059          30.000    28158946.475   113384043.947       -2578.598          31.000  
G30  21147769.474   111132490.375       -1910.646          48.000    21147772.701    86596868.176       -1488.827          46.000  
G14  21300088.771   111932916.486         928.656          47.000    21300091.710    87220610.863         723.590          48.000  
E02  24958210.616   131156471.832        1311.354          47.000    24958219.753   100496685.720        1004.807          52.000  
G22  22927876.143   120487054.031        2468.776          48.000                                                                  
E25  24848190.675   130578364.529       -1329.236          48.000    24848197.993   100053682.845       -1018.457          51.000  
E24                                                                  28674785.861   115461631.872       -2563.081          37.000  
E13                                                                  27881135.242                       -1625.226          27.000  
G11                                                                  25296397.133                       -2692.328          31.000  
