     3.00           OBSERVATION DATA    M: Mixed            RINEX VERSION / TYPE
CONVBIN 2.4.3                           20240416 191442 UTC PGM / RUN BY / DATE 
format: u-blox UBX                                          COMMENT             
log: /home/regis/git/gnsspwv/obsdata/VERT00CHL/2024-04-16/VECOMMENT             
{self.marker}                                               MARKER NAME         
                                                            MARKER NUMBER       
GEODETIC                                                    MARKER TYPE         
{self.observer}     {self.institution}                      OBSERVER / AGENCY   
UNKNOWN             UBLOX-ZED-F9P                           REC # / TYPE / VERS 
UNKNOWN             TWIVSP6037L                             ANT # / TYPE        
  1713381.0000 -5047934.0000 -3490983.0000                  APPROX POSITION XYZ 
        0.0000        0.0000        0.0000                  ANTENNA: DELTA H/E/N
G    8 C1C L1C D1C S1C C2L L2L D2L S2L                      SYS / # / OBS TYPES 
R    8 C1C L1C D1C S1C C2C L2C D2C S2C                      SYS / # / OBS TYPES 
E    8 C1C L1C D1C S1C C7Q L7Q D7Q S7Q                      SYS / # / OBS TYPES 
S    4 C1C L1C D1C S1C                                      SYS / # / OBS TYPES 
  2024    04    16    19    00   00.0020000     GPS         TIME OF FIRST OBS   
  2024    04    16    19    14   30.0020000     GPS         TIME OF LAST OBS    
                                                            END OF HEADER       
> 2024 04 16 19 00 00.0020000  0 25                     
G13  23306695.387   122477555.2381       1446.371          42.000                                                                  
G07  22604300.333   118786508.0291      -3644.688          46.000    22604301.300    92560974.6821      -2840.170          40.000  
G09  23951486.115   125865778.0901      -3123.042          45.000    23951495.179    98077210.1901      -2433.219          42.000  
R05  22024996.237   117736452.2721       2421.435          50.000    22025000.768    91572674.6241       1883.591          47.000  
R04  19958047.353   106874603.3121       -351.348          51.000    19958046.414    83124686.2571       -273.287          51.000  
R14  20142622.523   107371626.1241      -2583.862          53.000    20142627.943    83511465.9331      -2009.662          51.000  
G11  25316103.643                3      -3455.889          26.000    25316125.821                       -2692.939          29.000  
E08  25597768.918   134517307.0401        807.628          47.000    25597775.271   103071760.1561        618.772          48.000  
S31  39392348.448   207008115.6541       -821.656          43.000  
S33  40343273.122   212005227.6381       -821.984          43.000  
G20  21461314.660   112780014.4071      -1527.057          47.000                                                                  
E03  24335502.386   127883989.7511       -957.199          46.000    24335509.839    97989085.2721       -733.407          53.000  
R15  20557257.212   109852093.5331       1491.519          52.000    20557262.017    85440366.6421       1160.005          49.000  
R03  22078906.738   118190078.9401      -3483.458          51.000    22078912.009    91925624.3211      -2709.231          48.000  
E05  25756600.625   135351705.5541      -2541.871          41.000    25756616.527   103711028.6141      -1947.826          48.000  
G05  22606372.396   118797262.5091       1096.229          48.000    22606375.576    92569356.2941        854.409          45.000  
E15  28178131.230                       -3365.561          30.000    28178155.452                       -2578.717          27.000  
G30  21158706.222   111189963.9181      -1920.923          49.000    21158709.747    86641652.7571      -1496.815          46.000  
G14  21294839.409   111905332.9381        910.394          46.000    21294842.467    87199117.2711        709.363          47.000  
E02  24950753.926   131117289.0831       1300.984          47.000    24950763.418   100466662.7031        996.779          52.000  
G22  22913808.256   120413127.3991       2459.690          48.000                                                                  
E25  24855819.667   130618456.5641      -1343.607          48.000    24855827.172   100084402.7621      -1029.405          50.000  
E24                                                                  28693897.725   115538590.3271      -2568.021          33.000  
E13                                                                  27893273.449                       -1633.228          26.000  
R13                                                                  24550572.700                3      -3874.070          11.000  
> 2024 04 16 19 00 30.0020000  0 24                     
G13  23298438.880   122434164.016        1446.001          43.000                                                                  
G07  22625118.539   118895909.728       -3648.680          46.000    22625119.945    92646222.644       -2843.210          39.000  
G09  23969330.910   125959551.936       -3128.840          44.000    23969341.203    98150280.476       -2438.123          44.000  
R05  22011416.310   117663862.318        2417.526          50.000    22011420.450    91516215.859        1880.161          46.000  
R04  19960064.324   106885402.966        -368.631          52.000    19960062.945    83133085.997        -286.730          51.000  
R14  20157221.262   107449446.256       -2604.121          52.000    20157226.472    83571992.703       -2025.420          51.000  
E08  25593161.833   134493090.415         806.778          48.000    25593166.943   103053204.624         618.212          48.000  
S31  39397039.206   207032764.754        -821.421          42.000  
S33  40347963.847   212029878.157        -821.590          43.000  
G20  21470085.554   112826102.295       -1545.764          47.000                                                                  
E03  24340980.791   127912773.938        -961.897          47.000    24340987.106    98011140.691        -737.100          53.000  
R15  20548940.425   109807652.089        1471.109          52.000    20548945.424    85405801.208        1144.194          50.000  
R03  22098467.089   118294785.863       -3497.108          51.000    22098471.533    92007062.773       -2719.905          47.000  
E05  25771123.903   135428024.064       -2545.808          42.000    25771140.344   103769506.250       -1950.757          49.000  
G05  22600157.836   118764604.833        1080.703          48.000    22600160.593    92543908.784         842.035          45.000  
G30  21169699.527   111247731.884       -1930.359          49.000    21169702.849    86686666.748       -1504.249          46.000  
G14  21289691.008   111878280.743         892.920          46.000    21289694.291    87178037.751         695.770          47.000  
E02  24943355.798   131078408.865        1290.999          47.000    24943364.623   100436871.496         989.281          52.000  
G22  22899790.498   120339459.797        2451.403          48.000                                                                  
E25  24863528.130   130658964.126       -1357.050          48.000    24863535.380   100115441.064       -1039.783          50.000  
E15                                                                  28197367.813                3      -2580.444          21.000  
E24                                                                  28713045.328   115615688.948       -2571.815          34.000  
E13                                                                  27905469.965                3      -1639.156          24.000  
G11                                                                  25335861.483                3      -2693.340          26.000  
> 2024 04 16 19 01 00.0020000  0 24                     
G13  23290183.461   122390782.997        1445.745          42.000                                                                  
G07  22645959.428   119005425.393       -3652.486          45.000    22645959.068    92731559.445       -2846.161          37.000  
G09  23987209.611   126053508.886       -3135.029          44.000    23987220.188    98223493.399       -2442.798          43.000  
R05  21997861.745   117591400.160        2413.035          49.000    21997864.415    91459856.481        1876.804          46.000  
R04  19962177.731   106896721.118        -386.121          52.000    19962176.260    83141888.999        -300.283          50.000  
R14  20171933.608   107527867.558       -2624.157          53.000    20171937.746    83632987.045       -2041.027          51.000  
E08  25588557.381   134468897.021         805.883          48.000    25588563.047   103034666.926         617.457          48.000  
S31  39401727.901   207057405.187        -821.152          42.000  
S33  40352653.068   212054520.756        -821.235          42.000  
G20  21478962.720   112872752.440       -1564.636          47.000                                                                  
E03  24346484.936   127941698.777        -966.605          48.000    24346491.506    98033303.891        -740.682          54.000  
R15  20540738.934   109763822.592        1450.645          52.000    20540743.261    85371711.726        1128.287          49.000  
R03  22118104.220   118399902.443       -3510.896          50.000    22118108.112    92088819.827       -2730.617          48.000  
E05  25785669.665   135504457.452       -2549.803          41.000    25785686.089   103828071.888       -1953.830          50.000  
G05  22594032.992   118732416.699        1065.027          49.000    22594035.131    92518827.156         829.930          45.000  
G30  21180746.107   111305781.864       -1939.710          49.000    21180748.968    86731900.488       -1511.654          45.000  
G14  21284643.046   111851750.844         875.419          46.000    21284645.885    87157365.185         682.201          47.000  
E02  24936012.452   131039821.754        1281.227          47.000    24936021.288   100407304.867         981.707          51.000  
G22  22885819.510   120266043.372        2442.841          48.000                                                                  
E25  24871313.222   130699875.701       -1370.491          48.000    24871320.498   100146788.961       -1050.193          50.000  
E15                                                                  28216579.305                3      -2579.185          23.000  
E24                                                                  28732225.545   115692918.091       -2576.462          33.000  
E13                                                                  27917729.643                       -1649.280          27.000  
G11                                                                  25355579.869                3      -2691.276          17.000  
> 2024 04 16 19 01 30.0020000  0 25                     
G13  23281931.320   122347421.075        1444.758          43.000                                                                  
G07  22666822.313   119115060.720       -3656.817          45.000    22666824.181    92816989.455       -2849.445          40.000  
G09  24005125.374   126147656.497       -3141.989          41.000    24005135.612    98296854.897       -2448.298          41.000  
R05  21984331.455   117519076.351        2408.124          50.000    21984335.129    91403604.753        1872.877          46.000  
R04  19964390.470   106908567.747        -404.099          51.000    19964388.095    83151103.044        -314.275          50.000  
R14  20186758.736   107606893.861       -2644.690          53.000    20186762.692    83694451.966       -2056.957          51.000  
E08  25583959.775   134444735.140         804.433          48.000    25583965.223   103016153.352         616.488          48.000  
S31  39406417.207   207082045.996        -821.840          42.000  
S33  40357342.756   212079163.333        -821.669          44.000  
G20  21487947.574   112919971.416       -1583.563          46.000                                                                  
E03  24352016.856   127970772.672        -971.957          47.000    24352023.921    98055581.294        -744.729          54.000  
R15  20532652.627   109720614.030        1429.567          52.000    20532656.928    85338105.199        1111.811          49.000  
R03  22137817.958   118505435.259       -3525.078          51.000    22137821.859    92170900.590       -2741.888          45.000  
E05  25800239.143   135581013.706       -2554.516          42.000    25800253.860   103886731.630       -1957.273          49.000  
G05  22587999.232   118700707.663        1048.425          47.000    22588001.532    92494118.856         816.952          46.000  
G30  21191847.386   111364119.892       -1949.744          49.000    21191850.536    86777358.696       -1519.312          46.000  
G14  21279695.506   111825752.690         857.452          46.000    21279698.707    87137107.010         667.935          47.000  
E02  24928726.053   131001536.695        1270.747          47.000    24928735.703   100377969.701         973.632          51.000  
G22  22871898.681   120192888.230        2433.662          48.000                                                                  
E25  24879176.820   130741198.290       -1384.599          48.000    24879184.014   100178451.753       -1061.073          50.000  
E15                                                                  28235791.128                       -2578.116          27.000  
E24                                                                  28751439.138   115770282.355       -2581.861          33.000  
E13                                                                  27930046.342                3      -1657.892          24.000  
G11                                                                  25375327.813                3      -2693.031          24.000  
R16                                                                  23568266.014                3       2613.139          12.000  
> 2024 04 16 19 02 00.0020000  0 24                     
G13  23273684.168   122304082.321        1444.609          44.000                                                                  
G07  22687707.623   119224817.123       -3660.368          41.000    22687710.932    92902513.895       -2852.223          43.000  
G09  24023078.951   126241998.119       -3147.687          44.000    24023088.490    98370367.670       -2452.894          43.000  
R05  21970828.613   117446897.663        2403.781          48.000    21970832.927    91347465.901        1869.657          48.000  
R04  19966701.663   106920948.823        -421.273          51.000    19966701.078    83160732.781        -327.628          51.000  
R14  20201697.298   107686526.070       -2664.029          53.000    20201701.754    83756388.123       -2072.156          51.000  
E08  25579368.637   134420608.970         803.950          48.000    25579374.385   102997667.168         616.015          49.000  
S31  39411107.060   207106690.334        -821.043          44.000  
S33  40362032.949   212103809.572        -821.049          42.000  
G20  21497042.563   112967762.253       -1602.289          47.000                                                                  
E03  24357579.205   127999999.910        -976.499          48.000    24357585.537    98077976.173        -748.214          53.000  
R15  20524683.691   109678031.598        1409.213          52.000    20524688.166    85304985.668        1096.112          50.000  
R03  22157611.895   118611386.918       -3538.467          51.000    22157614.644    92253307.216       -2751.969          47.000  
E05  25814829.195   135657696.622       -2557.967          41.000    25814846.182   103945488.463       -1959.943          49.000  
G05  22582057.639   118669483.397        1032.887          48.000    22582058.748    92469788.282         804.751          45.000  
G30  21203004.120   111422747.918       -1958.765          50.000    21203006.942    86823042.894       -1526.319          45.000  
G14  21274850.358   111800291.658         839.989          46.000    21274853.878    87117267.333         654.559          47.000  
E02  24921499.598   130963558.698        1261.112          48.000    24921508.349   100348869.798         966.429          51.000  
G22  22858028.394   120120001.262        2425.261          48.000                                                                  
E25  24887118.741   130782934.778       -1397.780          49.000    24887126.326   100210431.671       -1070.997          52.000  
E15                                                                  28254997.999                       -2577.860          28.000  
E24                                                                  28770685.819                       -2585.976          31.000  
E13                                                                  27942423.079                3      -1663.839          25.000  
G11                                                                  25395051.628                3      -2691.851          21.000  
> 2024 04 16 19 02 30.0020000  0 25                     
G13  23265439.894   122260759.634        1443.598          42.000                                                                  
G07  22708615.060   119334685.729       -3664.262          43.000    22708617.870    92988125.634       -2855.112          41.000  
G09  24041067.478   126336526.403       -3154.220          45.000    24041077.793    98444025.761       -2457.654          43.000  
R05  21957352.802   117374859.647        2398.830          50.000    21957356.595    91291436.402        1865.835          48.000  
R04  19969112.213   106933858.780        -439.320          51.000    19969111.821    83170773.832        -341.655          51.000  
R14  20216747.896   107766753.337       -2684.302          53.000    20216751.836    83818787.080       -2087.683          51.000  
E08  25574782.243   134396511.795         802.624          47.000    25574788.338   102979203.188         615.004          49.000  
S31  39415795.459   207131331.003        -821.241          43.000  
S33  40366722.463   212128452.432        -821.406          42.000  
G20  21506243.515   113016116.420       -1621.216          47.000                                                                  
E03  24363168.399   128029373.888        -981.664          48.000    24363175.479    98100483.506        -752.141          54.000  
R15  20516830.987   109636069.385        1388.312          53.000    20516835.445    85272348.519        1079.791          50.000  
R03  22177481.499   118717749.880       -3552.343          51.000    22177486.913    92336033.675       -2762.986          48.000  
E05  25829446.931   135734499.098       -2561.958          41.000    25829460.792   104004336.914       -1963.223          48.000  
G05  22576206.996   118638738.878        1016.691          48.000    22576209.084    92445831.568         792.177          46.000  
E15  28274177.306                3      -3365.059          25.000    28274200.696                1      -2577.769          24.000  
G30  21214214.153   111481656.954       -1968.503          50.000    21214216.551    86868946.015       -1533.802          45.000  
G14  21270106.487   111775361.999         822.050          46.000    21270109.898    87097841.737         640.488          47.000  
E02  24914330.173   130925881.734        1250.751          48.000    24914338.549   100320000.527         958.454          51.000  
G22  22844208.174   120047377.553        2416.312          48.000                                                                  
E25  24895138.866   130825077.082       -1411.560          49.000    24895145.699   100242722.567       -1081.599          51.000  
E24                                                                  28789964.744                       -2589.485          29.000  
E13                                                                  27954860.507                       -1672.656          28.000  
G11                                                                  25414781.305                3      -2694.036          16.000  
R16                                                                  23532222.693                3       2583.953          11.000  
> 2024 04 16 19 03 00.0020000  0 24                     
G13  23257199.126   122217458.813        1443.026          41.000                                                                  
G07  22729543.835   119444670.083       -3667.980          42.000    22729548.193    93073827.609       -2858.139          42.000  
G09  24059092.042   126431246.180       -3160.346          43.000    24059102.327    98517833.162       -2462.357          43.000  
R05  21943903.708   117302970.126        2393.889          50.000    21943908.121    91235522.411        1861.970          48.000  
R04  19971623.424   106947305.075        -457.039          52.000    19971622.414    83181232.064        -355.439          50.000  
R14  20231909.973   107847577.113       -2703.896          52.000    20231914.444    83881650.013       -2103.016          51.000  
E08  25570203.649   134372449.192         801.707          47.000    25570209.083   102960765.671         614.291          48.000  
S31  39420484.780   207155972.592        -821.253          44.000  
S33  40371411.730   212153096.257        -821.358          43.000  
G20  21515553.063   113065037.542       -1640.015          47.000                                                                  
E03  24368787.263   128058900.293        -986.616          48.000    24368794.049    98123107.631        -755.915          54.000  
R15  20509094.808   109594734.110        1367.584          52.000    20509100.305    85240198.987        1063.772          50.000  
R03  22197427.898   118824526.667       -3565.915          51.000    22197432.899    92419081.971       -2773.521          47.000  
E05  25844085.191   135811426.267       -2566.131          41.000    25844099.821   104063280.927       -1966.381          48.000  
G05  22570448.919   118608480.722        1000.497          48.000    22570450.999    92422253.825         779.585          45.000  
G30  21225477.982   111540850.345       -1977.766          49.000    21225480.828    86915070.738       -1540.996          45.000  
G14  21265464.363   111750970.410         804.131          46.000    21265469.086    87078835.407         626.654          47.000  
E02  24907219.558   130888512.038        1240.721          49.000    24907227.052   100291366.718         950.674          51.000  
G22  22830439.909   119975024.912        2407.261          48.000                                                                  
E25  24903236.104   130867629.356       -1425.101          49.000    24903243.356   100275327.582       -1091.923          51.000  
E15                                                                  28293401.814                3      -2575.532          23.000  
E24                                                                  28809276.209                3      -2595.101          26.000  
E13                                                                  27967354.557                       -1680.487          26.000  
G11                                                                  25434525.602                3      -2701.517          19.000  
> 2024 04 16 19 03 30.0020000  0 25                     
G13  23248962.398   122174173.194        1442.557          42.000                                                                  
G07  22750493.389   119554760.735       -3671.255          41.000    22750496.901    93159612.545       -2861.205          41.000  
G09  24077150.919   126526150.160       -3166.432          41.000    24077161.821    98591784.029       -2467.272          42.000  
R05  21930482.897   117231224.858        2388.958          49.000    21930486.546    91179720.629        1858.186          48.000  
R16  24699204.660                3       2836.635          10.000                                                                  
R04  19974233.352   106961282.255        -474.806          51.000    19974232.399    83192103.183        -369.362          50.000  
R14  20247183.174   107928987.055       -2723.459          53.000    20247186.924    83944968.846       -2118.317          51.000  
E08  25565629.604   134348414.578         800.755          46.000    25565635.476   102942349.645         613.482          49.000  
S31  39425172.928   207180608.055        -821.101          44.000  
S33  40376100.386   212177734.033        -820.998          43.000  
G20  21524969.205   113114517.598       -1658.752          47.000                                                                  
E03  24374432.853   128088572.614        -991.478          48.000    24374440.306    98145843.573        -759.692          53.000  
R15  20501475.995   109554019.891        1346.797          53.000    20501480.898    85208532.510        1047.471          49.000  
R03  22217451.446   118931710.335       -3579.455          50.000    22217457.257    92502446.803       -2784.114          48.000  
E05  25858745.347   135888471.258       -2569.806          40.000    25858761.649   104122315.102       -1969.283          49.000  
G05  22564782.118   118578703.594         984.435          47.000    22564784.812    92399050.921         767.130          45.000  
G30  21236794.934   111600319.282       -1986.959          50.000    21236797.448    86961410.158       -1548.312          46.000  
G14  21260924.754   111727111.325         786.406          47.000    21260927.611    87060244.027         612.731          47.000  
E02  24900164.432   130851443.733        1230.640          48.000    24900173.233   100262963.868         942.867          51.000  
G22  22816722.076   119902938.814        2398.379          47.000                                                                  
E25  24911410.024   130910583.733       -1438.493          49.000    24911417.514   100308240.694       -1102.186          52.000  
E15                                                                  28312603.778                3      -2569.250          21.000  
E24                                                                  28828618.625                3      -2597.922          24.000  
E13                                                                  27979908.904                3      -1689.021          26.000  
G11                                                                  25454243.272                3      -2687.983          21.000  
> 2024 04 16 19 04 00.0020000  0 23                     
G13  23240727.678   122130894.635        1442.481          45.000                                                                  
G07  22771461.225   119664946.828       -3674.433          43.000    22771464.703    93245471.628       -2863.437          40.000  
G09  24095244.183   126621229.116       -3172.317          39.000    24095254.411    98665871.303       -2471.932          41.000  
R05  21917086.579   117159617.396        2384.543          49.000    21917091.006    91124026.034        1854.747          49.000  
R04  19976941.012   106975783.312        -492.024          52.000    19976940.325    83203381.809        -382.755          50.000  
R14  20262563.285   108010970.269       -2742.384          53.000    20262566.486    84008733.556       -2132.901          51.000  
E08  25561060.203   134324399.499         800.129          47.000    25561065.446   102923948.549         613.257          49.000  
S31  39429857.877   207205227.798        -820.181          41.000  
S33  40380785.590   212202355.628        -820.634          43.000  
G20  21534489.690   113164546.439       -1676.849          47.000                                                                  
E03  24380106.155   128118382.485        -995.971          48.000    24380113.118    98168684.880        -763.106          53.000  
R15  20493972.186   109513918.847        1326.499          52.000    20493976.514    85177342.947        1031.591          50.000  
R03  22237547.300   119039289.787       -3592.643          49.000    22237554.394    92586119.393       -2794.181          48.000  
E05  25873425.470   135965624.955       -2573.618          39.000    25873442.864   104181432.697       -1972.074          47.000  
G05  22559205.638   118549400.813         968.740          47.000    22559207.539    92376217.603         754.835          44.000  
G30  21248161.828   111660053.015       -1995.501          50.000    21248164.928    87007955.931       -1555.111          46.000  
G14  21256484.731   111703777.308         769.049          48.000    21256487.705    87042061.743         599.224          47.000  
E02  24893165.805   130814668.996        1220.968          47.000    24893175.461   100234785.937         935.509          51.000  
G22  22803053.509   119831113.067        2389.831          46.000                                                                  
E25  24919658.599   130953930.336       -1451.417          48.000    24919666.113   100341454.359       -1112.112          51.000  
E24                                                                  28847993.434                3      -2602.008          20.000  
E13                                                                  27992512.795                3      -1695.914          22.000  
G11                                                                  25473964.997                3      -2692.124          21.000  
> 2024 04 16 19 04 30.0020000  0 24                     
G13  23232493.974   122087627.553        1441.591          44.000                                                                  
G07  22792445.688   119775230.725       -3678.338          38.000    22792451.064    93331406.976       -2866.062          41.000  
G09  24113371.719   126716486.982       -3178.621          42.000    24113381.502    98740097.930       -2476.948          41.000  
R05  21903717.749   117088155.036        2379.077          47.000    21903722.908    91068444.315        1850.367          49.000  
R04  19979748.144   106990814.408        -510.438          51.000    19979746.868    83215072.645        -397.038          49.000  
R14  20278050.240   108093527.641       -2761.986          52.000    20278053.823    84072944.837       -2148.181          51.000  
E08  25556495.031   134300408.615         798.896          47.000    25556500.267   102905566.001         612.050          49.000  
S31  39434540.750   207229836.632        -820.454          44.000  
S33  40385469.344   212226967.325        -820.345          43.000  
G20  21544115.051   113215127.144       -1695.746          47.000                                                                  
E03  24385805.690   128148334.708       -1001.192          48.000    24385812.746    98191635.273        -767.114          53.000  
R15  20486582.917   109474436.261        1305.274          52.000    20486587.307    85146634.404        1015.154          50.000  
R03  22257719.806   119147268.738       -3606.372          52.000    22257724.653    92670102.713       -2805.099          46.000  
E05  25888131.241   136042891.886       -2577.907          40.000    25888147.081   104240637.038       -1975.265          47.000  
G05  22553721.034   118520578.193         952.289          47.000    22553722.609    92353758.475         742.083          45.000  
G30  21259579.531   111720053.974       -2005.001          49.000    21259582.654    87054709.898       -1562.257          46.000  
E30  28655146.318                1       2265.912          29.000    28655183.292   115382547.4341       1736.655          29.000  
G14  21252145.480   111680973.985         750.761          48.000    21252147.836    87024293.028         585.045          47.000  
E02  24886225.339   130778193.208        1210.355          47.000    24886233.632   100206837.062         927.423          51.000  
G22  22789436.373   119759554.387        2380.133          46.000                                                                  
E25  24927982.329   130997672.394       -1465.077          48.000    24927989.920   100374971.021       -1122.637          51.000  
E24                                                                  28867395.416                3      -2598.119          20.000  
E13                                                                  28005176.508                3      -1704.272          22.000  
G11                                                                  25493680.405                3      -2710.354          16.000  
> 2024 04 16 19 05 00.0020000  0 24                     
G13  23224266.570   122044390.073        1440.608          45.000                                                                  
G07  22813455.159   119885627.478       -3681.526          33.000    22813457.899    93417430.397       -2869.115          40.000  
G09  24131536.292   126811940.850       -3185.360          42.000    24131546.514    98814477.374       -2482.057          43.000  
R05  21890380.946   117016858.772        2373.461          49.000    21890384.878    91012991.766        1846.050          50.000  
R04  19982657.094   107006395.214        -528.674          51.000    19982656.735    83227191.027        -411.189          49.000  
R14  20293647.793   108176673.185       -2781.478          52.000    20293651.378    84137613.553       -2163.383          51.000  
E08  25551936.989   134276459.898         797.504          46.000    25551942.969   102887215.756         611.061          49.000  
S31  39439225.154   207254451.267        -820.652          43.000  
S33  40390153.631   212251584.306        -820.594          43.000  
G20  21553848.410   113266275.623       -1714.545          47.000                                                                  
E03  24391536.055   128178447.314       -1006.574          49.000    24391543.018    98214708.545        -771.180          53.000  
R15  20479313.729   109435591.343        1283.976          51.000    20479317.882    85116421.838         998.748          49.000  
R03  22277969.079   119255662.842       -3620.253          50.000    22277972.950    92754408.969       -2815.799          45.000  
E05  25902859.843   136120289.471       -2582.332          41.000    25902876.090   104299941.478       -1978.607          48.000  
G05  22548330.803   118492255.135         935.522          48.000    22548333.431    92331688.605         728.902          45.000  
G30  21271051.454   111780337.844       -2014.375          50.000    21271053.876    87101684.351       -1569.636          46.000  
E30  28642213.267   150515833.0611       2265.300          33.000    28642245.987   115330456.032        1736.338          32.000  
G14  21247910.278   111658720.218         732.371          48.000    21247913.253    87006952.533         570.597          48.000  
E02  24879344.625   130742034.928        1199.727          47.000    24879353.288   100179131.474         919.348          51.000  
G22  22775873.226   119688282.822        2370.717          48.000                                                                  
E25  24936383.976   131041826.467       -1478.863          48.000    24936392.241   100408803.377       -1133.107          52.000  
E15                                                                  28370164.906                3      -2575.127          25.000  
E24                                                                  28886829.600                3      -2610.191          18.000  
E13                                                                  28017899.668                       -1711.194          27.000  
> 2024 04 16 19 05 30.0020000  0 24                     
G13  23216045.583   122001191.284        1439.176          44.000                                                                  
G07  22834485.616   119996144.698       -3685.993          42.000    22834489.442    93503547.529       -2872.192          40.000  
G09  24149740.119   126907599.532       -3192.228          43.000    24149750.095    98889016.359       -2487.424          42.000  
R05  21877077.299   116945739.779        2367.447          50.000    21877080.252    90957677.133        1841.334          49.000  
R04  19985671.826   107022536.728        -547.589          51.000    19985670.995    83239745.532        -425.847          48.000  
R14  20309356.303   108260412.510       -2801.252          50.000    20309361.139    84202744.129       -2178.697          51.000  
E08  25547389.863   134252562.827         795.618          47.000    25547395.903   102868905.063         609.751          51.000  
S31  39443911.831   207279080.568        -821.224          42.000  
S33  40394840.733   212276215.678        -821.518          42.000  
G20  21563690.572   113317999.700       -1733.893          46.000                                                                  
E03  24397298.259   128208729.793       -1012.232          48.000    24397305.530    98237911.981        -775.618          53.000  
R15  20472165.266   109397394.402        1262.251          52.000    20472169.956    85086713.249         981.810          50.000  
R03  22298296.376   119364480.667       -3634.437          50.000    22298301.481    92839044.780       -2826.723          47.000  
E05  25917615.024   136197826.650       -2586.994          42.000    25917630.695   104359352.855       -1982.226          48.000  
G05  22543038.538   118464441.761         918.478          48.000    22543041.121    92310015.849         715.800          46.000  
G30  21282578.338   111840911.791       -2023.909          49.000    21282580.620    87148884.803       -1577.193          46.000  
E30  28629279.046   150447867.312        2264.854          36.000    28629312.523   115278378.871        1735.819          37.000  
G14  21243782.047   111637026.444         713.724          48.000    21243785.293    86990048.386         556.175          48.000  
E02  24872525.986   130706204.187        1188.878          47.000    24872534.485   100151676.867         910.892          51.000  
G22  22762367.838   119617310.000        2360.704          48.000                                                                  
E25  24944866.227   131086400.517       -1492.834          47.000    24944874.144   100442957.557       -1143.893          50.000  
E15                                                                  28389344.158                3      -2573.166          23.000  
E24                                                                  28906298.085                3      -2620.432          19.000  
E13                                                                  28030680.582                       -1719.623          27.000  
> 2024 04 16 19 06 00.0020000  0 23                     
G13  23207829.553   121958021.333        1438.563          44.000                                                                  
G07  22855537.533   120106769.736       -3689.166          42.000    22855540.511    93589748.795       -2874.894          40.000  
G09  24167980.715   127003452.020       -3198.212          43.000    24167990.831    98963706.344       -2492.307          41.000  
R05  21863804.804   116874790.919        2362.088          49.000    21863807.075    90902494.833        1837.244          48.000  
R04  19988789.532   107039230.081        -565.611          51.000    19988788.065    83252729.228        -439.983          49.000  
R14  20325174.279   108344731.165       -2820.191          52.000    20325179.210    84268325.250       -2193.486          51.000  
E08  25542850.054   134228707.263         794.649          47.000    25542856.705   102850626.177         608.817          51.000  
S31  39448599.413   207303713.399        -821.456          39.000  
S33  40399528.545   212300851.040        -821.444          43.000  
G20  21573640.630   113370287.413       -1752.228          47.000                                                                  
E03  24403092.189   128239172.147       -1017.325          49.000    24403098.270    98261237.928        -779.480          53.000  
R15  20465136.563   109359835.535        1241.365          51.000    20465141.258    85057500.952         965.537          49.000  
R03  22318703.276   119473710.046       -3647.777          52.000    22318707.413    92924000.636       -2837.135          47.000  
E05  25932394.846   136275492.922       -2590.825          42.000    25932410.176   104418863.182       -1985.259          49.000  
G05  22537841.497   118437129.670         902.116          48.000    22537843.562    92288733.707         702.982          45.000  
G30  21294157.709   111901763.461       -2032.898          49.000    21294159.999    87196301.678       -1584.039          46.000  
E30  28616346.553   150379911.034        2264.974          37.000    28616379.992   115226309.050        1735.478          39.000  
G14  21239758.347   111615883.429         695.622          47.000    21239761.002    86973573.398         541.910          48.000  
E02  24865767.593   130670691.548        1178.491          47.000    24865776.817   100124465.989         902.985          51.000  
G22  22748917.656   119546627.873        2351.318          48.000                                                                  
E25  24953425.933   131131383.012       -1505.974          47.000    24953433.821   100477424.679       -1154.091          50.000  
E24                                                                  28925789.456                3      -2615.460          16.000  
E13                                                                  28043522.795                3      -1726.633          25.000  
> 2024 04 16 19 06 30.0020000  0 22                     
G13  23199619.533   121914876.110        1437.978          44.000                                                                  
G07  22876609.152   120217496.207       -3692.382          42.000    22876611.069    93676029.054       -2877.492          40.000  
G09  24186256.281   127099493.559       -3204.307          41.000    24186268.075    99038543.649       -2496.899          43.000  
R05  21850563.842   116804010.434        2356.593          50.000    21850566.175    90847443.465        1832.917          49.000  
R04  19992009.179   107056472.364        -583.695          50.000    19992008.577    83266139.893        -454.088          49.000  
R14  20341100.374   108429621.046       -2839.067          53.000    20341104.063    84334350.680       -2208.088          51.000  
E08  25538317.739   134204889.209         793.444          46.000    25538324.196   102832376.043         607.921          51.000  
S31  39453286.464   207328345.831        -821.030          42.000  
S33  40404216.325   212325485.623        -821.143          43.000  
G20  21583697.093   113423132.978       -1770.868          48.000                                                                  
E03  24408914.212   128269770.433       -1022.397          48.000    24408921.017    98284683.353        -783.510          53.000  
R15  20458226.199   109322911.430        1220.238          51.000    20458231.528    85028782.321         949.185          50.000  
R03  22339184.207   119583344.971       -3661.134          51.000    22339188.651    93009271.948       -2847.581          47.000  
E05  25947196.075   136353283.836       -2595.140          40.000    25947213.545   104478468.977       -1988.495          49.000  
G05  22532738.701   118410316.287         885.576          48.000    22532741.132    92267840.191         690.071          45.000  
G30  21305788.584   111962886.543       -2041.797          49.000    21305791.302    87243930.059       -1591.107          45.000  
E30  28603415.767   150311961.070        2264.970          39.000    28603449.126   115174244.006        1735.312          42.000  
G14  21235839.680   111595287.985         677.472          48.000    21235842.257    86957525.094         528.066          48.000  
E02  24859070.000   130635493.575        1168.032          47.000    24859078.693   100097496.219         895.030          51.000  
G22  22735520.895   119476234.516        2341.567          47.000                                                                  
E25  24962062.559   131176768.436       -1519.424          47.000    24962070.016   100512200.530       -1164.337          50.000  
E24                                                                  28945327.288                3      -2613.859          14.000  
> 2024 04 16 19 07 00.0020000  0 22                     
G13  23191414.362   121871759.033        1436.657          45.000                                                                  
G07  22897699.202   120328324.575       -3696.220          43.000    22897701.138    93762388.705       -2880.246          40.000  
G09  24204567.933   127195726.218       -3211.123          41.000    24204579.733    99113529.840       -2501.965          42.000  
R05  21837354.708   116733403.181        2350.517          50.000    21837357.795    90792526.836        1828.125          49.000  
R04  19995332.994   107074267.939        -602.503          51.000    19995331.608    83279980.853        -468.668          49.000  
R14  20357132.447   108515081.243       -2858.285          52.000    20357136.531    84400819.740       -2223.160          51.000  
E08  25533792.877   134181111.679         791.758          46.000    25533799.236   102814156.954         606.747          51.000  
S31  39457974.145   207352979.136        -821.269          44.000  
S33  40408904.775   212350121.974        -821.597          43.000  
G20  21593859.809   113476537.293       -1789.518          48.000                                                                  
E03  24414766.595   128300527.657       -1027.977          48.000    24414773.901    98308250.541        -787.566          53.000  
R15  20451436.642   109286625.728        1198.682          53.000    20451440.703    85000560.264         932.388          50.000  
R03  22359740.821   119693386.767       -3675.017          51.000    22359746.014    93094859.704       -2858.254          48.000  
E05  25962023.762   136431201.883       -2599.424          39.000    25962041.053   104538172.178       -1991.809          48.000  
G05  22527731.841   118384005.459         868.658          48.000    22527733.999    92247338.257         676.876          45.000  
G30  21317471.790   112024281.796       -2051.074          49.000    21317474.460    87291770.500       -1598.260          46.000  
E30  28590487.388   150244021.284        2264.242          43.000    28590519.284   115122186.799        1734.956          42.000  
G14  21232025.654   111575243.966         658.898          48.000    21232028.396    86941906.493         513.365          48.000  
E02  24852432.251   130600613.811        1157.204          47.000    24852441.587   100070770.283         886.786          52.000  
G22  22722181.797   119406135.192        2331.658          47.000                                                                  
E25  24970777.454   131222558.282       -1533.041          48.000    24970783.672   100547286.232       -1174.755          50.000  
E24                                                                  28964882.750                3      -2630.968          15.000  
> 2024 04 16 19 07 30.0020000  0 22                     
G13  23183214.413   121828667.180        1435.693          45.000                                                                  
G07  22918807.471   120439250.114       -3699.221          42.000    22918810.319    93848823.988       -2882.494          40.000  
G09  24222918.049   127292146.744       -3217.096          44.000    24222928.786    99188662.425       -2506.781          42.000  
R05  21824178.920   116662969.710        2344.722          52.000    21824181.638    90737745.376        1823.774          49.000  
R04  19998758.763   107092615.774        -620.825          51.000    19998758.004    83294251.369        -482.934          48.000  
R14  20373270.278   108601104.718       -2877.000          52.000    20373273.861    84467726.846       -2237.647          51.000  
E08  25529275.118   134157372.245         790.615          46.000    25529281.427   102795967.057         605.792          51.000  
S31  39462662.105   207377611.173        -821.111          44.000  
S33  40413592.301   212374756.819        -821.035          42.000  
G20  21604127.831   113530496.222       -1807.977          47.000                                                                  
E03  24420649.496   128331441.476       -1033.105          48.000    24420656.800    98331937.746        -791.609          54.000  
R15  20444765.329   109250976.187        1177.624          52.000    20444769.312    84972833.009         915.912          50.000  
R03  22380371.938   119803831.305       -3688.192          50.000    22380378.315    93180760.703       -2868.723          48.000  
E05  25976874.942   136509244.148       -2603.833          39.000    25976893.024   104597970.527       -1994.976          49.000  
G05  22522820.798   118358196.151         851.848          49.000    22522822.840    92227227.140         663.708          45.000  
G30  21329205.703   112085944.429       -2060.010          48.000    21329208.697    87339819.310       -1605.243          46.000  
E30  28577560.223   150176089.954        2264.138          42.000    28577592.219   115070136.083        1734.976          43.000  
G14  21228315.270   111555749.759         640.507          48.000    21228318.275    86926716.292         499.063          48.000  
E02  24845855.393   130566050.405        1146.794          47.000    24845864.103   100044286.752         878.694          52.000  
G22  22708897.621   119336329.203        2321.875          47.000                                                                  
E25  24979566.325   131268748.591       -1546.372          47.000    24979573.321   100582678.815       -1184.968          50.000  
E24                                                                  28984470.814                3      -2637.314          15.000  
> 2024 04 16 19 08 00.0020000  0 21                     
G13  23175018.211   121785593.008        1435.259          46.000                                                                  
G07  22939932.155   120550262.496       -3701.885          39.000    22939935.487    93935327.069       -2884.705          41.000  
G09  24241300.514   127388746.501       -3223.165          45.000    24241310.676    99263934.657       -2511.358          41.000  
R05  21811033.597   116592704.250        2339.058          51.000    21811037.410    90683094.560        1819.297          50.000  
R04  20002286.755   107111509.115        -639.130          51.000    20002286.186    83308946.152        -497.048          48.000  
R14  20389510.565   108687679.560       -2895.185          52.000    20389515.271    84535062.826       -2251.769          51.000  
E08  25524763.180   134133663.105         789.609          46.000    25524769.722   102777800.342         604.980          51.000  
S31  39467347.425   207402233.190        -820.803          41.000  
S33  40418278.185   212399380.756        -820.708          43.000  
G20  21614499.882   113585000.111       -1826.021          47.000                                                                  
E03  24426560.639   128362504.135       -1037.994          48.000    24426567.858    98355739.006        -795.368          54.000  
R15  20438211.615   109215955.829        1156.652          52.000    20438215.992    84945595.075         899.546          50.000  
R03  22401078.062   119914668.212       -3701.216          51.000    22401084.607    93266966.863       -2878.913          48.000  
E05  25991750.553   136587402.165       -2607.267          41.000    25991766.015   104657857.678       -1997.843          49.000  
G05  22518003.419   118332881.484         835.442          48.000    22518005.597    92207501.438         650.774          45.000  
G30  21340988.904   112147864.392       -2068.500          49.000    21340991.882    87388068.621       -1611.688          46.000  
E30  28564632.465   150108160.335        2263.881          39.000    28564665.784   115018086.728        1734.633          43.000  
G14  21224708.944   111536798.298         622.422          48.000    21224711.029    86911949.023         485.125          47.000  
E02  24839337.968   130531796.094        1136.462          48.000    24839345.457   100018040.043         870.812          51.000  
G22  22695667.600   119266810.984        2312.178          45.000                                                                  
E25  24988430.410   131315330.020       -1559.464          48.000    24988436.848   100618371.081       -1194.781          49.000  
> 2024 04 16 19 08 30.0020000  0 21                     
G13  23166825.748   121742541.734        1434.411          46.000                                                                  
G07  22961074.595   120661364.774       -3705.127          41.000    22961076.918    94021900.138       -2887.212          41.000  
G09  24259717.877   127485529.913       -3229.094          44.000    24259726.824    99339350.019       -2516.543          39.000  
R05  21797921.663   116522614.926        2333.097          51.000    21797925.365    90628580.780        1814.652          48.000  
R04  20005918.791   107130954.557        -657.588          51.000    20005916.735    83324070.355        -511.415          48.000  
R14  20405854.785   108774807.125       -2913.553          52.000    20405860.985    84602828.652       -2266.154          52.000  
E08  25520258.534   134109989.555         788.269          46.000    25520264.782   102759660.918         604.108          51.000  
S31  39472031.567   207426848.468        -820.627          42.000  
S33  40422963.193   212423999.379        -820.819          43.000  
G20  21624975.554   113640052.138       -1844.374          46.000                                                                  
E03  24432501.094   128393720.997       -1043.193          48.000    24432508.291    98379658.386        -799.339          54.000  
R15  20431775.554   109181570.031        1135.382          51.000    20431780.521    84918850.701         883.013          49.000  
R03  22421857.162   120025901.266       -3714.524          51.000    22421863.915    93353481.139       -2889.132          48.000  
E05  26006645.284   136665681.048       -2611.629          41.000    26006661.496   104717837.344       -2001.054          49.000  
G05  22513281.558   118308067.928         818.565          49.000    22513283.478    92188166.212         637.818          45.000  
G30  21352821.484   112210044.685       -2077.228          49.000    21352824.645    87436520.772       -1618.500          47.000  
E30  28551707.226   150040238.534        2263.842          39.000    28551739.619   114966043.425        1734.749          41.000  
G14  21221206.976   111518395.666         604.002          48.000    21221209.414    86897609.387         470.813          48.000  
E02  24832878.575   130497856.739        1125.950          47.000    24832886.696    99992034.668         862.771          51.000  
G22  22682496.054   119197587.993        2302.171          46.000                                                                  
E25  24997369.047   131362306.299       -1572.512          47.000    24997376.539   100654365.891       -1205.057          49.000  
> 2024 04 16 19 09 00.0020000  0 21                     
G13  23158638.223   121699519.331        1433.350          45.000                                                                  
G07  22982235.146   120772560.179       -3708.401          41.000    22982237.904    94108545.760       -2889.402          42.000  
G09  24278170.408   127582501.897       -3235.682          42.000    24278180.514    99414912.332       -2521.437          40.000  
R05  21784844.857   116452709.724        2326.826          52.000    21784847.954    90574210.173        1809.861          49.000  
R04  20009654.695   107150959.140        -676.426          51.000    20009653.272    83339629.458        -526.047          49.000  
R14  20422304.587   108862488.744       -2932.181          51.000    20422309.783    84671025.428       -2280.619          51.000  
E08  25515761.627   134086357.269         786.729          45.000    25515767.411   102741553.114         602.853          51.000  
S31  39476716.016   207451463.823        -820.984          39.000  
S33  40427647.546   212448617.201        -820.763          43.000  
G20  21635557.043   113695655.910       -1862.944          47.000                                                                  
E03  24438472.071   128425097.764       -1048.750          48.000    24438479.022    98403700.289        -803.672          54.000  
R15  20425460.705   109147825.524        1113.883          51.000    20425465.276    84892605.117         866.318          49.000  
R03  22442712.757   120137534.677       -3728.056          52.000    22442718.466    93440306.801       -2899.495          48.000  
E05  26021565.720   136744085.768       -2615.835          42.000    26021581.324   104777913.477       -2004.350          48.000  
G05  22508656.464   118283762.619         801.400          48.000    22508658.232    92169227.017         624.463          45.000  
G30  21364704.544   112272488.716       -2086.102          50.000    21364707.274    87485178.445       -1625.653          46.000  
E30  28538784.245   149972331.046        2262.916          40.000    28538816.762   114914011.063        1733.930          42.000  
G14  21217810.740   111500548.289         585.387          49.000    21217813.332    86883702.426         456.151          48.000  
E02  24826480.369   130464238.518        1114.904          47.000    24826489.368    99966275.372         854.315          51.000  
G22  22669381.124   119128667.713        2292.042          47.000                                                                  
E25  25006383.765   131409681.563       -1586.087          47.000    25006391.505   100690666.413       -1215.201          48.000  
> 2024 04 16 19 09 30.0020000  0 21                     
G13  23150456.019   121656523.989        1432.619          45.000                                                                  
G07  23003411.895   120883844.924       -3711.416          40.000    23003415.685    94195261.007       -2891.903          43.000  
G09  24296659.237   127679659.628       -3241.870          42.000    24296671.120    99490619.343       -2526.233          43.000  
R05  21771802.150   116382989.175        2320.668          52.000    21771805.207    90519983.177        1804.838          49.000  
R04  20013494.240   107171521.974        -695.073          51.000    20013493.496    83355622.746        -540.611          48.000  
R14  20438856.398   108950718.410       -2950.308          51.000    20438861.329    84739648.473       -2294.515          51.000  
E08  25511272.104   134062764.420         785.667          46.000    25511277.665   102723475.537         601.913          51.000  
S31  39481399.192   207476075.700        -820.477          42.000  
S33  40432331.655   212473231.294        -820.814          42.000  
G20  21646242.119   113751807.784       -1881.099          47.000                                                                  
E03  24444473.093   128456632.568       -1054.105          48.000    24444480.042    98427863.278        -807.591          54.000  
R15  20419265.951   109114720.399        1092.563          52.000    20419269.850    84866856.835         849.740          49.000  
R03  22463640.697   120249564.068       -3741.084          52.000    22463647.806    93527440.420       -2909.684          49.000  
E05  26036509.666   136822614.053       -2620.018          42.000    26036524.669   104838084.262       -2007.482          47.000  
G05  22504127.313   118259964.930         784.638          48.000    22504129.965    92150683.375         611.405          45.000  
G30  21376637.020   112335192.283       -2094.666          49.000    21376639.419    87534038.362       -1632.361          47.000  
E30  28525863.177   149904436.679        2262.791          39.000    28525895.329   114861988.733        1733.915          41.000  
G14  21214520.180   111483255.045         566.978          48.000    21214522.710    86870227.245         441.715          49.000  
E02  24820143.946   130430940.054        1104.400          47.000    24820152.636    99940761.071         846.241          51.000  
G22  22656323.883   119060050.221        2281.914          48.000                                                                  
E25  25015474.925   131457452.347       -1599.079          47.000    25015482.313   100727269.954       -1225.226          48.000  
> 2024 04 16 19 10 00.0020000  0 21                     
G13  23142279.798   121613561.271        1431.218          44.000                                                                  
G07  23024606.078   120995221.841       -3714.192          41.000    23024609.467    94282048.102       -2894.319          42.000  
G09  24315184.405   127777007.899       -3248.333          43.000    24315196.702    99566474.846       -2530.957          43.000  
R05  21758795.346   116313461.211        2314.122          52.000    21758798.611    90465905.985        1799.910          49.000  
R04  20017440.233   107192650.458        -713.976          52.000    20017439.950    83372055.957        -555.267          49.000  
R14  20455511.231   109039497.337       -2968.645          52.000    20455515.807    84808698.725       -2308.952          51.000  
E08  25506791.039   134039216.803         783.879          46.000    25506796.619   102705432.613         600.700          51.000  
S31  39486082.817   207500689.081        -820.611          43.000  
S33  40437015.884   212497847.580        -820.918          43.000  
G20  21657032.781   113808511.341       -1899.516          48.000                                                                  
E03  24450504.975   128488331.282       -1059.539          48.000    24450512.187    98452151.854        -811.806          54.000  
R15  20413191.497   109082260.781        1070.928          52.000    20413195.505    84841610.621         833.023          49.000  
R03  22484644.394   120361993.648       -3754.558          52.000    22484650.118    93614885.316       -2920.049          48.000  
E05  26051476.950   136901271.117       -2624.426          41.000    26051492.896   104898353.722       -2010.739          46.000  
G05  22499697.228   118236680.926         767.355          48.000    22499699.014    92132539.987         597.763          45.000  
G30  21388618.602   112398158.912       -2103.497          49.000    21388621.632    87583103.254       -1638.885          46.000  
E30  28512946.801   149836562.187        2262.011          40.000    28512979.190   114809981.602        1733.370          40.000  
G14  21211335.385   111466522.260         548.136          47.000    21211338.283    86857188.792         427.196          48.000  
E02  24813869.624   130397967.635        1093.520          46.000    24813878.538    99915496.603         837.826          52.000  
G22  22643325.127   118991743.478        2271.390          48.000                                                                  
E25  25024642.369   131505622.815       -1612.642          48.000    25024648.927   100764179.762       -1235.592          48.000  
> 2024 04 16 19 10 30.0020000  0 21                     
G13  23134110.066   121570629.002        1430.372          45.000                                                                  
G07  23045817.427   121106686.645       -3717.093          44.000    23045820.184    94368903.618       -2896.604          44.000  
G09  24333745.108   127874543.820       -3254.102          44.000    24333756.498    99642476.548       -2535.736          41.000  
R05  21745824.148   116244126.714        2307.746          51.000    21745827.930    90411979.277        1794.866          49.000  
R04  20021490.892   107214343.248        -732.559          51.000    20021490.420    83388928.086        -569.806          49.000  
R14  20472268.292   109128819.359       -2986.457          52.000    20472272.916    84878171.376       -2322.789          52.000  
E08  25502318.610   134015712.272         782.727          46.000    25502323.807   102687422.681         599.621          51.000  
S31  39490766.524   207525301.404        -820.437          43.000  
S33  40441700.178   212522462.417        -820.517          41.000  
G20  21667927.382   113865762.383       -1917.718          47.000                                                                  
E03  24456568.896   128520191.757       -1064.754          48.000    24456574.955    98476564.374        -815.867          53.000  
R15  20407237.824   109050445.142        1049.636          51.000    20407241.536    84816865.236         816.422          49.000  
R03  22505722.258   120474819.591       -3767.534          52.000    22505726.990    93702638.478       -2930.361          48.000  
E05  26066468.876   136980054.251       -2628.642          40.000    26066485.864   104958719.746       -2013.932          48.000  
G05  22495364.205   118213909.952         750.225          49.000    22495366.162    92114796.361         584.562          45.000  
G30  21400650.616   112461384.115       -2112.042          50.000    21400652.992    87632369.620       -1645.575          46.000  
E30  28500033.824   149768706.266        2261.366          40.000    28500066.260   114757988.731        1732.875          41.000  
G14  21208257.634   111450348.457         529.742          48.000    21208259.801    86844585.929         412.762          47.000  
E02  24807657.288   130365319.559        1082.717          47.000    24807665.989    99890480.644         829.571          52.000  
G22  22630385.263   118923747.590        2261.159          46.000                                                                  
E25  25033883.928   131554189.198       -1625.600          48.000    25033890.941   100801392.947       -1245.559          48.000  
> 2024 04 16 19 11 00.0020000  0 21                     
G13  23125947.419   121527731.890        1428.959          45.000                                                                  
G07  23067045.179   121218241.063       -3720.428          42.000    23067049.445    94455829.012       -2898.940          43.000  
G09  24352342.441   127972270.736       -3260.992          44.000    24352353.975    99718627.101       -2541.248          42.000  
R05  21732892.234   116174992.320        2300.779          52.000    21732894.640    90358208.188        1789.515          49.000  
R04  20025648.938   107236605.972        -751.845          52.000    20025647.085    83406243.483        -584.818          49.000  
R14  20489126.862   109218684.909       -3004.866          52.000    20489131.491    84948066.780       -2337.066          52.000  
E08  25497855.751   133992255.219         780.871          47.000    25497860.128   102669449.162         598.335          51.000  
S31  39495450.773   207549915.901        -820.619          44.000  
S33  40446384.518   212547080.012        -821.009          42.000  
G20  21678927.008   113923563.078       -1936.115          48.000                                                                  
E03  24462663.341   128552218.449       -1070.630          49.000    24462669.599    98501104.256        -820.287          54.000  
R15  20401405.046   109019277.966        1027.839          52.000    20401408.775    84792624.237         799.397          48.000  
R03  22526872.353   120588043.924       -3780.990          51.000    22526878.216    93790701.514       -2940.945          48.000  
E05  26081485.738   137058967.316       -2633.021          41.000    26081502.520   105019185.352       -2017.411          47.000  
G05  22491129.833   118191657.731         732.772          49.000    22491131.268    92097456.959         571.079          45.000  
G30  21412731.268   112524869.951       -2120.831          49.000    21412734.428    87681839.091       -1652.588          46.000  
E30  28487124.525   149700874.109        2260.673          39.000    28487156.962   114706014.075        1732.202          40.000  
G14  21205287.571   111434738.675         510.661          48.000    21205289.652    86832422.543         397.880          48.000  
E02  24801506.602   130333000.712        1071.540          46.000    24801515.815    99865716.971         821.068          52.000  
G22  22617505.694   118856068.759        2250.513          46.000                                                                  
E25  25043201.404   131603154.283       -1639.095          47.000    25043208.292   100838911.626       -1255.886          48.000  
> 2024 04 16 19 11 30.0020000  0 21                     
G13  23117792.228   121484870.387        1427.946          46.000                                                                  
G07  23088290.291   121329883.494       -3723.087          43.000    23088293.905    94542822.973       -2900.997          43.000  
G09  24370975.758   128070188.228       -3267.175          44.000    24370987.193    99794926.142       -2546.100          42.000  
R05  21719996.939   116106061.143        2294.111          52.000    21719998.997    90304595.147        1784.372          48.000  
R04  20029912.256   107259440.126        -770.797          51.000    20029911.278    83424003.341        -599.610          48.000  
R14  20506086.306   109309089.920       -3022.626          52.000    20506091.069    85018381.761       -2350.910          51.000  
E08  25493400.700   133968846.116         779.404          47.000    25493405.397   102651512.364         597.183          51.000  
S31  39500134.684   207574532.015        -820.954          40.000  
S33  40451069.832   212571698.878        -820.837          43.000  
G20  21690030.290   113981911.807       -1954.107          48.000                                                                  
E03  24468789.482   128584411.767       -1076.031          49.000    24468795.966    98525771.809        -824.420          54.000  
R15  20395693.485   108988760.004        1006.329          51.000    20395697.722    84768888.164         782.678          49.000  
R03  22548097.366   120701665.156       -3794.119          51.000    22548104.966    93879073.175       -2950.934          49.000  
E05  26096526.750   137138010.255       -2637.025          41.000    26096544.389   105079750.451       -2020.477          47.000  
G05  22486994.051   118169925.340         715.716          48.000    22486995.675    92080522.634         557.631          45.000  
G30  21424861.427   112588614.654       -2129.279          49.000    21424864.739    87731510.267       -1659.119          46.000  
E30  28474221.922   149633067.078        2259.446          39.000    28474253.082   114654058.662        1731.415          41.000  
G14  21202424.069   111419693.923         491.941          48.000    21202425.743    86820699.437         383.360          47.000  
E02  24795420.289   130301011.955        1060.587          47.000    24795428.344    99841206.239         812.679          52.000  
G22  22604687.704   118788709.556        2239.775          47.000                                                                  
E25  25052594.550   131652516.862       -1652.108          47.000    25052601.565   100876734.890       -1265.870          47.000  
> 2024 04 16 19 12 00.0020000  0 22                     
G13  23109642.279   121442042.685        1426.613          45.000                                                                  
G07  23109551.581   121441609.923       -3725.900          44.000    23109554.828    94629882.371       -2903.371          43.000  
G09  24389644.462   128168293.745       -3273.560          43.000    24389655.363    99871371.663       -2550.934          41.000  
R05  21707139.576   116037333.610        2287.095          52.000    21707142.932    90251140.514        1778.816          48.000  
R04  20034283.040   107282845.126        -790.029          51.000    20034282.257    83442207.209        -614.404          49.000  
R14  20523145.939   109400028.097       -3040.433          53.000    20523151.032    85089111.396       -2364.804          50.000  
E08  25488954.337   133945483.244         777.745          46.000    25488959.582   102633610.989         595.918          51.000  
S31  39504819.078   207599148.575        -820.766          38.000  
S33  40455754.550   212596318.031        -821.015          43.000  
G20  21701236.843   114040804.447       -1972.458          48.000                                                                  
E03  24474947.002   128616770.071       -1081.518          49.000    24474953.411    98550565.803        -828.817          54.000  
R15  20390104.509   108958889.745         984.472          52.000    20390108.222    84745655.883         765.807          50.000  
R03  22569396.942   120815679.635       -3807.280          52.000    22569403.484    93967750.749       -2961.169          49.000  
E05  26111594.197   137217180.785       -2641.470          42.000    26111610.327   105140413.275       -2024.022          47.000  
G05  22482956.955   118148711.896         698.104          48.000    22482959.369    92063992.692         544.042          46.000  
G30  21437039.880   112652614.168       -2137.921          49.000    21437042.157    87781380.001       -1665.741          45.000  
E30  28461321.938   149565284.194        2258.630          39.000    28461353.741   114602121.796        1730.754          42.000  
G14  21199668.419   111405213.076         473.001          48.000    21199670.769    86809415.787         368.484          47.000  
E02  24789395.524   130269352.039        1049.455          48.000    24789403.097    99816947.447         804.256          52.000  
G22  22591930.255   118721669.972        2228.966          46.000                                                                  
E25  25062063.364   131702273.559       -1665.367          48.000    25062070.081   100914860.148       -1276.203          47.000  
R16                                                                  24383756.987                3       2488.030          26.000  
> 2024 04 16 19 12 30.0020000  0 21                     
G13  23101499.378   121399252.816        1425.784          46.000                                                                  
G07  23130829.421   121553421.152       -3728.281          46.000    23130830.985    94717007.910       -2905.095          42.000  
G09  24408350.002   128266589.692       -3279.614          44.000    24408361.217    99947965.590       -2555.505          42.000  
R05  21694321.561   115968815.916        2280.503          52.000    21694324.723    90197849.050        1773.596          49.000  
R04  20038761.753   107306825.530        -808.834          51.000    20038761.047    83460858.578        -629.120          49.000  
R14  20540305.766   109491499.195       -3057.769          52.000    20540311.263    85160255.551       -2378.208          52.000  
E08  25484518.242   133922170.117         776.445          46.000    25484523.391   102615747.743         594.882          51.000  
S31  39509503.880   207623767.175        -820.542          42.000  
S33  40460439.979   212620939.396        -820.653          42.000  
G20  21712547.941   114100242.696       -1990.339          47.000                                                                  
E03  24481136.085   128649296.853       -1086.884          49.000    24481142.963    98575488.876        -832.816          54.000  
R15  20384636.818   108929671.049         963.355          53.000    20384640.245    84722930.364         749.036          49.000  
R03  22590770.102   120930088.832       -3820.141          51.000    22590777.015    94056735.355       -2971.121          48.000  
E05  26126684.027   137296481.814       -2645.426          41.000    26126701.037   105201176.168       -2027.019          47.000  
G05  22479020.206   118128022.756         680.971          48.000    22479022.586    92047871.263         530.580          46.000  
G30  21449267.050   112716869.635       -2145.996          49.000    21449269.566    87831449.194       -1672.388          45.000  
E30  28448429.389   149497529.711        2258.044          40.000    28448459.638   114550206.737        1730.223          40.000  
G14  21197020.673   111391300.123         454.431          47.000    21197023.119    86798574.620         354.077          48.000  
E02  24783433.616   130238024.869        1038.855          47.000    24783442.144    99792943.627         795.988          52.000  
G22  22579235.608   118654955.286        2218.401          48.000                                                                  
E25  25071606.928   131752426.156       -1678.263          48.000    25071613.261   100953288.742       -1285.757          47.000  
> 2024 04 16 19 13 00.0020000  0 22                     
G13  23093363.043   121356501.031        1424.466          45.000                                                                  
G07  23152121.849   121665316.051       -3731.097          45.000    23152124.063    94804198.597       -2907.266          42.000  
G09  24427092.035   128365075.889       -3285.999          44.000    24427103.621   100024707.784       -2560.370          43.000  
R05  21681543.796   115900511.687        2273.380          51.000    21681546.947    90144723.609        1768.224          48.000  
R16  24347772.452                2       3185.004          26.000                                                                  
R04  20043347.248   107331383.013        -828.133          52.000    20043347.087    83479958.823        -644.103          49.000  
R14  20557563.804   109583498.919       -3075.373          52.000    20557570.181    85231810.843       -2391.932          51.000  
E08  25480090.807   133898907.538         774.628          46.000    25480096.713   102597923.226         593.531          51.000  
S31  39514189.197   207648387.487        -820.924          41.000  
S33  40465125.799   212645563.045        -820.821          43.000  
G20  21723961.808   114160225.097       -2008.263          47.000                                                                  
E03  24487358.769   128681992.896       -1092.630          49.000    24487365.028    98600541.640        -837.143          54.000  
R15  20379290.478   108901104.554         941.446          53.000    20379293.604    84700712.134         732.142          49.000  
R03  22612215.955   121044891.767       -3833.351          50.000    22612223.342    94146026.147       -2981.370          49.000  
E05  26141800.646   137375913.559       -2649.781          42.000    26141816.608   105262039.188       -2030.474          47.000  
G05  22475183.237   118107858.811         663.414          48.000    22475185.627    92032159.095         516.981          46.000  
G30  21461543.008   112781379.578       -2154.291          49.000    21461545.564    87881716.641       -1678.729          44.000  
E30  28435541.646   149429805.314        2256.977          41.000    28435571.072   114498314.677        1729.206          40.000  
G14  21194482.216   111377956.380         435.419          48.000    21194483.709    86788176.964         339.294          47.000  
E02  24777535.019   130207031.584        1027.728          46.000    24777544.115    99769195.647         787.515          53.000  
G22  22566602.635   118588568.475        2207.442          47.000                                                                  
E25  25081225.965   131802973.745       -1691.467          48.000    25081232.283   100992020.004       -1296.017          47.000  
> 2024 04 16 19 13 30.0020000  0 22                     
G13  23085234.672   121313785.001        1422.923          44.000                                                                  
G07  23173430.797   121777289.485       -3733.793          47.000    23173433.837    94891450.486       -2909.463          44.000  
G09  24445869.234   128463748.689       -3292.175          44.000    24445881.200   100101595.365       -2565.357          43.000  
R05  21668806.046   115832420.349        2266.044          52.000    21668809.403    90091763.766        1762.507          49.000  
R16  24329898.526                        3178.217          28.000                                                                  
R04  20048041.304   107356516.178        -847.426          52.000    20048040.294    83499506.808        -659.148          49.000  
R14  20574921.317   109676020.737       -3092.803          51.000    20574926.733    85303772.225       -2405.499          51.000  
E08  25475672.756   133875692.797         773.030          46.000    25475679.460   102580135.347         592.327          52.000  
S31  39518874.191   207673007.302        -820.657          44.000  
S33  40469811.054   212670184.966        -820.767          42.000  
G20  21735479.324   114220746.506       -2026.418          47.000                                                                  
E03  24493612.453   128714855.433       -1098.232          49.000    24493618.670    98625721.985        -841.548          54.000  
R15  20374066.389   108873188.082         919.620          52.000    20374069.799    84678999.452         715.409          49.000  
R03  22633735.232   121160083.030       -3846.131          51.000    22633743.000    94235619.005       -2991.503          48.000  
E05  26156940.449   137455472.635       -2654.067          43.000    26156956.019   105322999.786       -2033.668          47.000  
G05  22471445.615   118088218.227         645.846          48.000    22471447.934    92016854.739         503.253          46.000  
G30  21473866.675   112846138.938       -2162.988          49.000    21473868.898    87932178.435       -1685.406          45.000  
E30  28422658.843   149362108.993        2256.038          41.000    28422688.252   114446444.161        1728.536          40.000  
G14  21192050.819   111365179.517         416.355          48.000    21192052.289    86778221.077         324.597          47.000  
E02  24771700.712   130176369.857        1016.398          47.000    24771708.879    99745701.746         778.806          52.000  
G22  22554031.722   118522508.859        2196.335          48.000                                                                  
E25  25090918.669   131853911.853       -1704.475          48.000    25090925.626   101031050.506       -1306.017          47.000  
> 2024 04 16 19 14 00.0020000  0 22                     
G13  23077112.738   121271103.583        1421.954          44.000                                                                  
G07  23194752.323   121889338.128       -3736.411          45.000    23194754.507    94978760.975       -2911.491          42.000  
G09  24464681.161   128562605.936       -3298.505          43.000    24464693.390   100178626.667       -2570.264          43.000  
R05  21656108.154   115764543.146        2258.729          52.000    21656111.327    90038970.483        1756.849          48.000  
R16  24312047.722                        3171.930          28.000                                                                  
R04  20052842.449   107382224.428        -866.699          52.000    20052840.310    83519502.048        -674.122          49.000  
R14  20592374.998   109769059.119       -3109.986          52.000    20592380.172    85376135.369       -2418.858          50.000  
E08  25471263.475   133852524.718         771.385          45.000    25471270.918   102562383.238         590.991          52.000  
S31  39523558.478   207697623.932        -820.778          41.000  
S33  40474496.240   212694805.144        -820.826          43.000  
G20  21747097.977   114281804.044       -2044.291          47.000                                                                  
E03  24499897.317   128747883.298       -1103.966          49.000    24499903.706    98651029.000        -845.848          54.000  
R15  20368963.437   108845919.897         897.924          52.000    20368965.951    84657790.999         698.475          48.000  
R03  22655326.512   121275659.769       -3859.157          51.000    22655334.268    94325511.637       -3001.546          49.000  
E05  26172103.483   137535157.410       -2658.412          43.000    26172119.872   105384056.739       -2037.098          47.000  
G05  22467807.341   118069100.512         628.503          48.000    22467809.744    92001957.816         489.635          46.000  
G30  21486236.890   112911144.200       -2171.136          49.000    21486239.404    87982831.858       -1691.833          46.000  
E30  28409782.389   149294440.437        2254.781          42.000    28409810.338   114394594.950        1727.875          40.000  
G14  21189726.450   111352968.835         397.421          47.000    21189728.623    86768706.381         309.666          47.000  
E02  24765928.054   130146038.922        1005.404          46.000    24765937.070    99722461.265         770.341          52.000  
G22  22541522.605   118456777.506        2185.395          48.000                                                                  
E25  25100686.564   131905237.602       -1717.460          48.000    25100692.553   101070378.011       -1315.982          47.000  
> 2024 04 16 19 14 30.0020000  0 22                     
G13  23068997.377   121228455.775        1421.040          45.000                                                                  
G07  23216087.956   122001458.112       -3738.478          47.000    23216090.929    95066127.070       -2913.229          43.000  
G09  24483527.508   128661645.745       -3304.309          43.000    24483539.626   100255800.242       -2574.835          42.000  
R05  21643450.462   115696881.864        2251.838          53.000    21643453.398    89986345.106        1751.409          48.000  
R16  24294248.691   129775507.6111       3163.794          33.000                                                                  
R04  20057750.679   107408507.816        -885.642          52.000    20057749.267    83539944.641        -688.835          50.000  
R14  20609924.208   109862608.250       -3126.796          51.000    20609929.830    85448895.764       -2431.971          50.000  
E08  25466864.010   133829402.427         769.966          46.000    25466870.608   102544666.171         590.047          52.000  
S31  39528241.482   207722234.931        -820.271          42.000  
S33  40479180.270   212719419.876        -820.147          42.000  
G20  21758818.611   114343393.773       -2061.689          47.000                                                                  
E03  24506213.354   128781075.527       -1109.126          49.000    24506220.040    98676461.956        -849.805          54.000  
R15  20363981.804   108819299.395         876.582          53.000    20363984.944    84637086.286         681.688          49.000  
R03  22676989.330   121391618.445       -3871.550          52.000    22676996.333    94415701.378       -3011.173          48.000  
E05  26187289.808   137614966.162       -2662.200          43.000    26187306.858   105445208.658       -2039.918          47.000  
G05  22464269.357   118050506.257         611.169          49.000    22464271.551    91987468.764         476.242          46.000  
G30  21498653.232   112976392.118       -2178.912          49.000    21498656.609    88033674.369       -1697.876          46.000  
E30  28396909.045   149226799.464        2254.228          42.000    28396938.900   114342766.876        1726.992          41.000  
G14  21187509.774   111341323.760         378.734          47.000    21187512.451    86759632.391         295.208          46.000  
E02  24760219.725   130116038.144         994.578          47.000    24760227.996    99699473.802         762.066          52.000  
G22  22529077.297   118391375.150        2174.585          48.000                                                                  
E25  25110526.652   131956948.280       -1730.046          48.000    25110533.103   101110000.452       -1325.586          47.000  
