     3.00           OBSERVATION DATA    M: Mixed            RINEX VERSION / TYPE
CONVBIN 2.4.3                           20240416 072942 UTC PGM / RUN BY / DATE 
format: u-blox UBX                                          COMMENT             
log: /home/regis/git/gnsspwv/obsdata/VERT00CHL/2024-04-16/VECOMMENT             
{self.marker}                                               MARKER NAME         
                                                            MARKER NUMBER       
GEODETIC                                                    MARKER TYPE         
{self.observer}     {self.institution}                      OBSERVER / AGENCY   
UNKNOWN             UBLOX-ZED-F9P                           REC # / TYPE / VERS 
UNKNOWN             TWIVSP6037L                             ANT # / TYPE        
  1713381.0000 -5047934.0000 -3490983.0000                  APPROX POSITION XYZ 
        0.0000        0.0000        0.0000                  ANTENNA: DELTA H/E/N
G    8 C1C L1C D1C S1C C2L L2L D2L S2L                      SYS / # / OBS TYPES 
R    8 C1C L1C D1C S1C C2C L2C D2C S2C                      SYS / # / OBS TYPES 
E    8 C1C L1C D1C S1C C7Q L7Q D7Q S7Q                      SYS / # / OBS TYPES 
S    4 C1C L1C D1C S1C                                      SYS / # / OBS TYPES 
  2024    04    16    07    15   00.0110000     GPS         TIME OF FIRST OBS   
  2024    04    16    07    29   30.0110000     GPS         TIME OF LAST OBS    
                                                            END OF HEADER       
> 2024 04 16 07 15 00.0110000  0 26                     
G18  25829986.066   135737548.7421      -3171.932          42.000    25829983.318   105769493.4131      -2471.829          46.000  
G26  24042491.718   126344169.6841      -2515.845          47.000    24042492.657    98450010.8641      -1960.321          46.000  
G23  23764319.646   124882559.9151      -1212.189          47.000    23764316.579    97311099.9551       -944.625          47.000  
G16  24095248.465   126621411.4011        376.263          47.000                                                                  
R05  26350453.875   140858405.7871      -2666.274          44.000    26350450.243   109556561.3441      -2073.738          47.000  
R11  24212023.133   129381796.4091      -3937.945          52.000    24212021.487   100630341.2621      -3062.854          50.000  
R20  27223283.570                3      -3106.117          15.000                                                                  
R21  23874732.361   127758694.4511      -1726.782          53.000    23874726.669    99367942.7291      -1343.036          48.000  
G29  28186775.221   148122542.2121      -3178.222          44.000    28186773.108   115420202.2191      -2476.302          40.000  
S33  42921728.681   225555270.3171       -639.788          42.000  
S31  41967653.201   220541583.4351       -640.011          44.000  
G10  23914330.277   125670801.0561       1570.837          51.000    23914329.002    97925289.3941       1223.992          47.000  
E11  27062538.081   142214592.8871        440.436          45.000    27062537.314   108969675.2961        337.528          47.000  
R12  24152327.488   129017433.7101        214.185          50.000    24152327.793   100347019.3761        166.656          50.000  
R22  24126598.539   128789505.7131        503.528          51.000    24126597.060   100169658.4111        391.559          49.000  
R07  26201158.200   140256802.3891       3431.669          49.000    26201155.398   109088675.6921       2669.208          41.000  
R06  24473301.420   130594304.9061       1261.245          43.000                                                                  
G27  25323882.925   133077914.8181       1677.150          49.000    25323881.474   103697079.7781       1306.720          43.000  
E33  30371309.033   159602308.6401      -2807.256          36.000    30371308.406   122292802.4381      -2150.821          46.000  
E31  28948543.641   152125746.2981      -3459.888          45.000    28948548.251   116563953.3781      -2651.119          49.000  
E25  28851262.972   151614353.4521       1281.550          45.000    28851265.767   116172059.4551        982.003          47.000  
E14  30931140.263   162544399.8931      -1388.777          45.000    30931141.676   124546982.2331      -1063.984          50.000  
E19  30869744.681   162221638.6221       1288.481          36.000    30869747.790   124299713.0021        987.248          41.000  
E24  26985171.218   141808072.1931      -1358.422          47.000    26985172.383   108658154.8931      -1040.847          51.000  
E12  27296136.580   143442283.2511      -1577.754          44.000    27296136.388   109910402.9261      -1209.166          48.000  
E10  27070805.889   142258233.0991       -610.285          47.000    27070808.259   109003258.2321       -467.604          53.000  
> 2024 04 16 07 15 30.0110000  0 25                     
G18  25848099.126   135832739.254       -3174.316          39.000    25848095.895   105843667.868       -2473.619          45.000  
G26  24056902.774   126419894.160       -2532.678          48.000    24056902.220    98509016.920       -1973.566          46.000  
G23  23771297.837   124919228.534       -1232.729          47.000    23771293.666    97339672.939        -960.499          46.000  
G16  24093153.743   126610404.438         357.245          47.000                                                                  
R05  26365478.203   140938720.695       -2688.646          43.000    26365474.844   109619028.560       -2090.995          46.000  
R11  24234174.291   129500168.897       -3953.656          52.000    24234172.413   100722408.703       -3075.055          48.000  
R21  23884422.117   127810548.253       -1730.403          52.000    23884417.864    99408273.491       -1345.869          49.000  
G29  28204929.326   148217945.529       -3182.453          43.000    28204928.197   115494542.415       -2479.754          40.000  
S33  42925381.727   225574467.225        -640.057          42.000  
S31  41971307.680   220560786.998        -640.148          44.000  
G10  23905413.186   125623941.006        1552.917          50.000    23905411.963    97888775.022        1210.033          47.000  
E11  27060040.526   142201470.527         434.237          44.000    27060040.190   108959620.511         332.753          47.000  
R12  24151197.673   129011401.181         187.543          49.000    24151198.094   100342327.438         145.984          50.000  
R22  24123783.138   128774476.733         498.126          51.000    24123781.700   100157969.240         387.335          50.000  
R07  26181930.681   140153875.105        3429.832          50.000    26181928.331   109008621.309        2667.608          43.000  
R06  24466270.077   130556788.411        1239.670          42.000                                                                  
G27  25314315.164   133027636.596        1674.325          49.000    25314314.140   103657902.004        1304.729          44.000  
E33  30387329.666   159686490.994       -2805.678          37.000    30387327.348   122357305.808       -2149.674          45.000  
E31  28968310.835   152229625.095       -3465.681          46.000    28968315.818   116643548.796       -2655.473          49.000  
E25  28843973.562   151576048.984        1271.594          45.000    28843976.503   116142709.307         974.362          47.000  
E14  30939047.051   162585953.606       -1382.031          45.000    30939049.214   124578822.082       -1058.945          50.000  
E19  30862401.399   162183058.194        1283.329          34.000    30862405.895   124270151.501         983.241          41.000  
E24  26992964.485   141849025.910       -1372.083          47.000    26992965.668   108689534.990       -1051.452          51.000  
E12  27305155.260   143489676.803       -1581.984          44.000    27305155.012   109946717.452       -1212.081          48.000  
E10  27074305.892   142276622.533        -616.056          48.000    27074308.056   109017348.806        -472.071          53.000  
> 2024 04 16 07 16 00.0110000  0 25                     
G18  25866225.685   135927992.793       -3176.274          41.000    25866223.496   105917891.382       -2474.841          46.000  
G26  24071408.440   126496121.456       -2549.359          48.000    24071408.089    98568414.802       -1986.511          46.000  
G23  23778392.123   124956508.806       -1252.908          48.000    23778387.423    97368722.490        -976.308          46.000  
G16  24091166.471   126599961.525         338.721          47.000                                                                  
R05  26380625.765   141019696.032       -2710.248          41.000    26380622.705   109682009.418       -2107.733          45.000  
R11  24256413.682   129619007.896       -3968.945          51.000    24256411.125   100814838.983       -3087.012          48.000  
R21  23894130.742   127862503.198       -1733.571          52.000    23894127.267    99448682.903       -1348.249          49.000  
G29  28223108.174   148313479.302       -3186.519          42.000    28223107.193   115568984.311       -2482.755          41.000  
S33  42929035.627   225593667.893        -640.238          43.000  
S31  41974962.763   220579993.880        -640.394          44.000  
G10  23896598.051   125577619.490        1535.174          50.000    23896597.179    97852680.416        1196.166          46.000  
E11  27057577.430   142188524.454         428.446          45.000    27057576.396   108949700.793         328.303          47.000  
R12  24150216.275   129006162.365         161.304          49.000    24150217.320   100338252.852         125.488          50.000  
R22  24120998.024   128759611.024         492.761          51.000    24120996.916   100146407.022         383.295          49.000  
R07  26162713.240   140051003.268        3428.091          49.000    26162711.723   108928610.041        2666.468          45.000  
R06  24459360.788   130519917.944        1218.345          42.000                                                                  
G27  25304762.168   132977436.453        1671.978          48.000    25304761.999   103618785.074        1302.976          45.000  
E33  30403337.094   159770618.894       -2803.424          37.000    30403336.301   122421767.493       -2148.118          44.000  
E31  28988111.505   152333673.143       -3470.920          47.000    28988115.600   116723273.893       -2659.647          49.000  
E25  28836741.281   151538039.760        1262.108          46.000    28836743.427   116113585.358         967.016          47.000  
E14  30946915.393   162627303.191       -1374.804          45.000    30946917.773   124610505.519       -1053.417          50.000  
E19  30855091.516   162144636.936        1277.953          37.000    30855094.658   124240711.989         979.263          41.000  
E24  27000835.223   141890388.717       -1385.542          47.000    27000836.923   108721228.556       -1061.688          51.000  
E12  27314196.572   143537184.232       -1585.473          45.000    27314195.206   109983119.259       -1214.763          48.000  
E10  27077837.174   142295178.881        -621.427          48.000    27077839.172   109031567.300        -476.071          53.000  
> 2024 04 16 07 16 30.0110000  0 26                     
G18  25884362.949   136023301.481       -3177.959          43.000    25884359.199   105992157.929       -2476.341          45.000  
G26  24086007.161   126572843.053       -2565.778          47.000    24086008.337    98628197.852       -1999.280          47.000  
G23  23785600.640   124994393.340       -1273.085          47.000    23785596.572    97398242.985        -991.987          46.000  
G16  24089285.822   126590077.246         319.989          47.000                                                                  
R05  26395895.060   141101322.587       -2731.457          35.000    26395892.065   109745496.892       -2124.719          46.000  
R11  24278736.908   129738302.202       -3983.972          50.000    24278735.611   100907623.396       -3098.865          47.000  
R20  27275494.479                3      -3097.258          17.000                                                                  
R21  23903857.522   127914552.295       -1736.683          52.000    23903853.745    99489165.550       -1350.708          49.000  
G29  28241311.267   148409137.054       -3191.123          39.000    28241310.740   115643522.803       -2486.496          40.000  
S33  42932688.562   225612864.122        -640.107          42.000  
S31  41978616.732   220599196.578        -640.073          44.000  
G10  23887884.589   125531832.110        1517.113          50.000    23887884.198    97817002.078        1182.133          47.000  
E11  27055146.610   142175747.530         422.873          45.000    27055144.973   108939910.693         324.076          47.000  
R12  24149384.562   129001711.515         134.985          51.000    24149384.782   100334791.115         104.987          50.000  
R22  24118241.337   128744901.301         487.549          51.000    24118240.828   100134966.129         379.126          49.000  
R07  26143505.714   139948184.355        3426.188          49.000    26143505.034   108848639.961        2664.813          47.000  
R06  24452571.749   130483690.265        1196.497          43.000                                                                  
G27  25295223.345   132927309.326        1669.476          48.000    25295222.947   103579725.016        1300.962          44.000  
E33  30419335.267   159854685.341       -2801.445          39.000    30419333.497   122486182.080       -2146.492          45.000  
E31  29007942.438   152437882.431       -3476.664          47.000    29007946.144   116803122.516       -2663.759          49.000  
E25  28829563.531   151500320.787        1252.182          46.000    28829565.720   116084683.820         959.385          47.000  
E14  30954744.463   162668442.723       -1368.097          45.000    30954746.522   124642028.010       -1048.269          50.000  
E19  30847810.570   162106370.458        1272.692          40.000    30847812.096   124211391.042         975.301          40.000  
E24  27008783.625   141932153.804       -1399.179          48.000    27008784.544   108753230.370       -1072.078          51.000  
E12  27323257.084   143584797.862       -1589.110          45.000    27323255.882   110019602.433       -1217.616          48.000  
E10  27081398.900   142313894.561        -626.701          49.000    27081400.721   109045907.875        -480.214          53.000  
> 2024 04 16 07 17 00.0110000  0 26                     
G18  25902508.430   136118662.667       -3179.801          42.000    25902505.138   106066465.363       -2477.635          44.000  
G26  24100699.764   126650055.536       -2581.830          47.000    24100701.143    98688363.383       -2011.737          46.000  
G23  23792924.266   125032879.557       -1292.921          48.000    23792921.412    97428232.335       -1007.441          48.000  
G16  24087511.248   126580751.489         301.678          48.000                                                                  
R05  26411284.468   141183596.812       -2753.329          37.000    26411282.896   109809487.774       -2141.420          47.000  
R11  24301146.620   129858046.106       -3998.946          51.000    24301144.693   101000757.487       -3110.205          48.000  
R20  27292816.791                3      -3092.735          11.000                                                                  
R21  23913600.976   127966693.555       -1739.526          52.000    23913597.392    99529719.905       -1352.942          49.000  
G29  28259538.566   148504917.227       -3194.688          43.000    28259537.135   115718156.761       -2489.310          41.000  
S33  42936340.313   225632055.226        -639.347          43.000  
S31  41982269.673   220618393.431        -639.700          44.000  
G10  23879273.218   125486579.285        1499.523          50.000    23879272.992    97781740.188        1168.556          47.000  
E11  27052746.252   142163137.743         417.719          45.000    27052745.494   108930248.671         320.114          47.000  
R12  24148699.020   128998048.110         108.948          51.000    24148698.038   100331941.846          84.802          49.000  
R22  24115515.013   128730345.312         482.623          52.000    24115513.600   100123644.853         375.378          49.000  
R07  26124309.442   139845421.431        3424.420          49.000    26124308.313   108768713.423        2663.438          47.000  
R06  24445904.530   130448107.608        1175.371          43.000                                                                  
G27  25285698.813   132877255.188        1667.215          48.000    25285697.522   103540721.850        1298.994          44.000  
E33  30435319.752   159938688.680       -2799.215          39.000    30435318.815   122550548.331       -2144.860          44.000  
E31  29027802.839   152542249.920       -3481.542          46.000    29027806.570   116883092.384       -2667.634          49.000  
E25  28822441.085   151462892.257        1242.705          46.000    28822443.573   116056004.819         952.333          47.000  
E14  30962532.738   162709371.485       -1360.802          45.000    30962534.950   124673389.008       -1042.710          50.000  
E19  30840557.173   162068259.302        1267.417          38.000    30840559.116   124182189.055         971.262          39.000  
E24  27016808.006   141974319.378       -1412.160          49.000    27016808.513   108785539.053       -1082.065          51.000  
E12  27332337.331   143632515.425       -1592.391          44.000    27332336.154   110056165.242       -1220.050          48.000  
E10  27084990.092   142332767.303        -631.802          49.000    27084992.093   109060368.803        -484.111          53.000  
> 2024 04 16 07 17 30.0110000  0 25                     
G18  25920664.830   136214079.435       -3181.645          41.000    25920661.667   106140816.157       -2479.381          43.000  
G26  24115486.638   126727761.282       -2598.633          47.000    24115487.396    98748913.286       -2024.823          46.000  
G23  23800363.775   125071970.671       -1313.331          48.000    23800360.863    97458692.958       -1023.377          48.000  
G16  24085843.886   126571989.846         282.404          47.000                                                                  
R05  26426797.910   141266520.541       -2774.684          36.000    26426795.581   109873984.038       -2158.356          47.000  
R11  24323639.370   129978239.562       -4014.103          51.000    24323637.585   101094241.228       -3122.140          49.000  
R21  23923362.883   128018931.223       -1743.165          52.000    23923359.088    99570349.235       -1355.725          49.000  
G29  28277789.407   148600823.995       -3199.214          43.000    28277787.945   115792889.372       -2493.024          41.000  
S33  42939992.128   225651245.207        -639.746          42.000  
S31  41985922.914   220637589.904        -640.410          44.000  
G10  23870765.534   125441867.722        1481.103          50.000    23870764.308    97746900.055        1154.211          46.000  
E11  27050378.665   142150698.951         411.373          45.000    27050378.639   108920717.647         315.216          47.000  
R12  24148161.166   128995177.342          82.147          51.000    24148160.033   100329709.059          64.044          49.000  
R22  24112817.410   128715946.809         477.020          51.000    24112816.082   100112446.046         371.057          49.000  
R07  26105124.347   139742723.030        3421.892          49.000    26105123.556   108688837.070        2661.472          48.000  
R06  24439358.610   130413177.574        1153.134          43.000                                                                  
G27  25276188.849   132827279.855        1664.239          48.000    25276187.331   103501780.053        1296.781          44.000  
E33  30451294.535   160022632.876       -2797.320          39.000    30451293.432   122614869.210       -2143.310          46.000  
E31  29047693.522   152646778.461       -3487.311          45.000    29047697.657   116963185.651       -2672.156          50.000  
E25  28815375.401   151425760.156        1232.485          46.000    28815377.768   116027552.956         944.454          48.000  
E14  30970281.973   162750094.532       -1354.382          45.000    30970284.674   124704592.377       -1037.717          51.000  
E19  30833335.630   162030309.941        1262.282          37.000    30833338.130   124153111.069         967.054          41.000  
E24  27024908.751   142016889.680       -1425.956          48.000    27024909.316   108818157.851       -1092.563          51.000  
E12  27341437.932   143680340.265       -1596.177          44.000    27341436.771   110092810.281       -1223.090          48.000  
E10  27088611.852   142351800.532        -637.441          48.000    27088613.898   109074952.689        -488.371          53.000  
> 2024 04 16 07 18 00.0110000  0 25                     
G18  25938833.922   136309549.525       -3183.237          43.000    25938829.747   106215208.422       -2480.337          44.000  
G26  24130367.652   126805957.095       -2614.520          48.000    24130366.999    98809845.086       -2037.506          45.000  
G23  23807917.228   125111664.544       -1333.247          48.000    23807913.551    97489623.187       -1038.837          47.000  
G16  24084284.554   126563793.390         263.806          48.000                                                                  
R05  26442430.744   141350089.934       -2796.356          41.000    26442428.732   109938982.524       -2175.106          46.000  
R11  24346215.771   130098877.125       -4028.463          52.000    24346214.683   101188070.356       -3133.413          49.000  
R21  23933142.843   128071263.438       -1745.990          53.000    23933138.750    99611052.111       -1357.847          49.000  
G29  28296064.223   148696856.127       -3203.260          43.000    28296061.121   115867719.640       -2495.799          40.000  
S33  42943643.487   225670433.069        -639.478          42.000  
S31  41989575.307   220656784.309        -639.546          44.000  
G10  23862359.830   125397698.405        1463.059          50.000    23862358.701    97712482.421        1140.308          46.000  
E11  27048044.206   142138429.425         406.106          45.000    27048043.744   108911316.319         311.114          47.000  
R12  24147772.514   128993098.911          56.036          51.000    24147770.457   100328092.509          43.683          48.000  
R22  24110150.054   128701703.953         472.052          52.000    24110148.155   100101368.262         367.206          49.000  
R07  26085951.484   139640093.058        3419.794          48.000    26085951.745   108609013.932        2659.839          48.000  
R06  24432934.613   130378902.529        1131.232          42.000                                                                  
G27  25266693.778   132777383.724        1661.934          48.000    25266691.933   103462899.981        1295.030          44.000  
E33  30467256.882   160106516.436       -2795.162          40.000    30467256.106   122679143.668       -2141.664          46.000  
E31  29067614.280   152751465.233       -3492.041          45.000    29067619.233   117043400.143       -2675.769          50.000  
E25  28808365.931   151388924.895        1222.931          46.000    28808368.319   115999328.564         936.906          48.000  
E14  30977991.983   162790611.424       -1347.198          44.000    30977994.648   124735637.784       -1032.260          51.000  
E19  30826143.898   161992523.089        1256.644          37.000    30826148.011   124124157.612         962.940          41.000  
E24  27033086.387   142059863.135       -1439.166          48.000    27033086.991   108851085.550       -1102.806          51.000  
E12  27350558.355   143728270.256       -1599.531          44.000    27350557.772   110129535.893       -1225.532          48.000  
E10  27092263.258   142370992.320        -642.422          48.000    27092265.745   109089658.109        -492.246          52.000  
> 2024 04 16 07 18 30.0110000  0 25                     
G18  25957011.955   136405075.185       -3185.199          43.000    25957007.487   106289644.011       -2482.015          44.000  
G26  24145341.255   126884644.452       -2631.116          48.000    24145341.379    98871159.899       -2050.220          46.000  
G23  23815585.122   125151963.934       -1353.388          47.000    23815582.046    97521025.339       -1054.690          48.000  
G16  24082832.819   126556166.614         244.678          47.000                                                                  
R05  26458186.035   141434306.422       -2817.984          43.000    26458182.654   110004484.210       -2191.719          46.000  
R11  24368874.916   130219957.858       -4043.450          52.000    24368872.111   101282244.208       -3144.963          49.000  
R21  23942940.731   128123693.775       -1749.342          52.000    23942936.457    99651831.317       -1360.492          49.000  
G29  28314362.885   148793017.224       -3207.742          43.000    28314359.372   115942650.402       -2499.273          40.000  
S33  42947295.007   225689622.102        -639.864          43.000  
S31  41993228.112   220675979.739        -639.891          44.000  
G10  23854058.329   125354077.149        1444.853          49.000    23854057.305    97678491.912        1125.995          46.000  
E11  27045742.075   142126332.104         400.617          44.000    27045741.755   108902046.980         306.981          47.000  
R12  24147531.804   128991817.220          29.419          51.000    24147530.870   100327095.658          22.723          49.000  
R22  24107511.204   128687619.781         466.772          51.000    24107509.824   100090413.997         363.043          49.000  
R07  26066793.399   139537539.428        3417.016          49.000    26066792.751   108529250.156        2657.761          47.000  
R06  24426636.167   130345288.958        1109.259          43.000                                                                  
G27  25257214.683   132727571.813        1658.757          48.000    25257212.641   103424085.525        1292.459          44.000  
E33  30483207.409   160190342.589       -2793.145          40.000    30483207.140   122743374.102       -2140.429          45.000  
E31  29087565.262   152856312.297       -3497.675          45.000    29087571.021   117123737.451       -2679.988          50.000  
E25  28801413.879   151352391.565        1212.681          46.000    28801416.249   115971335.513         929.206          48.000  
E14  30985663.817   162830926.334       -1340.416          45.000    30985666.410   124766528.433       -1027.047          51.000  
E19  30818987.206   161954904.596        1251.197          39.000    30818989.285   124095333.160         958.561          41.000  
E24  27041342.077   142103243.044       -1452.830          49.000    27041341.773   108884324.684       -1113.195          51.000  
E12  27359698.990   143776307.967       -1603.102          44.000    27359698.881   110166344.033       -1228.268          48.000  
E10  27095946.180   142390345.231        -647.835          48.000    27095948.458   109104486.987        -496.401          52.000  
> 2024 04 16 07 19 00.0110000  0 25                     
G18  25975199.455   136500652.695       -3186.989          43.000    25975195.997   106364120.023       -2483.330          45.000  
G26  24160407.066   126963818.780       -2647.522          48.000    24160407.949    98932854.139       -2063.043          46.000  
G23  23823368.017   125192865.092       -1373.654          46.000    23823364.400    97552896.438       -1070.345          46.000  
G16  24081489.550   126549108.378         225.586          47.000                                                                  
R05  26474060.522   141519164.946       -2839.550          44.000    26474057.870   110070485.298       -2208.555          45.000  
R11  24391614.043   130341474.623       -4058.116          51.000    24391613.226   101376757.173       -3156.147          49.000  
R21  23952756.591   128176219.102       -1752.645          52.000    23952751.745    99692684.381       -1363.167          48.000  
G29  28332685.100   148889304.524       -3211.862          42.000    28332682.904   116017679.555       -2502.685          41.000  
S33  42950946.046   225708810.290        -639.896          43.000  
S31  41996880.664   220695174.319        -639.993          44.000  
G10  23845862.327   125311003.264        1426.315          50.000    23845860.540    97644927.812        1111.491          46.000  
E11  27043471.996   142114403.914         394.597          44.000    27043471.681   108892907.262         302.399          47.000  
R12  24147440.985   128991330.374           2.783          50.000    24147440.919   100326717.000           2.148          50.000  
R22  24104901.624   128673690.953         461.487          51.000    24104900.195   100079580.467         358.984          48.000  
R07  26047650.049   139435063.662        3414.240          49.000    26047649.453   108449546.961        2655.485          48.000  
R06  24420460.841   130312337.778        1087.125          41.000                                                                  
G27  25247751.696   132677843.095        1656.045          47.000    25247749.842   103385335.895        1290.255          45.000  
E33  30499147.405   160274108.425       -2791.312          40.000    30499147.085   122807558.332       -2138.870          45.000  
E31  29107547.150   152961315.469       -3502.763          45.000    29107552.162   117204194.399       -2683.996          49.000  
E25  28794518.804   151316159.277        1202.691          45.000    28794521.329   115943573.160         921.448          48.000  
E14  30993296.871   162871037.422       -1333.856          45.000    30993299.255   124797262.914       -1022.101          50.000  
E19  30811860.255   161917453.870        1245.635          38.000    30811862.451   124066637.253         954.325          41.000  
E24  27049673.304   142147026.457       -1466.308          49.000    27049673.359   108917873.016       -1123.632          51.000  
E12  27368860.812   143824449.929       -1606.548          44.000    27368859.782   110203232.045       -1230.930          48.000  
E10  27099658.834   142409855.855        -653.169          48.000    27099661.357   109119436.710        -500.437          53.000  
> 2024 04 16 07 19 30.0110000  0 25                     
G18  25993397.710   136596284.056       -3188.832          44.000    25993393.896   106438637.990       -2484.757          44.000  
G26  24175566.395   127043481.213       -2663.739          48.000    24175567.555    98994928.749       -2075.604          46.000  
G23  23831266.037   125234369.923       -1393.579          47.000    23831263.149    97585237.877       -1086.024          48.000  
G16  24080255.511   126542622.990         206.506          48.000                                                                  
R05  26490055.872   141604666.411       -2860.877          44.000    26490053.547   110136986.480       -2224.935          43.000  
R11  24414435.678   130463426.407       -4072.473          52.000    24414435.220   101471608.519       -3167.575          49.000  
R21  23962590.977   128228842.253       -1755.885          53.000    23962585.830    99733613.535       -1365.736          49.000  
G29  28351031.912   148985721.133       -3216.132          42.000    28351030.137   116092809.416       -2506.203          40.000  
S33  42954598.138   225728001.334        -640.075          42.000  
S31  42000533.773   220714371.499        -640.126          44.000  
G10  23837771.657   125268482.444        1407.871          51.000    23837769.855    97611794.784        1097.069          47.000  
E11  27041235.242   142102647.446         388.631          44.000    27041234.261   108883899.067         297.822          47.000  
R12  24147499.856   128991642.163         -23.877          51.000    24147498.809   100326959.549         -18.597          50.000  
R22  24102322.113   128659920.115         456.140          51.000    24102320.005   100068869.882         354.834          48.000  
R07  26028521.948   139332673.839        3411.371          49.000    26028521.924   108369910.606        2653.191          47.000  
R06  24414411.809   130280055.774        1064.422          42.000                                                                  
G27  25238305.381   132628202.280        1653.088          47.000    25238303.381   103346654.734        1288.146          45.000  
E33  30515076.586   160357816.873       -2789.467          39.000    30515076.766   122871698.586       -2137.385          45.000  
E31  29127558.527   153066476.486       -3508.273          45.000    29127563.679   117284772.295       -2688.093          49.000  
E25  28787681.620   151280232.836        1192.268          44.000    28787684.936   115916045.129         913.573          48.000  
E14  31000890.689   162910948.575       -1327.463          44.000    31000894.082   124827844.188       -1016.980          50.000  
E19  30804766.224   161880176.127        1239.588          38.000    30804768.596   124038073.892         949.894          42.000  
E24  27058082.145   142191216.356       -1479.900          48.000    27058082.165   108951732.778       -1133.932          50.000  
E12  27378042.707   143872698.420       -1610.224          44.000    27378040.911   110240201.696       -1233.805          47.000  
E10  27103401.718   142429526.490        -658.550          47.000    27103404.676   109134509.043        -504.613          52.000  
> 2024 04 16 07 20 00.0110000  0 25                     
G18  26011604.597   136691963.836       -3190.109          43.000    26011601.155   106513193.694       -2485.730          44.000  
G26  24190818.116   127123625.372       -2679.443          49.000    24190818.139    99057378.714       -2087.878          45.000  
G23  23839278.377   125276473.071       -1413.454          47.000    23839276.739    97618045.477       -1101.437          48.000  
G16  24079129.567   126536707.814         187.659          48.000                                                                  
R05  26506169.350   141690803.309       -2881.907          43.000    26506166.347   110203981.871       -2241.572          42.000  
R11  24437336.827   130585804.335       -4086.481          52.000    24437335.817   101566791.290       -3178.376          48.000  
R21  23972442.114   128281558.669       -1758.778          53.000    23972437.887    99774615.236       -1367.927          49.000  
G29  28369402.826   149082262.961       -3220.298          41.000    28369401.349   116168036.875       -2509.283          40.000  
S33  42958249.577   225747189.052        -639.845          42.000  
S31  42004186.464   220733566.505        -639.895          44.000  
G10  23829785.018   125226512.189        1389.799          50.000    23829783.632    97579090.739        1082.915          47.000  
E11  27039029.472   142091057.818         383.686          44.000    27039028.628   108875018.723         294.038          47.000  
R12  24147706.903   128992748.972         -50.159          51.000    24147705.715   100327820.418         -39.038          50.000  
R22  24099770.917   128646302.123         451.337          51.000    24099769.641   100058278.158         351.080          49.000  
R07  26009411.215   139230369.713        3408.493          50.000    26009409.730   108290340.907        2651.032          47.000  
R06  24408487.435   130248441.619        1042.815          42.000                                                                  
G27  25228875.220   132578646.658        1650.385          47.000    25228873.753   103308039.971        1285.948          46.000  
E33  30530994.272   160441463.297       -2787.215          39.000    30530994.005   122935791.318       -2135.579          45.000  
E31  29147599.357   153171789.351       -3512.790          45.000    29147604.177   117365466.528       -2691.674          49.000  
E25  28780902.125   151244609.499        1182.421          44.000    28780905.991   115888749.351         906.060          48.000  
E14  31008447.268   162950656.224       -1320.080          44.000    31008450.141   124858269.522       -1011.566          50.000  
E19  30797705.493   161843069.267        1234.025          38.000    30797707.058   124009641.494         945.674          42.000  
E24  27066567.200   142235808.048       -1493.113          48.000    27066567.374   108985900.440       -1144.091          50.000  
E12  27387244.140   143921048.145       -1613.356          45.000    27387241.355   110277248.877       -1236.119          47.000  
E10  27107174.090   142449351.963        -663.412          47.000    27107177.072   109149700.011        -508.222          52.000  
> 2024 04 16 07 20 30.0110000  0 26                     
G18  26029820.871   136787695.000       -3192.059          43.000    26029818.493   106587789.440       -2487.259          45.000  
G26  24206161.325   127204253.244       -2695.587          49.000    24206161.240    99120205.604       -2100.440          45.000  
G23  23847405.130   125319177.620       -1433.663          48.000    23847402.880    97651321.766       -1117.054          48.000  
G16  24078113.280   126531368.474         168.219          47.000                                                                  
R05  26522402.960   141777577.657       -2903.255          43.000    26522399.875   110271473.056       -2257.941          42.000  
R11  24460318.019   130708608.120       -4100.653          52.000    24460316.144   101662305.284       -3189.334          48.000  
R21  23982311.413   128334371.837       -1762.160          53.000    23982308.097    99815692.218       -1370.502          50.000  
G29  28387797.687   149178933.867       -3224.533          41.000    28387796.931   116243364.985       -2512.756          39.000  
S33  42961901.468   225766379.308        -639.910          42.000  
S31  42007839.600   220752763.738        -639.735          44.000  
G10  23821904.208   125185098.662        1371.000          51.000    23821902.746    97546820.501        1068.413          47.000  
E11  27036855.577   142079638.619         377.607          43.000    27036855.737   108866268.966         289.531          47.000  
R12  24148063.558   128994655.306         -77.020          51.000    24148062.642   100329303.120         -59.845          49.000  
R22  24097249.095   128632840.726         445.966          51.000    24097247.755   100047808.235         346.924          49.000  
R07  25990317.087   139128160.246        3405.364          49.000    25990315.357   108210844.845        2648.450          46.000  
R06  24402688.266   130217502.585        1020.099          41.000                                                                  
G27  25219462.130   132529181.814        1647.363          47.000    25219461.207   103269495.976        1283.390          46.000  
E33  30546898.950   160525051.511       -2785.494          37.000    30546900.246   122999839.453       -2134.213          44.000  
E31  29167668.960   153277256.696       -3518.398          45.000    29167673.869   117446279.117       -2695.778          49.000  
E25  28774182.130   151209294.977        1171.728          44.000    28774185.934   115861690.177         897.906          49.000  
E14  31015965.201   162990165.164       -1313.721          44.000    31015968.141   124888542.605       -1006.626          50.000  
E19  30790677.413   161806139.157        1227.762          38.000    30790678.530   123981344.507         940.870          41.000  
E24  27075128.855   142280805.278       -1506.640          47.000    27075130.024   109020378.830       -1154.552          50.000  
E12  27396464.529   143969502.370       -1617.073          45.000    27396462.011   110314376.155       -1238.986          47.000  
E10  27110976.929   142469335.518        -668.964          47.000    27110979.736   109165012.122        -512.481          52.000  
G15                                                                  28575138.365                3       -979.653          16.000  
> 2024 04 16 07 21 00.0110000  0 25                     
G18  26048048.447   136883482.535       -3193.746          43.000    26048045.047   106662429.111       -2488.844          43.000  
G26  24221596.738   127285368.928       -2712.006          48.000    24221596.952    99183412.599       -2113.220          45.000  
G23  23855647.116   125362488.684       -1453.669          48.000    23855644.778    97685070.754       -1132.839          49.000  
G16  24077208.699   126526612.147         148.962          48.000                                                                  
R05  26538756.414   141864992.805       -2924.448          42.000    26538752.963   110339462.620       -2274.445          40.000  
R11  24483379.012   130831839.862       -4114.764          52.000    24483377.460   101758152.121       -3200.255          48.000  
R21  23992199.797   128387288.107       -1765.491          53.000    23992196.615    99856849.384       -1373.083          49.000  
G29  28406218.825   149275739.848       -3229.073          42.000    28406219.668   116318798.181       -2515.967          40.000  
S33  42965554.580   225785578.441        -639.864          42.000  
S31  42011494.261   220771968.999        -640.464          44.000  
G10  23814130.511   125144250.120        1352.196          51.000    23814129.232    97514990.471        1053.469          47.000  
E11  27034715.547   142068395.439         371.661          43.000    27034716.504   108857654.088         284.862          47.000  
R12  24148571.257   128997368.301        -103.802          51.000    24148570.503   100331413.262         -80.835          49.000  
R22  24094757.593   128619541.498         440.668          51.000    24094756.322   100037464.414         342.706          49.000  
R07  25971243.065   139026056.541        3401.774          48.000    25971241.501   108131431.039        2645.654          45.000  
R06  24397018.488   130187248.336         997.259          42.000                                                                  
G27  25210068.189   132479815.541        1644.092          48.000    25210067.357   103231028.728        1281.036          46.000  
E33  30562795.311   160608587.519       -2783.450          36.000    30562795.940   123063847.625       -2132.847          43.000  
E31  29187768.758   153382883.101       -3523.445          45.000    29187773.920   117527213.597       -2699.800          49.000  
E25  28767522.573   151174297.003        1161.341          44.000    28767525.959   115834873.556         889.911          49.000  
E14  31023447.736   163029482.310       -1307.278          45.000    31023449.703   124918668.726       -1001.681          50.000  
E19  30783684.080   161769394.287        1221.963          37.000    30783686.089   123953189.463         936.076          40.000  
E24  27083770.268   142326213.891       -1520.442          47.000    27083770.942   109055172.414       -1164.984          49.000  
E12  27405705.567   144018066.315       -1620.477          45.000    27405703.642   110351587.503       -1241.751          47.000  
E10  27114810.915   142489482.467        -674.221          48.000    27114813.368   109180449.430        -516.532          52.000  
> 2024 04 16 07 21 30.0110000  0 25                     
G18  26066285.759   136979318.650       -3195.376          43.000    26066282.464   106737106.575       -2489.892          44.000  
G26  24237123.753   127366963.553       -2727.802          48.000    24237124.062    99246992.794       -2125.574          45.000  
G23  23864002.714   125406398.093       -1473.513          48.000    23863999.451    97719285.922       -1148.282          48.000  
G16  24076413.978   126522433.465         129.749          48.000                                                                  
R05  26555227.419   141953039.797       -2945.183          40.000    26555223.534   110407943.620       -2290.716          38.000  
R11  24506518.238   130955487.888       -4128.426          52.000    24506516.869   101854322.719       -3211.005          48.000  
R21  24002106.228   128440300.282       -1768.579          52.000    24002103.353    99898081.146       -1375.568          49.000  
G29  28424665.769   149372673.905       -3233.048          42.000    28424665.195   116394331.196       -2519.219          39.000  
S33  42969208.488   225804778.661        -639.719          42.000  
S31  42015149.326   220791176.348        -640.077          44.000  
G10  23806463.320   125103961.790        1333.529          50.000    23806462.896    97483596.874        1039.348          47.000  
E11  27032609.498   142057320.932         366.653          44.000    27032609.511   108849168.456         280.781          48.000  
R12  24149228.400   129000881.619        -130.420          51.000    24149228.535   100334145.822        -101.465          49.000  
R22  24092295.768   128606397.051         435.699          52.000    24092294.542   100027241.015         338.855          50.000  
R07  25952188.694   138924055.880        3398.350          48.000    25952186.890   108052097.400        2643.199          45.000  
R06  24391476.473   130157675.069         974.567          43.000                                                                  
G27  25200691.753   132430542.750        1640.886          48.000    25200691.433   103192634.367        1278.811          47.000  
E33  30578679.802   160692064.206       -2781.506          34.000    30578681.091   123127810.299       -2131.351          43.000  
E31  29207898.001   153488660.307       -3528.338          46.000    29207902.893   117608263.607       -2703.389          49.000  
E25  28760922.488   151139610.400        1151.132          45.000    28760925.272   115808295.543         882.029          49.000  
E14  31030891.433   163068601.639       -1300.537          44.000    31030893.963   124948643.278        -996.547          50.000  
E19  30776727.192   161732829.957        1215.861          38.000    30776728.654   123925172.772         931.543          41.000  
E24  27092488.326   142372026.776       -1533.674          47.000    27092488.852   109090275.789       -1175.140          50.000  
E12  27414966.333   144066732.357       -1623.783          44.000    27414964.601   110388877.113       -1244.096          48.000  
E10  27118675.025   142509785.183        -679.275          48.000    27118676.770   109196006.077        -520.346          52.000  
> 2024 04 16 07 22 00.0110000  0 26                     
G18  26084531.127   137075198.901       -3197.002          43.000    26084527.079   106811818.479       -2491.101          44.000  
G26  24252740.779   127449031.714       -2743.689          48.000    24252740.250    99310942.008       -2138.153          44.000  
G23  23872470.876   125450901.466       -1493.305          48.000    23872467.845    97753963.927       -1163.753          48.000  
G16  24075727.903   126518830.679         110.358          48.000                                                                  
R05  26571814.510   142041712.218       -2966.146          37.000    26571811.492   110476911.075       -2307.313          38.000  
R11  24529733.923   131079544.562       -4142.070          52.000    24529732.216   101950811.216       -3221.657          47.000  
R21  24012029.911   128493404.823       -1771.741          53.000    24012026.047    99939384.743       -1378.070          49.000  
G29  28443135.925   149469732.741       -3237.345          43.000    28443134.201   116469961.453       -2522.751          39.000  
S33  42972861.839   225823977.040        -639.706          42.000  
S31  42018803.826   220810381.800        -640.208          44.000  
G10  23798903.197   125064232.736        1314.854          50.000    23798902.853    97452639.173        1024.479          47.000  
E11  27030533.857   142046411.451         360.947          44.000    27030533.533   108840809.261         276.579          48.000  
R12  24150036.212   129005192.261        -157.098          52.000    24150035.958   100337498.528        -122.235          49.000  
R22  24089861.559   128593403.267         430.554          51.000    24089859.584   100017134.811         334.827          49.000  
R07  25933154.013   138822159.645        3394.678          49.000    25933151.606   107972844.951        2640.258          46.000  
R06  24386061.823   130128782.614         951.771          42.000                                                                  
G27  25191332.772   132381361.696        1637.802          48.000    25191332.860   103154311.510        1275.999          47.000  
E33  30594552.006   160775478.044       -2779.909          35.000    30594553.845   123191724.838       -2129.604          42.000  
E31  29228055.160   153594583.398       -3533.161          46.000    29228059.500   117689425.427       -2707.240          49.000  
E25  28754380.639   151105233.508        1140.779          45.000    28754383.524   115781954.849         873.922          48.000  
E14  31038297.866   163107520.619       -1293.879          44.000    31038299.865   124978464.320        -991.450          50.000  
E19  30769802.746   161696444.822        1209.528          38.000    30769805.075   123897293.369         927.104          42.000  
E24  27101282.778   142418240.260       -1547.206          47.000    27101283.284   109125686.091       -1185.567          50.000  
E12  27424245.059   144115496.437       -1627.188          44.000    27424244.216   110426241.863       -1246.786          48.000  
E10  27122567.396   142530239.580        -684.414          49.000    27122569.342   109211678.975        -524.446          52.000  
G15                                                                  28597086.311                3      -1015.434          26.000  
> 2024 04 16 07 22 30.0110000  0 26                     
G18  26102785.218   137171122.700       -3198.302          43.000    26102781.442   106886564.311       -2492.091          44.000  
G26  24268447.734   127531571.723       -2759.406          48.000    24268447.051    99375258.873       -2149.963          44.000  
G23  23881052.843   125495998.004       -1513.327          47.000    23881049.606    97789104.092       -1179.171          48.000  
G16  24075152.090   126515805.379          90.979          47.000                                                                  
R05  26588518.851   142131008.113       -2987.338          35.000    26588516.073   110546363.445       -2323.338          36.000  
R11  24553024.697   131204005.891       -4155.694          51.000    24553024.391   102047614.400       -3232.228          49.000  
R21  24021970.839   128546601.866       -1774.951          52.000    24021966.186    99980760.271       -1380.438          49.000  
G29  28461629.779   149566917.093       -3241.928          44.000    28461627.230   116545689.651       -2526.116          38.000  
S33  42976515.160   225843175.224        -640.193          42.000  
S31  42022458.656   220829586.642        -640.383          44.000  
G10  23791450.815   125025065.544        1295.919          51.000    23791449.586    97422119.423        1009.891          48.000  
E11  27028489.265   142035666.806         355.199          44.000    27028488.729   108832576.374         272.184          47.000  
R12  24150992.789   129010301.151        -183.759          52.000    24150992.352   100341472.087        -143.024          49.000  
R22  24087454.901   128580560.141         425.372          50.000    24087452.687   100007145.730         330.865          48.000  
R07  25914138.286   138720373.021        3390.889          48.000    25914137.254   107893677.744        2637.336          47.000  
R06  24380775.809   130100574.617         928.540          43.000                                                                  
G27  25181991.545   132332274.446        1634.356          47.000    25181991.841   103116061.707        1273.513          47.000  
E33  30610413.489   160858829.274       -2777.203          35.000    30610414.961   123255591.411       -2127.904          42.000  
E31  29248239.135   153700651.341       -3538.094          46.000    29248243.427   117770698.223       -2711.103          49.000  
E25  28747898.018   151071168.431        1129.940          44.000    28747900.866   115755853.053         865.852          47.000  
E14  31045667.069   163146240.484       -1287.530          45.000    31045668.217   125008132.778        -986.469          50.000  
E19  30762912.335   161660241.362        1203.657          37.000    30762915.605   123869553.211         922.347          41.000  
E24  27110153.027   142464854.429       -1560.643          47.000    27110153.961   109161403.424       -1195.847          50.000  
E12  27433543.147   144164357.897       -1630.536          44.000    27433542.310   110463681.209       -1249.333          48.000  
E10  27126488.862   142550845.251        -689.558          49.000    27126490.770   109227467.783        -528.395          53.000  
G15                                                                  28604558.418                3      -1025.672          19.000  
> 2024 04 16 07 23 00.0110000  0 26                     
G18  26121048.434   137267094.010       -3199.895          44.000    26121044.428   106961347.183       -2493.520          45.000  
G26  24284244.598   127614586.427       -2775.106          48.000    24284243.916    99439945.631       -2162.436          44.000  
G23  23889748.506   125541691.452       -1533.164          48.000    23889745.176    97824709.368       -1194.717          48.000  
G16  24074687.462   126513363.689          71.606          47.000                                                                  
R05  26605340.924                       -3007.656          31.000    26605338.416   110616302.412       -2340.088          34.000  
R11  24576391.401   131328872.369       -4169.080          51.000    24576391.577   102144732.693       -3242.669          48.000  
R21  24031931.294   128599896.168       -1778.180          54.000    24031925.219   100022211.443       -1382.990          49.000  
G29  28480148.429   149664231.780       -3246.083          43.000    28480145.820   116621519.390       -2529.767          38.000  
S33  42980168.911   225862376.635        -640.499          42.000  
S31  42026113.603   220848795.907        -640.590          44.000  
G10  23784105.470   124986466.491        1277.035          50.000    23784104.353    97392042.227         995.096          46.000  
E11  27026476.745   142025091.452         349.396          44.000    27026475.992   108824473.206         267.873          47.000  
R12  24152099.500   129016214.024        -210.663          52.000    24152098.270   100346070.966        -163.782          48.000  
R22  24085078.127   128567872.321         420.105          51.000    24085076.554    99997277.521         326.868          49.000  
R07  25895146.199   138618705.329        3386.682          48.000    25895145.007   107814603.073        2634.021          46.000  
R06  24375619.429   130073059.208         905.605          42.000    24375920.022                3       1024.479          10.000  
G27  25172669.776   132283287.669        1631.042          47.000    25172669.800   103077890.212        1270.999          47.000  
E33  30626265.369   160942122.715       -2775.774          36.000    30626264.672   123319413.660       -2126.894          41.000  
E31  29268450.385   153806867.568       -3543.064          45.000    29268455.272   117852084.647       -2714.744          48.000  
E25  28741475.224   151037421.723        1119.275          44.000    28741479.038   115729995.208         857.824          48.000  
E14  31052999.044   163184766.942       -1281.021          45.000    31052999.709   125037653.046        -981.547          50.000  
E19  30756058.962   161624226.815        1197.030          37.000    30756062.100   123841957.757         917.397          41.000  
E24  27119099.984   142511874.015       -1574.076          47.000    27119101.907   109197431.405       -1206.206          50.000  
E12  27442860.219   144213320.977       -1633.935          44.000    27442859.589   110501198.383       -1251.846          48.000  
E10  27130439.422   142571606.352        -694.733          49.000    27130441.516   109243375.679        -532.263          53.000  
G15                                                                  28612126.722                3      -1040.618          20.000  
> 2024 04 16 07 23 30.0110000  0 26                     
G18  26139319.170   137363104.892       -3200.801          45.000    26139315.215   107036160.873       -2494.104          45.000  
G26  24300130.830   127698066.908       -2790.211          48.000    24300129.338    99504995.319       -2174.456          44.000  
G23  23898555.869   125587973.923       -1552.375          49.000    23898552.670    97860773.678       -1209.602          48.000  
G16  24074332.165   126511500.224          52.576          47.000                                                                  
R05  26622278.524   142311331.1871      -3027.437          33.000    26622275.356   110686720.617       -2355.217          31.000  
R11  24599832.608   131454132.954       -4181.774          52.000    24599831.084   102242157.537       -3252.415          47.000  
R21  24041907.384   128653280.809       -1780.823          53.000    24041902.229   100063732.879       -1385.016          49.000  
G29  28498688.995   149761669.708       -3250.003          43.000    28498687.630   116697445.125       -2532.858          37.000  
S33  42983822.587   225881576.794        -640.022          42.000  
S31  42029768.551   220868001.520        -639.897          44.000  
G10  23776866.795   124948431.049        1258.550          49.000    23776865.570    97362404.156         980.625          46.000  
E11  27024494.262   142014678.015         344.632          44.000    27024494.173   108816494.141         264.098          46.000  
R12  24153356.059   129022924.083        -236.841          52.000    24153354.524   100351289.849        -184.143          49.000  
R22  24082728.768   128555332.396         415.735          51.000    24082727.994    99987524.384         323.383          49.000  
R07  25876175.087   138517154.935        3383.219          49.000    25876174.596   107735619.594        2631.392          47.000  
R06  24370592.573   130046232.359         882.780          43.000                                                                  
G27  25163366.322   132234396.258        1628.074          48.000    25163365.766   103039793.056        1268.730          47.000  
E33  30642102.901   161025351.328       -2773.364          35.000    30642102.625   123383186.255       -2124.834          41.000  
E31  29288689.510   153913223.781       -3547.498          45.000    29288694.698   117933578.316       -2718.138          49.000  
E25  28735112.890   151003988.133        1109.515          43.000    28735116.793   115704377.310         850.032          47.000  
E14  31060291.518   163223093.940       -1274.164          45.000    31060292.866   125067020.499        -976.310          49.000  
E19  30749241.407   161588396.595        1191.414          38.000    30749243.190   123814503.527         912.889          40.000  
E24  27128123.275   142559291.771       -1587.091          47.000    27128125.193   109233764.487       -1216.123          51.000  
E12  27452196.097   144262378.083       -1636.698          44.000    27452194.667   110538787.631       -1253.979          48.000  
E10  27134418.142   142592515.284        -699.239          49.000    27134420.332   109259396.864        -535.788          53.000  
G15                                                                  28619755.804                3      -1056.286          22.000  
> 2024 04 16 07 24 00.0110000  0 26                     
G18  26157595.811   137459151.929       -3201.841          45.000    26157592.138   107111002.785       -2495.067          44.000  
G26  24316104.065   127782008.527       -2805.590          48.000    24316103.193    99570404.347       -2186.230          43.000  
G23  23907474.447   125634841.678       -1571.760          50.000    23907470.408    97897294.094       -1224.676          48.000  
G16  24074087.260   126510213.794          33.514          47.000                                                                  
R05  26639330.102                       -3048.917          30.000    26639326.666                3      -2370.094          23.000  
R11  24623346.252   131579780.406       -4194.422          51.000    24623344.056   102339883.309       -3262.267          46.000  
R21  24051899.167   128706752.907       -1783.643          52.000    24051894.503   100105322.325       -1387.183          49.000  
G29  28517254.004   149859228.264       -3253.764          42.000    28517252.646   116773464.813       -2535.175          38.000  
S33  42987475.179   225900770.963        -639.660          42.000  
S31  42033422.267   220887202.765        -639.747          44.000  
G10  23769736.001   124910959.365        1239.836          50.000    23769734.871    97333205.612         966.069          46.000  
E11  27022542.771   142004423.619         339.409          43.000    27022542.746   108808636.925         260.129          46.000  
R12  24154760.646   129030429.254        -263.153          52.000    24154759.607   100357127.188        -204.620          48.000  
R22  24080406.978   128542937.290         410.913          51.000    24080405.181    99977883.962         319.586          49.000  
R07  25857226.458   138415723.411        3379.289          49.000    25857226.244   107656728.567        2628.332          48.000  
R06  24365693.800   130020094.760         859.855          42.000                                                                  
G27  25154080.800   132185599.365        1625.038          47.000    25154080.045   103001769.556        1266.414          46.000  
E33  30657930.275   161108512.447       -2770.347          36.000    30657927.771   123446907.133       -2123.070          41.000  
E31  29308954.580   154019715.931       -3551.765          45.000    29308959.574   118015176.168       -2721.438          49.000  
E25  28728810.512   150970866.883        1098.914          44.000    28728814.233   115678998.695         842.115          47.000  
E14  31067546.051   163261219.878       -1267.294          44.000    31067547.862   125096233.892        -971.098          49.000  
E19  30742458.176   161552750.057        1185.160          38.000    30742460.540   123787190.058         908.250          41.000  
E24  27137221.993   142607104.827       -1600.155          47.000    27137223.437   109270400.472       -1226.050          50.000  
E12  27461548.530   144311525.870       -1639.475          44.000    27461547.375   110576446.370       -1256.319          48.000  
E10  27138424.004   142613568.796        -703.979          48.000    27138426.625   109275528.822        -539.432          52.000  
G15                                                                  28627464.955                3      -1062.054          19.000  
> 2024 04 16 07 24 30.0110000  0 26                     
G18  26175879.965   137555239.014       -3203.263          45.000    26175877.491   107185875.841       -2496.125          45.000  
G26  24332166.116   127866414.050       -2821.022          48.000    24332166.144    99636174.849       -2198.112          44.000  
G23  23916505.270   125682298.185       -1591.505          49.000    23916500.549    97934273.195       -1240.069          48.000  
G16  24073953.388   126509509.964          13.989          48.000                                                                  
R05  26656495.292                       -3068.967          31.000    26656496.549                3      -2386.033          23.000  
R11  24646931.532   131705815.447       -4207.301          51.000    24646929.523   102437910.495       -3272.511          46.000  
R21  24061908.573   128760317.660       -1786.841          51.000    24061904.925   100146983.871       -1389.728          49.000  
G29  28535842.156   149956912.468       -3258.056          40.000    28535839.990   116849582.453       -2538.353          37.000  
S33  42991127.532   225919965.047        -639.550          42.000  
S31  42037076.089   220906404.118        -639.872          44.000  
G10  23762714.348   124874057.478        1220.806          50.000    23762713.535    97304450.906         951.232          47.000  
E11  27020622.546   141994332.630         333.881          43.000    27020622.251   108800904.947         255.638          46.000  
R12  24156315.211   129038734.783        -290.082          51.000    24156314.514   100363586.974        -225.586          49.000  
R22  24078112.662   128530691.390         405.969          51.000    24078111.169    99968359.584         315.631          50.000  
R07  25838302.847   138314420.555        3374.694          50.000    25838302.183   107577937.615        2624.761          48.000  
R06  24360926.144   129994654.420         836.710          43.000                                                                  
G27  25144814.629   132136903.595        1621.728          47.000    25144813.192   102963824.851        1263.514          46.000  
E33  30673742.329   161191610.867       -2768.662          36.000    30673741.104   123510579.977       -2121.593          41.000  
E31  29329246.271   154126347.505       -3556.567          44.000    29329251.028   118096880.846       -2725.177          49.000  
E25  28722569.011   150938064.452        1088.501          44.000    28722571.926   115653864.410         833.766          46.000  
E14  31074764.515   163299150.463       -1260.926          44.000    31074765.813   125125297.591        -966.199          49.000  
E19  30735710.579   161517294.293        1178.909          37.000    30735712.844   123760022.764         903.226          40.000  
E24  27146396.338   142655317.776       -1613.610          47.000    27146397.826   109307342.881       -1236.433          50.000  
E12  27470919.130   144360768.524       -1642.747          43.000    27470918.113   110614177.777       -1258.811          49.000  
E10  27142458.608   142634771.023        -709.034          48.000    27142460.772   109291774.713        -543.268          52.000  
G15                                                                  28635259.099                3      -1069.454          22.000  
> 2024 04 16 07 25 00.0110000  0 27                     
G18  26194172.917   137651365.620       -3204.968          45.000    26194169.235   107260779.692       -2497.260          46.000  
G26  24348316.433   127951281.762       -2836.726          49.000    24348315.357    99702305.517       -2210.477          44.000  
G23  23925647.323   125730342.696       -1611.239          49.000    23925643.008    97971710.483       -1255.494          47.000  
G16  24073932.156   126509391.358          -5.774          48.000                                                                  
R05  26673782.418                3      -3089.276          26.000    26673779.972                1      -2402.961          29.000  
R11  24670589.453   131832233.996       -4220.297          50.000    24670586.971   102536235.974       -3282.355          46.000  
R21  24071935.214   128813974.804       -1790.100          52.000    24071931.898   100188717.264       -1392.346          49.000  
G29  28554454.848   150054722.716       -3262.473          42.000    28554453.535   116925798.353       -2542.313          39.000  
S33  42994780.046   225939160.487        -639.982          42.000  
S31  42040730.255   220925606.725        -639.871          44.000  
G10  23755801.230   124837727.907        1201.501          50.000    23755800.416    97276142.073         936.075          47.000  
E11  27018733.813   141984405.021         328.167          43.000    27018732.950   108793298.170         251.451          46.000  
R12  24158020.078   129047841.345        -316.846          51.000    24158018.697   100370669.844        -246.497          48.000  
R22  24075846.238   128518594.670         400.714          51.000    24075844.847    99958951.181         311.621          49.000  
R07  25819403.459   138213251.638        3370.003          50.000    25819402.604   107499250.856        2621.095          48.000  
R06  24356290.418   129969914.824         812.934          44.000                                                                  
G27  25135567.504   132088311.132        1618.005          47.000    25135565.747   102925960.645        1260.613          45.000  
E33  30689541.634   161274646.896       -2766.861          33.000    30689542.086   123574204.979       -2120.069          41.000  
E31  29349563.492   154233117.323       -3561.403          44.000    29349568.654   118178691.454       -2728.859          49.000  
E25  28716387.657   150905582.918        1077.298          44.000    28716390.366   115628975.974         825.572          46.000  
E14  31081945.638   163336886.894       -1254.638          44.000    31081947.075   125154212.537        -961.451          50.000  
E19  30728999.743   161482031.862        1172.178          37.000    30729002.630   123733003.635         898.097          40.000  
E24  27155647.326   142703930.621       -1627.094          47.000    27155648.654   109344591.694       -1246.760          50.000  
E12  27480307.535   144410105.724       -1646.100          43.000    27480306.875   110651981.665       -1261.255          50.000  
E10  27146522.492   142656121.568        -714.116          49.000    27146523.334   109308134.241        -547.141          52.000  
G15                                                                  28643123.821                3      -1083.782          23.000  
G08                                                                  27748940.538                1       1852.577          28.000  
> 2024 04 16 07 25 30.0110000  0 28                     
G18  26212471.867   137747528.690       -3205.757          46.000    26212468.363   107335711.948       -2497.949          46.000  
G26  24364552.610   128036607.403       -2851.410          48.000    24364552.612    99768793.025       -2221.828          44.000  
G23  23934900.533   125778972.026       -1630.378          48.000    23934897.586    98009603.531       -1270.417          48.000  
G16  24074019.762   126509856.611         -24.841          48.000                                                                  
R05  26691173.446                1      -3109.236          28.000    26691166.845                       -2418.163          30.000  
R11  24694315.869   131959029.702       -4232.489          48.000    24694315.494   102634854.789       -3292.004          46.000  
R21  24081978.575   128867722.725       -1792.780          51.000    24081976.146   100230521.257       -1394.366          49.000  
R13  26826707.551                3       2386.643          26.000                                                                  
G29  28573090.703   150152656.692       -3266.054          41.000    28573089.828   117002110.629       -2545.151          37.000  
S33  42998432.552   225958353.978        -639.482          42.000  
S31  42044384.096   220944807.364        -639.551          44.000  
G10  23748996.828   124801970.926        1182.622          50.000    23748995.802    97248279.497         921.551          46.000  
E11  27016874.976   141974638.125         323.463          43.000    27016874.451   108785814.527         247.855          46.000  
R12  24159874.003   129057747.378        -343.121          51.000    24159873.281   100378374.484        -266.901          49.000  
R22  24073607.921   128506644.419         396.307          52.000    24073605.861    99949656.669         308.191          49.000  
R07  25800530.220   138112219.184        3365.900          50.000    25800528.863   107420670.207        2617.847          47.000  
R06  24351785.691   129945876.864         789.974          43.000                                                                  
G27  25126340.191   132039821.653        1614.980          48.000    25126338.182   102888176.687        1258.479          46.000  
E31  29369907.285   154340021.903       -3565.314          45.000    29369912.104   118260605.321       -2731.839          49.000  
E25  28710267.458   150873421.857        1067.050          44.000    28710270.195   115604333.108         817.682          46.000  
E14  31089088.671   163374427.987       -1247.713          44.000    31089091.001   125182977.804        -956.062          49.000  
E19  30722327.363   161446962.823        1166.149          38.000    30722328.987   123706132.651         893.396          40.000  
E24  27164974.444   142752940.975       -1639.943          48.000    27164975.182   109382145.121       -1256.582          50.000  
E12  27489713.132   144459534.299       -1648.743          43.000    27489712.833   110689855.527       -1263.429          49.000  
E10  27150613.426   142677617.666        -718.534          50.000    27150613.835   109324605.328        -550.567          52.000  
E33                                                                  30705331.601   123637780.465       -2118.248          41.000  
G15                                                                  28651080.805                3      -1091.293          20.000  
G08                                                                  27735363.435                1       1853.126          31.000  
> 2024 04 16 07 26 00.0110000  0 28                     
G18  26230777.667   137843727.613       -3207.316          46.000    26230774.427   107410672.187       -2499.122          45.000  
G26  24380876.487   128122389.156       -2867.010          48.000    24380877.040    99835635.918       -2233.915          44.000  
G23  23944265.536   125828185.076       -1650.154          49.000    23944262.701    98047951.450       -1285.797          49.000  
G16  24074219.237   126510907.110         -44.788          47.000                                                                  
R05  26708679.750                3      -3129.066          24.000    26708671.475                       -2433.878          30.000  
R11  24718113.877   132086198.634       -4245.050          47.000    24718113.966   102733763.856       -3301.882          46.000  
R21  24092040.465   128921561.462       -1796.142          51.000    24092036.562   100272395.881       -1397.009          48.000  
R13  26813360.830                1       2369.394          28.000    26813359.950                3       1842.408          26.000  
G29  28591750.526   150250714.693       -3270.645          41.000    28591749.783   117078519.546       -2548.570          36.000  
S33  43002084.849   225977547.120        -639.760          41.000  
S31  42048037.859   220964007.642        -640.188          44.000  
G10  23742301.644   124766788.764        1163.134          50.000    23742301.265    97220864.958         906.402          47.000  
E11  27015046.751   141965031.819         317.406          44.000    27015046.277   108778453.933         243.348          46.000  
R12  24161878.762   129068453.211        -370.154          52.000    24161877.981   100386701.193        -287.842          49.000  
R22  24071396.692   128494840.663         391.040          52.000    24071394.391    99940476.095         304.163          49.000  
R07  25781682.646   138011328.173        3360.707          50.000    25781681.201   107342199.559        2613.939          47.000  
R06  24347412.834   129922543.741         766.081          43.000                                                                  
G27  25117132.981   131991437.228        1611.081          47.000    25117131.345   102850474.581        1255.365          46.000  
E31  29390275.534   154447060.008       -3570.168          44.000    29390281.143   118342621.512       -2735.554          50.000  
E25  28704207.729   150841583.170        1055.752          43.000    28704211.767   115579937.244         809.021          46.000  
E14  31096194.474   163411774.893       -1241.681          43.000    31096197.969   125211594.268        -951.458          49.000  
E19  30715691.470   161412089.742        1159.123          38.000    30715692.925   123679411.781         888.282          40.000  
E24  27174375.621   142802348.675       -1653.531          47.000    27174377.327   109420002.983       -1267.064          51.000  
E12  27499136.664   144509054.072       -1652.215          44.000    27499135.706   110727799.291       -1265.932          49.000  
E10  27154731.522   142699258.799        -723.792          50.000    27154732.322   109341187.551        -554.605          52.000  
E33                                                                  30721107.899   123701306.548       -2116.590          42.000  
G15                                                                  28659099.034                3      -1098.030          21.000  
G08                                                                  27721772.842                        1856.317          30.000  
> 2024 04 16 07 26 30.0110000  0 28                     
G18  26249090.543   137939962.348       -3208.034          46.000    26249088.171   107485660.286       -2499.783          46.000  
G26  24397287.041   128208625.635       -2881.680          48.000    24397287.274    99902833.160       -2245.560          45.000  
G23  23953741.484   125877981.372       -1669.276          49.000    23953738.495    98086753.826       -1300.672          49.000  
G16  24074531.280   126512545.361         -64.130          47.000                                                                  
R05  26726290.980                3      -3147.576          24.000    26726289.582                       -2449.421          29.000  
R11  24741981.754   132213737.029       -4256.936          48.000    24741981.183   102832960.352       -3311.074          45.000  
R21  24102118.871   128975491.843       -1798.865          52.000    24102114.367   100314341.787       -1399.078          47.000  
R13  26800099.653                        2352.773          30.000    26800080.802                3       1830.202          24.000  
G29  28610434.022   150348897.922       -3274.421          41.000    28610432.985   117155026.135       -2551.951          36.000  
S33  43005737.528   225996740.793        -639.411          42.000  
S31  42051691.289   220983208.262        -639.586          44.000  
G10  23735716.401   124732183.797        1144.139          50.000    23735715.854    97193900.087         891.520          47.000  
E11  27013248.734   141955586.496         312.550          43.000    27013249.113   108771216.694         239.381          46.000  
R12  24164033.078   129079960.006        -396.643          52.000    24164032.307   100395650.867        -308.380          50.000  
R22  24069213.109   128483183.881         386.407          52.000    24069210.594    99931409.806         300.562          49.000  
R07  25762863.036   137910584.238        3356.009          50.000    25762861.460   107263843.246        2610.170          47.000  
R06  24343172.324   129899919.371         742.613          43.000    24342966.753                3        800.391          14.000  
G27  25107945.662   131943160.471        1607.768          47.000    25107944.529   102812856.374        1252.810          46.000  
G08  27708171.642   145607431.3891       2382.788          32.000    27708169.952                        1857.416          27.000  
E31  29410669.358   154554231.030       -3574.155          44.000    29410675.328   118424739.518       -2738.630          50.000  
E25  28698210.975   150810069.346        1045.532          42.000    28698215.030   115555790.298         800.995          47.000  
E14  31103264.729   163448929.303       -1234.791          43.000    31103268.330   125240063.247        -946.302          50.000  
E19  30709093.106   161377415.227        1152.705          38.000    30709094.803   123652843.082         883.381          40.000  
E24  27183853.699   142852154.198       -1666.422          48.000    27183855.161   109458165.628       -1276.868          51.000  
E12  27508577.830   144558665.074       -1654.761          45.000    27508575.898   110765812.918       -1267.892          48.000  
E10  27158876.864   142721045.179        -728.191          49.000    27158878.158   109357881.091        -557.927          52.000  
E33                                                                  30736872.706   123764783.870       -2114.684          42.000  
G15                                                                  28667202.798                3      -1108.284          20.000  
> 2024 04 16 07 27 00.0110000  0 28                     
G18  26267409.409   138036225.116       -3209.254          46.000    26267405.825   107560670.269       -2500.696          46.000  
G26  24413782.161   128295307.848       -2896.991          47.000    24413782.919    99970377.704       -2257.439          45.000  
G23  23963326.740   125928352.652       -1688.661          48.000    23963323.797    98126004.231       -1315.821          49.000  
G16  24074953.837   126514765.421         -83.801          47.000                                                                  
R05  26744027.491                1      -3169.571          27.000    26744022.477                1      -2464.826          28.000  
R11  24765915.319   132341633.388       -4269.088          48.000    24765915.206   102932435.281       -3320.458          46.000  
R21  24112213.085   129029506.702       -1801.965          52.000    24112209.282   100356353.362       -1401.495          48.000  
R13  26786932.797                        2335.279          26.000    26786920.963                3       1814.681          23.000  
G29  28629141.084   150447199.296       -3278.639          42.000    28629137.565   117231624.650       -2554.789          35.000  
S33  43009388.758   226015927.615        -639.589          42.000  
S31  42055344.230   221002402.218        -640.112          44.000  
G10  23729240.111   124698151.334        1124.735          50.000    23729239.538    97167381.315         876.482          47.000  
E11  27011481.099   141946294.826         307.264          43.000    27011480.818   108764097.187         235.430          46.000  
R12  24166335.465   129092260.682        -423.322          52.000    24166334.978   100405217.973        -329.224          50.000  
R22  24067054.842   128471666.554         381.482          52.000    24067053.178    99922451.965         296.753          49.000  
R07  25744069.887   137809985.085        3350.720          50.000    25744068.249   107185599.542        2606.138          47.000  
R06  24339064.481   129877999.530         718.825          43.000                                                                  
G27  25098778.402   131894986.288        1603.948          47.000    25098777.226   102775318.093        1249.938          46.000  
G08  27694557.311   145535905.076        2385.259          32.000    27694551.449                3       1858.918          25.000  
E31  29431087.365   154661526.627       -3578.686          44.000    29431092.659   118506952.986       -2742.050          49.000  
E25  28692275.222   150778875.160        1034.567          42.000    28692279.068   115531888.260         792.668          47.000  
E14  31110298.335   163485885.242       -1228.586          44.000    31110300.653   125268380.132        -941.467          50.000  
E19  30702530.835   161342934.855        1146.120          37.000    30702533.347   123626423.176         878.061          41.000  
E24  27193405.868   142902350.308       -1679.781          48.000    27193407.392   109496627.595       -1287.083          51.000  
E12  27518034.593   144608359.740       -1657.890          45.000    27518032.347   110803890.692       -1270.390          48.000  
E10  27163048.316   142742969.124        -733.215          49.000    27163050.038   109374680.025        -561.781          52.000  
E33                                                                  30752623.439   123828207.082       -2113.263          41.000  
G15                                                                  28675400.936                3      -1132.901          22.000  
> 2024 04 16 07 27 30.0110000  0 28                     
G18  26285733.352   138132521.567       -3210.365          45.000    26285731.488   107635706.460       -2501.638          46.000  
G26  24430362.174   128382440.071       -2911.890          46.000    24430363.071   100038272.925       -2268.939          44.000  
G23  23973022.386   125979304.160       -1708.046          48.000    23973019.763    98165706.717       -1330.958          49.000  
G16  24075488.178   126517574.859        -103.485          47.000                                                                  
R05  26761861.359                       -3189.243          27.000                                                                  
R11  24789917.779   132469889.931       -4281.209          49.000    24789916.765   103032190.354       -3329.818          46.000  
R21  24122323.989   129083612.810       -1804.962          52.000    24122319.141   100398435.948       -1403.943          47.000  
R13  26773863.943                        2318.514          26.000    26773854.553                3       1795.187          25.000  
G29  28647871.276   150545624.895       -3282.735          42.000    28647867.839   117308320.014       -2558.227          37.000  
S33  43013039.878   226035115.169        -639.439          42.000  
S31  42058996.603   221021597.335        -639.771          44.000  
G10  23722874.788   124664699.671        1105.333          51.000    23722873.846    97141315.141         861.093          47.000  
E11  27009743.522   141937162.873         301.854          43.000    27009742.864   108757100.071         231.326          46.000  
R12  24168787.768   129105362.110        -449.963          52.000    24168787.760   100415407.882        -349.988          50.000  
R22  24064924.674   128460295.106         376.630          52.000    24064922.788    99913607.667         292.944          50.000  
R07  25725305.898   137709542.095        3345.449          49.000    25725303.872   107107477.341        2601.933          47.000  
R06  24335090.668   129856793.932         694.902          44.000                                                                  
G27  25089632.155   131846923.054        1600.288          48.000    25089631.217   102737866.242        1247.097          46.000  
G08  27680931.669   145464324.299        2386.837          32.000    27680935.669                        1860.500          27.000  
E33  30768365.302   161688802.5371      -2755.740          31.000    30768362.572   123891581.127       -2111.572          42.000  
E31  29451529.910   154768951.828       -3582.949          44.000    29451535.298   118589265.771       -2745.354          50.000  
E25  28686401.602   150748008.772        1023.542          41.000    28686405.312   115508237.412         784.142          47.000  
E14  31117295.189   163522650.040       -1222.143          45.000    31117296.608   125296550.587        -936.520          49.000  
E19  30696008.864   161308657.244        1139.344          38.000    30696010.615   123600158.614         872.770          41.000  
E24  27203033.586   142952943.183       -1693.047          48.000    27203034.593   109535393.579       -1297.261          51.000  
E12  27527507.687   144658143.884       -1660.824          44.000    27527505.934   110842037.053       -1272.771          48.000  
E10  27167247.271   142765036.405        -737.912          48.000    27167249.203   109391588.758        -565.507          52.000  
G15                                                                  28683657.702                3      -1133.234          24.000  
> 2024 04 16 07 28 00.0110000  0 28                     
G18  26304065.603   138228853.706       -3211.604          45.000    26304061.238   107710770.490       -2502.535          45.000  
G26  24447028.210   128470023.054       -2926.878          45.000    24447028.681   100106519.383       -2280.592          44.000  
G23  23982829.167   126030837.423       -1727.469          48.000    23982825.796    98205862.517       -1346.103          49.000  
G16  24076135.658   126520977.573        -123.352          48.000                                                                  
R11  24813987.680   132598505.609       -4292.994          50.000    24813986.247   103132224.709       -3339.094          47.000  
R21  24132453.455   129137813.012       -1808.160          53.000    24132448.550   100440591.718       -1406.500          49.000  
R13  26760877.647                1       2300.855          27.000    26760875.876                3       1790.354          24.000  
G29  28666623.909   150644177.805       -3287.157          40.000    28666622.352   117385114.602       -2561.763          37.000  
S33  43016691.792   226054305.369        -639.856          42.000  
S31  42062649.701   221040794.891        -639.860          44.000  
G10  23716620.777   124631833.495        1085.683          50.000    23716619.009    97115705.129         846.104          45.000  
E11  27008037.095   141928192.990         296.300          44.000    27008035.890   108750227.106         227.039          46.000  
R12  24171391.608   129119267.448        -476.892          52.000    24171391.070   100426223.081        -370.874          50.000  
R22  24062821.316   128449071.888         371.765          51.000    24062820.491    99904878.609         289.148          50.000  
R07  25706572.162   137609263.241        3339.820          48.000    25706570.559   107029482.820        2597.751          47.000  
R06  24331251.759   129836308.175         670.866          44.000                                                                  
G27  25080507.891   131798975.516        1596.462          47.000    25080507.281   102700504.571        1243.677          46.000  
G08  27667299.906   145392693.194        2388.096          33.000    27667302.879                        1860.958          28.000  
E33  30784094.843   161771449.701       -2753.921          31.000    30784089.545   123954908.162       -2110.092          42.000  
E31  29471997.548   154876508.090       -3587.195          44.000    29472002.498   118671678.955       -2748.713          50.000  
E25  28680591.359   150717474.687        1012.453          42.000    28680594.984   115484841.178         775.688          48.000  
E14  31124255.020   163559227.533       -1216.026          45.000    31124257.017   125324577.501        -931.731          49.000  
E19  30689525.633   161274587.487        1132.088          39.000    30689527.301   123574053.284         867.527          42.000  
E24  27212737.396   143003935.233       -1706.272          48.000    27212737.872   109574465.421       -1307.349          51.000  
E12  27536998.087   144708019.627       -1663.934          44.000    27536997.263   110880253.533       -1275.043          49.000  
E10  27171474.632   142787249.303        -742.776          48.000    27171476.101   109408609.064        -569.107          52.000  
G15                                                                  28691994.164                3      -1148.278          22.000  
R05                                                                  26779841.070                3      -2494.310          27.000  
> 2024 04 16 07 28 30.0110000  0 28                     
G18  26322401.539   138325212.646       -3212.154          45.000    26322398.250   107785855.367       -2503.019          45.000  
G26  24463778.968   128558046.487       -2941.278          46.000    24463778.928   100175109.051       -2291.921          44.000  
G23  23992744.006   126082943.070       -1746.326          48.000    23992740.977    98246464.368       -1360.706          49.000  
G16  24076895.446   126524966.894        -142.584          49.000                                                                  
R05  26797870.310                3      -3228.385          18.000    26797887.451                3      -2511.975          22.000  
R11  24838121.307   132727467.409       -4304.289          50.000    24838118.859   103232528.269       -3347.787          47.000  
R21  24142598.838   129192099.299       -1810.882          53.000    24142593.387   100482814.420       -1408.295          49.000  
R13  26748015.117                        2283.729          27.000    26747991.359                3       1787.495          24.000  
G29  28685401.520   150742849.966       -3291.001          42.000    28685399.286   117462002.018       -2563.893          38.000  
S33  43020342.435   226073491.987        -639.371          42.000  
S31  42066302.172   221059988.730        -639.574          44.000  
G10  23710476.880   124599546.855        1066.648          51.000    23710475.268    97090546.800         831.219          47.000  
E11  27006359.813   141919376.697         291.467          44.000    27006358.284   108743471.828         223.312          46.000  
R12  24174143.781   129133968.390        -503.070          52.000    24174143.223   100437657.082        -391.357          49.000  
R22  24060745.067   128437988.359         367.310          52.000    24060744.030    99896258.117         285.681          49.000  
R07  25687868.757   137509144.841        3334.761          48.000    25687867.607   106951613.102        2593.712          48.000  
R06  24327547.422   129816536.976         647.199          45.000                                                                  
G27  25071404.379   131751137.430        1592.812          48.000    25071403.887   102663228.178        1241.119          46.000  
G08  27653660.641   145321004.830        2390.131          33.000    27653666.441                        1862.276          30.000  
E31  29492487.403   154984185.833       -3591.026          43.000    29492492.537   118754185.232       -2751.593          49.000  
E25  28674842.533   150687266.483        1001.569          42.000    28674846.530   115461694.665         767.443          47.000  
E14  31131178.953   163595610.552       -1209.378          44.000    31131180.337   125352455.400        -926.639          49.000  
E19  30683080.095   161240719.503        1126.003          38.000    30683082.171   123548102.531         862.644          42.000  
E24  27222515.004   143055317.986       -1719.066          48.000    27222515.749   109613836.628       -1317.187          51.000  
E12  27546505.082   144757977.984       -1666.382          43.000    27546504.228   110918533.229       -1276.927          49.000  
E10  27175727.246   142809598.968        -747.156          48.000    27175728.904   109425734.172        -572.479          52.000  
E33                                                                  30799803.894   124018182.041       -2108.145          42.000  
G15                                                                  28700419.463                3      -1157.494          22.000  
> 2024 04 16 07 29 00.0110000  0 28                     
G18  26340743.865   138421601.685       -3213.171          45.000    26340739.192   107860963.729       -2503.791          45.000  
G26  24480613.957   128646512.301       -2956.302          47.000    24480614.155   100244043.418       -2303.520          44.000  
G23  24002768.790   126135623.896       -1765.375          48.000    24002766.001    98287514.459       -1375.610          50.000  
G16  24077766.768   126529548.004        -162.354          49.000                                                                  
R05  26816052.037                       -3247.573          27.000                                                                  
R11  24862319.478   132856775.754       -4315.724          50.000    24862316.388   103333101.314       -3356.709          46.000  
R21  24152759.068   129246475.827       -1813.824          52.000    24152754.223   100525107.336       -1410.760          49.000  
R13  26735235.357                        2267.818          31.000    26735231.099                3       1760.784          26.000  
G29  28704201.504   150841645.209       -3294.900          41.000    28704199.530   117538985.383       -2567.264          38.000  
S33  43023993.598   226092677.808        -639.335          42.000  
S31  42069954.528   221079182.306        -639.535          44.000  
G10  23704444.548   124567845.296        1047.253          51.000    23704442.842    97065844.258         816.150          46.000  
E11  27004711.754   141910717.697         286.259          44.000    27004710.717   108736837.065         219.598          47.000  
R12  24177045.110   129149469.319        -529.712          52.000    24177044.808   100449713.361        -411.987          49.000  
R22  24058696.249   128427048.320         362.512          52.000    24058694.609    99887749.260         281.982          49.000  
R07  25669198.187   137409196.129        3329.040          49.000    25669196.772   106873875.310        2589.207          48.000  
R06  24323976.858   129797487.548         623.129          44.000    24324778.955                3        774.000          14.000  
G27  25062323.353   131703414.868        1589.039          48.000    25062322.513   102626041.824        1238.396          46.000  
G08  27640009.398   145249264.579        2391.620          32.000    27640018.310                        1865.227          31.000  
E33  30815512.443                1      -2748.720          30.000    30815505.050   124081405.926       -2106.556          41.000  
E31  29513000.412   155091987.760       -3595.095          42.000    29513006.016   118836786.702       -2754.833          48.000  
E25  28669158.249   150657389.911         990.764          43.000    28669160.915   115438802.281         759.059          47.000  
E14  31138065.481   163631804.090       -1203.080          44.000    31138067.877   125380188.117        -921.684          49.000  
E19  30676673.607   161207059.702        1118.861          38.000    30676676.847   123522311.355         857.079          42.000  
E24  27232367.914   143107095.174       -1732.178          48.000    27232368.492   109653510.075       -1327.291          51.000  
E12  27556028.535   144808022.830       -1669.352          44.000    27556027.270   110956879.297       -1279.030          48.000  
E10  27180006.613   142832088.860        -751.677          48.000    27180008.731   109442966.736        -576.071          52.000  
G15                                                                  28708909.673                3      -1166.227          21.000  
> 2024 04 16 07 29 30.0110000  0 28                     
G18  26359091.334   138518020.392       -3214.045          44.000    26359087.700   107936095.206       -2504.584          45.000  
G26  24497531.835   128735418.641       -2970.439          46.000    24497531.788   100313321.064       -2314.515          44.000  
G23  24012902.515   126188878.797       -1784.338          48.000    24012900.278    98329011.870       -1390.363          50.000  
G16  24078751.221   126534722.014        -182.007          48.000                                                                  
R05  26834330.643                3      -3253.200          15.000    26834315.541                3      -2539.076          22.000  
R11  24886582.531   132986426.245       -4327.044          50.000    24886579.541   103433940.524       -3365.412          48.000  
R21  24162937.256   129300943.020       -1816.681          52.000    24162933.315   100567470.770       -1413.043          49.000  
R13  26722552.975                        2249.042          30.000    26722543.846                3       1749.752          25.000  
G29  28723025.425   150940564.586       -3299.071          43.000    28723024.016   117616065.484       -2570.683          39.000  
S33  43027644.729   226111864.013        -639.109          42.000  
S31  42073607.159   221098375.176        -639.623          44.000  
G10  23698523.736   124536731.388        1027.723          50.000    23698521.909    97041599.698         800.744          46.000  
E11  27003094.129   141902216.026         281.030          44.000    27003092.895   108730322.866         215.244          47.000  
R12  24180096.733   129165770.239        -556.390          51.000    24180096.325   100462391.831        -432.690          49.000  
R22  24056673.063   128416251.925         357.782          52.000    24056672.215    99879352.118         278.223          50.000  
R07  25650560.189   137309422.941        3323.206          50.000    25650558.761   106796274.079        2584.689          49.000  
R06  24320542.593   129779162.742         598.870          44.000                                                                  
G27  25053264.924   131655810.001        1585.217          48.000    25053263.291   102588947.177        1235.275          45.000  
G08  27626347.330                        2394.285          25.000    27626356.874                        1865.674          30.000  
E31  29533537.508   155199912.831       -3599.302          41.000    29533543.989   118919482.505       -2757.916          48.000  
E25  28663536.704   150627847.060         979.674          44.000    28663539.078   115416165.579         750.486          47.000  
E14  31144917.304   163667809.484       -1196.798          44.000    31144919.198   125407776.674        -917.049          49.000  
E19  30670309.400   161173610.732        1111.574          39.000    30670311.527   123496681.669         851.916          42.000  
E24  27242296.015   143159266.776       -1745.276          48.000    27242296.299   109693485.746       -1337.268          51.000  
E12  27565567.765   144858153.967       -1672.138          44.000    27565566.596   110995291.655       -1281.314          49.000  
E10  27184313.252   142854718.708        -756.364          48.000    27184315.229   109460306.526        -579.515          52.000  
E33                                                                  30831194.087   124144579.963       -2104.689          39.000  
G15                                                                  28717487.788                3      -1173.044          23.000  
