     3.00           OBSERVATION DATA    M: Mixed            RINEX VERSION / TYPE
CONVBIN 2.4.3                           20240416 075942 UTC PGM / RUN BY / DATE 
format: u-blox UBX                                          COMMENT             
log: /home/regis/git/gnsspwv/obsdata/VERT00CHL/2024-04-16/VECOMMENT             
{self.marker}                                               MARKER NAME         
                                                            MARKER NUMBER       
GEODETIC                                                    MARKER TYPE         
{self.observer}     {self.institution}                      OBSERVER / AGENCY   
UNKNOWN             UBLOX-ZED-F9P                           REC # / TYPE / VERS 
UNKNOWN             TWIVSP6037L                             ANT # / TYPE        
  1713381.0000 -5047934.0000 -3490983.0000                  APPROX POSITION XYZ 
        0.0000        0.0000        0.0000                  ANTENNA: DELTA H/E/N
G    8 C1C L1C D1C S1C C2L L2L D2L S2L                      SYS / # / OBS TYPES 
R    8 C1C L1C D1C S1C C2C L2C D2C S2C                      SYS / # / OBS TYPES 
E    8 C1C L1C D1C S1C C7Q L7Q D7Q S7Q                      SYS / # / OBS TYPES 
S    4 C1C L1C D1C S1C                                      SYS / # / OBS TYPES 
  2024    04    16    07    45   00.0110000     GPS         TIME OF FIRST OBS   
  2024    04    16    07    59   30.0120000     GPS         TIME OF LAST OBS    
                                                            END OF HEADER       
> 2024 04 16 07 45 00.0110000  0 27                     
G18  26929395.422   141514983.5761      -3228.619          44.000    26929391.401   110271391.2111      -2515.853          41.000  
G26  25060635.880   131694545.2861      -3381.227          46.000    25060636.363   102619133.3151      -2634.657          44.000  
G23  24379089.883   128113207.1821      -2345.894          48.000    24379086.503    99828489.8451      -1827.977          49.000  
G16  24165630.646   126991273.6021       -804.291          48.000                                                                  
R11  25665484.211   137148640.2001      -4601.942          46.000    25665484.697   106671216.5441      -3579.302          45.000  
R13  26381383.319   140875040.9981       1650.441          35.000    26381393.326                        1283.723          29.000  
R21  24486521.099   131032510.3101      -1909.566          51.000    24486517.230   101914245.9181      -1485.355          48.000  
S33  43140577.214   226705331.3731       -639.529          42.000  
S31  42186587.543   221692094.9631       -639.454          44.000  
E33  31310949.771                       -2676.604          30.000    31310946.671   126076343.0671      -2050.685          34.000  
G10  23571567.849   123869587.7681        398.750          48.000    23571568.168    96521748.6311        310.637          48.000  
E11  26966790.285   141711446.1011        130.304          45.000    26966788.725   108584150.0051         99.928          47.000  
R12  24348042.616   130062906.6801      -1369.902          50.000    24348043.155   101160163.8041      -1065.500          48.000  
R22  24006516.977   128148519.7501        217.816          52.000    24006515.673    99671117.0621        169.403          50.000  
R07  25093421.435   134327026.8101       3063.206          51.000    25093418.036   104476634.5581       2382.289          46.000  
R06  24283418.715   129581067.5781       -185.397          41.000                                                                  
G27  24785050.408   130246341.5221       1434.025          48.000    24785049.059   101490660.9081       1117.360          45.000  
G08  27198977.149   142931643.7081       2426.642          37.000    27198978.804   111375323.6401       1891.162          36.000  
E04  31227929.962   164103877.2611       1870.213          44.000    31227932.795   125741952.0451       1433.037          48.000  
E31  30179770.771   158595876.5841      -3697.212          43.000    30179774.731   121521583.6911      -2832.881          46.000  
E25  28521861.779   149883339.9541        612.490          46.000    28521864.286   114845699.5021        469.227          50.000  
E14  31339996.525   164692961.6311      -1014.209          43.000    31339999.332   126193283.0611       -777.000          49.000  
E19  30494545.694   160249967.1311        862.803          41.000    30494546.064   122788957.0731        660.891          43.000  
E24  27586210.218   144966548.0071      -2139.184          48.000    27586209.827   111078285.9291      -1639.016          50.000  
G32  28304545.625   148741398.8531       2356.965          37.000    28304548.122   115902411.7711       1836.887          36.000  
E12  27868231.250   146448664.0781      -1746.491          44.000    27868230.643   112213994.6541      -1338.118          50.000  
E10  27329800.617   143619262.2731       -885.479          48.000    27329802.157   110046126.6861       -678.615          53.000  
> 2024 04 16 07 45 30.0110000  0 27                     
G18  26947825.194   141611838.733       -3228.559          44.000    26947823.200   110346862.830       -2515.538          42.000  
G26  25079972.216   131796157.244       -3392.864          46.000    25079971.622   102698311.428       -2643.822          43.000  
G23  24392530.002   128183833.569       -2362.740          48.000    24392526.540    99883523.420       -1841.029          49.000  
G16  24170279.204   127015701.389        -824.280          48.000                                                                  
R11  25691336.992   137286787.590       -4608.277          47.000    25691337.087   106778664.413       -3584.014          45.000  
R13  26372169.113   140825836.251        1629.924          35.000    26372177.928                        1267.641          29.000  
R21  24497234.718   131089839.426       -1912.528          50.000    24497231.009   101958835.220       -1487.592          47.000  
S33  43144226.241   226724506.827        -639.209          42.000  
S31  42190238.146   221711279.986        -639.437          44.000  
G10  23569350.567   123857937.678         378.052          48.000    23569351.192    96512670.700         294.499          48.000  
E11  26966056.820   141707594.450         126.309          45.000    26966056.019   108581198.783          96.767          48.000  
R12  24355807.529   130104381.713       -1395.350          50.000    24355807.462   101192422.242       -1085.130          49.000  
R22  24005304.316   128142043.369         213.837          52.000    24005302.228    99666079.905         166.260          51.000  
R07  25076284.770   134235289.633        3052.498          51.000    25076281.015   104405283.422        2374.073          46.000  
R06  24284534.104   129587017.892        -211.387          41.000    24285325.139                3       -340.477          17.000  
G27  24776879.703   130203404.132        1428.236          48.000    24776878.108   101457203.225        1113.020          45.000  
G08  27185120.878   142858829.973        2427.222          37.000    27185122.570   111318585.642        1891.772          35.000  
E04  31217244.772   164047725.883        1873.053          43.000    31217247.525   125698927.016        1435.294          48.000  
E31  30200882.224   158706820.116       -3699.184          43.000    30200886.467   121606592.347       -2834.415          46.000  
E25  28518399.216   149865149.475         600.126          46.000    28518402.531   114831761.364         459.887          50.000  
E14  31345768.888   164723296.613       -1008.400          43.000    31345771.961   126216526.761        -772.765          49.000  
E19  30489646.526   160224225.619         853.307          39.000    30489647.641   122769233.130         653.983          43.000  
E24  27598455.933   145030898.155       -2151.125          48.000    27598455.191   111127593.184       -1648.192          50.000  
G32  28291078.730   148670631.740        2360.198          38.000    28291081.034   115847268.648        1839.526          37.000  
E12  27878205.982   146501078.886       -1748.140          44.000    27878204.949   112254156.633       -1339.476          50.000  
E10  27334865.895   143645879.521        -889.131          49.000    27334867.220   110066521.733        -681.283          53.000  
E33                                                                  31326218.663   126137838.039       -2049.106          32.000  
> 2024 04 16 07 46 00.0110000  0 27                     
G18  26966255.622   141708693.738       -3228.618          42.000    26966254.421   110422334.262       -2515.870          42.000  
G26  25099375.087   131898121.029       -3404.898          46.000    25099374.561   102777763.727       -2653.209          44.000  
G23  24406065.341   128254968.599       -2379.895          47.000    24406062.879    99938953.357       -1854.388          49.000  
G16  24175042.698   127040734.724        -844.775          48.000                                                                  
R11  25717224.068   137425124.594       -4614.605          45.000    25717225.116   106886259.800       -3589.017          45.000  
R13  26363071.360   140777258.425        1608.735          35.000    26363076.197                        1250.325          30.000  
R21  24507964.324   131147258.938       -1915.696          51.000    24507960.871   102003494.863       -1490.073          47.000  
S33  43147875.328   226743682.367        -639.571          43.000  
S31  42193888.830   221730464.607        -639.823          45.000  
E33  31341475.270                1      -2672.625          28.000    31341476.863                       -2047.411          31.000  
G10  23567252.163   123846911.966         356.916          48.000    23567252.709    96504079.281         278.089          48.000  
E11  26965349.050   141703876.406         121.581          45.000    26965348.596   108578349.905          93.204          48.000  
R12  24363716.339   130146622.215       -1420.994          51.000    24363715.149   101225275.983       -1105.244          48.000  
R22  24004114.595   128135695.466         209.137          51.000    24004113.339    99661142.665         162.640          50.000  
R07  25059208.814   134143880.631        3041.293          51.000    25059205.650   104334187.442        2365.430          48.000  
R06  24285795.482   129593753.582        -237.408          40.000                                                                  
G27  24768742.955   130160642.630        1422.096          48.000    24768740.903   101423882.595        1108.209          45.000  
G08  27171262.145   142786004.876        2426.984          38.000    27171264.038   111261838.826        1891.211          35.000  
E04  31206543.677   163991493.465        1875.561          43.000    31206546.575   125655839.950        1437.196          48.000  
E31  30222006.564   158817829.352       -3701.700          43.000    30222010.750   121691651.367       -2836.456          47.000  
E25  28515009.121   149847333.680         587.422          46.000    28515012.280   114818110.310         450.012          50.000  
E14  31351509.642   164753466.103       -1003.426          42.000    31351512.997   126239643.635        -768.713          49.000  
E19  30484797.764   160198754.306         844.196          37.000    30484800.433   122749716.249         647.004          43.000  
E24  27610769.779   145095613.151       -2163.483          48.000    27610769.888   111177179.995       -1657.724          50.000  
G32  28277595.620   148599772.848        2363.227          42.000    28277597.190   115792054.012        1841.640          40.000  
E12  27888191.446   146553551.840       -1750.229          45.000    27888190.030   112294363.163       -1341.124          50.000  
E10  27339951.791   143672606.938        -892.992          48.000    27339953.086   110087001.205        -684.263          53.000  
> 2024 04 16 07 46 30.0110000  0 27                     
G18  26984687.703   141805550.680       -3228.711          43.000    26984685.837   110497807.190       -2515.869          42.000  
G26  25118845.484   132000436.609       -3416.560          47.000    25118845.719   102857490.144       -2662.216          44.000  
G23  24419698.821   128326612.883       -2396.749          47.000    24419696.134    99994780.101       -1867.523          49.000  
G16  24179922.033   127066376.749        -864.941          47.000                                                                  
R11  25743148.682   137563649.529       -4620.792          46.000    25743147.764   106994001.423       -3593.841          44.000  
R13  26354090.783   140729312.979        1587.172          32.000    26354095.683   109456149.012        1234.931          33.000  
R21  24518713.194   131204772.414       -1918.834          52.000    24518708.099   102048227.551       -1492.335          47.000  
S33  43151524.836   226762859.724        -639.601          42.000  
S31  42197540.040   221749650.606        -639.812          44.000  
E33  31356727.169                       -2669.645          28.000    31356722.957   126260667.956       -2045.188          33.000  
G10  23565274.087   123836514.141         336.124          48.000    23565274.007    96495977.111         261.805          48.000  
E11  26964667.343   141700294.116         116.968          44.000    26964667.070   108575605.026          89.571          48.000  
R12  24371766.892   130189629.129       -1446.556          51.000    24371765.789   101258725.830       -1125.024          48.000  
R22  24002949.709   128129478.530         204.944          51.000    24002948.034    99656307.261         159.320          50.000  
R07  25042194.182   134052807.603        3029.951          50.000    25042193.455   104263352.916        2356.671          48.000  
R06  24287205.768   129601278.295        -264.257          40.000                                                                  
G27  24760640.401   130118061.754        1416.069          49.000    24760638.169   101390702.733        1103.307          46.000  
G08  27157404.332   142713172.641        2427.612          39.000    27157404.119   111205086.462        1891.626          35.000  
E04  31195828.253   163935184.498        1878.009          43.000    31195831.385   125612694.178        1439.136          48.000  
E31  30243143.816   158928905.359       -3703.683          44.000    30243148.214   121776761.546       -2837.965          47.000  
E25  28511691.138   149829896.457         574.923          46.000    28511694.053   114804749.319         440.502          50.000  
E14  31357220.759   164783473.636        -997.763          43.000    31357222.909   126262636.422        -764.442          49.000  
E19  30480002.070   160173558.053         834.873          35.000    30480005.674   122730410.077         639.954          43.000  
E24  27623154.303   145160694.775       -2175.557          48.000    27623154.656   111227047.724       -1666.974          50.000  
G32  28264095.323   148528827.686        2366.003          43.000    28264097.738   115736772.177        1843.514          42.000  
E12  27898188.036   146606085.149       -1752.092          45.000    27898186.691   112334616.044       -1342.566          50.000  
E10  27345059.280   143699446.488        -896.648          48.000    27345060.492   110107566.580        -686.973          53.000  
> 2024 04 16 07 47 00.0110000  0 27                     
G18  27003117.497   141902402.083       -3228.510          42.000    27003115.284   110573275.824       -2515.723          41.000  
G26  25138380.214   132103094.503       -3427.738          46.000    25138380.296   102937483.299       -2671.074          44.000  
G23  24433428.167   128398757.466       -2413.094          48.000    24433424.722   100050996.691       -1880.485          49.000  
G16  24184916.071   127092620.192        -884.943          47.000                                                                  
R11  25769104.555   137702350.992       -4626.572          44.000    25769104.223   107101880.299       -3598.372          45.000  
R13  26345232.156   140681995.835        1566.883          33.000    26345235.237   109419346.715        1218.315          32.000  
R21  24529476.827   131262372.872       -1921.552          52.000    24529471.360   102093027.909       -1494.540          46.000  
S33  43155173.134   226782033.576        -639.143          42.000  
S31  42201190.414   221768833.014        -639.480          44.000  
G10  23563413.390   123826738.151         315.421          48.000    23563413.785    96488359.508         245.788          48.000  
E11  26964010.288   141696840.106         112.928          45.000    26964009.833   108572958.454          86.488          48.000  
R12  24379959.647   130233394.088       -1471.611          52.000    24379958.600   101292765.225       -1144.527          48.000  
R22  24001808.871   128123385.455         200.952          52.000    24001806.238    99651568.194         156.268          50.000  
R07  25025244.708   133962068.542        3018.925          50.000    25025241.936   104192778.102        2347.906          47.000  
R06  24288762.833   129609586.776        -289.913          41.000                                                                  
G27  24752570.678   130075656.743        1410.468          49.000    24752568.630   101357659.921        1098.969          46.000  
G08  27143542.176   142640327.901        2428.210          39.000    27143542.073   111148324.378        1891.797          35.000  
E04  31185097.831   163878794.219        1880.825          43.000    31185100.630   125569486.146        1441.186          48.000  
E31  30264292.033   159040039.724       -3705.510          43.000    30264296.768   121861916.431       -2839.337          48.000  
E25  28508443.965   149812832.263         562.388          46.000    28508446.915   114791674.162         430.926          51.000  
E14  31362898.316   164813313.271        -991.956          43.000    31362901.269   126285500.576        -760.054          49.000  
E19  30475259.324   160148631.773         826.497          35.000    30475262.042   122711310.769         633.430          42.000  
E24  27635607.759   145226135.218       -2187.549          48.000    27635607.882   111277190.365       -1676.102          51.000  
G32  28250577.475   148457792.393        2369.279          43.000    28250579.592   115681420.104        1845.918          41.000  
E12  27908195.964   146658671.282       -1754.005          44.000    27908193.542   112374909.319       -1343.876          50.000  
E10  27350186.816   143726390.723        -900.020          48.000    27350187.823   110128212.183        -689.569          53.000  
E33                                                                  31371953.781   126321999.959       -2043.406          32.000  
> 2024 04 16 07 47 30.0110000  0 27                     
G18  27021546.415   141999248.399       -3228.338          39.000    27021543.331   110648740.447       -2515.411          40.000  
G26  25157980.290   132206092.867       -3439.056          46.000    25157979.887   103017741.741       -2679.896          44.000  
G23  24447252.222   128471401.097       -2430.026          47.000    24447248.229   100107602.137       -1893.533          49.000  
G16  24190024.961   127119466.359        -905.090          47.000                                                                  
R11  25795094.281   137841225.638       -4632.280          45.000    25795092.193   107209893.914       -3602.688          45.000  
R13  26336489.993   140635310.441        1545.651          33.000    26336489.136                        1201.855          29.000  
R21  24540256.612   131320061.921       -1924.602          52.000    24540252.069   102137897.176       -1496.867          46.000  
S33  43158820.936   226801202.949        -639.168          42.000  
S31  42204839.793   221788011.881        -639.651          44.000  
G10  23561672.336   123817585.673         294.517          48.000    23561671.607    96481227.715         229.577          47.000  
E11  26963377.673   141693514.795         108.767          45.000    26963377.239   108570410.480          83.216          48.000  
R12  24388293.759   130277916.131       -1496.944          51.000    24388292.989   101327393.515       -1164.371          48.000  
R22  24000690.766   128117417.115         196.533          51.000    24000688.733    99646926.145         152.972          51.000  
R07  25008358.236   133871669.420        3007.392          52.000    25008354.276   104122467.734        2339.109          47.000  
R06  24290466.543   129618681.064        -316.507          41.000                                                                  
G27  24744535.600   130033430.554        1404.282          49.000    24744533.653   101324756.425        1094.254          46.000  
G08  27129678.472   142567473.191        2428.125          39.000    27129678.298   111091554.468        1892.389          34.000  
E04  31174352.412   163822325.538        1883.473          43.000    31174354.741   125526218.015        1443.039          47.000  
E31  30285450.589   159151231.727       -3707.517          43.000    30285455.909   121947115.476       -2840.783          47.000  
E25  28505268.023   149796143.125         549.878          46.000    28505271.028   114778886.390         421.283          50.000  
E14  31368546.812   164842986.794        -986.612          44.000    31368548.123   126308237.432        -755.935          49.000  
E19  30470568.294   160123978.109         816.936          36.000    30470570.357   122692420.389         625.727          42.000  
E24  27648129.067   145291934.448       -2199.644          48.000    27648129.375   111327607.932       -1685.318          51.000  
G32  28237043.721   148386670.803        2372.089          44.000    28237044.419   115626000.753        1848.115          38.000  
E12  27918212.536   146711310.598       -1755.617          44.000    27918210.440   112415243.342       -1345.372          50.000  
E10  27355333.533   143753439.822        -903.509          48.000    27355334.877   110148938.147        -692.389          53.000  
E33                                                                  31387171.936   126383275.700       -2041.865          31.000  
> 2024 04 16 07 48 00.0110000  0 27                     
G18  27039976.641   142096091.774       -3228.278          39.000    27039971.084   110724202.871       -2515.540          40.000  
G26  25177645.106   132309431.794       -3450.353          45.000    25177644.811   103098265.527       -2688.479          44.000  
G23  24461169.987   128544544.383       -2446.432          46.000    24461166.316   100164596.950       -1906.469          49.000  
G16  24195248.961   127146917.799        -925.177          48.000                                                                  
R11  25821113.476   137980271.811       -4637.876          44.000    25821113.205   107318040.892       -3607.170          46.000  
R13  26327867.439   140589262.492        1525.198          33.000    26327864.305                        1185.420          30.000  
R21  24551053.821   131377842.512       -1927.584          51.000    24551049.768   102182837.681       -1499.205          45.000  
S33  43162468.540   226820372.730        -639.035          42.000  
S31  42208489.247   221807189.784        -639.318          44.000  
G10  23560049.429   123809060.189         273.573          48.000    23560049.505    96474584.526         213.100          48.000  
E11  26962769.538   141690320.391         104.298          44.000    26962769.254   108567962.807          79.859          48.000  
R12  24396769.465   130323196.435       -1522.060          51.000    24396769.864   101362611.562       -1183.763          48.000  
R22  23999597.190   128111576.315         192.456          52.000    23999594.870    99642383.308         149.622          51.000  
R07  24991535.082   133781617.313        2995.895          51.000    24991531.011   104052427.205        2330.084          47.000  
R06  24292319.139   129628565.004        -343.148          41.000                                                                  
G27  24736534.927   129991388.066        1398.300          49.000    24736533.403   101291996.086        1089.590          47.000  
G08  27115813.522   142494612.777        2428.644          39.000    27115813.873   111034780.166        1892.560          35.000  
E04  31163591.721   163765783.242        1885.963          43.000    31163595.208   125482893.483        1445.007          47.000  
E31  30306621.070   159262482.590       -3709.522          43.000    30306626.358   122032359.632       -2842.362          47.000  
E25  28502164.246   149779833.118         537.292          45.000    28502167.291   114766389.121         411.643          50.000  
E14  31374163.206   164872497.853        -980.951          45.000    31374163.898   126330849.830        -751.798          49.000  
E19  30465930.232   160099601.829         807.825          36.000    30465931.644   122673742.511         618.880          42.000  
E24  27660717.852   145358094.241       -2211.389          47.000    27660719.264   111378301.791       -1694.480          51.000  
G32  28223494.850   148315468.709        2374.539          45.000    28223495.020   115570518.663        1850.341          39.000  
E12  27928238.863   146764005.407       -1757.375          44.000    27928238.252   112455619.919       -1346.727          50.000  
E10  27360501.032   143780595.907        -907.134          48.000    27360502.686   110169746.074        -695.052          53.000  
E33                                                                  31402374.237                       -2039.923          24.000  
> 2024 04 16 07 48 30.0110000  0 28                     
G18  27058404.849   142192933.788       -3228.253          38.000    27058400.323   110799664.220       -2515.680          40.000  
G26  25197373.856   132413110.691       -3461.929          45.000    25197374.478   103179054.268       -2697.734          44.000  
G23  24475183.472   128618187.373       -2463.390          47.000    24475180.061   100221981.137       -1919.529          49.000  
G16  24200588.121   127174976.550        -945.782          48.000                                                                  
R11  25847165.690   138119487.771       -4643.644          45.000    25847164.482   107426319.942       -3611.634          44.000  
R13  26319361.721                        1501.991          30.000    26319362.351                        1168.589          29.000  
R21  24561870.679   131435717.516       -1931.007          52.000    24561863.461   102227851.623       -1501.890          44.000  
R08  28148761.710                3       3492.000          10.000                                                                  
S33  43166116.550   226839542.175        -639.243          42.000  
S31  42212139.108   221826369.013        -639.631          44.000  
G10  23558547.523   123801164.663         252.316          49.000    23558547.453    96468432.193         196.691          48.000  
E11  26962187.371   141687258.549          99.349          45.000    26962186.299   108565616.724          76.140          48.000  
R12  24405387.656   130369235.429       -1547.626          50.000    24405387.942   101398419.698       -1203.703          47.000  
R22  23998526.892   128105865.015         187.915          51.000    23998524.663    99637941.241         146.289          51.000  
R07  24974779.140   133691919.778        2983.616          51.000    24974775.179   103982662.443        2320.775          47.000  
R06  24294318.863   129639242.003        -369.660          40.000                                                                  
G27  24728570.211   129949533.507        1391.691          49.000    24728568.691   101259382.157        1084.404          47.000  
G08  27101947.521   142421750.411        2428.479          40.000    27101949.035   110978004.342        1892.352          36.000  
E04  31152819.453   163709171.523        1887.934          43.000    31152822.145   125439515.747        1446.382          46.000  
E31  30327802.326   159373792.844       -3711.573          43.000    30327808.025   122117649.314       -2844.069          47.000  
E25  28499132.722   149763905.637         524.113          45.000    28499136.463   114754184.964         401.675          50.000  
E14  31379748.515   164901849.537        -976.026          45.000    31379749.120   126353340.089        -747.912          49.000  
E19  30461345.713   160075506.853         798.273          37.000    30461346.839   122655280.179         611.557          42.000  
E24  27673376.541   145424615.828       -2223.752          47.000    27673377.952   111429272.865       -1704.025          51.000  
G32  28209931.625   148244191.178        2376.695          46.000    28209931.832   115514977.809        1852.026          39.000  
E12  27938277.237   146816757.206       -1759.745          43.000    27938276.508   112496040.154       -1348.359          50.000  
E10  27365689.413   143807860.447        -910.963          48.000    27365691.086   110190637.094        -698.062          53.000  
E33                                                                  31417567.373                3      -2033.928          24.000  
> 2024 04 16 07 49 00.0110000  0 27                     
G18  27076833.925   142289784.276       -3228.387          39.000    27076829.522   110875132.126       -2515.729          39.000  
G26  25217169.190   132517137.070       -3473.281          44.000    25217169.981   103260113.750       -2706.686          43.000  
G23  24489293.499   128692338.117       -2480.176          47.000    24489290.817   100279760.970       -1932.614          49.000  
G16  24206045.430   127203652.826        -966.113          48.000                                                                  
R11  25873250.523   138258879.270       -4649.244          46.000    25873248.593   107534735.524       -3616.110          44.000  
R13  26310980.471   140499106.528        1481.364          34.000    26310981.799                        1151.941          30.000  
R21  24572705.842   131493697.478       -1934.388          53.000    24572699.346   102272947.135       -1504.428          45.000  
S33  43169766.988   226858724.598        -639.542          42.000  
S31  42215791.067   221845561.043        -640.112          44.000  
G10  23557167.456   123793909.981         231.132          49.000    23557166.488    96462779.226         180.019          48.000  
E11  26961631.608   141684338.871          95.139          45.000    26961630.614   108563379.551          72.882          47.000  
R12  24414150.247   130416041.752       -1572.939          51.000    24414151.249   101434824.626       -1223.401          49.000  
R22  23997482.689   128100293.650         183.337          51.000    23997480.733    99633607.991         142.609          50.000  
R07  24958090.663   133602591.901        2971.518          50.000    24958088.407   103913185.290        2311.212          48.000  
R06  24296470.652   129650723.741        -395.810          41.000                                                                  
G27  24720643.778   129907879.263        1385.038          49.000    24720642.505   101226924.321        1079.231          46.000  
G08  27088083.546   142348897.875        2428.357          38.000    27088085.582   110921236.133        1892.145          36.000  
E04  31142035.971   163652502.663        1889.723          43.000    31142038.101   125396094.203        1448.134          46.000  
E31  30348997.595   159485171.191       -3713.761          44.000    30349002.666   122202991.150       -2845.560          47.000  
E25  28496177.220   149748372.101         511.122          45.000    28496180.637   114742282.657         391.773          50.000  
E14  31385304.657   164931052.998        -970.994          44.000    31385306.504   126375716.761        -744.060          49.000  
E19  30456816.061   160051705.204         788.503          37.000    30456817.538   122637042.589         604.246          42.000  
E24  27686106.304   145491508.447       -2235.901          48.000    27686107.332   111480528.242       -1713.238          51.000  
G32  28196356.327   148172851.466        2379.171          46.000    28196356.394   115459388.476        1853.879          39.000  
E12  27948328.594   146869575.791       -1761.744          43.000    27948327.570   112536511.584       -1349.800          50.000  
E10  27370900.084   143835243.118        -914.702          48.000    27370901.772   110211618.674        -700.856          53.000  
E33                                                                  31432748.403                3      -2036.633          21.000  
> 2024 04 16 07 49 30.0110000  0 27                     
G18  27095263.867   142386638.722       -3228.455          38.000    27095259.388   110950603.180       -2515.851          38.000  
G26  25237030.464   132621504.314       -3484.506          45.000    25237030.532   103341438.849       -2715.273          42.000  
G23  24503499.995   128766990.552       -2496.744          47.000    24503496.848   100337931.731       -1945.479          50.000  
G16  24211619.443   127232943.063        -986.469          48.000                                                                  
R11  25899367.143   138398437.809       -4654.465          46.000    25899365.191   107643281.061       -3620.171          45.000  
R13  26302723.104   140455010.452        1458.668          34.000    26302725.216                        1134.921          29.000  
R21  24583560.296   131551779.098       -1937.687          53.000    24583552.967   102318121.748       -1507.173          45.000  
S33  43173418.812   226877915.500        -639.651          42.000  
S31  42219444.580   221864761.124        -640.070          44.000  
G10  23555907.424   123787292.854         210.010          49.000    23555907.042    96457623.048         163.665          48.000  
E11  26961102.012   141681556.953          90.666          45.000    26961101.167   108561247.939          69.513          48.000  
R12  24423055.878   130463609.437       -1598.064          52.000    24423055.358   101471821.704       -1242.953          48.000  
R22  23996463.806   128094858.081         179.095          50.000    23996462.239    99629380.397         139.258          50.000  
R07  24941472.738   133513634.436        2959.208          50.000    24941471.153   103843996.120        2301.689          48.000  
R06  24298772.661   129663006.961        -422.772          41.000                                                                  
G27  24712754.716   129866423.454        1378.654          49.000    24712753.853   101194621.106        1074.337          46.000  
G08  27074222.180   142276052.939        2428.516          37.000    27074223.851   110864473.840        1891.919          36.000  
E04  31131240.444   163595774.753        1891.929          42.000    31131243.004   125352627.461        1449.721          46.000  
E31  30370203.447   159596612.084       -3715.491          43.000    30370209.220   122288380.926       -2847.051          47.000  
E25  28493295.261   149733229.810         498.271          46.000    28493298.913   114730680.127         381.754          50.000  
E14  31390832.966   164960105.181        -965.664          44.000    31390834.947   126397977.530        -739.983          49.000  
E19  30452343.245   160028194.980         778.917          39.000    30452343.262   122619028.345         596.766          42.000  
E24  27698903.777   145558767.180       -2247.939          47.000    27698906.287   111532064.159       -1722.419          51.000  
G32  28182768.938   148101448.619        2381.063          46.000    28182768.645   115403749.937        1855.776          40.000  
E12  27958390.724   146922456.444       -1763.684          43.000    27958390.348   112577030.477       -1351.335          50.000  
E10  27376132.238   143862739.258        -918.345          48.000    27376134.211   110232687.180        -703.678          53.000  
E33                                                                  31447929.058                3      -2038.344          21.000  
> 2024 04 16 07 50 00.0110000  0 28                     
G18  27113693.753   142483489.321       -3228.204          38.000    27113689.283   111026071.219       -2515.515          38.000  
G26  25256953.878   132726202.276       -3495.561          45.000    25256953.762   103423021.652       -2723.795          42.000  
G23  24517799.185   128842135.058       -2513.002          47.000    24517796.257   100396485.930       -1958.120          49.000  
G16  24217308.611   127262839.513       -1006.720          48.000                                                                  
R11  25925511.287   138538151.820       -4659.869          46.000    25925510.952   107751947.492       -3624.238          45.000  
R13  26294592.042   140411563.968        1437.707          33.000    26294591.165                        1117.742          29.000  
R21  24594431.563   131609955.071       -1940.687          53.000    24594425.557   102363369.721       -1509.330          45.000  
R08  28089166.548                3       3448.508          13.000                                                                  
S33  43177071.188   226897108.140        -639.988          42.000  
S31  42223098.446   221883962.005        -640.214          44.000  
G10  23554767.757   123781306.557         188.962          49.000    23554768.381    96452958.474         147.300          49.000  
E11  26960597.331   141678904.862          86.144          44.000    26960596.342   108559215.809          66.128          48.000  
R12  24432101.077   130511929.151       -1623.176          52.000    24432101.013   101509403.656       -1262.503          49.000  
R22  23995469.651   128089550.794         174.701          50.000    23995468.069    99625252.578         135.919          50.000  
R07  24924924.411   133425045.301        2946.764          52.000    24924921.314   103775093.603        2291.963          47.000  
R06  24301223.999   129676085.200        -449.060          42.000    24302626.567                3       -362.430          17.000  
G27  24704902.563   129825160.885        1372.092          49.000    24704902.100   101162468.492        1069.167          46.000  
G08  27060360.478   142203209.861        2428.033          37.000    27060362.196   110807712.978        1891.699          36.000  
E04  31120433.048   163538982.428        1894.051          43.000    31120435.443   125309111.340        1451.260          45.000  
E31  30391420.632   159708106.607       -3717.434          43.000    30391425.644   122373811.778       -2848.411          47.000  
E25  28490486.480   149718472.544         485.517          45.000    28490490.675   114719372.634         371.964          50.000  
E14  31396330.860   164988999.628        -960.458          43.000    31396333.485   126420117.426        -736.036          50.000  
E19  30447922.896   160004970.746         769.179          39.000    30447923.257   122601233.234         589.679          41.000  
E24  27711770.481   145626383.678       -2259.942          46.000    27711773.483   111583874.192       -1731.546          51.000  
G32  28169168.513   148029978.261        2383.306          46.000    28169168.379   115348058.810        1857.447          40.000  
E12  27968464.308   146975391.547       -1765.374          43.000    27968463.449   112617591.192       -1352.755          50.000  
E10  27381384.342   143890340.826        -921.735          48.000    27381386.566   110253836.453        -706.271          53.000  
E33                                                                  31463073.981                3      -2029.847          22.000  
> 2024 04 16 07 50 30.0110000  0 27                     
G18  27132124.142   142580334.770       -3228.394          37.000    27132119.260   111101535.154       -2515.753          39.000  
G26  25276939.865   132831227.370       -3506.504          45.000    25276939.709   103504859.364       -2732.070          42.000  
G23  24532191.653   128917768.664       -2529.554          46.000    24532188.792   100455421.210       -1971.026          49.000  
G16  24223112.863   127293340.939       -1027.063          48.000                                                                  
R11  25951685.506   138678016.100       -4664.740          46.000    25951685.023   107860730.805       -3628.280          45.000  
R13  26286577.356                        1415.591          29.000    26286577.569                        1100.845          29.000  
R21  24605320.189   131668225.191       -1944.082          52.000    24605314.997   102408690.931       -1512.133          46.000  
S33  43180723.246   226916299.947        -639.808          42.000  
S31  42226752.284   221903164.052        -640.337          45.000  
G10  23553749.803   123775950.854         167.666          50.000    23553749.103    96448785.231         130.754          48.000  
E11  26960116.624   141676381.157          81.490          44.000    26960116.025   108557282.061          62.540          47.000  
R12  24441287.463   130560998.089       -1648.391          52.000    24441286.978   101547568.376       -1282.134          49.000  
R22  23994500.068   128084370.921         170.190          51.000    23994497.914    99621223.866         132.428          50.000  
R07  24908444.248   133336827.698        2934.136          51.000    24908441.109   103706479.952        2282.222          47.000  
R06  24303824.085   129689958.766        -475.918          42.000                                                                  
G27  24697087.552   129784092.795        1365.276          48.000    24697086.762   101130467.369        1064.003          46.000  
G08  27046499.573   142130369.345        2427.832          38.000    27046501.674   110750954.134        1891.394          36.000  
E04  31109613.504   163482126.909        1895.959          43.000    31109615.868   125265546.786        1452.850          45.000  
E31  30412646.941   159819652.334       -3719.327          43.000    30412652.081   122459281.870       -2849.945          47.000  
E25  28487752.006   149704100.712         472.434          45.000    28487755.673   114708360.447         362.036          50.000  
E14  31401798.927   165017736.389        -955.607          43.000    31401801.944   126442136.491        -732.192          50.000  
E19  30443558.692   159982033.101         759.647          41.000    30443558.591   122583657.725         581.987          41.000  
E24  27724705.992   145694356.053       -2271.933          47.000    27724708.336   111635956.918       -1740.819          51.000  
G32  28155554.900   147958442.615        2385.318          45.000    28155556.375   115292316.831        1858.534          42.000  
E12  27978546.970   147028379.625       -1767.520          43.000    27978546.713   112658192.471       -1354.262          50.000  
E10  27386656.661   143918046.393        -925.524          48.000    27386658.796   110275065.416        -709.164          53.000  
E33                                                                  31478220.598                3      -2028.377          19.000  
> 2024 04 16 07 51 00.0110000  0 27                     
G18  27150553.831   142677175.469       -3227.618          36.000    27150547.763   111176995.449       -2515.357          39.000  
G26  25296987.213   132936577.859       -3516.852          44.000    25296987.630   103586950.624       -2740.390          42.000  
G23  24546677.294   128993890.109       -2545.426          47.000    24546674.565   100514736.655       -1983.443          50.000  
G16  24229031.897   127324448.732       -1047.089          48.000                                                                  
R11  25977886.572   138818027.016       -4669.364          45.000    25977886.619   107969628.181       -3631.617          45.000  
R13  26278680.733                1       1394.092          27.000    26278684.712                        1083.818          28.000  
R21  24616227.357   131726590.880       -1947.017          52.000    24616221.560   102454086.490       -1514.404          46.000  
S33  43184375.699   226935493.676        -639.686          43.000  
S31  42230406.658   221922366.761        -639.998          44.000  
G10  23552851.682   123771227.347         147.158          51.000    23552849.929    96445104.592         114.593          48.000  
E11  26959661.558   141673986.358          77.786          45.000    26959660.057   108555447.097          59.537          47.000  
R12  24450613.053   130610815.401       -1672.883          52.000    24450612.964   101586315.173       -1301.083          48.000  
R22  23993553.727   128079319.319         166.321          51.000    23993551.674    99617294.871         129.285          50.000  
R07  24892035.314   133248987.891        2921.729          52.000    24892032.130   103638160.032        2272.488          49.000  
R06  24306573.433   129704629.389        -502.301          42.000    24306886.909                3       -371.978          13.000  
G27  24689310.219   129743222.369        1359.011          48.000    24689309.090   101098620.320        1058.975          45.000  
G08  27032640.121   142057534.029        2427.557          38.000    27032642.111   110694199.318        1891.974          36.000  
E04  31098783.009   163425211.271        1898.222          43.000    31098785.332   125221936.177        1454.573          46.000  
E31  30433883.451   159931248.676       -3720.637          44.000    30433888.089   122544790.747       -2850.847          47.000  
E25  28485091.104   149690116.453         459.729          45.000    28485094.673   114697645.247         352.290          49.000  
E14  31407238.262   165046317.400        -950.111          44.000    31407240.422   126464036.215        -727.985          49.000  
E19  30439248.402   159959385.315         750.220          41.000    30439248.836   122566304.306         574.449          41.000  
E24  27737708.922   145762684.314       -2283.485          47.000    27737710.715   111688312.327       -1749.676          51.000  
G32  28141929.088   147886845.680        2387.806          43.000    28141931.812   115236527.074        1860.578          41.000  
E12  27988640.749   147081421.196       -1768.975          44.000    27988640.086   112698834.747       -1355.387          50.000  
E10  27391947.906   143945856.288        -928.789          48.000    27391950.846   110296374.305        -711.587          54.000  
E33                                                                  31493346.045                3      -2030.371          22.000  
> 2024 04 16 07 51 30.0110000  0 27                     
G18  27168980.282   142774004.348       -3227.545          37.000    27168974.164   111252446.528       -2515.094          40.000  
G26  25317095.060   133042244.343       -3527.551          45.000    25317095.237   103669288.116       -2748.853          42.000  
G23  24561254.360   129070490.503       -2561.280          48.000    24561250.863   100574425.311       -1995.913          50.000  
G16  24235065.574   127356155.829       -1066.962          48.000                                                                  
R11  26004113.254   138958173.625       -4674.046          46.000    26004112.655   108078631.107       -3635.208          46.000  
R13  26270918.363                        1371.153          26.000    26270915.181                3       1066.517          24.000  
R21  24627150.335   131785045.551       -1950.013          52.000    24627146.276   102499551.187       -1516.656          47.000  
S33  43188026.951   226954682.007        -639.640          42.000  
S31  42234059.735   221941564.913        -640.056          44.000  
G10  23552071.667   123767129.895         126.048          50.000    23552070.174    96441911.792          98.260          48.000  
E11  26959228.732   141671713.259          73.759          44.000    26959227.429   108553705.369          56.541          47.000  
R12  24460077.370   130661372.162       -1697.628          52.000    24460076.575   101625637.086       -1320.249          47.000  
R22  23992629.803   128074389.265         162.164          51.000    23992627.962    99613460.435         126.196          51.000  
R07  24875695.816   133161523.901        2909.036          51.000    24875693.839   103570132.559        2262.678          49.000  
R06  24309470.990   129720091.341        -528.716          42.000    24309416.115                3       -378.347          15.000  
G27  24681569.089   129702545.047        1352.694          48.000    24681568.083   101066923.785        1054.001          45.000  
G08  27018780.150   141984698.811        2427.502          38.000    27018781.661   110637444.639        1892.072          35.000  
E04  31087939.794   163368230.918        1900.338          43.000    31087942.365   125178275.999        1456.147          45.000  
E31  30455128.159   160042887.346       -3722.087          44.000    30455132.107   122630332.080       -2852.150          46.000  
E25  28482502.954   149676514.242         446.895          46.000    28482506.400   114687222.795         342.460          50.000  
E14  31412647.979   165074736.872        -944.795          45.000    31412648.357   126485812.166        -723.907          49.000  
E19  30434992.701   159937022.109         740.548          41.000    30434993.381   122549168.922         567.288          41.000  
E24  27750778.421   145831360.757       -2295.066          47.000    27750779.203   111740934.506       -1758.603          51.000  
G32  28128292.735   147815183.787        2389.854          43.000    28128294.499   115180686.675        1862.085          41.000  
E12  27998743.365   147134509.019       -1770.431          44.000    27998742.310   112739512.449       -1356.579          50.000  
E10  27397258.651   143973763.243        -931.930          48.000    27397261.116   110317757.609        -714.049          53.000  
E33                                                                  31508462.167                3      -2020.937          19.000  
> 2024 04 16 07 52 00.0110000  0 26                     
G18  27187401.418   142870822.872       -3226.843          36.000    27187399.939   111327889.524       -2514.648          42.000  
G26  25337262.060   133148225.991       -3538.205          44.000    25337262.433   103751871.181       -2757.035          42.000  
G23  24575922.603   129147569.658       -2577.274          49.000    24575918.625   100634487.021       -2008.335          50.000  
G16  24241213.306   127388464.069       -1086.938          48.000                                                                  
R11  26030365.640   139098453.629       -4678.271          46.000    26030364.068   108187737.781       -3638.651          46.000  
R13  26263262.089                3       1349.636          25.000    26263256.616                3       1051.277          25.000  
R21  24638091.711   131843592.112       -1953.171          52.000    24638086.538   102545087.427       -1519.082          46.000  
S33  43191678.159   226973869.362        -639.656          43.000  
S31  42237712.759   221960760.615        -640.020          44.000  
G10  23551411.194   123763661.021         105.143          49.000    23551409.984    96439208.796          81.881          47.000  
E11  26958819.302   141669563.334          69.592          44.000    26958818.612   108552058.032          53.303          47.000  
R12  24469680.423   130712668.345       -1722.142          52.000    24469678.682   101665534.118       -1339.510          48.000  
R22  23991728.659   128069582.735         158.136          51.000    23991727.214    99609722.076         123.065          50.000  
R07  24859428.434   133074442.785        2896.273          51.000    24859425.452   103502403.013        2252.772          48.000  
R06  24312516.776   129736347.314        -554.985          40.000                                                                  
G27  24673865.915   129662064.941        1345.995          47.000    24673864.661   101035380.864        1049.045          45.000  
G08  27004921.005   141911867.467        2427.496          38.000    27004922.193   110580692.917        1891.943          36.000  
E04  31077085.508   163311189.896        1902.333          44.000    31077087.709   125134569.354        1457.651          45.000  
E31  30476380.614   160154568.807       -3723.413          44.000    30476384.019   122715906.183       -2853.075          45.000  
E25  28479988.070   149663297.275         434.187          46.000    28479991.272   114677095.527         332.636          50.000  
E14  31418024.843   165102997.699        -939.480          44.000    31418026.357   126507466.569        -719.850          49.000  
E19  30430791.784   159914947.438         731.041          40.000    30430792.541   122532254.628         560.092          41.000  
E24  27763914.200   145900386.348       -2306.839          47.000    27763913.903   111793824.222       -1767.550          50.000  
G32  28114645.237   147743462.014        2391.477          44.000    28114645.978   115124799.657        1863.781          41.000  
E12  28008855.007   147187644.620       -1771.873          44.000    28008853.545   112780226.770       -1357.726          50.000  
E10  27402588.095   144001768.625        -935.216          48.000    27402590.061   110339216.338        -716.585          53.000  
> 2024 04 16 07 52 30.0120000  0 26                     
G18  27205828.063   142967637.110       -3227.195          38.000    27205823.245   111403329.210       -2514.441          41.000  
G26  25357490.385   133254526.947       -3548.628          44.000    25357490.173   103834703.057       -2764.973          41.000  
G23  24590682.216   129225131.173       -2593.539          49.000    24590678.068   100694924.565       -2020.896          50.000  
G16  24247476.577   127421377.134       -1107.432          48.000                                                                  
R11  26056642.485   139238870.976       -4682.718          47.000    26056641.460   108296951.257       -3642.199          48.000  
R13  26255750.669                1       1327.915          27.000    26255744.028                        1032.876          29.000  
R21  24649050.722   131902236.219       -1956.535          52.000    24649047.141   102590699.494       -1521.725          47.000  
S33  43195329.071   226993055.812        -639.476          43.000  
S31  42241365.620   221979957.420        -640.117          44.000  
G10  23550871.622   123760824.501          83.738          51.000    23550869.904    96436998.553          65.257          48.000  
E11  26958434.269   141667539.213          65.101          44.000    26958433.680   108550507.112          49.823          48.000  
R12  24479421.300   130764707.288       -1747.144          51.000    24479420.298   101706008.817       -1358.813          47.000  
R22  23990852.602   128064902.900         153.616          51.000    23990850.049    99606082.262         119.498          50.000  
R07  24843233.515   132987749.243        2882.949          52.000    24843230.841   103434974.724        2242.264          49.000  
R06  24315712.818   129753402.183        -581.561          41.000                                                                  
G27  24666201.269   129621786.207        1338.856          46.000    24666199.710   101003994.888        1043.295          45.000  
G08  26991062.945   141839042.458        2427.186          38.000    26991063.687   110523946.153        1891.220          36.000  
E04  31066220.075   163254091.638        1904.074          44.000    31066222.252   125090818.833        1458.800          45.000  
E31  30497641.819   160266298.476       -3724.969          43.000    30497645.239   122801517.224       -2854.103          45.000  
E25  28477546.439   149650469.531         420.870          45.000    28477550.009   114667266.488         322.475          49.000  
E14  31423372.517   165131105.040        -934.605          44.000    31423375.114   126529003.361        -716.111          49.000  
E19  30426646.482   159893165.732         720.940          40.000    30426647.980   122515564.838         552.345          41.000  
E24  27777116.222   145969765.616       -2318.561          47.000    27777116.722   111846984.942       -1776.532          51.000  
G32  28100985.914   147671684.236        2393.160          44.000    28100987.337   115068868.986        1864.987          41.000  
E12  28018975.970   147240832.634       -1774.014          44.000    28018974.815   112820981.268       -1359.241          50.000  
E10  27407937.257   144029875.987        -938.861          48.000    27407938.611   110360753.184        -719.303          53.000  
> 2024 04 16 07 53 00.0120000  0 27                     
G18  27224245.972   143064440.378       -3226.460          36.000    27224243.787   111478760.349       -2514.142          40.000  
G26  25377777.327   133361137.406       -3558.781          44.000    25377777.744   103917776.110       -2773.201          42.000  
G23  24605531.977   129303167.633       -2608.979          48.000    24605527.991   100755732.218       -2032.904          50.000  
G16  24253854.349   127454892.802       -1127.189          47.000                                                                  
R11  26082942.811   139379411.734       -4686.577          47.000    26082942.728   108406260.762       -3645.186          49.000  
R08  27967297.552                3       3379.000          11.000                                                                  
R13  26248343.754                        1306.195          28.000    26248346.728                3       1015.372          26.000  
R21  24660026.716   131960974.543       -1959.411          53.000    24660023.556   102636384.812       -1523.846          47.000  
S33  43198980.439   227012243.769        -639.409          43.000  
S31  42245018.650   221999154.114        -639.786          44.000  
G10  23550451.975   123758621.025          63.004          50.000    23550450.685    96435281.596          49.190          48.000  
E11  26958073.716   141665640.580          61.355          45.000    26958072.861   108549052.324          47.079          48.000  
R12  24489301.086   130817483.155       -1771.338          51.000    24489300.635   101747056.732       -1377.661          48.000  
R22  23990000.064   128060350.342         149.686          52.000    23989997.735    99602541.485         116.447          50.000  
R07  24827112.993   132901454.217        2870.044          52.000    24827109.939   103367856.323        2232.369          49.000  
R06  24319059.389   129771255.460        -608.380          41.000                                                                  
G27  24658576.154   129581713.731        1332.454          47.000    24658574.014   100972769.614        1038.381          45.000  
G08  26977207.526   141766230.433        2427.129          38.000    26977207.668   110467209.536        1891.255          35.000  
E04  31055344.093   163196942.108        1905.865          43.000    31055346.998   125047028.999        1460.411          46.000  
E31  30518910.135   160378067.406       -3726.286          43.000    30518913.863   122887158.353       -2855.143          44.000  
E25  28475179.564   149638033.094         408.110          45.000    28475183.356   114657737.270         312.789          49.000  
E14  31428691.807   165159058.028        -929.146          44.000    31428694.054   126550421.876        -711.847          49.000  
E19  30422557.845   159871680.254         711.336          40.000    30422560.048   122499102.024         545.091          42.000  
E24  27790384.420   146039492.929       -2329.873          47.000    27790385.827   111900412.342       -1785.249          52.000  
G32  28087317.665   147599858.440        2395.227          45.000    28087319.659   115012900.943        1866.315          41.000  
E12  28029106.039   147294068.964       -1775.330          44.000    28029105.382   112861772.757       -1360.211          49.000  
E10  27413305.263   144058082.922        -941.694          49.000    27413306.314   110382366.328        -721.573          53.000  
> 2024 04 16 07 53 30.0120000  0 26                     
G18  27242666.643   143161231.344       -3226.131          35.000    27242662.459   111554181.929       -2513.980          39.000  
G26  25398123.767   133468054.069       -3568.900          45.000    25398122.999   104001087.750       -2780.655          42.000  
G23  24620471.146   129381675.357       -2624.710          49.000    24620467.472   100816907.102       -2045.317          50.000  
G16  24260346.033   127489008.487       -1147.102          47.000                                                                  
R11  26109264.457   139520072.595       -4690.448          46.000    26109265.694   108515663.688       -3648.407          48.000  
R13  26241065.616                3       1285.790          24.000    26241077.991                3        999.696          26.000  
R21  24671020.954   132019805.292       -1962.543          53.000    24671017.692   102682142.098       -1526.530          46.000  
S33  43202630.941   227031427.746        -639.448          42.000  
S31  42248671.140   222018347.944        -639.856          44.000  
G10  23550152.092   123757046.866          42.036          50.000    23550151.213    96434055.026          32.640          48.000  
E11  26957735.092   141663862.740          57.352          44.000    26957734.392   108547690.083          44.018          48.000  
R12  24499318.162   130870991.459       -1795.746          52.000    24499317.689   101788674.293       -1396.698          49.000  
R22  23989169.877   128055920.538         145.585          51.000    23989168.276    99599096.154         113.293          51.000  
R07  24811065.833   132815555.831        2856.558          51.000    24811062.853   103301046.541        2221.825          48.000  
R06  24322553.058   129789904.315        -634.918          40.000                                                                  
G27  24650988.808   129541844.291        1325.548          48.000    24650987.090   100941702.591        1032.863          45.000  
G08  26963353.706   141693426.593        2426.800          38.000    26963352.590   110410479.363        1890.477          35.000  
E04  31044457.627   163139737.368        1907.777          42.000    31044461.496   125003196.912        1461.727          47.000  
E31  30540185.575   160489873.675       -3727.482          42.000    30540189.146   122972828.104       -2856.130          42.000  
E25  28472887.102   149625984.585         395.138          45.000    28472890.418   114648505.313         302.712          49.000  
E14  31433981.211   165186854.428        -923.897          44.000    31433983.523   126571720.429        -708.019          49.000  
E19  30418526.247   159850488.001         701.443          41.000    30418526.506   122482863.883         537.440          41.000  
E24  27803718.766   146109565.522       -2341.419          47.000    27803720.386   111954104.301       -1794.020          52.000  
G32  28073640.196   147527981.280        2396.759          45.000    28073641.135   114956892.827        1867.465          40.000  
E12  28039245.876   147347351.008       -1776.893          45.000    28039244.334   112902599.309       -1361.495          49.000  
E10  27418691.155   144086385.703        -945.008          49.000    27418692.227   110404052.901        -724.108          53.000  
> 2024 04 16 07 54 00.0120000  0 26                     
G18  27261080.812   143258006.974       -3225.835          34.000    27261078.993   111629591.576       -2513.595          39.000  
G26  25418527.747   133575271.653       -3579.132          46.000    25418526.728   104084633.902       -2788.592          43.000  
G23  24635499.166   129460649.586       -2640.053          48.000    24635495.832   100878445.518       -2057.314          50.000  
G16  24266951.032   127523720.966       -1167.043          47.000                                                                  
R11  26135608.364   139660846.498       -4694.505          45.000    26135609.577   108625154.521       -3651.165          47.000  
R13  26233929.869                3       1268.704          21.000    26233904.183                3        983.152          24.000  
R21  24682031.313   132078726.619       -1965.435          53.000    24682027.198   102727969.757       -1528.685          45.000  
S33  43206280.557   227050607.161        -638.830          42.000  
S31  42252322.637   222037536.535        -639.371          44.000  
G10  23549971.889   123756099.976          21.123          49.000    23549971.396    96433317.236          16.366          48.000  
E11  26957419.155   141662202.715          53.396          44.000    26957418.543   108546418.124          40.968          48.000  
R12  24509471.732   130925227.573       -1819.910          51.000    24509470.981   101830857.921       -1415.491          48.000  
R22  23988363.497   128051611.204         141.716          52.000    23988360.189    99595744.500         110.272          50.000  
R07  24795093.734   132730056.226        2843.353          51.000    24795090.701   103234546.976        2211.529          48.000  
R06  24326195.792   129809346.913        -661.267          39.000                                                                  
G27  24643440.456   129502177.523        1318.849          48.000    24643438.790   100910793.448        1027.901          45.000  
G08  26949501.498   141620630.146        2426.560          39.000    26949499.970   110353754.860        1890.684          36.000  
E04  31033560.820   163082477.117        1909.707          42.000    31033565.543   124959322.294        1463.255          48.000  
E31  30561467.862   160601713.224       -3728.344          42.000    30561471.677   123058523.373       -2856.883          42.000  
E25  28470668.091   149614322.671         382.306          46.000    28470671.094   114639569.575         293.021          49.000  
E14  31439241.646   165214492.754        -918.609          44.000    31439242.703   126592897.855        -703.906          49.000  
E19  30414549.225   159829588.266         691.770          41.000    30414549.719   122466849.877         530.010          41.000  
E24  27817117.967   146179979.794       -2352.792          47.000    27817119.486   112008058.085       -1802.731          52.000  
G32  28059953.095   147456053.273        2398.535          45.000    28059952.704   114900845.099        1868.971          39.000  
E12  28049393.930   147400675.696       -1778.059          45.000    28049391.671   112943458.520       -1362.418          49.000  
E10  27424094.416   144114781.234        -947.958          49.000    27424095.535   110425810.553        -726.391          53.000  
> 2024 04 16 07 54 30.0120000  0 27                     
G18  27279494.631   143354769.254       -3225.165          32.000    27279491.399   111704990.831       -2512.889          37.000  
G26  25438987.245   133682789.686       -3589.050          46.000    25438987.381   104168414.166       -2796.442          44.000  
G23  24650616.098   129540090.345       -2655.522          48.000    24650612.826   100940347.427       -2069.309          50.000  
G16  24273671.005   127559032.142       -1186.976          47.000                                                                  
R11  26161975.275   139801731.494       -4697.752          47.000    26161974.610   108734731.783       -3653.933          47.000  
R21  24693060.238   132137741.289       -1968.584          52.000    24693054.441   102773870.072       -1531.142          44.000  
S33  43209929.775   227069782.831        -639.164          42.000  
S31  42255973.591   222056722.519        -639.326          44.000  
G10  23549911.610   123755783.062           0.307          50.000    23549911.058    96433070.330           0.206          49.000  
E11  26957125.473   141660662.327          49.417          43.000    26957125.346   108545237.856          37.855          48.000  
R12  24519762.000   130980191.643       -1844.098          52.000    24519760.375   101873607.673       -1434.363          48.000  
R22  23987578.258   128047424.607         137.560          50.000    23987575.705    99592488.305         107.012          49.000  
R07  24779197.426   132644962.931        2829.824          51.000    24779194.340   103168363.393        2200.979          48.000  
R06  24329989.101   129829586.162        -687.634          40.000                                                                  
G27  24635932.125   129462717.990        1312.020          49.000    24635930.006   100880045.791        1022.526          45.000  
G08  26935650.651   141547845.173        2426.417          38.000    26935649.899   110297039.297        1890.166          37.000  
E04  31022655.578   163025165.673        1911.271          42.000    31022659.616   124915408.411        1464.474          48.000  
E31  30582756.329   160713586.846       -3729.534          42.000    30582761.235   123144244.742       -2857.741          43.000  
E25  28468523.522   149603050.744         369.359          46.000    28468526.402   114630932.646         282.975          49.000  
E14  31444470.095   165241976.197        -913.305          43.000    31444472.785   126613956.589        -699.860          49.000  
E19  30410628.798   159808985.193         681.966          41.000    30410628.970   122451063.163         522.669          41.000  
E24  27830581.909   146250737.004       -2364.210          47.000    27830583.794   112062274.632       -1811.471          52.000  
G32  28046256.785   147384079.795        2400.067          46.000    28046255.806   114844761.968        1870.134          39.000  
E12  28059549.215   147454044.901       -1779.761          45.000    28059547.706   112984351.792       -1363.705          49.000  
E10  27429515.420   144143271.235        -951.126          49.000    27429516.923   110447640.602        -728.777          53.000  
E33                                                                  31598865.189                3      -2016.555          24.000  
R13                                                                  26226875.051                3        963.884          26.000  
> 2024 04 16 07 55 00.0120000  0 27                     
G18  27297905.285                1      -3224.493          29.000    27297901.618   111780377.976       -2512.506          35.000  
G26  25459503.294   133790603.613       -3598.436          45.000    25459503.657   104252424.956       -2804.064          43.000  
G23  24665820.449   129619993.488       -2671.034          47.000    24665817.929   101002609.634       -2081.362          50.000  
G16  24280504.067   127594939.736       -1206.821          48.000                                                                  
R11  26188358.337   139942721.566       -4701.125          46.000    26188358.189   108844390.710       -3656.267          45.000  
R13  26219971.149                3       1216.746          15.000    26219990.352   108899163.1181        946.539          30.000  
R21  24704106.422   132196848.173       -1971.654          53.000    24704100.030   102819842.065       -1533.550          45.000  
S33  43213577.938   227088954.171        -638.953          43.000  
S31  42259623.550   222075903.471        -639.286          44.000  
G10  23549970.732   123756094.638         -20.684          50.000    23549970.026    96433313.155         -16.137          49.000  
E11  26956854.741   141659239.121          45.689          43.000    26956854.548   108544147.371          34.966          48.000  
R12  24530186.255   131035879.266       -1868.176          52.000    24530185.615   101916920.181       -1453.040          48.000  
R22  23986815.193   128043359.076         133.622          49.000    23986813.971    99589326.259         103.905          50.000  
R07  24763377.832   132560278.412        2816.142          51.000    24763375.446   103102497.774        2190.316          48.000  
R06  24333931.554   129850620.919        -714.307          39.000                                                                  
G27  24628462.476   129423465.962        1305.093          50.000    24628461.015   100849459.828        1016.847          45.000  
G08  26921801.742   141475071.592        2425.227          35.000    26921802.200   110240332.594        1890.321          37.000  
E04  31011740.189   162967803.384        1912.987          41.000    31011744.173   124871455.593        1465.801          48.000  
E31  30604050.675   160825491.108       -3730.464          42.000    30604056.512   123229989.556       -2858.352          44.000  
E25  28466452.149   149592168.032         356.510          46.000    28466455.692   114622593.946         273.079          49.000  
E14  31449670.580   165269303.839        -908.293          44.000    31449673.329   126634895.950        -696.023          49.000  
E19  30406763.326   159788678.523         672.113          39.000    30406764.150   122435503.582         514.824          41.000  
E24  27844110.357   146321834.176       -2375.386          46.000    27844113.420   112116751.688       -1820.194          51.000  
G32  28032552.150   147312062.223        2401.471          46.000    28032551.356   114788644.453        1871.193          39.000  
E12  28069712.220   147507456.448       -1781.056          44.000    28069711.726   113025277.561       -1364.641          50.000  
E10  27434954.638   144171853.275        -954.155          49.000    27434955.879   110469541.173        -731.127          53.000  
R08                                                                  27881755.900                3       2700.685          12.000  
> 2024 04 16 07 55 30.0120000  0 27                     
G18  27316312.825   143548189.1361      -3223.883          34.000    27316308.425   111855752.717       -2512.146          36.000  
G26  25480075.056   133898710.637       -3608.350          45.000    25480075.181   104336664.146       -2811.556          42.000  
G23  24681113.421   129700356.783       -2686.250          47.000    24681110.654   101065230.408       -2093.265          50.000  
G16  24287450.106   127631443.441       -1226.654          48.000                                                                  
R11  26214762.198   140083812.633       -4704.588          48.000    26214761.131   108954128.195       -3658.936          45.000  
R08  27863522.332                3       3298.127          13.000                                                                  
R13  26213210.906                3       1195.105          26.000    26213214.183                         929.471          30.000  
R21  24715168.708   132256047.636       -1974.689          52.000    24715162.066   102865886.075       -1535.894          45.000  
S33  43217225.443   227108120.532        -638.406          43.000  
S31  42263272.871   222095080.042        -639.070          44.000  
G10  23550149.823   123757035.079         -41.688          49.000    23550148.999    96434045.988         -32.417          48.000  
E11  26956606.619   141657932.741          41.873          43.000    26956605.575   108543146.401          32.072          48.000  
R12  24540745.943   131092288.426       -1892.157          52.000    24540746.973   101960793.898       -1471.649          49.000  
R22  23986076.872   128039414.665         129.584          50.000    23986075.035    99586258.443         100.898          50.000  
R07  24747635.285   132476007.717        2802.204          52.000    24747631.892   103036954.079        2179.439          48.000  
R06  24338023.084   129872451.632        -740.771          40.000                                                                  
G27  24621033.374   129384423.855        1298.024          50.000    24621031.488   100819037.439        1011.429          46.000  
G08  26907954.024   141402310.972        2425.327          36.000    26907956.487   110183636.026        1889.599          38.000  
E04  31000814.723   162910392.287        1914.587          41.000    31000818.916   124827465.362        1467.064          47.000  
E31  30625350.983   160937424.490       -3731.373          42.000    30625356.937   123315756.682       -2859.085          43.000  
E25  28464456.019   149581675.741         343.349          46.000    28464459.174   114614554.395         263.130          49.000  
E14  31454842.461   165296476.696        -903.070          44.000    31454844.364   126655716.675        -691.883          49.000  
E19  30402955.969   159768670.382         662.123          38.000    30402957.103   122420172.712         507.476          41.000  
E24  27857704.376   146393270.360       -2386.574          46.000    27857707.283   112171488.477       -1828.633          51.000  
G32  28018839.717   147240003.737        2402.578          45.000    28018839.993   114732495.043        1872.029          40.000  
E12  28079884.696   147560909.811       -1782.357          44.000    28079883.501   113066235.341       -1365.648          50.000  
E10  27440410.627   144200526.772        -957.167          48.000    27440412.204   110491511.788        -733.396          53.000  
> 2024 04 16 07 56 00.0120000  0 26                     
G18  27334716.636   143644909.480       -3223.431          34.000    27334714.359   111931119.110       -2511.273          33.000  
G26  25500703.065   134007113.611       -3618.216          44.000    25500703.176   104421133.970       -2819.338          41.000  
G23  24696494.573   129781183.586       -2701.759          48.000    24696491.123   101128212.341       -2105.323          49.000  
G16  24294511.614   127668549.070       -1246.674          48.000                                                                  
R11  26241185.333   140225005.811       -4707.919          48.000    26241182.565   109063945.157       -3661.712          44.000  
R13  26206564.813                        1172.667          29.000    26206562.336                         912.490          27.000  
R21  24726250.266   132315346.149       -1978.131          52.000    24726245.041   102912007.134       -1538.633          47.000  
S33  43220873.141   227127290.149        -639.137          43.000  
S31  42266922.074   222114258.150        -639.181          44.000  
G10  23550449.597   123758610.375         -62.968          50.000    23550448.648    96435273.536         -49.171          48.000  
E11  26956381.356   141656748.239          37.506          43.000    26956379.829   108542238.822          28.680          47.000  
R12  24551441.872   131149422.789       -1916.370          52.000    24551443.015   102005231.712       -1490.540          49.000  
R22  23985362.670   128035597.211         125.293          51.000    23985359.923    99583289.425          97.424          49.000  
R07  24731971.823   132392161.582        2787.918          51.000    24731968.175   102971740.550        2168.280          48.000  
R06  24342263.307   129895084.485        -767.493          39.000    24340551.739                3       -402.492          16.000  
G27  24613644.987   129345599.302        1290.648          50.000    24613643.700   100788784.554        1005.800          46.000  
G08  26894111.418   141329571.016        2424.532          37.000    26894114.138   110126955.571        1889.402          38.000  
E04  30989882.844   162852940.207        1916.095          41.000    30989886.385   124783443.723        1467.967          47.000  
E31  30646658.129   161049391.069       -3732.720          42.000    30646663.723   123401549.270       -2860.128          43.000  
E25  28462534.692   149571580.530         329.960          47.000    28462538.086   114606819.132         252.816          49.000  
E14  31459984.787   165323501.344        -898.346          44.000    31459986.883   126676423.865        -688.320          49.000  
E19  30399206.377   159748967.994         651.942          38.000    30399208.326   122405076.159         499.480          42.000  
E24  27871364.788   146465049.997       -2398.252          47.000    27871366.343   112226488.451       -1837.615          51.000  
G32  28005121.888   147167912.996        2403.865          44.000    28005122.178   114676320.484        1873.104          40.000  
E12  28090064.771   147614410.312       -1784.005          43.000    28090064.522   113107229.293       -1366.971          51.000  
E10  27445884.879   144229296.843        -960.444          48.000    27445887.155   110513556.404        -735.905          53.000  
> 2024 04 16 07 56 30.0120000  0 27                     
G18  27353120.062   143741616.695       -3223.535          36.000    27353116.634   112006475.501       -2512.317          33.000  
G26  25521387.169   134115807.665       -3627.939          45.000    25521386.829   104505830.593       -2826.852          41.000  
G23  24711962.766   129862469.411       -2717.063          46.000    24711959.343   101191551.971       -2117.240          49.000  
G16  24301686.871   127706253.659       -1266.754          48.000                                                                  
R11  26267624.833   140366295.100       -4711.294          47.000    26267623.001   109173836.857       -3664.202          45.000  
R13  26200039.606   139906773.5441       1149.807          33.000    26200029.677                3        897.929          25.000  
R21  24737351.198   132374742.049       -1981.541          53.000    24737344.833   102958203.932       -1541.328          46.000  
R23  27561293.578                3       1519.512          14.000                                                                  
S33  43224520.371   227146457.797        -638.853          43.000  
S31  42270571.479   222133435.840        -639.368          44.000  
G10  23550869.662   123760818.704         -84.180          50.000    23550869.152    96436994.327         -65.641          48.000  
E11  26956178.389   141655682.994          33.457          43.000    26956176.954   108541422.598          25.574          47.000  
R12  24562272.401   131207277.514       -1940.497          52.000    24562273.299   102050229.858       -1509.290          49.000  
R22  23984670.488   128031904.656         121.026          50.000    23984668.481    99580417.507          94.109          50.000  
R07  24716387.519   132308742.298        2773.463          51.000    24716385.730   102906859.056        2157.055          49.000  
R06  24346654.458   129918517.982        -794.305          39.000                                                                  
G27  24606298.218   129306992.547        1283.230          50.000    24606297.205   100758701.424         999.770          46.000  
G08  26880272.234   141256851.279        2423.699          36.000    26880275.510   110070290.975        1888.376          38.000  
E04  30978942.440   162795447.135        1916.961          42.000    30978946.099   124739390.633        1468.872          48.000  
E31  30667971.013   161161387.183       -3733.695          42.000    30667975.127   123487364.488       -2860.781          42.000  
E25  28460688.814   149561881.417         316.746          46.000    28460692.118   114599387.353         242.619          49.000  
E14  31465099.556   165350376.632        -893.431          45.000    31465101.230   126697016.596        -684.498          49.000  
E19  30395514.662   159729571.166         641.301          36.000    30395516.885   122390213.698         491.417          42.000  
E24  27885089.619   146537169.878       -2409.713          48.000    27885090.396   112281749.131       -1846.393          51.000  
G32  27991397.002   147095791.021        2404.686          44.000    27991398.167   114620121.617        1873.490          41.000  
E12  28100253.842   147667955.183       -1785.824          43.000    28100253.808   113148257.198       -1368.201          51.000  
E10  27451378.025   144258160.782        -963.805          48.000    27451379.850   110535672.943        -738.498          53.000  
> 2024 04 16 07 57 00.0120000  0 26                     
G18  27371519.461   143838313.799       -3222.174          34.000    27371517.999   112081823.864       -2511.017          34.000  
G26  25542126.781   134224793.264       -3637.368          45.000    25542125.941   104590754.425       -2834.309          42.000  
G23  24727518.297   129944215.255       -2732.286          47.000    24727514.752   101255250.044       -2128.958          49.000  
G16  24308976.597   127744560.166       -1286.511          48.000                                                                  
R11  26294083.377   140507679.731       -4714.311          48.000    26294081.411   109283802.674       -3666.646          45.000  
R13  26193644.665   139872625.445        1127.658          34.000    26193631.439                3        875.898          26.000  
R21  24748468.611   132434239.381       -1984.569          52.000    24748461.303   103004479.580       -1543.430          43.000  
S33  43228168.917   227165627.938        -638.869          42.000  
S31  42274221.288   222152616.525        -638.687          44.000  
G10  23551411.302   123763663.598        -105.162          50.000    23551410.434    96439211.151         -81.919          48.000  
E11  26955999.108   141654739.775          29.818          43.000    26955997.400   108540699.884          22.811          47.000  
R12  24573238.075   131265853.650       -1964.117          52.000    24573238.393   102095789.058       -1527.631          49.000  
R22  23984002.646   128028340.480         117.010          51.000    23984000.852    99577645.441          90.997          50.000  
R07  24700885.482   132225758.053        2759.256          51.000    24700883.273   102842315.903        2146.016          50.000  
R06  24351197.022   129942755.691        -820.898          38.000                                                                  
G27  24598994.117   129268609.097        1276.192          49.000    24598992.642   100728792.263         994.242          46.000  
G08  26866440.357   141184156.764        2423.243          38.000    26866441.544   110013645.959        1888.086          37.000  
E04  30967995.184   162737918.546        1918.625          42.000    30967998.682   124695310.400        1469.982          48.000  
E31  30689289.219   161273414.562       -3734.520          40.000    30689293.094   123573203.676       -2861.278          41.000  
E25  28458918.902   149552582.743         303.604          45.000    28458922.565   114592262.379         232.687          49.000  
E14  31470186.105   165377106.771        -888.129          45.000    31470187.720   126717498.106        -680.568          49.000  
E19  30391882.317   159710484.491         631.279          35.000    30391884.627   122375588.890         484.031          42.000  
E24  27898878.337   146609632.166       -2420.630          48.000    27898879.411   112337272.177       -1854.825          51.000  
G32  27977668.061   147023644.264        2405.685          44.000    27977668.784   114563903.434        1874.623          40.000  
E12  28110451.273   147721547.443       -1786.820          43.000    28110451.818   113189321.431       -1369.129          51.000  
E10  27456889.194   144287121.308        -966.546          48.000    27456890.598   110557863.484        -740.589          53.000  
> 2024 04 16 07 57 30.0120000  0 26                     
G18  27389917.497   143934993.104       -3222.131          38.000    27389913.411   112157158.360       -2510.852          31.000  
G26  25562919.543   134334060.328       -3647.165          45.000    25562919.894   104675897.568       -2841.839          43.000  
G23  24743160.389   130026411.490       -2747.420          48.000    24743156.212   101319299.096       -2140.843          49.000  
G16  24316379.115   127783460.388       -1306.641          48.000                                                                  
R11  26320556.917   140649147.804       -4717.030          48.000    26320554.692   109393833.385       -3668.751          44.000  
R13  26187378.274   139839155.199        1104.162          33.000    26187377.795                         857.333          29.000  
R21  24759603.744   132493831.340       -1988.025          52.000    24759598.475   103050828.885       -1546.270          45.000  
S33  43231815.948   227184795.438        -638.827          42.000  
S31  42277870.414   222171792.834        -639.133          44.000  
G10  23552072.504   123767138.008        -126.321          50.000    23552071.971    96441918.518         -98.533          49.000  
E11  26955840.649   141653910.785          25.821          43.000    26955839.713   108540064.708          19.789          47.000  
R12  24584336.921   131325141.390       -1988.096          53.000    24584336.777   102141901.741       -1546.380          49.000  
R22  23983357.162   128024897.287         112.734          50.000    23983355.495    99574967.478          87.717          50.000  
R07  24685463.292   132143206.081        2744.435          50.000    24685462.020   102778108.830        2134.465          50.000  
R06  24355889.307   129967790.523        -848.065          40.000                                                                  
G27  24591731.162   129230443.816        1268.482          48.000    24591729.581   100699053.089         988.281          45.000  
G08  26852611.464   141111481.961        2422.021          38.000    26852612.348   109957016.332        1887.279          37.000  
E04  30957038.936   162680349.110        1919.760          42.000    30957043.620   124651198.827        1470.897          48.000  
E31  30710611.663   161385464.438       -3735.257          39.000    30710615.372   123659060.107       -2862.185          40.000  
E25  28457224.701   149543678.263         290.165          45.000    28457228.048   114585439.476         222.333          48.000  
E14  31475244.421   165403685.464        -883.419          45.000    31475245.632   126737863.565        -676.885          49.000  
E19  30388309.651   159691702.723         621.176          37.000    30388310.586   122361197.764         475.936          42.000  
E24  27912730.987   146682428.487       -2432.117          48.000    27912731.900   112393051.157       -1863.569          51.000  
G32  27963933.105   146951468.676        2406.272          44.000    27963933.487   114507662.829        1874.899          40.000  
E12  28120657.641   147775179.478       -1788.384          43.000    28120657.512   113230416.134       -1370.370          51.000  
E10  27462417.447   144316170.619        -969.766          49.000    27462418.719   110580122.083        -743.165          53.000  
> 2024 04 16 07 58 00.0120000  0 26                     
G18  27408313.749   144031656.409       -3221.375          36.000    27408311.982   112232480.515       -2510.205          37.000  
G26  25583766.413   134443608.230       -3656.077          46.000    25583766.521   104761259.529       -2848.830          43.000  
G23  24758887.216   130109057.965       -2762.146          48.000    24758882.865   101383698.968       -2152.300          49.000  
G16  24323895.328   127822956.625       -1326.282          48.000                                                                  
R11  26347045.833   140790697.489       -4719.366          49.000    26347043.016   109503927.629       -3670.635          43.000  
R13  26181238.992                        1081.174          27.000    26181240.501                         841.286          28.000  
R21  24770758.976   132553520.734       -1990.965          52.000    24770755.619   103097253.932       -1548.431          46.000  
S33  43235462.866   227203960.382        -638.387          42.000  
S31  42281519.700   222190967.906        -639.028          44.000  
G10  23552853.460   123771244.337        -147.264          50.000    23552852.899    96445118.278        -114.767          48.000  
E11  26955705.376   141653197.810          22.001          43.000    26955704.358   108539518.468          16.907          48.000  
R12  24595568.730   131385140.460       -2011.562          51.000    24595568.652   102188567.710       -1564.607          48.000  
R22  23982734.861   128021577.634         108.778          51.000    23982733.036    99572385.565          84.576          50.000  
R07  24670125.106   132061094.030        2729.966          51.000    24670122.702   102714244.020        2123.252          49.000  
R06  24360729.581   129993625.227        -874.347          38.000                                                                  
G27  24584510.765   129192501.146        1261.222          48.000    24584509.016   100669487.407         982.809          45.000  
G08  26838785.906   141038830.813        2421.457          36.000    26838787.376   109900405.094        1886.993          38.000  
E04  30946077.271   162622743.390        1921.071          43.000    30946081.397   124607059.482        1471.994          48.000  
E31  30731938.649   161497537.345       -3735.701          39.000    30731942.320   123744934.159       -2862.614          41.000  
E25  28455606.437   149535171.189         277.228          46.000    28455608.885   114578921.077         212.387          48.000  
E14  31480273.732   165430115.706        -878.207          45.000    31480274.611   126758115.317        -673.093          49.000  
E19  30384793.157   159673229.712         610.995          36.000    30384794.727   122347043.150         468.079          41.000  
E24  27926646.835   146755559.794       -2443.050          47.000    27926648.151   112449086.830       -1871.942          51.000  
G32  27950193.508   146879269.492        2407.430          43.000    27950194.675   114451403.859        1875.796          41.000  
E12  28130871.473   147828852.962       -1789.671          43.000    28130871.273   113271542.594       -1371.274          51.000  
E10  27467962.022   144345310.275        -972.590          48.000    27467963.531   110602449.907        -745.220          53.000  
> 2024 04 16 07 58 30.0120000  0 27                     
G18  27426703.160   144128304.859       -3221.301          37.000    27426703.595   112307790.897       -2510.120          35.000  
G26  25604666.435   134553435.458       -3665.594          45.000    25604665.243   104846839.156       -2856.350          42.000  
G23  24774699.898   130192153.615       -2777.223          48.000    24774695.382   101448448.843       -2164.137          49.000  
G16  24331524.656   127863049.089       -1346.338          48.000                                                                  
R11  26373548.629   140932325.718       -4722.260          48.000    26373546.624   109614082.978       -3672.921          44.000  
R13  26175227.367                        1059.141          32.000    26175224.765                3        825.674          20.000  
R21  24781931.934   132613309.379       -1994.621          52.000    24781926.711   103143756.229       -1551.249          44.000  
S33  43239109.769   227223124.015        -638.802          42.000  
S31  42285168.139   222210142.237        -639.252          44.000  
G10  23553755.152   123775984.043        -168.387          50.000    23553754.612    96448811.588        -131.293          48.000  
E11  26955592.305   141652601.553          17.780          43.000    26955591.151   108539061.667          13.754          48.000  
R12  24606933.590   131445849.506       -2035.416          53.000    24606932.965   102235785.849       -1583.130          47.000  
R22  23982136.769   128018382.867         104.466          51.000    23982134.430    99569900.855          81.211          49.000  
R07  24654869.699   131979427.450        2714.722          52.000    24654866.243   102650725.678        2111.593          50.000  
R06  24365721.876   130020261.003        -901.129          40.000                                                                  
G27  24577333.589   129154784.671        1253.394          48.000    24577331.488   100640098.006         976.624          45.000  
G08  26824965.559   140966206.531        2420.071          37.000    26824967.600   109843814.801        1886.071          39.000  
E04  30935109.646   162565104.602        1921.861          43.000    30935112.760   124562894.735        1472.571          48.000  
E31  30753270.002   161609633.041       -3736.860          39.000    30753273.298   123830825.662       -2863.132          40.000  
E25  28454063.489   149527063.833         263.610          46.000    28454066.185   114572708.960         201.929          48.000  
E14  31485274.729   165456399.888        -873.703          45.000    31485276.595   126778255.138        -669.428          49.000  
E19  30381336.238   159655068.461         599.692          34.000    30381338.691   122333127.382         459.884          41.000  
E24  27940628.303   146829026.300       -2454.434          48.000    27940628.295   112505379.320       -1880.652          50.000  
G32  27936450.903   146807051.275        2407.559          45.000    27936452.123   114395130.012        1876.033          41.000  
E12  28141094.187   147882568.800       -1791.225          43.000    28141093.278   113312701.524       -1372.464          51.000  
E10  27473524.397   144374540.990        -975.868          48.000    27473526.022   110624847.481        -747.679          53.000  
R08                                                                  27736965.586                3       2619.451          14.000  
> 2024 04 16 07 59 00.0120000  0 27                     
G18  27445093.053   144224936.190       -3221.191          38.000    27445090.036   112383088.073       -2509.253          35.000  
G26  25625617.872   134663537.492       -3674.335          44.000    25625616.925   104932632.920       -2863.198          43.000  
G23  24790596.774   130275694.315       -2791.909          49.000    24790593.260   101513545.536       -2175.556          49.000  
G16  24339266.912   127903735.882       -1365.826          47.000                                                                  
R11  26400065.584   141074026.900       -4724.308          46.000    26400065.302   109724295.090       -3674.599          45.000  
R13  26169346.157                        1035.491          31.000    26169352.648                3        805.197          25.000  
R21  24793122.748   132673196.285       -1997.646          52.000    24793118.650   103190334.930       -1553.703          45.000  
S33  43242756.334   227242287.138        -638.695          42.000  
S31  42288816.838   222229315.044        -639.003          44.000  
G10  23554778.272   123781355.586        -189.286          51.000    23554776.149    96452997.250        -147.562          48.000  
E11  26955500.001   141652119.768          14.250          43.000    26955499.798   108538692.617          10.949          48.000  
R12  24618430.515   131507264.420       -2058.760          52.000    24618429.795   102283553.020       -1601.247          48.000  
R22  23981561.863   128015311.405         100.401          51.000    23981559.873    99567512.003          78.098          50.000  
R07  24639697.790   131898209.479        2699.904          52.000    24639694.064   102587556.238        2099.985          50.000  
R06  24370862.614   130047696.735        -927.863          38.000                                                                  
G27  24570199.259   129117294.828        1246.075          48.000    24570197.251   100610885.167         971.173          45.000  
G08  26811151.675   140893609.157        2419.628          38.000    26811152.561   109787245.396        1885.561          39.000  
E04  30924133.502   162507433.231        1923.196          41.000    30924138.058   124518705.047        1473.703          48.000  
E31  30774605.251   161721748.226       -3737.284          39.000    30774607.797   123916732.148       -2863.546          39.000  
E25  28452596.622   149519355.515         250.388          46.000    28452599.289   114566802.587         191.876          49.000  
E14  31490247.701   165482537.204        -868.551          44.000    31490250.317   126798282.415        -665.469          49.000  
E19  30377942.272   159637218.919         589.756          35.000    30377942.189   122319450.561         452.132          41.000  
E24  27954672.533   146902825.058       -2465.332          49.000    27954671.827   112561926.412       -1889.002          50.000  
G32  27922704.862   146734815.433        2408.271          43.000    27922706.044   114338842.396        1876.930          40.000  
E12  28151323.155   147936324.874       -1792.487          42.000    28151322.613   113353891.274       -1373.322          51.000  
E10  27479103.730   144403860.563        -978.581          48.000    27479105.341   110647313.141        -749.828          53.000  
R08                                                                  27715850.974                3       2606.086          16.000  
> 2024 04 16 07 59 30.0120000  0 27                     
G18  27463476.357   144321542.801       -3220.270          38.000    27463473.463   112458365.892       -2508.453          35.000  
G26  25646619.705   134773904.133       -3683.437          43.000    25646619.243   105018632.841       -2870.018          43.000  
G23  24806576.980   130359670.316       -2806.431          49.000    24806573.503   101578981.405       -2186.783          49.000  
G16  24347120.125   127945008.893       -1385.455          46.000                                                                  
R11  26426594.269   141215789.425       -4726.336          46.000    26426594.894   109834554.881       -3676.052          45.000  
R23  26911529.769                3       1502.644          11.000                                                                  
R13  26163588.431   139712111.521        1013.348          32.000    26163594.679                3        787.917          26.000  
R21  24804330.342   132733174.393       -2000.787          50.000    24804327.241   103236984.555       -1556.156          46.000  
S33  43246400.868   227261439.902        -638.500          42.000  
S31  42292463.551   222248478.782        -638.801          44.000  
G10  23555918.803   123787351.687        -210.311          50.000    23555917.208    96457669.568        -163.883          48.000  
E11  26955427.645   141651744.558          10.866          42.000    26955428.114   108538405.223           8.313          48.000  
R12  24630057.274   131569375.141       -2081.985          51.000    24630057.586   102331861.362       -1619.213          47.000  
R22  23981008.798   128012355.812          96.594          52.000    23981005.783    99565213.269          75.202          50.000  
R07  24624607.982   131817437.549        2684.959          52.000    24624604.439   102524733.679        2088.280          49.000  
R06  24376152.576   130075924.855        -954.260          40.000                                                                  
G27  24563108.073   129080026.553        1238.495          49.000    24563105.865   100581845.000         965.179          45.000  
G08  26797341.634   140821033.195        2418.812          40.000    26797341.471   109730692.777        1884.619          39.000  
E04  30913151.485   162449724.062        1924.181          41.000    30913155.841   124474486.460        1474.402          48.000  
E31  30795941.012   161833873.963       -3737.496          38.000    30795944.501   124002646.741       -2864.064          39.000  
E25  28451205.066   149512039.828         237.189          47.000    28451207.273   114561197.058         181.921          49.000  
E14  31495192.310   165508521.218        -863.583          44.000    31495195.042   126818192.249        -661.886          49.000  
E19  30374604.023   159619675.672         579.293          35.000    30374603.684   122306008.361         444.002          41.000  
E24  27968776.934   146976947.552       -2476.127          48.000    27968776.905   112618721.571       -1897.342          50.000  
G32  27908954.375   146662557.791        2408.984          43.000    27908955.694   114282537.845        1876.834          40.000  
E12  28161559.407   147990113.384       -1793.604          43.000    28161558.177   113395105.883       -1374.291          50.000  
E10  27484698.621   144433261.042        -981.424          48.000    27484700.078   110669840.803        -751.937          54.000  
