     3.00           OBSERVATION DATA    M: Mixed            RINEX VERSION / TYPE
CONVBIN 2.4.3                           20240416 045942 UTC PGM / RUN BY / DATE 
format: u-blox UBX                                          COMMENT             
log: /home/regis/git/gnsspwv/obsdata/VERT00CHL/2024-04-16/VECOMMENT             
{self.marker}                                               MARKER NAME         
                                                            MARKER NUMBER       
GEODETIC                                                    MARKER TYPE         
{self.observer}     {self.institution}                      OBSERVER / AGENCY   
UNKNOWN             UBLOX-ZED-F9P                           REC # / TYPE / VERS 
UNKNOWN             TWIVSP6037L                             ANT # / TYPE        
  1713381.0000 -5047934.0000 -3490983.0000                  APPROX POSITION XYZ 
        0.0000        0.0000        0.0000                  ANTENNA: DELTA H/E/N
G    8 C1C L1C D1C S1C C2L L2L D2L S2L                      SYS / # / OBS TYPES 
R    8 C1C L1C D1C S1C C2C L2C D2C S2C                      SYS / # / OBS TYPES 
E    8 C1C L1C D1C S1C C7Q L7Q D7Q S7Q                      SYS / # / OBS TYPES 
S    4 C1C L1C D1C S1C                                      SYS / # / OBS TYPES 
  2024    04    16    04    45   00.0070000     GPS         TIME OF FIRST OBS   
  2024    04    16    04    59   30.0070000     GPS         TIME OF LAST OBS    
                                                            END OF HEADER       
> 2024 04 16 04 45 00.0070000  0 23                     
G25  23761413.460   124867108.3771      -2886.046          48.000    23761414.788    97299062.5911      -2248.732          44.000  
G18  22445092.241   117949792.8661        129.929          46.000    22445090.676    91908898.0191        101.280          47.000  
G26  24256305.641   127467762.8411       2153.852          43.000    24256306.797    99325536.6421       1678.097          44.000  
G23  26092358.806   137116378.7471       2756.674          43.000    26092362.602   106843918.4041       2147.938          43.000  
R11  23426259.645   125182932.8071       2767.079          48.000    23426256.720    97364562.4721       2152.202          47.000  
R09  23128755.939   123506276.2491      -4128.042          51.000    23128755.806    96060531.2911      -3210.707          50.000  
R10  21233252.128   113185219.8391       -995.814          46.000                                                                  
R21  22797103.933   121992050.9821       1166.364          53.000    22797102.015    94882766.8311        907.196          49.000  
R20  21908617.389   117155306.7241      -2459.856          42.000    21908617.954    91120858.2001      -1913.083          44.000  
G29  23715410.079   124625410.2801      -2111.876          46.000    23715408.169    97110758.8211      -1645.680          46.000  
S33  41809081.658   219708255.7991       -667.590          43.000  
S31  40855038.883   214694745.6561       -666.996          44.000  
G28  24044235.464   126353322.8391      -2671.323          47.000    24044233.575    98457111.9911      -2081.584          45.000  
E26  29266740.074   153797761.5071      -3408.262          42.000    29266739.566   117845535.9181      -2611.495          45.000  
G12  26710645.439   140365310.8841      -3642.169          44.000    26710646.789   109375541.0891      -2838.473          38.000  
E33  25820333.636   135686847.1051      -1874.161          47.000    25820334.887   103967895.6621      -1436.104          52.000  
E31  25355418.227   133243760.1301       -552.944          46.000    25355421.156   102095943.0501       -423.712          51.000  
G31  24028690.080   126271546.6921       -471.227          45.000    24028688.509    98393550.8671       -367.035          43.000  
E14  26441587.723   138951648.5991      -3858.207          47.000    26441589.598   106469420.6371      -2956.242          53.000  
E24  27615890.295   145122513.3521       1498.660          44.000    27615892.421   111197788.7561       1148.361          50.000  
G05  25648181.475   134782344.4161      -1317.329          39.000    25648177.739   105025277.0531      -1026.694          38.000  
E12  26437822.350   138931789.4611        967.538          43.000    26437824.495   106454303.8851        741.355          48.000  
E10  28014897.924   147219421.0251       1822.712          42.000    28014903.831   112804674.8091       1396.559          44.000  
> 2024 04 16 04 45 30.0070000  0 23                     
G25  23777923.883   124953870.740       -2898.197          48.000    23777924.850    97366669.570       -2258.324          43.000  
G18  22444402.196   117946168.646         111.536          48.000    22444401.016    91906074.041          86.847          50.000  
G26  24244029.355   127403248.949        2147.355          44.000    24244030.277    99275266.087        1673.144          44.000  
G23  26076620.085   137033673.594        2757.056          43.000    26076623.934   106779473.317        2148.163          42.000  
R11  23410758.715   125100104.147        2754.662          47.000    23410755.925    97300140.157        2142.704          47.000  
R09  23151988.095   123630338.317       -4142.757          51.000    23151989.271    96157023.920       -3222.183          52.000  
R10  21238927.375   113215477.036       -1021.274          46.000                                                                  
R21  22790608.480   121957294.477        1150.726          52.000    22790606.893    94855734.066         894.922          49.000  
R20  21922453.123   117229291.122       -2472.770          42.000    21922453.781    91178401.636       -1923.179          44.000  
G29  23727477.031   124688821.863       -2115.604          46.000    23727474.563    97160170.441       -1648.598          45.000  
S33  41812891.086   219728273.303        -667.233          43.000  
S31  40858846.844   214714756.097        -667.030          44.000  
G28  24059525.644   126433675.387       -2685.439          46.000    24059523.669    98519724.290       -2092.737          44.000  
E26  29286202.100   153900038.341       -3410.242          42.000    29286201.964   117923903.897       -2613.080          45.000  
G12  26731456.001   140474669.827       -3648.338          44.000    26731456.982   109460755.893       -2842.970          37.000  
E33  25831062.513   135743228.607       -1884.598          47.000    25831063.934   104011097.051       -1443.974          53.000  
E31  25358601.354   133260489.055        -562.254          46.000    25358604.535   102108761.402        -430.918          52.000  
G31  24031435.898   126285970.199        -490.360          46.000    24031433.274    98404789.979        -382.139          42.000  
E14  26463595.882   139067299.731       -3852.087          47.000    26463597.318   106558036.439       -2951.459          53.000  
E24  27607343.222   145077596.822        1495.545          44.000    27607345.220   111163372.201        1146.029          50.000  
G05  25655752.751   134822127.792       -1334.945          43.000    25655748.720   105056277.089       -1039.601          38.000  
E12  26432330.775   138902924.388         956.746          44.000    26432331.218   106432186.528         733.030          48.000  
E10  28004513.830   147164850.718        1815.142          42.000    28004518.454   112762861.309        1390.933          43.000  
> 2024 04 16 04 46 00.0070000  0 23                     
G25  23794502.409   125040993.138       -2910.287          48.000    23794504.406    97434557.086       -2267.610          44.000  
G18  22443816.945   117943089.469          93.237          49.000    22443814.916    91903674.673          72.670          49.000  
G26  24231790.091   127338927.042        2140.502          44.000    24231789.945    99225145.136        1667.910          44.000  
G23  26060878.337   136950947.245        2757.672          44.000    26060880.784   106715011.880        2148.822          43.000  
R11  23395327.002   125017639.900        2742.280          47.000    23395323.425    97236001.209        2133.112          46.000  
R09  23175301.105   123754833.629       -4157.211          50.000    23175302.894    96253853.502       -3233.479          51.000  
R10  21244747.465   113246495.070       -1046.845          47.000                                                                  
R21  22784201.646   121923005.740        1134.934          52.000    22784198.356    94829065.132         882.701          49.000  
R20  21936359.941   117303657.600       -2485.394          42.000    21936359.731    91236242.250       -1933.365          42.000  
G29  23739564.812   124752340.802       -2119.224          47.000    23739561.606    97209665.722       -1651.444          45.000  
S33  41816698.995   219748283.816        -667.107          43.000  
S31  40862653.296   214734758.860        -666.793          44.000  
G28  24074895.324   126514443.531       -2699.526          45.000    24074893.832    98582660.430       -2103.527          45.000  
E26  29305672.935   154002360.854       -3411.729          42.000    29305673.153   118002306.892       -2614.265          44.000  
G12  26752300.261   140584210.744       -3654.883          43.000    26752302.355   109546112.439       -2847.648          40.000  
E33  25841848.946   135799912.796       -1894.770          47.000    25841850.400   104054530.350       -1451.762          52.000  
E31  25361837.101   133277491.384        -571.558          46.000    25361839.968   102121789.154        -437.872          52.000  
G31  24034290.204   126300967.921        -509.816          46.000    24034287.208    98416476.546        -396.970          43.000  
E14  26485565.479   139182753.853       -3845.315          47.000    26485567.536   106646501.282       -2946.372          53.000  
E24  27598812.217   145032762.692        1492.743          43.000    27598813.464   111129018.806        1143.909          50.000  
G05  25663422.372   134862428.463       -1352.138          42.000    25663418.434   105087680.254       -1053.490          36.000  
E12  26426898.104   138874378.411         946.064          44.000    26426898.911   106410313.665         724.839          48.000  
E10  27994171.002   147110497.158        1808.096          42.000    27994175.255   112721213.864        1385.328          43.000  
> 2024 04 16 04 46 30.0070000  0 23                     
G25  23811150.345   125128477.451       -2922.498          48.000    23811152.143    97502726.601       -2277.175          43.000  
G18  22443335.559   117940557.909          75.017          48.000    22443332.757    91901702.024          58.446          48.000  
G26  24219587.436   127274802.062        2133.906          44.000    24219587.122    99175177.632        1662.777          43.000  
G23  26045132.527   136868204.660        2757.941          45.000    26045135.068   106650537.646        2149.066          43.000  
R11  23379965.221   124935547.259        2729.865          47.000    23379960.309    97172151.321        2123.384          47.000  
R09  23198696.392   123879761.877       -4171.855          49.000    23198698.125    96351019.719       -3244.610          49.000  
R10  21250710.245   113278277.307       -1072.382          49.000                                                                  
R21  22777881.728   121889187.607        1119.164          52.000    22777878.785    94802762.216         870.532          49.000  
R20  21950338.316   117378405.967       -2498.099          43.000    21950337.706    91294379.897       -1942.818          43.000  
G29  23751673.655   124815969.877       -2123.052          48.000    23751669.467    97259246.832       -1654.350          46.000  
S33  41820505.875   219768289.854        -666.897          42.000  
S31  40866459.116   214754758.516        -667.087          44.000  
G28  24090344.260   126595627.198       -2713.282          46.000    24090342.957    98645920.378       -2114.155          45.000  
E26  29325153.333   154104730.199       -3413.253          42.000    29325153.253   118080745.755       -2615.388          43.000  
G12  26773179.586   140693935.192       -3660.576          42.000    26773182.705   109631612.049       -2852.461          40.000  
E33  25852692.975   135856900.985       -1904.687          46.000    25852694.698   104098196.641       -1459.564          52.000  
E31  25365124.459   133294770.749        -580.900          46.000    25365128.076   102135029.148        -445.022          52.000  
G31  24037254.322   126316542.214        -528.929          47.000    24037251.119    98428612.444        -412.099          43.000  
E14  26507498.362   139298012.330       -3838.917          47.000    26507500.604   106734816.192       -2941.482          53.000  
E24  27590297.042   144988014.882        1489.938          43.000    27590298.374   111094731.550        1141.632          50.000  
G05  25671190.135   134903247.807       -1369.570          44.000    25671185.590   105119487.528       -1066.776          36.000  
E12  26421527.936   138846154.689         935.104          45.000    26421528.245   106388687.745         716.560          49.000  
E10  27983870.293   147056363.873        1800.490          43.000    27983873.695   112679735.204        1379.610          43.000  
> 2024 04 16 04 47 00.0070000  0 23                     
G25  23827867.466   125216324.784       -2934.179          48.000    23827867.967    97571178.976       -2286.476          41.000  
G18  22442958.709   117938575.694          56.964          48.000    22442956.012    91900157.339          44.324          49.000  
G26  24207422.853   127210878.233        2127.553          44.000    24207422.422    99125366.878        1657.919          43.000  
G23  26029384.846   136785450.806        2758.606          46.000    26029387.623   106586054.531        2149.457          44.000  
R11  23364673.400   124853831.407        2717.567          48.000    23364668.370    97108594.538        2113.501          47.000  
R09  23222173.898   124005122.452       -4185.789          50.000    23222173.603    96448522.246       -3255.654          49.000  
R10  21256815.684   113310824.907       -1097.544          47.000                                                                  
R21  22771649.839   121855841.437        1103.665          52.000    22771647.731    94776826.362         858.377          49.000  
R20  21964388.440   117453534.124       -2510.506          43.000    21964387.276    91352812.921       -1952.757          43.000  
G29  23763803.063   124879710.166       -2126.529          48.000    23763798.796    97308914.567       -1656.955          46.000  
S33  41824312.797   219788294.193        -666.859          43.000  
S31  40870264.376   214774755.361        -666.434          44.000  
G28  24105871.341   126677225.621       -2726.766          45.000    24105870.316    98709503.505       -2124.601          45.000  
E26  29344642.938   154207146.671       -3414.546          43.000    29344642.326   118159220.737       -2616.277          43.000  
G12  26794095.538   140803844.199       -3666.458          43.000    26794097.657   109717255.425       -2857.204          41.000  
E33  25863596.101   135914193.489       -1914.743          47.000    25863597.150   104142096.099       -1467.079          53.000  
E31  25368466.067   133312330.212        -589.823          45.000    25368469.458   102148483.854        -451.987          51.000  
G31  24040328.416   126332694.932        -548.108          47.000    24040324.711    98441199.028        -427.104          43.000  
E14  26529394.456   139413075.807       -3832.069          46.000    26529396.591   106822981.717       -2936.252          53.000  
E24  27581797.999   144943356.606        1487.053          43.000    27581800.120   111060512.927        1139.596          50.000  
G05  25679056.874   134944587.086       -1386.648          43.000    25679051.597   105151700.050       -1080.575          36.000  
E12  26416218.761   138818255.318         924.614          44.000    26416219.237   106367310.319         708.521          49.000  
E10  27973611.598   147002453.693        1793.541          42.000    27973615.520   112638427.485        1374.036          45.000  
> 2024 04 16 04 47 30.0070000  0 23                     
G25  23844652.561   125304530.727       -2946.278          48.000    23844652.003    97639910.833       -2295.850          42.000  
G18  22442684.766   117937139.402          38.653          47.000    22442682.935    91899038.223          30.164          49.000  
G26  24195296.833   127147154.235        2120.580          46.000    24195295.887    99075711.848        1652.362          42.000  
G23  26013634.832   136702685.281        2758.948          45.000    26013637.760   106521562.406        2149.750          45.000  
R11  23349451.774   124772492.993        2704.849          47.000    23349447.820    97045331.246        2103.731          48.000  
R09  23245729.606   124130908.156       -4200.097          51.000    23245728.694    96546355.433       -3266.754          49.000  
R10  21263064.412   113344135.563       -1123.179          48.000                                                                  
R21  22765505.356   121822963.497        1088.049          52.000    22765503.783    94751254.664         846.283          49.000  
R20  21978507.550   117529035.945       -2523.129          42.000    21978506.840    91411536.564       -1962.317          43.000  
G29  23775951.901   124943557.000       -2130.136          48.000    23775948.559    97358665.369       -1659.873          46.000  
S33  41828118.053   219808292.332        -666.538          42.000  
S31  40874068.357   214794746.069        -666.334          44.000  
G28  24121476.774   126759232.407       -2740.368          45.000    24121474.958    98773404.867       -2135.455          44.000  
E26  29364140.554   154309605.030       -3416.180          43.000    29364139.699   118237727.818       -2617.446          43.000  
G12  26815044.378   140913932.900       -3672.802          42.000    26815046.285   109803038.706       -2861.866          38.000  
E33  25874554.966   135971784.948       -1924.894          47.000    25874556.712   104186224.586       -1474.876          53.000  
E31  25371859.653   133330166.878        -599.405          45.000    25371863.686   102162151.008        -459.290          52.000  
G31  24043510.783   126349422.093        -567.313          46.000    24043508.101    98454233.217        -441.953          43.000  
E14  26551252.658   139527939.210       -3825.581          47.000    26551254.334   106910993.950       -2931.281          54.000  
E24  27573316.570   144898785.473        1484.154          42.000    27573318.448   111026361.092        1137.078          50.000  
G05  25687021.480   134986443.243       -1403.943          43.000    25687018.209   105184315.283       -1094.507          35.000  
E12  26410969.360   138790677.134         913.755          44.000    26410970.706   106346179.092         700.059          48.000  
E10  27963394.117   146948763.807        1785.859          41.000    27963399.355   112597288.609        1368.454          46.000  
> 2024 04 16 04 48 00.0070000  0 24                     
G25  23861504.353   125393087.906       -2957.767          48.000    23861504.746    97708916.350       -2304.775          43.000  
G18  22442514.576   117936241.650          21.110          49.000    22442511.944    91898338.581          16.415          49.000  
G26  24183207.821   127083625.795        2114.432          46.000    24183206.832    99026209.173        1647.653          42.000  
G23  25997881.318   136619904.216        2759.760          45.000    25997884.982   106457058.146        2150.354          45.000  
R04  26553916.903                3       1117.211          16.000                                                                  
R11  23334300.051   124691529.725        2692.532          48.000    23334297.380    96982359.747        2094.320          49.000  
R09  23269363.054   124257109.583       -4213.579          51.000    23269362.067    96644511.919       -3277.190          48.000  
R10  21269454.051   113378202.829       -1148.192          47.000                                                                  
R21  22759447.628   121790546.854        1073.000          52.000    22759445.591    94726041.789         834.504          49.000  
R20  21992693.669   117604900.521       -2534.818          42.000    21992693.678    91470542.372       -1971.576          44.000  
G29  23788120.446   125007503.339       -2133.005          48.000    23788117.258    97408493.693       -1662.188          45.000  
S33  41831921.318   219828277.639        -665.952          42.000  
S31  40877869.897   214814724.525        -665.778          44.000  
G28  24137157.776   126841638.341       -2753.489          45.000    24137156.365    98837617.232       -2145.520          44.000  
E26  29383644.802   154412097.151       -3417.146          42.000    29383643.409   118316260.770       -2618.365          44.000  
G12  26836026.449   141024193.861       -3678.140          44.000    26836028.664   109888956.303       -2866.053          42.000  
E33  25885569.434   136029667.545       -1934.269          46.000    25885571.633   104230576.216       -1482.110          53.000  
E31  25375305.899   133348274.726        -607.986          46.000    25375309.572   102176025.833        -465.955          52.000  
G31  24046801.395   126366716.575        -585.761          46.000    24046800.199    98467709.471        -456.606          44.000  
E14  26573070.759   139642594.618       -3818.355          46.000    26573072.553   106998846.743       -2925.792          53.000  
E24  27564850.347   144854296.242        1481.469          43.000    27564852.152   110992271.960        1135.279          50.000  
G05  25695084.149   135028809.394       -1420.542          42.000    25695081.770   105217327.887       -1106.789          35.000  
E12  26405782.546   138763413.783         903.614          44.000    26405782.260   106325289.079         692.385          48.000  
E10  27953218.090   146895288.603        1778.806          41.000    27953223.008   112556314.193        1363.198          47.000  
> 2024 04 16 04 48 30.0070000  0 23                     
G25  23878423.523   125482001.692       -2969.885          47.000    23878425.937    97778199.744       -2314.440          44.000  
G18  22442447.253   117935888.615           2.459          48.000    22442445.298    91898063.388           2.012          48.000  
G26  24171157.217   127020301.441        2107.179          46.000    24171156.070    98976865.558        1641.828          41.000  
G23  25982126.884   136537116.606        2759.552          45.000    25982130.671   106392548.622        2150.256          44.000  
R11  23319220.000   124610950.886        2679.212          47.000    23319218.866    96919687.222        2083.903          49.000  
R09  23293075.069   124383729.563       -4227.809          51.000    23293073.973    96742993.920       -3288.322          48.000  
R10  21275988.005   113413033.108       -1173.889          47.000                                                                  
R21  22753477.470   121758597.643        1056.918          52.000    22753474.452    94701192.439         822.086          48.000  
R20  22006949.372   117681131.969       -2547.388          43.000    22006950.000    91529833.539       -1981.438          44.000  
G29  23800308.941   125071555.166       -2137.104          48.000    23800306.127    97458404.208       -1665.188          46.000  
S33  41835723.031   219848256.615        -666.225          42.000  
S31  40881670.622   214834695.904        -665.638          44.000  
G28  24152915.844   126924446.805       -2767.117          45.000    24152915.096    98902143.252       -2156.156          45.000  
E26  29403156.122   154514627.615       -3418.463          42.000    29403154.066   118394823.078       -2619.129          44.000  
G12  26857042.117   141134631.543       -3684.398          44.000    26857044.457   109975011.559       -2870.801          41.000  
E33  25896639.868   136087845.769       -1944.254          46.000    25896642.807   104275154.389       -1489.775          53.000  
E31  25378804.308   133366661.090        -617.568          45.000    25378808.270   102190114.082        -473.293          52.000  
G31  24050202.060   126384584.374        -605.423          47.000    24050200.497    98481632.483        -471.751          44.000  
E14  26594849.518   139757047.225       -3811.667          46.000    26594852.298   107086544.269       -2920.759          54.000  
E24  27556401.285   144809896.347        1478.173          43.000    27556403.246   110958251.285        1132.656          49.000  
G05  25703243.288   135071690.867       -1438.039          42.000    25703240.139                       -1120.447          31.000  
E12  26400656.195   138736471.819         892.656          44.000    26400655.045   106304645.289         683.891          47.000  
E10  27943084.527   146842035.131        1771.131          41.000    27943089.201   112515509.702        1357.227          47.000  
> 2024 04 16 04 49 00.0070000  0 23                     
G25  23895411.894   125571270.040       -2981.787          47.000    23895412.943    97847759.403       -2323.451          44.000  
G18  22442483.588   117936079.291         -15.585          48.000    22442481.902    91898212.119         -12.130          50.000  
G26  24159145.596   126957182.233        2100.114          46.000    24159144.790    98927681.797        1636.561          41.000  
G23  25966371.818   136454324.389        2759.406          45.000    25966374.923   106328035.464        2150.177          44.000  
R11  23304213.404   124530760.171        2666.259          47.000    23304212.947    96857316.565        2073.774          50.000  
R09  23316865.055   124510764.011       -4241.609          51.000    23316863.995    96841798.363       -3299.067          49.000  
R10  21282665.551   113448625.530       -1199.395          48.000                                                                  
R21  22747593.839   121727114.284        1041.527          52.000    22747590.647    94676705.475         810.063          49.000  
R20  22021273.422   117757725.787       -2559.468          42.000    22021273.593    91589406.526       -1990.503          42.000  
G29  23812517.674   125135710.680       -2140.467          48.000    23812514.795    97508395.531       -1667.816          46.000  
S33  41839523.459   219868227.914        -665.798          42.000  
S31  40885469.588   214854660.846        -665.732          44.000  
G28  24168749.855   127007653.865       -2780.291          46.000    24168748.486    98966979.854       -2166.632          44.000  
E26  29422673.642   154617193.707       -3419.580          41.000    29422671.814   118473412.696       -2620.159          43.000  
G12  26878091.179   141245244.134       -3690.074          43.000    26878093.015   110061203.166       -2875.257          40.000  
E33  25907766.903   136146316.768       -1954.218          46.000    25907768.966   104319956.861       -1497.280          53.000  
E31  25382356.231   133385325.530        -627.010          45.000    25382360.098   102204415.393        -480.370          51.000  
G31  24053711.181   126403023.469        -624.327          47.000    24053709.240    98496000.656        -486.513          44.000  
E14  26616589.363   139871294.233       -3804.973          45.000    26616592.650   107174084.182       -2915.534          53.000  
E24  27547969.743   144765585.913        1475.443          43.000    27547971.517   110924299.156        1130.424          50.000  
G05  25711502.311   135115085.726       -1455.325          43.000    25711498.549   105284556.275       -1134.249          34.000  
E12  26395589.815   138709850.235         881.961          44.000    26395589.097   106284246.960         675.768          47.000  
E10  27932992.318   146789002.978        1764.054          41.000    27932996.988   112474874.776        1351.562          47.000  
> 2024 04 16 04 49 30.0070000  0 23                     
G25  23912467.111   125660895.821       -2993.668          47.000    23912468.193    97917597.618       -2332.858          44.000  
G18  22442623.705   117936816.235         -33.905          48.000    22442621.312    91898786.266         -26.422          49.000  
G26  24147174.866   126894274.266        2093.209          46.000    24147173.584    98878662.617        1631.028          41.000  
G23  25950616.885   136371534.448        2759.338          45.000    25950619.751   106263524.095        2150.208          43.000  
R11  23289281.502   124450965.062        2652.987          47.000    23289280.295    96795253.621        2063.504          49.000  
R09  23340732.415   124638213.614       -4255.519          49.000    23340731.837    96940925.654       -3309.840          48.000  
R10  21289486.772   113484984.388       -1224.979          47.000                                                                  
R21  22741797.482   121696100.202        1025.692          52.000    22741795.149    94652583.483         797.862          49.000  
R20  22035664.128   117834681.469       -2571.398          42.000    22035663.642    91649261.008       -2000.211          42.000  
G29  23824746.209   125199972.912       -2144.101          49.000    23824743.464    97558469.984       -1670.785          46.000  
S33  41843323.259   219888195.182        -665.416          42.000  
S31  40889267.966   214874620.466        -665.553          44.000  
G28  24184660.192   127091260.472       -2793.774          46.000    24184658.362    99032127.789       -2176.945          44.000  
E26  29442197.989   154719797.593       -3421.145          41.000    29442196.829   118552031.282       -2621.209          44.000  
G12  26899173.981   141356034.203       -3696.281          46.000    26899174.490   110147533.053       -2879.895          40.000  
E33  25918950.520   136205082.737       -1964.010          47.000    25918951.556   104364985.355       -1504.963          53.000  
E31  25385961.618   133404272.494        -636.493          44.000    25385965.668   102218933.120        -487.663          50.000  
G31  24057329.007   126422037.481        -643.510          46.000    24057327.004    98510816.744        -501.272          44.000  
E14  26638291.629   139985338.158       -3798.408          45.000    26638294.185   107261468.441       -2910.357          53.000  
E24  27539555.836   144721370.020        1472.037          44.000    27539557.551   110890419.462        1127.992          50.000  
G05  25719858.144   135158997.765       -1472.457          42.000    25719855.322   105318773.387       -1146.731          34.000  
E12  26390585.718   138683553.194         871.011          44.000    26390585.450   106264097.287         667.358          47.000  
E10  27922943.604   146736196.829        1756.433          42.000    27922948.808   112434413.032        1345.669          48.000  
> 2024 04 16 04 50 00.0070000  0 23                     
G25  23929589.454   125750876.776       -3005.231          46.000    23929591.176    97987712.578       -2341.640          44.000  
G18  22442867.467   117938098.477         -51.844          48.000    22442864.482    91899785.537         -40.387          48.000  
G26  24135244.117   126831578.395        2086.321          46.000    24135243.143    98829808.705        1625.638          42.000  
G23  25934862.311   136288748.274        2759.442          44.000    25934865.282   106199015.739        2150.092          43.000  
R11  23274424.321   124371568.103        2639.969          49.000    23274421.820    96733500.385        2053.188          49.000  
R09  23364676.527   124766074.195       -4268.843          50.000    23364676.864    97040372.706       -3320.163          50.000  
R10  21296451.665   113522107.795       -1250.210          48.000                                                                  
R21  22736088.654   121665553.831        1010.480          51.000    22736086.801    94628825.299         785.852          49.000  
R20  22050122.375   117911996.243       -2583.218          42.000    22050121.647    91709394.737       -2009.190          41.000  
G29  23836994.484   125264339.920       -2147.276          47.000    23836991.484    97608626.104       -1673.134          45.000  
S33  41847121.675   219908156.366        -665.313          42.000  
S31  40893065.024   214894574.441        -664.979          44.000  
G28  24200645.575   127175262.469       -2806.768          46.000    24200643.214    99097583.810       -2186.881          44.000  
E26  29461729.111   154822436.269       -3421.989          41.000    29461727.682   118630676.518       -2621.957          42.000  
G12  26920289.990   141466998.510       -3701.752          45.000    26920289.967   110233998.795       -2884.837          37.000  
E33  25930189.564   136264140.713       -1973.571          48.000    25930189.733   104410237.571       -1512.140          52.000  
E31  25389620.563   133423501.786        -645.602          46.000    25389624.712   102233667.275        -494.751          51.000  
G31  24061056.855   126441624.639        -662.494          47.000    24061053.936    98526079.450        -516.028          44.000  
E14  26659955.275   140099176.499       -3791.086          46.000    26659956.759   107348695.258       -2904.948          53.000  
E24  27531159.297   144677248.527        1469.254          43.000    27531161.278   110856612.132        1125.583          49.000  
G05  25728311.922   135203424.368       -1489.349          40.000    25728308.275   105353391.645       -1160.848          35.000  
E12  26385642.581   138657579.471         860.401          44.000    26385643.195   106244195.368         659.137          49.000  
E10  27912940.170   146683616.130        1748.627          44.000    27912942.698   112394124.001        1340.009          48.000  
> 2024 04 16 04 50 30.0070000  0 23                     
G25  23946779.625   125841207.742       -3016.979          47.000    23946780.047    98058100.272       -2350.787          43.000  
G18  22443215.354   117939920.418         -69.847          49.000    22443211.285    91901204.950         -54.597          47.000  
G26  24123353.410   126769092.656        2079.219          46.000    24123352.501    98781118.539        1620.237          42.000  
G23  25919109.348   136205964.462        2759.277          44.000    25919110.901   106134509.125        2149.982          42.000  
R11  23259641.027   124292568.975        2626.390          49.000    23259638.165    96672056.558        2042.855          49.000  
R09  23388696.339   124894337.269       -4282.163          51.000    23388696.981    97140132.671       -3330.582          51.000  
R10  21303557.438   113559992.450       -1275.674          46.000                                                                  
R21  22730466.990   121635470.293         994.926          51.000    22730464.883    94605427.079         773.838          49.000  
R20  22064646.392   117989661.219       -2594.814          43.000    22064645.529    91769800.899       -2018.260          42.000  
G29  23849262.603   125328806.931       -2150.606          48.000    23849259.595    97658860.135       -1675.893          46.000  
S33  41850918.417   219928107.564        -665.048          43.000  
S31  40896860.470   214914519.174        -664.814          43.000  
G28  24216705.245   127259652.694       -2819.744          46.000    24216701.766    99163342.384       -2196.983          44.000  
E26  29481266.037   154925103.899       -3423.018          40.000    29481264.370   118709343.965       -2622.715          42.000  
G12  26941438.156   141578132.997       -3707.273          44.000    26941437.762   110320597.330       -2889.104          36.000  
E33  25941482.435   136323484.818       -1983.017          48.000    25941482.751   104455709.040       -1519.445          52.000  
E31  25393333.024   133443009.551        -655.083          45.000    25393336.821   102248614.703        -501.955          50.000  
G31  24064892.136   126461780.044        -681.454          47.000    24064889.617    98541784.958        -530.943          44.000  
E14  26681577.779   140212803.513       -3783.999          46.000    26681579.065   107435760.088       -2899.463          52.000  
E24  27522781.020   144633218.479        1466.023          44.000    27522782.706   110822874.843        1123.302          50.000  
G05  25736862.412   135248362.335       -1506.619          40.000    25736860.627   105388408.217       -1173.376          34.000  
E12  26380760.958   138631924.973         849.799          44.000    26380761.580   106224538.018         651.052          49.000  
E10  27902975.349   146631257.296        1741.580          44.000    27902978.921   112354004.994        1334.410          47.000  
> 2024 04 16 04 51 00.0070000  0 23                     
G25  23964035.311   125931893.661       -3028.835          45.000    23964037.201    98128764.580       -2359.957          44.000  
G18  22443666.171   117942288.953         -88.196          49.000    22443662.469    91903050.648         -68.812          49.000  
G26  24111504.114   126706825.289        2071.709          47.000    24111503.680    98732598.528        1614.290          42.000  
G23  25903358.268   136123191.876        2758.673          44.000    25903360.435   106070011.280        2149.445          43.000  
R11  23244933.553   124213977.756        2612.811          49.000    23244930.685    96610930.001        2032.042          49.000  
R09  23412792.259   125023006.835       -4295.818          52.000    23412791.877    97240208.857       -3341.249          51.000  
R10  21310809.047   113598643.993       -1301.246          47.000                                                                  
R21  22724932.376   121605855.320         979.153          50.000    22724930.508    94582393.257         761.600          49.000  
R20  22079235.507   118067679.558       -2606.686          42.000    22079235.738    91830481.846       -2027.225          43.000  
G29  23861550.780   125393379.065       -2154.308          48.000    23861547.030    97709176.085       -1678.639          46.000  
S33  41854713.987   219948055.589        -664.934          42.000  
S31  40900654.833   214934459.201        -664.696          44.000  
G28  24232837.381   127344434.267       -2832.570          45.000    24232835.643    99229405.912       -2207.081          44.000  
E26  29500809.064   155027804.774       -3423.870          41.000    29500807.642   118788036.897       -2623.725          41.000  
G12  26962619.203   141689440.543       -3713.326          43.000    26962618.510   110407330.288       -2893.235          35.000  
E33  25952830.130   136383119.357       -1992.764          47.000    25952831.118   104501403.045       -1526.881          53.000  
E31  25397099.373   133462802.718        -664.670          45.000    25397103.497   102263780.833        -509.242          50.000  
G31  24068836.446   126482509.088        -700.729          47.000    24068833.884    98557937.416        -545.735          44.000  
E14  26703160.615   140326223.968       -3777.164          46.000    26703162.270   107522666.682       -2894.299          52.000  
E24  27514420.943   144589287.025        1462.647          45.000    27514422.736   110789213.123        1120.818          51.000  
G05  25745513.062   135293816.463       -1524.003          38.000    25745507.261   105423826.982       -1187.726          32.000  
E12  26375941.404   138606595.978         838.783          44.000    26375941.853   106205130.114         642.724          50.000  
E10  27893055.173   146579127.122        1733.782          44.000    27893058.536   112314061.194        1328.530          47.000  
> 2024 04 16 04 51 30.0070000  0 23                     
G25  23981359.894   126022932.024       -3040.622          47.000    23981361.770    98199703.470       -2369.436          43.000  
G18  22444219.677   117945201.116        -106.272          48.000    22444217.059    91905319.879         -82.953          49.000  
G26  24099696.768   126644776.988        2064.360          47.000    24099696.320    98684249.215        1608.305          42.000  
G23  25887609.790   136040431.879        2758.197          45.000    25887611.260   106005523.196        2149.084          43.000  
R11  23230302.096   124135796.733        2598.862          48.000    23230300.065    96550122.491        2021.416          49.000  
R09  23436963.645   125152077.509       -4309.256          52.000    23436962.583    97340597.011       -3351.595          49.000  
R10  21318203.742   113638060.163       -1326.857          47.000                                                                  
R21  22719485.885   121576706.787         963.627          52.000    22719483.535    94559722.244         749.479          48.000  
R20  22093890.446   118146046.092       -2618.407          42.000    22093891.353    91891433.594       -2036.591          44.000  
G29  23873857.384   125458053.810       -2157.764          47.000    23873854.155    97759572.006       -1681.312          45.000  
S33  41858508.763   219967996.705        -665.042          42.000  
S31  40904448.134   214954393.863        -664.606          44.000  
G28  24249045.046   127429602.761       -2845.518          46.000    24249042.709    99295770.943       -2217.413          43.000  
E26  29520358.305   155130535.766       -3424.813          41.000    29520356.649   118866752.891       -2624.363          41.000  
G12  26983831.412   141800919.553       -3719.128          44.000    26983831.969   110494196.902       -2897.944          40.000  
E33  25964231.797   136443041.110       -2002.249          46.000    25964233.961   104547317.143       -1534.228          54.000  
E31  25400920.079   133482880.443        -674.116          45.000    25400924.205   102279165.018        -516.616          51.000  
G31  24072889.013   126503809.739        -719.781          46.000    24072887.500    98574535.277        -560.947          44.000  
E14  26724703.535   140439434.970       -3770.428          46.000    26724705.632   107609412.757       -2889.004          52.000  
E24  27506079.807   144545453.838        1459.203          45.000    27506081.367   110755626.700        1118.113          50.000  
G05  25754259.548   135339783.982       -1540.864          37.000    25754253.594                       -1201.249          30.000  
E12  26371183.290   138581591.081         827.935          45.000    26371183.447   106185970.556         634.390          50.000  
E10  27883177.792   146527224.748        1726.073          44.000    27883182.191   112274291.958        1322.599          48.000  
> 2024 04 16 04 52 00.0070000  0 24                     
G25  23998750.821   126114321.572       -3052.055          47.000    23998752.125    98270916.027       -2378.494          43.000  
G18  22444876.684   117948656.114        -124.183          48.000    22444875.148    91908011.954         -96.822          49.000  
G26  24087931.087   126582949.781        2057.221          48.000    24087931.074    98636072.159        1603.072          43.000  
G23  25871864.174   135957687.169        2757.965          45.000    25871865.525   105941047.003        2148.938          43.000  
R04  26506625.932                3        992.506          13.000    26506732.138                3        288.010          11.000  
R11  23215749.586   124058029.272        2585.404          49.000    23215747.351    96489636.669        2010.818          49.000  
R09  23461208.711   125281546.249       -4322.202          52.000    23461208.712    97441294.904       -3361.815          51.000  
R10  21325741.433   113678241.424       -1352.080          47.000                                                                  
R21  22714126.419   121548023.803         948.296          51.000    22714122.870    94537413.361         737.610          48.000  
R20  22108610.476   118224757.809       -2629.538          42.000    22108610.466    91952653.814       -2045.357          42.000  
G29  23886184.405   125522831.280       -2160.876          49.000    23886181.021    97810047.962       -1683.740          46.000  
S33  41862302.246   219987931.497        -664.403          43.000  
S31  40908240.413   214974322.483        -664.230          44.000  
G28  24265325.122   127515154.979       -2858.039          45.000    24265323.003    99362434.957       -2227.187          43.000  
E26  29539912.536   155233295.041       -3425.710          41.000    29539911.061   118945490.563       -2624.955          42.000  
G12  27005077.213   141912568.945       -3724.448          40.000    27005079.219   110581196.614       -2902.428          40.000  
E33  25975688.758   136503248.138       -2011.710          46.000    25975691.120   104593449.806       -1541.421          54.000  
E31  25404795.425   133503243.417        -683.591          46.000    25404799.018   102294767.870        -523.837          50.000  
G31  24077051.196   126525681.135        -738.468          46.000    24077049.367    98591577.876        -575.488          44.000  
E14  26746206.862   140552435.079       -3763.348          46.000    26746208.907   107695997.272       -2883.480          52.000  
E24  27497757.307   144501719.944        1456.018          45.000    27497758.982   110722116.341        1115.679          49.000  
G05  25763102.278   135386264.616       -1557.560          34.000    25763096.032                       -1214.114          28.000  
E12  26366486.675   138556910.089         817.240          45.000    26366486.735   106167059.144         626.209          49.000  
E10  27873343.966   146475550.748        1718.597          44.000    27873348.896   112234697.689        1316.854          48.000  
> 2024 04 16 04 52 30.0070000  0 23                     
G25  24016208.474   126206062.157       -3063.927          46.000    24016209.843    98342402.101       -2387.489          42.000  
G18  22445637.341   117952654.606        -142.526          48.000    22445636.364    91911127.566        -110.927          50.000  
G26  24076208.327   126521346.770        2049.540          48.000    24076208.739    98588069.814        1597.030          43.000  
G23  25856122.100   135874961.513        2756.970          45.000    25856123.801   105876585.629        2148.297          45.000  
R11  23201276.085   123980680.570        2571.144          50.000    23201272.656    96429476.597        1999.715          50.000  
R09  23485527.028   125411409.539       -4335.519          51.000    23485528.016    97542299.428       -3372.014          51.000  
R10  21333423.613   113719188.653       -1377.773          49.000                                                                  
R21  22708853.352   121519807.057         932.689          52.000    22708849.468    94515467.071         725.494          48.000  
R20  22123393.647   118303812.276       -2640.873          41.000    22123393.340    92014140.616       -2053.974          41.000  
G29  23898530.122   125587711.309       -2164.421          49.000    23898527.802    97860603.853       -1686.498          46.000  
S33  41866094.661   220007861.248        -664.234          42.000  
S31  40912031.773   214994245.386        -664.156          44.000  
G28  24281677.736   127601088.864       -2870.949          45.000    24281675.499    99429396.341       -2237.079          43.000  
E26  29559472.488   155336081.766       -3426.797          41.000    29559470.704   119024249.267       -2625.753          41.000  
G12  27026354.802   142024387.148       -3730.273          39.000    27026357.651   110668327.742       -2906.589          39.000  
E33  25987199.876   136563739.627       -2021.256          46.000    25987202.384   104639800.436       -1548.783          54.000  
E31  25408725.091   133523892.743        -693.310          46.000    25408728.532   102310590.012        -531.104          50.000  
G31  24081323.101   126548123.324        -757.623          47.000    24081320.070    98609065.236        -590.530          44.000  
E14  26767670.304   140665223.744       -3756.288          47.000    26767672.083   107782419.771       -2878.084          52.000  
E24  27489454.172   144458087.461        1452.572          45.000    27489456.102   110688683.700        1112.992          50.000  
G05  25772046.980   135433258.172       -1574.878          34.000    25772036.440                       -1227.906          31.000  
E12  26361851.646   138532554.219         806.246          44.000    26361851.811   106148396.918         617.793          48.000  
E10  27863554.799   146424106.625        1710.926          45.000    27863559.448   112195279.554        1310.967          48.000  
> 2024 04 16 04 53 00.0070000  0 23                     
G25  24033733.792   126298154.961       -3075.559          47.000    24033735.301    98414162.631       -2396.326          43.000  
G18  22446502.097   117957198.541        -160.516          48.000    22446500.869    91914668.367        -124.990          49.000  
G26  24064529.126   126459972.406        2042.021          48.000    24064530.147    98540245.632        1591.060          43.000  
G23  25840384.076   135792260.015        2756.299          45.000    25840386.143   105812143.040        2147.949          44.000  
R11  23186880.920   123903756.509        2557.129          50.000    23186877.384    96369646.748        1988.927          49.000  
R09  23509919.917   125541667.087       -4348.466          49.000    23509921.132    97643610.662       -3382.045          48.000  
R10  21341248.998   113760903.554       -1403.245          48.000                                                                  
R21  22703666.650   121492058.103         917.210          51.000    22703664.571    94493884.627         713.413          49.000  
R20  22138241.756   118383208.291       -2652.208          42.000    22138240.802    92075893.118       -2062.715          42.000  
G29  23910896.593   125652695.256       -2167.817          49.000    23910893.715    97911240.679       -1689.216          46.000  
S33  41869886.607   220027787.650        -663.951          42.000  
S31  40915821.941   215014164.607        -663.917          44.000  
G28  24298103.352   127687403.687       -2883.437          44.000    24298101.375    99496654.580       -2246.822          42.000  
E26  29579037.405   155438896.546       -3427.619          41.000    29579035.713   119103029.449       -2626.267          41.000  
G12  27047665.004   142136375.167       -3735.917          36.000    27047668.912   110755590.912       -2910.741          38.000  
E33  25998764.760   136624516.041       -2030.545          46.000    25998767.830   104686369.351       -1555.885          55.000  
E31  25412710.855   133544831.519        -702.659          46.000    25412713.207   102326633.897        -538.450          50.000  
G31  24085702.661   126571137.855        -776.628          46.000    24085699.872    98626998.605        -605.150          44.000  
E14  26789093.269   140777802.008       -3749.059          47.000    26789095.143   107868681.071       -2872.590          53.000  
E24  27481170.964   144414559.782        1449.243          46.000    27481172.885   110655331.343        1110.558          50.000  
G05  25781090.788   135480766.635       -1592.400          36.000    25781081.351   105569502.655       -1240.578          33.000  
E12  26357279.468   138508525.658         795.621          44.000    26357278.744   106129985.505         609.623          47.000  
E10  27853809.614   146372895.309        1703.159          45.000    27853813.813   112156039.822        1305.023          47.000  
> 2024 04 16 04 53 30.0070000  0 23                     
G25  24051324.841   126390594.868       -3087.002          46.000    24051325.010    98486193.648       -2405.217          42.000  
G18  22447470.281   117962283.036        -178.233          48.000    22447467.533    91918630.388        -138.978          49.000  
G26  24052893.109   126398824.924        2034.536          47.000    24052894.351    98492598.234        1585.401          44.000  
G23  25824650.376   135709581.680        2755.615          43.000    25824652.600   105747718.530        2147.363          43.000  
R11  23172565.288   123827257.078        2542.863          51.000    23172561.164    96310147.177        1977.846          48.000  
R09  23534386.009   125672311.514       -4361.173          51.000    23534386.486    97745222.928       -3391.904          51.000  
R10  21349217.755   113803382.045       -1428.523          48.000                                                                  
R21  22698566.885   121464772.013         901.885          51.000    22698566.031    94472662.216         701.315          49.000  
R20  22153151.320   118462938.583       -2663.061          42.000    22153151.365    92137905.629       -2071.183          43.000  
G29  23923282.138   125717778.619       -2171.043          49.000    23923278.820    97961954.999       -1691.608          45.000  
S33  41873676.749   220047706.026        -663.925          43.000  
S31  40919611.136   215034076.481        -663.505          44.000  
G28  24314599.937   127774092.513       -2895.917          44.000    24314598.846    99564204.231       -2256.397          44.000  
E26  29598607.156   155541733.755       -3428.190          41.000    29598604.954   119181826.835       -2626.939          42.000  
G12  27069006.010   142248528.213       -3740.885          37.000    27069010.414   110842982.909       -2915.279          40.000  
E33  26010383.551   136685571.772       -2039.719          46.000    26010386.493   104733152.333       -1562.990          55.000  
E31  25416749.498   133566056.649        -712.186          47.000    25416752.264   102342897.337        -545.701          52.000  
G31  24090189.437   126594719.750        -795.433          45.000    24090187.197    98645374.116        -619.792          44.000  
E14  26810474.932   140890164.437       -3741.710          47.000    26810477.154   107954776.964       -2867.086          53.000  
E24  27472907.525   144371134.128        1445.871          46.000    27472909.355   110622057.173        1107.825          50.000  
G05  25790227.856   135528784.891       -1608.441          32.000    25790220.703   105606919.630       -1253.796          37.000  
E12  26352768.862   138484820.425         784.671          45.000    26352767.559   106111821.813         601.326          48.000  
E10  27844107.629   146321913.452        1695.678          45.000    27844111.519   112116975.890        1299.149          47.000  
> 2024 04 16 04 54 00.0070000  0 23                     
G25  24068981.005   126483377.694       -3098.599          47.000    24068981.014    98558491.871       -2414.144          42.000  
G18  22448539.626   117967904.020        -196.336          48.000    22448537.229    91923010.364        -153.043          49.000  
G26  24041300.323   126337903.435        2026.920          48.000    24041301.437    98445126.946        1579.302          43.000  
G23  25808921.491   135626926.683        2754.681          43.000    25808923.054   105683312.409        2146.667          42.000  
R11  23158328.551   123751182.696        2528.591          51.000    23158324.084    96250978.209        1966.664          49.000  
R09  23558923.514   125803336.233       -4373.842          53.000    23558923.313    97847130.931       -3401.915          52.000  
R10  21357329.090   113846620.528       -1454.132          47.000                                                                  
R21  22693554.019   121437945.358         886.454          51.000    22693552.785    94451797.048         689.475          49.000  
R20  22168122.308   118542996.436       -2673.960          42.000    22168122.464    92200172.876       -2080.034          41.000  
G29  23935684.753   125782957.936       -2174.282          49.000    23935681.797    98012744.088       -1694.242          45.000  
S33  41877464.918   220067613.710        -663.264          43.000  
S31  40923397.980   215053977.223        -663.491          44.000  
G28  24331167.331   127861149.157       -2908.071          45.000    24331166.544    99632040.485       -2265.933          45.000  
E26  29618180.320   155644588.630       -3428.835          42.000    29618177.733   119260637.742       -2627.214          42.000  
G12  27090380.319   142360840.938       -3746.600          40.000    27090384.197   110930597.3301      -2919.520          40.000  
E33  26022054.186   136746901.826       -2048.939          46.000    26022057.108   104780145.474       -1569.964          55.000  
E31  25420842.620   133587565.390        -721.817          47.000    25420845.279   102359378.034        -553.013          51.000  
G31  24094783.940   126618865.360        -814.511          46.000    24094781.909    98664188.864        -634.741          43.000  
E14  26831814.648   141002306.696       -3734.507          46.000    26831817.114   108040704.132       -2861.417          53.000  
E24  27464663.458   144327808.631        1442.421          47.000    27464664.715   110588859.729        1105.290          49.000  
E12  26348318.248   138461435.378         773.901          44.000    26348317.682   106093903.449         593.163          48.000  
E10  27834448.686   146271158.592        1687.899          46.000    27834453.031   112078085.891        1293.440          47.000  
G05                                                                  25799455.093   105644730.907       -1266.956          36.000  
> 2024 04 16 04 54 30.0070000  0 23                     
G25  24086701.751   126576503.530       -3109.825          46.000    24086702.189    98631057.445       -2423.323          42.000  
G18  22449711.666   117974062.356        -214.278          48.000    22449709.670    91927809.042        -166.883          48.000  
G26  24029751.055   126277211.494        2019.232          48.000    24029751.755    98397834.509        1573.460          44.000  
G23  25793197.722   135544298.524        2753.802          43.000    25793198.825   105618927.121        2145.819          41.000  
R11  23144172.572   123675538.645        2514.288          50.000    23144168.106    96192143.937        1955.610          48.000  
R09  23583530.982   125934738.954       -4386.217          51.000    23583531.877    97949332.731       -3411.535          50.000  
R10  21365583.881   113890620.055       -1479.166          47.000                                                                  
R21  22688627.704   121411578.632         871.376          52.000    22688626.000    94431289.661         677.642          49.000  
R20  22183155.017   118623380.120       -2684.688          43.000    22183154.182    92262693.554       -2088.097          42.000  
G29  23948105.889   125848233.410       -2177.388          49.000    23948103.091    98063608.097       -1696.605          45.000  
S33  41881251.582   220087510.596        -663.162          43.000  
S31  40927183.471   215073868.546        -662.622          44.000  
G28  24347803.240   127948571.844       -2920.126          45.000    24347802.117    99700162.023       -2275.463          44.000  
E26  29637756.668   155747460.768       -3429.226          42.000    29637753.845   119339461.894       -2627.786          42.000  
G12  27111784.546   142473313.800       -3751.603          44.000    27111787.580   111018238.286       -2923.436          44.000  
E33  26033778.493   136808505.832       -2057.991          47.000    26033779.980   104827348.553       -1576.896          55.000  
E31  25424988.611   133609359.859        -731.189          47.000    25424992.596   102376077.714        -560.270          52.000  
G31  24099485.973   126643575.050        -832.831          47.000    24099483.557    98683443.155        -649.032          43.000  
E14  26853112.215   141114228.822       -3726.919          46.000    26853115.282   108126462.645       -2855.733          53.000  
E24  27456438.580   144284585.714        1439.083          47.000    27456439.760   110555740.909        1102.646          50.000  
E12  26343928.889   138438372.035         763.577          44.000    26343928.769   106076231.591         585.002          48.000  
E10  27824832.840   146220632.645        1680.427          45.000    27824838.320   112039371.312        1287.512          47.000  
G05                                                                  25808785.410   105682937.589       -1279.907          37.000  
> 2024 04 16 04 55 00.0070000  0 23                     
G25  24104488.272   126669973.236       -3121.227          46.000    24104489.102    98703890.900       -2432.176          42.000  
G18  22450985.769   117980759.744        -232.063          48.000    22450984.112    91933027.957        -180.868          49.000  
G26  24018246.308   126216753.228        2011.540          48.000    24018246.922    98350724.190        1567.478          44.000  
G23  25777480.531   135461702.462        2752.832          45.000    25777480.452   105554566.895        2145.198          42.000  
R11  23130098.150   123600330.681        2499.768          51.000    23130094.153    96133648.873        1944.235          48.000  
R09  23608210.295   126066518.857       -4398.808          53.000    23608208.920    98051828.078       -3421.199          50.000  
R10  21373981.646   113935382.409       -1504.733          49.000                                                                  
R21  22683786.147   121385673.380         855.999          52.000    22683785.026    94411141.143         665.851          49.000  
R20  22198247.223   118704088.050       -2695.628          43.000    22198246.528    92325466.427       -2096.753          41.000  
G29  23960546.442   125913606.719       -2180.574          49.000    23960542.643    98114548.341       -1699.130          44.000  
S33  41885036.389   220107400.505        -662.740          42.000  
S31  40930966.766   215093751.047        -662.629          44.000  
G28  24364508.824   128036359.557       -2932.188          44.000    24364507.085    99768567.997       -2284.795          44.000  
E26  29657336.503   155850350.498       -3429.972          42.000    29657333.052   119418299.514       -2628.044          42.000  
G12  27133218.093   142585947.624       -3756.893          36.000    27133220.755                       -2927.346          22.000  
E33  26045553.210   136870383.934       -2067.014          46.000    26045554.917   104874761.650       -1583.844          55.000  
E31  25429191.574   133631442.446        -740.924          47.000    25429194.868   102392998.083        -567.572          51.000  
G31  24104295.604   126668849.813        -851.700          47.000    24104292.467    98703137.780        -663.960          42.000  
E14  26874368.624   141225931.550       -3719.715          45.000    26874371.618   108212053.030       -2850.105          53.000  
G05  25818224.813   135675733.8331      -1660.065          33.000    25818213.598   105721539.883       -1293.201          39.000  
E24  27448233.745   144241468.576        1435.590          47.000    27448235.031   110522703.133        1100.023          49.000  
E12  26339600.609   138415632.284         752.659          43.000    26339601.685   106058807.662         576.722          48.000  
E10  27815262.769   146170338.267        1672.723          46.000    27815267.670   112000834.141        1281.681          47.000  
> 2024 04 16 04 55 30.0070000  0 24                     
G25  24122340.301   126763786.799       -3132.521          45.000    24122341.878    98776992.267       -2440.926          43.000  
G18  22452363.137   117987995.903        -249.841          48.000    22452360.471    91938666.549        -194.703          49.000  
G26  24006786.624   126156531.981        2003.695          48.000    24006787.023    98303798.540        1561.352          44.000  
G23  25761769.175   135379142.310        2751.555          45.000    25761769.324   105490234.651        2144.172          42.000  
R11  23116106.480   123525564.002        2485.111          51.000    23116103.145    96075497.024        1932.849          49.000  
R09  23632958.313   126198673.303       -4411.113          52.000    23632957.045    98154614.652       -3430.817          49.000  
R10  21382522.552   113980907.833       -1529.890          49.000                                                                  
R21  22679031.362   121360229.861         840.703          52.000    22679029.821    94391351.745         653.862          49.000  
R20  22213400.672   118785118.424       -2706.191          42.000    22213399.706    92388490.064       -2104.677          41.000  
G29  23973005.296   125979078.238       -2183.735          49.000    23973001.591    98165565.110       -1701.627          45.000  
S33  41888819.813   220127282.086        -662.151          43.000  
S31  40934748.863   215113626.275        -662.303          44.000  
G28  24381282.881   128124510.377       -2944.222          43.000    24381280.779    99837256.879       -2293.879          44.000  
E26  29676918.614   155953257.291       -3430.119          41.000    29676916.249   119497150.223       -2628.233          42.000  
G12  27154683.279   142698742.416       -3762.114          40.000    27154685.386   111193890.7441      -2932.322          35.000  
E33  26057379.872   136932535.472       -2076.062          46.000    26057381.763   104922384.261       -1590.758          55.000  
E31  25433447.963   133653815.078        -750.419          46.000    25433452.107   102410140.771        -574.925          50.000  
G31  24109213.818   126694690.090        -870.474          48.000    24109209.993    98723273.016        -678.363          43.000  
E14  26895583.059   141337414.639       -3711.993          45.000    26895586.049   108297475.142       -2844.357          53.000  
G05  25827742.932   135725695.9081      -1676.685          33.000    25827735.688   105760537.682       -1306.403          38.000  
E24  27440049.898   144198459.579        1432.082          48.000    27440050.647   110489748.219        1097.264          50.000  
E12  26335335.777   138393217.363         742.002          43.000    26335336.415   106041632.674         568.511          49.000  
E10  27805736.865   146120277.112        1665.005          45.000    27805741.299   111962475.695        1275.715          48.000  
R04                                                                  26470179.124                3        679.474          19.000  
> 2024 04 16 04 56 00.0070000  0 23                     
G25  24140257.294   126857940.567       -3144.161          45.000    24140258.483    98850358.792       -2450.174          43.000  
G18  22453841.516   117995767.945        -268.108          48.000    22453838.971    91944722.782        -208.909          49.000  
G26  23995372.113   126096547.450        1995.491          48.000    23995372.052    98257057.365        1554.961          44.000  
G23  25746065.090   135296618.225        2750.028          45.000    25746065.484   105425930.403        2142.913          43.000  
R11  23102197.676   123451239.904        2469.958          51.000    23102193.903    96017689.386        1921.116          48.000  
R09  23657774.448   126331196.277       -4423.646          51.000    23657774.649    98257687.919       -3440.580          50.000  
R10  21391205.819   114027193.665       -1555.416          49.000                                                                  
R21  22674363.062   121335244.761         825.231          52.000    22674360.254    94371918.898         641.765          49.000  
R20  22228612.763   118866465.206       -2716.880          43.000    22228612.542    92451759.802       -2113.138          42.000  
G29  23985482.525   126044644.628       -2187.172          50.000    23985478.115    98216655.796       -1704.263          44.000  
S33  41892601.252   220147154.654        -662.061          43.000  
S31  40938529.442   215133491.973        -662.263          44.000  
G28  24398124.751   128213018.673       -2956.297          43.000    24398123.277    99906224.335       -2303.641          44.000  
E26  29696503.690   156056176.989       -3430.733          41.000    29696501.127   119576010.813       -2628.860          43.000  
G12  27176178.128   142811693.673       -3768.150          32.000    27176180.919                1      -2935.960          28.000  
E33  26069258.771   136994956.204       -2085.197          46.000    26069259.993   104970213.145       -1597.747          55.000  
E31  25437760.168   133676475.728        -760.205          46.000    25437764.341   102427504.107        -582.490          51.000  
G31  24114237.689   126721092.309        -889.453          47.000    24114234.626    98743846.135        -693.203          43.000  
E14  26916755.206   141448674.353       -3705.132          45.000    26916758.194   108382726.091       -2838.892          53.000  
G05  25837358.841   135776248.376       -1693.249          33.000    25837355.744   105799929.188       -1319.678          40.000  
E24  27431885.731   144155557.246        1428.247          48.000    27431886.668   110456875.013        1094.342          49.000  
E12  26331131.768   138371124.594         731.005          44.000    26331132.121   106024704.497         560.148          49.000  
E10  27796254.281   146070447.247        1657.002          45.000    27796258.807   111924294.473        1269.611          48.000  
> 2024 04 16 04 56 30.0070000  0 24                     
G25  24158239.481   126952440.436       -3155.521          45.000    24158240.718    98923994.993       -2458.818          42.000  
G18  22455423.830   118004082.100        -285.838          47.000    22455420.901    91951201.365        -222.865          48.000  
G26  23984004.502   126036809.029        1987.536          49.000    23984004.181    98210507.982        1548.571          44.000  
G23  25730369.951   135214140.694        2748.695          44.000    25730370.262   105361662.466        2141.741          41.000  
R04  26462481.607                3        840.313          10.000                                                                  
R11  23088373.605   123377368.930        2454.973          50.000    23088370.010    95960234.196        1909.469          48.000  
R09  23682662.772   126464091.704       -4435.717          51.000    23682661.830    98361050.853       -3450.036          49.000  
R10  21400032.075   114074246.220       -1581.042          49.000                                                                  
R21  22669779.953   121310724.718         809.907          51.000    22669778.059    94352847.794         629.858          49.000  
R20  22243884.858   118948132.177       -2727.164          42.000    22243884.757    92515278.579       -2121.453          42.000  
G29  23997978.288   126110312.217       -2190.345          50.000    23997974.573    98267825.374       -1706.783          44.000  
S33  41896382.242   220167023.402        -662.135          43.000  
S31  40942309.224   215153354.604        -661.708          44.000  
G28  24415035.805   128301888.551       -2967.944          43.000    24415034.868    99975473.539       -2312.680          45.000  
E26  29716091.261   156159115.132       -3431.303          39.000    29716089.674   119654885.531       -2629.272          42.000  
G12  27197706.083   142924899.8743      -3772.649          29.000    27197704.400                3      -2939.099          25.000  
E33  26081188.343   137057651.555       -2094.016          46.000    26081190.386   105018252.484       -1604.625          55.000  
E31  25442128.664   133699432.072        -769.958          46.000    25442132.847   102445093.959        -589.942          50.000  
G31  24119370.147   126748062.696        -908.108          47.000    24119367.238    98764861.997        -707.669          43.000  
E14  26937886.228   141559716.654       -3697.411          45.000    26937888.644   108467810.481       -2833.194          54.000  
G05  25847075.530   135827312.035       -1710.400          35.000    25847074.342   105839719.049       -1332.629          40.000  
E24  27423743.318   144112770.118        1424.597          48.000    27423744.448   110424090.090        1091.506          49.000  
E12  26326991.257   138349361.128         720.280          45.000    26326990.750   106008028.601         551.764          49.000  
E10  27786816.878   146020856.464        1649.359          45.000    27786821.930   111886296.448        1263.636          48.000  
> 2024 04 16 04 57 00.0070000  0 23                     
G25  24176288.544   127047283.095       -3167.022          46.000    24176288.403    98997898.325       -2467.838          42.000  
G18  22457108.074   118012935.739        -304.111          47.000    22457105.460    91958100.381        -236.817          47.000  
G26  23972683.735   125977316.876        1979.138          48.000    23972683.060    98164150.465        1541.955          44.000  
G23  25714683.647   135131710.313        2746.984          45.000    25714684.344   105297431.256        2140.595          41.000  
R11  23074635.316   123303953.369        2439.587          51.000    23074631.529    95903133.199        1897.565          49.000  
R09  23707618.696   126597354.065       -4447.893          51.000    23707617.584    98464699.120       -3459.466          49.000  
R10  21409002.305   114122064.102       -1606.560          48.000                                                                  
R21  22665284.275   121286667.047         794.335          52.000    22665281.709    94334136.274         617.976          48.000  
R20  22259216.111   119030114.134       -2737.750          43.000    22259215.149    92579042.350       -2129.165          42.000  
G29  24010493.437   126176079.452       -2193.701          49.000    24010489.577    98319072.591       -1709.355          44.000  
S33  41900162.054   220186887.226        -662.073          43.000  
S31  40946087.801   215173212.128        -661.664          44.000  
G28  24432015.309   128391114.902       -2980.008          44.000    24432014.463   100045000.497       -2321.961          45.000  
E26  29735682.538   156262068.048       -3432.247          39.000    29735680.666   119733771.536       -2629.582          42.000  
E33  26093169.920   137120617.596       -2103.217          45.000    26093172.399   105066499.198       -1611.534          55.000  
E31  25446552.906   133722682.862        -779.860          46.000    25446557.416   102462909.460        -597.495          52.000  
G31  24124609.580   126775598.210        -926.997          46.000    24124606.736    98786318.221        -722.506          43.000  
E14  26958975.232   141670538.175       -3690.262          46.000    26958977.391   108552725.667       -2827.549          53.000  
G05  25856890.584   135878883.941       -1727.472          35.000    25856886.651   105879904.999       -1345.966          39.000  
E24  27415623.264   144070097.301        1420.599          48.000    27415624.028   110391392.751        1088.557          48.000  
E12  26322912.374   138327924.991         709.208          45.000    26322911.565   105991603.515         543.457          48.000  
E10  27777425.649   145971503.271        1641.246          45.000    27777430.195   111848480.483        1257.587          48.000  
G12                                                                  27219262.278                3      -2955.076          14.000  
> 2024 04 16 04 57 30.0070000  0 22                     
G25  24194402.209   127142471.076       -3178.510          46.000    24194402.756    99072070.672       -2476.637          42.000  
G18  22458896.475   118022331.683        -322.092          48.000    22458893.835    91965421.973        -250.898          49.000  
G26  23961410.585   125918076.950        1970.693          48.000    23961410.031    98117989.479        1535.636          43.000  
G23  25699007.518   135049333.815        2745.289          45.000    25699007.935   105233242.041        2138.852          42.000  
R11  23060983.056   123231000.647        2424.176          51.000    23060979.786    95846392.202        1885.492          49.000  
R09  23732642.655   126730983.955       -4460.160          51.000    23732642.454    98568633.235       -3468.981          48.000  
R10  21418116.621   114170649.118       -1632.234          47.000                                                                  
R21  22660875.758   121263074.621         778.831          52.000    22660872.722    94315786.668         605.805          48.000  
R20  22274606.226   119112411.425       -2748.293          42.000    22274605.289    92643051.357       -2137.613          42.000  
G29  24023028.154   126241948.604       -2197.179          50.000    24023024.548    98370399.194       -1712.206          44.000  
S33  41903941.627   220206748.953        -661.906          42.000  
S31  40949866.179   215193067.405        -661.549          43.000  
G28  24449063.296   128480698.336       -2991.873          44.000    24449061.805   100114805.686       -2331.375          46.000  
E26  29755277.439   156365037.764       -3432.331          38.000    29755275.201   119812670.438       -2629.799          41.000  
E33  26105204.065   137183856.325       -2112.226          46.000    26105206.349   105114954.868       -1618.518          55.000  
E31  25451034.794   133746232.298        -789.771          47.000    25451038.676   102480953.782        -605.149          51.000  
G31  24129957.745   126803701.843        -946.005          47.000    24129954.884    98808217.163        -736.951          43.000  
E14  26980021.754   141781141.447       -3682.948          45.000    26980024.512   108637473.632       -2822.071          54.000  
G05  25866802.368   135930966.809       -1743.921          36.000    25866796.171   105920489.050       -1358.942          37.000  
E24  27407525.661   144027543.710        1416.587          48.000    27407526.240   110358786.770        1085.405          49.000  
E12  26318896.246   138306819.834         698.300          45.000    26318894.977   105975432.064         534.965          48.000  
E10  27768079.888   145922392.003        1633.218          44.000    27768085.055   111810849.877        1251.387          48.000  
> 2024 04 16 04 58 00.0070000  0 23                     
G25  24212581.838   127238005.352       -3190.327          46.000    24212582.664    99146512.871       -2485.988          42.000  
G18  22460787.573   118032271.026        -340.353          47.000    22460785.542    91973166.893        -265.255          49.000  
G26  23950186.644   125859093.634        1961.891          48.000    23950185.793    98072028.472        1528.532          43.000  
G23  25683342.744   134967016.117        2743.005          45.000    25683343.254   105169098.540        2137.556          41.000  
R11  23047419.217   123158516.878        2408.289          52.000    23047415.477    95790015.977        1873.053          49.000  
R09  23757736.198   126864979.867       -4472.568          50.000    23757735.925    98672852.157       -3478.601          48.000  
R10  21427375.897   114220003.818       -1657.882          48.000                                                                  
R21  22656554.104   121239948.845         763.122          52.000    22656551.628    94297799.987         593.486          49.000  
R20  22290054.723   119195022.916       -2759.187          42.000    22290054.360    92707304.741       -2145.558          42.000  
G29  24035582.258   126307921.428       -2200.732          50.000    24035578.747    98421806.609       -1714.872          44.000  
S33  41907721.240   220226610.789        -662.083          42.000  
S31  40953644.607   215212923.092        -661.660          44.000  
G28  24466177.735   128570637.879       -3003.741          43.000    24466176.785   100184888.388       -2340.598          46.000  
E26  29774875.204   156468024.859       -3433.363          38.000    29774872.899   119891582.664       -2630.632          40.000  
E33  26117290.795   137247368.061       -2121.588          45.000    26117292.522   105163619.693       -1625.633          55.000  
E31  25455573.489   133770083.110        -799.984          47.000    25455577.493   102499229.005        -613.009          53.000  
G31  24135413.550   126832374.565        -965.241          47.000    24135412.467    98830559.549        -752.146          45.000  
E14  27001028.263   141891527.391       -3675.800          45.000    27001030.104   108722055.060       -2816.543          54.000  
G05  25876810.381   135983561.377       -1761.688          38.000    25876804.307   105961471.882       -1372.876          36.000  
E24  27399450.719   143985112.711        1412.301          47.000    27399451.715   110326274.713        1082.202          48.000  
E12  26314943.328   138286047.755         686.968          45.000    26314941.994   105959515.811         526.369          48.000  
E10  27758781.118   145873525.341        1624.745          45.000    27758786.231   111773406.696        1244.998          49.000  
R05                                                                  26201403.839                3       1376.153          10.000  
> 2024 04 16 04 58 30.0070000  0 22                     
G25  24230826.587   127333881.644       -3201.555          46.000    24230826.397    99221221.601       -2494.507          41.000  
G18  22462782.291   118042750.083        -358.397          48.000    22462779.325    91981332.378        -279.189          48.000  
G26  23939011.252   125800366.114        1953.289          48.000    23939010.192    98026266.785        1521.968          43.000  
G23  25667689.214   134884757.070        2740.917          46.000    25667689.861   105105000.672        2135.487          43.000  
R11  23033942.622   123086502.712        2392.608          52.000    23033938.756    95734005.011        1860.846          49.000  
R09  23782896.636   126999335.317       -4484.530          50.000    23782896.674    98777350.546       -3488.050          48.000  
R10  21436778.359   114270123.158       -1683.310          48.000                                                                  
R21  22652319.435   121217285.812         747.722          52.000    22652316.539    94280173.206         581.499          48.000  
R20  22305560.728   119277942.144       -2769.000          41.000    22305560.462    92771797.480       -2153.925          42.000  
G29  24048155.087   126373994.149       -2204.180          49.000    24048152.568    98473291.839       -1717.708          44.000  
S33  41911500.252   220246469.640        -661.790          43.000  
S31  40957422.237   215232775.741        -661.747          43.000  
G28  24483358.383   128660927.360       -3015.416          43.000    24483358.360   100255243.766       -2349.815          46.000  
E26  29794475.340   156571024.599       -3433.635          38.000    29794472.836   119970504.567       -2630.612          39.000  
E33  26129427.170   137311147.911       -2130.409          46.000    26129429.523   105212489.962       -1632.423          55.000  
E31  25460169.440   133794232.765        -809.962          47.000    25460173.185   102517733.205        -620.586          52.000  
G31  24140977.817   126861612.027        -983.906          47.000    24140976.403    98853342.009        -766.832          45.000  
E14  27021991.976   142001691.798       -3668.475          46.000    27021993.866   108806466.740       -2810.942          53.000  
G05  25886916.027   136036664.802       -1778.717          38.000    25886910.099   106002851.194       -1386.755          35.000  
E24  27391399.090   143942802.456        1408.231          47.000    27391400.362   110293855.163        1079.152          48.000  
E12  26311053.178   138265605.643         675.875          45.000    26311052.311   105943852.402         517.919          48.000  
E10  27749529.427   145824900.797        1616.801          45.000    27749533.100   111736149.009        1238.889          49.000  
> 2024 04 16 04 59 00.0070000  0 22                     
G25  24249136.241   127430098.471       -3212.607          47.000    24249136.379    99296195.660       -2503.156          41.000  
G18  22464878.996   118053768.085        -375.948          49.000    22464876.060    91989917.901        -292.965          50.000  
G26  23927885.042   125741896.445        1945.005          49.000    23927883.549    97980706.024        1515.548          43.000  
G23  25652047.649   134802559.821        2739.147          45.000    25652047.420   105040951.023        2134.201          41.000  
R11  23020554.948   123014961.711        2377.008          52.000    23020550.952    95678362.033        1848.798          49.000  
R09  23808124.291   127134046.634       -4495.901          49.000    23808124.386    98882125.968       -3496.926          48.000  
R10  21446324.846   114321007.699       -1708.633          49.000                                                                  
R21  22648168.885   121195084.549         732.635          51.000    22648168.076    94262905.566         569.879          49.000  
R20  22321123.889   119361166.063       -2778.858          41.000    22321123.818    92836527.187       -2161.523          42.000  
G29  24060747.828   126440166.245       -2207.104          49.000    24060744.881    98524854.515       -1719.976          44.000  
S33  41915278.609   220266324.508        -661.465          43.000  
S31  40961199.302   215252624.269        -661.359          44.000  
G28  24500606.868   128751563.501       -3026.629          44.000    24500606.111   100325869.253       -2358.395          46.000  
E26  29814077.472   156674035.253       -3433.697          37.000    29814075.110   120049434.835       -2630.708          39.000  
E33  26141615.062   137375194.042       -2139.003          46.000    26141616.931   105261564.297       -1639.055          55.000  
E31  25464821.821   133818681.752        -819.658          48.000    25464825.516   102536466.784        -628.109          52.000  
G31  24146648.171   126891413.196       -1002.476          47.000    24146646.353    98876563.703        -780.990          43.000  
E14  27042912.653   142111633.275       -3660.701          45.000    27042914.934   108890707.622       -2804.974          53.000  
G05  25897117.160   136090275.294       -1795.300          41.000    25897113.402   106044625.598       -1398.633          39.000  
E24  27383371.220   143900614.021        1404.459          48.000    27383372.007   110261528.977        1076.087          48.000  
E12  26307225.423   138245493.277         665.183          45.000    26307224.888   105928441.703         509.724          48.000  
E10  27740321.857   145776518.728        1608.936          43.000    27740326.353   111699077.140        1232.896          49.000  
> 2024 04 16 04 59 30.0070000  0 22                     
G25  24267511.232   127526659.812       -3224.208          46.000    24267511.139    99371438.172       -2512.337          41.000  
G18  22467078.297   118065329.089        -394.109          48.000    22467075.754    91998926.552        -307.167          50.000  
G26  23916809.361   125683692.159        1935.789          48.000    23916807.353    97935352.030        1508.391          42.000  
G23  25636418.283   134720432.117        2736.443          44.000    25636418.453   104976955.446        2132.552          40.000  
R11  23007257.144   122943902.820        2360.815          51.000    23007252.904    95623094.030        1836.108          48.000  
R09  23833418.164   127269115.523       -4508.021          50.000    23833419.249    98987179.389       -3506.150          51.000  
R10  21456014.865   114372661.327       -1734.474          48.000                                                                  
R21  22644107.075   121173349.420         716.949          52.000    22644106.045    94246000.486         557.635          49.000  
R20  22336744.460   119444697.009       -2789.406          40.000    22336744.647    92901495.602       -2169.241          42.000  
G29  24073359.189   126506442.518       -2210.801          49.000    24073356.450    98576498.367       -1722.893          44.000  
S33  41919056.953   220286181.544        -661.419          43.000  
S31  40964977.053   215272475.160        -661.652          44.000  
G28  24517920.713   128842548.449       -3038.313          44.000    24517919.960   100396766.566       -2367.727          45.000  
E26  29833681.407   156777060.476       -3434.429          35.000    29833680.093   120128376.267       -2631.245          38.000  
E33  26153854.569   137439509.811       -2148.300          47.000    26153855.562   105310845.202       -1646.059          55.000  
E31  25469532.946   133843435.924        -830.098          47.000    25469536.017   102555434.200        -636.089          51.000  
G31  24152427.364   126921782.105       -1021.508          47.000    24152424.453    98900227.812        -795.966          43.000  
E14  27063792.166   142221355.980       -3653.554          45.000    27063794.471   108974780.880       -2799.602          54.000  
G05  25907415.957   136144396.514       -1812.488          41.000    25907412.264   106086798.057       -1412.292          37.000  
E24  27375367.282   143858553.930        1399.990          48.000    27375368.174   110229301.140        1072.677          49.000  
E12  26303462.421   138225715.668         653.911          45.000    26303460.911   105913287.459         500.872          48.000  
E10  27731163.566   145728384.994        1600.374          44.000    27731166.843   111662195.544        1226.234          49.000  
