     3.00           OBSERVATION DATA    M: Mixed            RINEX VERSION / TYPE
CONVBIN 2.4.3                           20240416 092942 UTC PGM / RUN BY / DATE 
format: u-blox UBX                                          COMMENT             
log: /home/regis/git/gnsspwv/obsdata/VERT00CHL/2024-04-16/VECOMMENT             
{self.marker}                                               MARKER NAME         
                                                            MARKER NUMBER       
GEODETIC                                                    MARKER TYPE         
{self.observer}     {self.institution}                      OBSERVER / AGENCY   
UNKNOWN             UBLOX-ZED-F9P                           REC # / TYPE / VERS 
UNKNOWN             TWIVSP6037L                             ANT # / TYPE        
  1713381.0000 -5047934.0000 -3490983.0000                  APPROX POSITION XYZ 
        0.0000        0.0000        0.0000                  ANTENNA: DELTA H/E/N
G    8 C1C L1C D1C S1C C2L L2L D2L S2L                      SYS / # / OBS TYPES 
R    8 C1C L1C D1C S1C C2C L2C D2C S2C                      SYS / # / OBS TYPES 
E    8 C1C L1C D1C S1C C7Q L7Q D7Q S7Q                      SYS / # / OBS TYPES 
S    4 C1C L1C D1C S1C                                      SYS / # / OBS TYPES 
  2024    04    16    09    15   00.4930000     GPS         TIME OF FIRST OBS   
  2024    04    16    09    29   30.4930000     GPS         TIME OF LAST OBS    
                                                            END OF HEADER       
> 2024 04 16 09 15 00.4930000  0 29                     
G02  21757688.444   114337428.0831       2072.394          38.000                                                                  
E02  24733290.282                         565.459          27.000    24733300.900    99590744.6081        432.766          37.000  
G23  21594116.683   113478091.4931      -4013.605          46.000    21594109.999    88424508.6521      -3127.368          35.000  
G16  20348660.249   106932950.3851      -3638.390          44.000                                                                  
R23  19267543.987   103068506.1341       1594.253          47.000                                                                  
R13  20529109.808   109624348.3741      -2442.594          39.000    20529109.284    85263368.4741      -1899.486          38.000  
R21  20487733.870   109634181.7131      -2769.955          49.000    20487728.299    85271100.0281      -2154.596          39.000  
R08  18397981.392    98520371.1371       2803.891          51.000    18397974.923    76627001.6991       2180.870          48.000  
G21  20652855.403   108531460.4441       1968.301          44.000                                                                  
S33  37498709.858   197057129.2901       -632.330          42.000  
S31  36545150.806   192046160.1891       -632.913          44.000  
E36  24262866.177   127502194.8061        877.670          45.000    24262869.730    97696546.9821        672.539          49.000  
G10  18698889.001    98263507.9181      -2894.824          49.000    18698887.312    76568964.9111      -2255.719          48.000  
E11  20833514.104   109480890.4931       -356.067          44.000    20833511.252    83888017.1651       -272.826          48.000  
R12  21196217.166                3      -4130.359          18.000    21196271.231                       -3208.055          26.000  
R22  17913437.898    95623275.9611       -735.269          50.000    17913435.985    74373711.5271       -571.818          51.000  
R07  17440994.206    93363031.5001       -918.247          51.000    17440990.548    72615760.4681       -714.244          50.000  
R06  20432533.339   109032031.7351      -4235.145          39.000                                                                  
G27  17929898.678    94222288.1761       -698.285          50.000    17929896.304    73419973.4971       -544.045          47.000  
G08  18704961.459    98295319.0861       1457.831          48.000    18704960.743    76593779.6511       1135.944          47.000  
E04  23120804.701   121500692.1781       1290.289          47.000    23120804.693    93097964.2161        988.650          47.000  
E25  22854932.747   120103434.2531      -1829.359          47.000    22854936.429    92027330.5591      -1401.735          50.000  
E09  25170328.059   132271009.9381       2310.115          42.000    25170329.056   101350489.5901       1770.099          42.000  
E14  25717522.494   135146656.9681       -438.279          42.000    25717524.149   103553905.7601       -335.872          44.000  
E19  24382211.414   128129354.9131      -1358.193          33.000    24382208.505    98177148.3481      -1040.996          39.000  
E24  24344430.781   127930870.0081      -3486.055          44.000    24344431.226    98024971.7281      -2671.068          47.000  
G32  19862279.805   104377032.1591       1245.668          49.000    19862276.628    81332786.5131        970.827          42.000  
E12  23463202.708   123300084.6301      -1898.274          41.000    23463199.456    94476774.6051      -1454.531          48.000  
E10  22169231.387   116500310.2371      -1252.017          47.000    22169232.060    89266674.9621       -959.308          52.000  
> 2024 04 16 09 15 30.4930000  0 29                     
G02  21745860.406   114275263.901        2071.350          41.000                                                                  
E02  24730112.425                         551.765          31.000    24730112.157    99577905.240         422.601          37.000  
G23  21617034.501   113598527.701       -4015.942          45.000    21617028.579    88518355.094       -3128.717          36.000  
G16  20369453.875   107042222.895       -3646.687          45.000                                                                  
R23  19258608.166   103020698.816        1592.625          47.000                                                                  
R13  20542881.581   109697892.712       -2460.976          40.000    20542881.415    85320569.660       -1913.841          38.000  
R21  20503282.737   109717389.917       -2777.484          48.000    20503277.627    85335817.429       -2160.277          40.000  
R08  18382320.822    98436513.348        2786.352          50.000    18382315.708    76561779.105        2167.138          48.000  
G21  20641622.650   108472432.961        1966.818          45.000                                                                  
S33  37502320.283   197076103.558        -633.075          42.000  
S31  36548764.804   192065150.556        -633.421          44.000  
E36  24257857.018   127475876.426         876.500          43.000    24257861.609    97676381.018         671.660          49.000  
G10  18715451.334    98350540.478       -2907.550          50.000    18715449.217    76636782.526       -2265.686          48.000  
E11  20835549.660   109491590.765        -357.991          43.000    20835547.485    83896216.105        -274.346          48.000  
R22  17917594.609    95645458.510        -743.954          52.000    17917591.617    74390964.628        -578.554          51.000  
R07  17446219.533    93391001.405        -946.687          51.000    17446215.645    72637514.875        -736.193          49.000  
R06  20456380.360   109159284.055       -4248.817          39.000                                                                  
G27  17933933.852    94243496.127        -715.779          50.000    17933932.704    73436499.245        -557.825          48.000  
G08  18696675.048    98251773.891        1444.769          47.000    18696674.343    76559848.357        1125.891          47.000  
E04  23113465.693   121462123.101        1280.661          47.000    23113464.839    93068411.334         981.206          47.000  
E25  22865412.147   120158505.077       -1842.138          47.000    22865415.945    92069527.763       -1411.522          50.000  
E09  25157137.314   132201689.118        2311.025          42.000    25157137.595   101297373.626        1770.754          42.000  
E14  25720023.672   135159797.471        -437.914          43.000    25720024.784   103563974.437        -335.570          45.000  
E19  24390003.508   128170318.749       -1372.586          32.000    24390004.025    98208536.224       -1051.731          40.000  
E24  24364336.948   128035479.975       -3488.352          44.000    24364337.824    98105127.417       -2672.898          47.000  
G32  19855213.990   104339898.379        1229.555          49.000    19855210.675    81303851.158         958.096          42.000  
E12  23474041.233   123357048.249       -1899.551          40.000    23474039.393    94520422.036       -1455.529          48.000  
E10  22176383.951   116537896.120       -1254.066          47.000    22176384.583    89295474.553        -960.855          52.000  
R12                                                                  21219416.695                1      -3210.469          29.000  
> 2024 04 16 09 16 00.4930000  0 28                     
G02  21734036.655   114213129.375        2070.752          43.000                                                                  
E02  24727000.500   129941244.096         538.696          32.000    24726997.731    99565366.960         412.808          37.000  
G23  21639964.461   113719028.195       -4017.572          45.000    21639959.429    88612251.664       -3130.109          36.000  
G16  20390295.724   107151747.161       -3654.965          45.000                                                                  
R23  19249679.048   102972938.078        1591.411          46.000                                                                  
R13  20556757.827   109771989.967       -2479.046          40.000    20556758.101    85378200.910       -1928.049          39.000  
R21  20518873.147   109800821.871       -2784.715          48.000    20518867.849    85400708.926       -2165.791          40.000  
R08  18366760.194    98353186.296        2768.964          51.000    18366754.283    76496969.191        2153.737          49.000  
G21  20630397.236   108413444.146        1965.774          45.000                                                                  
S33  37505933.441   197095089.886        -633.091          41.000  
S31  36552381.082   192084153.548        -633.462          44.000  
E36  24252853.705   127449585.898         875.947          44.000    24252858.619    97656236.424         671.191          49.000  
G10  18732085.402    98437952.120       -2919.806          50.000    18732082.881    76704895.531       -2275.269          48.000  
E11  20837597.467   109502352.342        -359.579          44.000    20837595.308    83904462.045        -275.557          48.000  
R22  17921798.458    95667899.424        -752.186          51.000    17921794.697    74408418.727        -585.091          51.000  
R07  17451604.206    93419823.224        -974.786          52.000    17451599.477    72659931.921        -758.095          49.000  
R06  20480303.702   109286947.470       -4262.131          39.000                                                                  
G27  17938070.415    94265231.602        -733.232          50.000    17938068.334    73453435.958        -571.322          47.000  
G08  18688462.984    98208619.325        1432.043          47.000    18688462.470    76526221.463        1115.906          47.000  
E04  23106180.908   121423845.788        1271.122          46.000    23106181.459    93039082.023         973.934          48.000  
E25  22875963.700   120213955.145       -1854.469          47.000    22875967.492    92112015.569       -1421.052          49.000  
E09  25143940.248   132132339.682        2312.282          41.000    25143940.798   101244235.754        1771.696          42.000  
E14  25722522.859   135172927.591        -437.321          44.000    25722523.833   103574035.203        -335.177          45.000  
E19  24397871.686   128211700.850       -1386.282          32.000    24397878.549    98240244.609       -1062.233          39.000  
E24  24384255.351   128140157.479       -3490.286          43.000    24384257.089    98185334.870       -2674.240          46.000  
G32  19848239.247   104303247.909        1213.582          48.000    19848237.338    81275292.411         945.651          43.000  
E12  23484888.245   123414049.772       -1900.739          40.000    23484886.126    94564098.527       -1456.309          47.000  
E10  22183546.854   116575537.409       -1255.344          47.000    22183547.113    89324316.621        -962.037          52.000  
> 2024 04 16 09 16 30.4930000  0 28                     
G02  21722216.456   114151018.241        2069.824          43.000                                                                  
E02  24723960.315   129925267.764         526.425          34.000    24723957.068    99553125.344         403.046          36.000  
G23  21662905.884   113839584.362       -4019.598          45.000    21662901.105    88706191.558       -3131.885          38.000  
G16  20411183.341   107261513.047       -3663.007          44.000                                                                  
R23  19240757.216   102925218.226        1589.830          44.000                                                                  
R13  20570734.740   109846629.962       -2497.114          40.000    20570736.667    85436254.278       -1942.517          40.000  
R21  20534504.969   109884471.328       -2792.135          48.000    20534500.825    85465769.565       -2171.567          42.000  
R08  18351297.986    98270387.288        2750.927          51.000    18351292.383    76432570.038        2139.642          49.000  
G21  20619178.265   108354488.233        1964.583          45.000                                                                  
S33  37509547.565   197114083.643        -633.354          42.000  
S31  36555998.520   192103163.222        -633.720          44.000  
E36  24247854.913   127423316.195         875.225          44.000    24247859.557    97636107.812         670.608          49.000  
G10  18748789.735    98525733.600       -2932.202          49.000    18748787.212    76773296.694       -2284.900          48.000  
E11  20839656.332   109513168.540        -361.623          44.000    20839653.529    83912749.823        -276.987          48.000  
R22  17926049.968    95690593.443        -760.853          51.000    17926045.573    74426069.628        -591.843          50.000  
R07  17457145.103    93449489.420       -1003.086          51.000    17457141.086    72683005.678        -780.235          48.000  
R06  20504302.781   109415010.970       -4275.831          40.000                                                                  
G27  17942305.542    94287489.068        -750.859          50.000    17942303.582    73470779.447        -585.201          48.000  
G08  18680324.439    98165851.316        1418.982          47.000    18680324.109    76492895.767        1105.762          47.000  
E04  23098952.149   121385855.350        1261.313          47.000    23098952.352    93009972.519         966.514          48.000  
E25  22886586.651   120269776.534       -1867.054          47.000    22886590.196    92154787.846       -1430.716          49.000  
E09  25130737.003   132062956.900        2313.090          40.000    25130738.218   101191072.338        1772.240          42.000  
E14  25725018.257   135186041.425        -437.102          43.000    25725019.909   103584083.447        -334.704          46.000  
E19  24405825.684   128253494.249       -1399.867          32.000    24405831.234    98272268.177       -1072.750          39.000  
E24  24404185.780   128244893.908       -3492.156          43.000    24404187.639    98265587.515       -2675.959          46.000  
G32  19841355.987   104267076.821        1197.563          48.000    19841354.580    81247107.199         933.262          44.000  
E12  23495741.009   123471083.007       -1901.965          40.000    23495739.475    94607799.315       -1457.347          47.000  
E10  22190719.186   116613227.677       -1257.340          48.000    22190719.589    89353196.195        -963.427          52.000  
> 2024 04 16 09 17 00.4930000  0 29                     
G02  21710401.763   114088932.650        2069.116          41.000                                                                  
E02  24720996.640   129909681.436         513.273          33.000    24720990.779    99541182.539         392.950          37.000  
G23  21685858.386   113960195.992       -4021.326          45.000    21685853.969    88800174.694       -3133.557          40.000  
G16  20432116.875   107371518.953       -3670.798          44.000                                                                  
R23  19231844.445   102877542.160        1588.351          45.000                                                                  
R13  20584813.838   109921811.164       -2515.127          39.000    20584816.319    85494728.535       -1956.311          39.000  
R21  20550179.174   109968340.781       -2799.501          49.000    20550174.856    85531001.293       -2177.159          44.000  
R08  18335936.476    98188122.425        2733.165          51.000    18335930.594    76368586.318        2125.811          49.000  
G21  20607965.429   108295567.262        1963.516          45.000                                                                  
S33  37513163.633   197133085.675        -633.726          42.000  
S31  36559617.861   192122181.773        -634.210          44.000  
E36  24242859.998   127397068.844         874.690          44.000    24242864.768    97615996.298         670.153          49.000  
G10  18765563.743    98613884.058       -2944.659          49.000    18765561.263    76841985.402       -2294.476          48.000  
E11  20841725.882   109524041.219        -363.303          45.000    20841722.559    83921080.888        -278.353          49.000  
R22  17930349.408    95713543.790        -769.496          50.000    17930344.727    74443919.961        -598.436          50.000  
R07  17462845.444    93480001.098       -1031.222          52.000    17462839.965    72706737.035        -802.114          48.000  
R06  20528376.268   109543472.477       -4288.413          40.000                                                                  
G27  17946641.150    94310271.473        -768.247          50.000    17946639.230    73488531.956        -598.682          47.000  
G08  18672260.370    98123474.309        1405.981          47.000    18672259.818    76459874.754        1095.612          47.000  
E04  23091778.811   121348155.555        1251.843          48.000    23091778.017    92981085.707         959.151          48.000  
E25  22897280.501   120325969.864       -1879.367          47.000    22897283.411    92197845.101       -1439.982          50.000  
E09  25117528.139   131993544.550        2314.257          39.000    25117529.639   101137886.290        1773.180          43.000  
E14  25727510.804   135199141.650        -436.359          43.000    25727512.969   103594121.298        -334.472          47.000  
E19  24413863.602   128295700.259       -1413.640          35.000    24413862.425    98304607.854       -1083.390          38.000  
E24  24424126.820   128349689.249       -3494.166          41.000    24424129.877    98345885.262       -2677.519          47.000  
G32  19834564.996   104231389.713        1181.294          49.000    19834563.813    81219299.127         920.594          44.000  
E12  23506599.945   123528150.047       -1903.019          40.000    23506598.987    94651526.015       -1458.028          47.000  
E10  22197901.272   116650968.930       -1258.820          48.000    22197901.561    89382114.865        -964.716          52.000  
R12                                                                  21289080.606                3      -3217.057          24.000  
> 2024 04 16 09 17 30.4930000  0 29                     
G02  21698591.391   114026872.361        2068.524          39.000                                                                  
E02  24718094.577   129894485.430         500.256          34.000    24718099.506    99529538.810         383.307          38.000  
G23  21708819.558   114080860.650       -4022.632          44.000    21708815.787    88894199.119       -3134.644          41.000  
G16  20453095.678   107481761.980       -3678.497          44.000                                                                  
R23  19222940.232   102829910.774        1587.144          45.000                                                                  
R13  20598993.446   109997529.605       -2532.628          40.000    20598995.286    85553620.645       -1969.722          39.000  
R21  20565893.435   110052430.516       -2806.488          48.000    20565889.644    85596404.460       -2182.896          45.000  
R08  18320673.543    98106395.002        2715.448          51.000    18320668.523    76305020.573        2112.036          49.000  
G21  20596759.621   108236682.131        1962.299          45.000                                                                  
S33  37516781.223   197152096.247        -633.548          42.000  
S31  36563238.026   192141208.329        -634.231          44.000  
E36  24237869.221   127370843.046         874.035          44.000    24237874.043    97595901.309         669.713          49.000  
G10  18782407.967    98702400.484       -2956.451          49.000    18782405.172    76910959.273       -2303.790          47.000  
E11  20843805.707   109534969.985        -364.945          45.000    20843802.232    83929454.925        -279.670          49.000  
R12  21312416.749                2      -4136.977          27.000                                                                  
R22  17934695.299    95736751.609        -777.660          49.000    17934692.450    74461970.468        -604.784          51.000  
R07  17468703.708    93511357.426       -1059.133          52.000    17468698.447    72731125.368        -823.712          49.000  
R06  20552523.694   109672327.489       -4301.650          40.000                                                                  
G27  17951076.398    94333579.375        -785.442          50.000    17951074.356    73506693.990        -611.973          48.000  
G08  18664271.474    98081490.395        1393.140          47.000    18664270.199    76427160.057        1085.535          46.000  
E04  23084659.972   121310747.713        1242.360          48.000    23084659.473    92952422.598         951.904          48.000  
E25  22908043.208   120382533.477       -1891.361          46.000    22908046.890    92241186.070       -1449.231          49.000  
E09  25104313.418   131924104.109        2315.479          38.000    25104315.636   101084678.734        1774.030          43.000  
E14  25730001.189   135212228.627        -436.016          43.000    25730003.376   103604148.954        -334.011          47.000  
E19  24421973.885   128338318.142       -1427.251          36.000    24421971.893    98337263.146       -1093.428          38.000  
E24  24444079.668   128454541.085       -3495.642          42.000    24444082.502    98426226.296       -2678.653          47.000  
G32  19827866.949   104196188.839        1165.602          49.000    19827864.932    81191869.941         908.144          44.000  
E12  23517466.351   123585250.960       -1903.871          41.000    23517465.117    94695278.659       -1458.642          47.000  
E10  22205092.407   116688760.954       -1260.274          48.000    22205093.014    89411072.424        -965.663          53.000  
> 2024 04 16 09 18 00.4930000  0 28                     
G02  21686785.950   113964835.866        2067.609          42.000                                                                  
E02  24715282.545   129879678.942         487.138          36.000    24715283.508    99518193.543         373.544          39.000  
G23  21731790.385   114201574.636       -4024.316          43.000    21731786.595    88988261.978       -3135.767          41.000  
G16  20474118.013   107592237.269       -3686.066          43.000                                                                  
R23  19214044.200   102782323.347        1585.692          46.000                                                                  
R13  20613273.339   110073779.833       -2550.416          40.000    20613274.200    85612926.385       -1983.348          38.000  
R21  20581647.648   110136739.263       -2813.860          47.000    20581644.712    85661977.947       -2188.472          46.000  
R08  18305512.530    98025207.756        2697.449          51.000    18305506.773    76241874.888        2098.041          49.000  
G21  20585561.538   108177831.247        1961.208          46.000                                                                  
S33  37520399.982   197171113.148        -634.065          42.000  
S31  36566860.150   192160241.370        -634.354          44.000  
E36  24232882.413   127344636.824         873.448          44.000    24232886.912    97575821.319         669.247          49.000  
G10  18799321.204    98791278.530       -2968.469          49.000    18799318.196    76980214.918       -2313.055          47.000  
E11  20845895.275   109545953.120        -366.870          45.000    20845892.319    83937870.608        -281.285          49.000  
R22  17939091.042    95760216.472        -786.196          49.000    17939088.421    74480220.942        -611.565          51.000  
R07  17474718.103    93543555.631       -1087.199          52.000    17474714.129    72756168.468        -845.610          49.000  
R06  20576743.969   109801570.461       -4314.492          41.000                                                                  
G27  17955612.438    94357412.151        -803.085          51.000    17955609.579    73525264.946        -625.702          47.000  
G08  18656357.170    98039900.485        1379.803          48.000    18656355.478    76394752.378        1075.116          46.000  
E04  23077597.672   121273632.000        1232.504          48.000    23077597.350    92923983.349         944.294          49.000  
E25  22918877.427   120439464.476       -1903.588          46.000    22918880.467    92284808.532       -1458.598          50.000  
E09  25091093.994   131854635.873        2316.153          38.000    25091096.222   101031449.856        1774.691          43.000  
E14  25732489.117   135225301.425        -435.128          42.000    25732491.034   103614165.751        -333.513          47.000  
E19  24430161.933   128381345.746       -1440.834          36.000    24430160.400    98370232.405       -1104.071          38.000  
E24  24464042.573   128559445.808       -3497.556          42.000    24464045.105    98506607.859       -2679.945          47.000  
G32  19821260.588   104161475.204        1149.087          48.000    19821258.576    81164820.422         895.241          43.000  
E12  23528338.129   123642384.385       -1905.038          40.000    23528336.845    94739056.222       -1459.622          47.000  
E10  22212294.163   116726602.283       -1262.041          48.000    22212294.136    89440067.761        -967.023          53.000  
> 2024 04 16 09 18 30.4930000  0 28                     
G02  21674984.688   113902819.694        2067.096          42.000                                                                  
E02  24712539.423   129865258.770         473.957          36.000    24712539.407    99507144.301         363.421          40.000  
G23  21754770.150   114322331.828       -4025.824          42.000    21754764.828    89082358.495       -3137.091          40.000  
G16  20495183.664   107702937.149       -3693.573          43.000                                                                  
R23  19205156.297   102734777.274        1584.374          46.000                                                                  
R13  20627649.870   110150554.196       -2567.613          38.000    20627650.667    85672639.844       -1997.044          38.000  
R21  20597443.504   110221263.598       -2820.935          48.000    20597440.365    85727719.103       -2193.929          46.000  
R08  18290452.093    97944560.664        2679.283          51.000    18290446.456    76179149.399        2083.842          48.000  
G21  20574368.940   108119011.196        1960.389          47.000                                                                  
S33  37524019.168   197190132.954        -634.009          42.000  
S31  36570482.651   192179276.475        -634.455          44.000  
E36  24227897.567   127318445.680         872.898          43.000    24227903.077    97555752.828         668.834          49.000  
G10  18816301.653    98880511.411       -2980.170          50.000    18816298.442    77049747.091       -2322.247          47.000  
E11  20847993.677   109556986.366        -368.370          43.000    20847991.928    83946324.698        -282.379          49.000  
R22  17943534.162    95783935.727        -794.772          49.000    17943531.918    74498669.271        -618.154          51.000  
R07  17480890.261    93576590.968       -1115.004          52.000    17480884.682    72781862.653        -867.307          49.000  
R06  20601035.805   109931193.029       -4326.762          41.000                                                                  
G27  17960247.036    94381766.630        -820.433          50.000    17960243.628    73544242.475        -639.382          48.000  
G08  18648517.174    97998702.955        1366.846          48.000    18648515.542    76362650.437        1065.118          46.000  
E04  23070589.896   121236806.070        1222.795          48.000    23070589.278    92895766.130         936.906          49.000  
E25  22929779.375   120496757.449       -1915.724          46.000    22929783.041    92328708.345       -1467.940          50.000  
E09  25077868.965   131785137.555        2317.318          39.000    25077870.980   100978197.945        1775.558          43.000  
E14  25734973.735   135238356.737        -434.891          43.000    25734974.994   103624169.122        -333.231          46.000  
E19  24438426.511   128424778.433       -1454.169          36.000    24438424.686    98403512.002       -1114.427          37.000  
E24  24484014.285   128664397.314       -3498.918          42.000    24484017.348    98587025.291       -2681.008          48.000  
G32  19814747.932   104127247.317        1132.975          49.000    19814744.134    81138149.385         882.835          42.000  
E12  23539217.310   123699546.424       -1905.798          41.000    23539214.305    94782855.712       -1460.240          46.000  
E10  22219503.260   116764488.958       -1263.502          47.000    22219503.798    89469097.850        -968.117          53.000  
> 2024 04 16 09 19 00.4930000  0 28                     
G02  21663187.836   113840828.064        2065.948          43.000                                                                  
E02  24709868.160   129851229.621         461.295          35.000    24709869.595    99496394.665         353.215          40.000  
G23  21777758.335   114443134.123       -4027.759          41.000    21777752.999    89176490.185       -3138.269          40.000  
G16  20516291.349   107813862.130       -3701.302          42.000                                                                  
R23  19196277.176   102687277.955        1582.534          45.000                                                                  
R13  20642125.791   110227853.355       -2585.693          37.000    20642125.652    85732761.440       -2010.708          38.000  
R21  20613280.806   110306007.858       -2828.570          50.000    20613276.577    85793631.331       -2199.970          46.000  
R08  18275494.164    97864461.572        2660.779          51.000    18275488.227    76116850.219        2069.575          47.000  
G21  20563182.316   108060226.409        1958.871          47.000                                                                  
S33  37527639.613   197209157.856        -634.257          41.000  
S31  36574106.081   192198319.104        -634.850          44.000  
E36  24222917.255   127292273.270         871.957          43.000    24222922.604    97535698.683         668.190          49.000  
G10  18833349.420    98970100.387       -2992.334          50.000    18833346.727    77119556.744       -2331.610          47.000  
E11  20850102.277   109568073.768        -370.509          43.000    20850101.680    83954820.274        -283.748          49.000  
R22  17948026.201    95807914.827        -803.711          49.000    17948024.022    74517319.706        -625.103          51.000  
R07  17487217.806    93610466.323       -1143.320          51.000    17487213.477    72808210.183        -889.187          50.000  
R06  20625397.844   110061195.094       -4339.734          42.000    20626217.397                3      -3120.759          10.000  
G27  17964981.468    94406647.656        -838.221          49.000    17964978.482    73563630.272        -653.176          47.000  
G08  18640753.232    97957904.333        1353.217          48.000    18640752.144    76330859.323        1054.468          46.000  
E04  23063636.336   121200275.651        1212.507          47.000    23063637.723    92867775.342         929.086          49.000  
E25  22940751.423   120554414.993       -1928.182          46.000    22940754.622    92372887.507       -1477.341          49.000  
E09  25064639.396   131715615.030        2317.717          40.000    25064641.488   100924927.473        1775.778          43.000  
E14  25737455.489   135251399.130        -434.643          44.000    25737456.252   103634162.644        -332.949          45.000  
E19  24446767.850   128468619.808       -1468.345          35.000    24446766.272    98437104.750       -1124.994          35.000  
E24  24503994.843   128769397.655       -3500.837          42.000    24503998.276    98667480.121       -2682.639          49.000  
G32  19808328.369   104093511.722        1116.408          49.000    19808325.242    81111861.966         869.556          44.000  
E12  23550101.032   123756741.532       -1907.305          41.000    23550098.449    94826680.526       -1461.424          46.000  
E10  22226722.478   116802425.157       -1265.467          48.000    22226722.545    89498165.873        -969.612          53.000  
> 2024 04 16 09 19 30.4930000  0 28                     
G02  21651397.859   113778868.580        2064.478          43.000                                                                  
E02  24707273.103   129837599.476         447.533          33.000    24707275.814    99485950.791         342.844          39.000  
G23  21800755.459   114563986.694       -4029.370          41.000    21800750.325    89270661.046       -3139.710          42.000  
G16  20537444.007   107925016.983       -3709.116          43.000                                                                  
R23  19187406.780   102639833.424        1580.305          44.000                                                                  
R13  20656699.857   110305680.440       -2603.200          35.000    20656701.130    85793293.646       -2024.602          41.000  
R21  20629159.503   110390979.903       -2836.447          47.000    20629155.280    85859720.714       -2206.078          46.000  
R08  18260640.851    97784921.619        2641.830          50.000    18260635.037    76054985.863        2054.752          47.000  
G21  20552003.870   108001484.857        1957.122          47.000                                                                  
S33  37531262.801   197228197.719        -634.813          42.000  
S31  36577731.862   192217374.198        -635.508          44.000  
E36  24217942.052   127266126.452         870.914          44.000    24217947.033    97515664.179         667.416          50.000  
G10  18850466.436    99060050.000       -3004.431          49.000    18850463.317    77189647.388       -2341.052          47.000  
E11  20852223.388   109579222.441        -372.802          42.000    20852223.043    83963362.798        -285.474          49.000  
R22  17952569.103    95832162.349        -813.071          50.000    17952566.624    74536178.905        -632.299          51.000  
R07  17493704.355    93645188.189       -1171.678          52.000    17493699.793    72835216.103        -911.414          50.000  
R06  20649832.457   110191580.020       -4352.910          42.000                                                                  
G27  17969817.558    94432063.384        -856.329          49.000    17969814.957    73583434.714        -667.165          48.000  
G08  18633067.147    97917514.275        1339.246          48.000    18633065.744    76299386.558        1043.640          46.000  
E04  23056743.040   121164049.624        1202.283          47.000    23056743.650    92840017.798         921.299          48.000  
E25  22951793.768   120612442.982       -1940.591          46.000    22951796.596    92417350.567       -1487.035          49.000  
E09  25051406.014   131646077.378        2317.719          40.000    25051408.921   100871645.397        1776.120          43.000  
E14  25739936.949   135264436.666        -434.750          45.000    25739937.222   103644152.468        -333.119          45.000  
E19  24455188.862   128512876.401       -1482.731          35.000    24455189.180    98471015.702       -1135.808          37.000  
E24  24523985.963   128874452.004       -3502.815          42.000    24523989.193    98747976.312       -2684.022          48.000  
G32  19802003.937   104060278.246        1099.188          50.000    19802000.989    81085965.790         856.490          44.000  
E12  23560992.202   123813977.140       -1908.579          41.000    23560989.463    94870536.401       -1462.572          46.000  
E10  22233952.244   116840418.201       -1267.634          48.000    22233952.338    89527277.457        -971.268          53.000  
> 2024 04 16 09 20 00.4930000  0 29                     
G02  21639613.037   113716937.118        2064.325          43.000                                                                  
E02  24704753.985   129824365.042         434.829          32.000    24704756.985    99475810.146         333.129          39.000  
G23  21823760.224   114684883.493       -4030.584          39.000    21823756.027    89364866.349       -3140.771          42.000  
G16  20558638.006   108036393.829       -3716.047          43.000                                                                  
R23  19178547.838   102592441.353        1579.113          46.000                                                                  
R13  20671372.088   110384028.387       -2620.225          36.000    20671373.920    85854230.943       -2037.812          40.000  
R21  20645079.517   110476176.275       -2843.370          48.000    20645076.759    85925984.512       -2211.718          46.000  
R08  18245891.352    97705940.381        2623.634          50.000    18245886.300    75993556.020        2040.639          49.000  
G21  20540832.321   107942782.885        1956.256          46.000                                                                  
S33  37534887.383   197247245.719        -635.072          42.000  
S31  36581360.068   192236439.331        -635.519          44.000  
E36  24212970.984   127240000.716         870.482          44.000    24212975.145    97495645.825         667.061          50.000  
G10  18867650.085    99150353.471       -3015.692          48.000    18867647.503    77260013.781       -2349.969          47.000  
E11  20854356.042   109590428.356        -374.404          42.000    20854355.318    83971949.188        -286.762          48.000  
R22  17957160.066    95856675.643        -821.343          48.000    17957158.460    74555244.837        -638.838          51.000  
R07  17500347.771    93680751.469       -1199.175          52.000    17500342.578    72862876.464        -932.722          50.000  
R06  20674336.515   110322339.658       -4364.576          41.000                                                                  
G27  17974755.590    94458010.592        -873.610          49.000    17974752.675    73603653.316        -680.770          48.000  
G08  18625458.805    97877531.231        1326.154          48.000    18625457.174    76268230.959        1033.405          46.000  
E04  23049907.607   121128125.750        1192.576          47.000    23049907.660    92812491.747         913.790          48.000  
E25  22962905.086   120670836.042       -1952.338          46.000    22962908.616    92462093.336       -1495.984          49.000  
E09  25038169.277   131576522.370        2319.072          40.000    25038172.859   100818350.014        1776.943          43.000  
E14  25742416.386   135277465.976        -433.960          44.000    25742416.684   103654135.980        -332.424          45.000  
E19  24463690.283   128557543.717       -1495.398          36.000    24463690.791    98505241.326       -1146.015          39.000  
E24  24543986.346   128979554.303       -3504.106          42.000    24543989.105    98828509.278       -2684.951          48.000  
G32  19795774.991   104027545.346        1082.874          50.000    19795772.636    81060459.705         843.761          44.000  
E12  23571889.752   123871249.556       -1909.613          40.000    23571888.956    94914420.439       -1463.131          47.000  
E10  22241191.785   116878464.218       -1268.913          47.000    22241192.085    89556429.624        -972.389          53.000  
R14                                                                  21037164.884                3        343.308          11.000  
> 2024 04 16 09 20 30.4930000  0 28                     
G02  21627834.100   113655035.179        2062.946          44.000                                                                  
E02  24702311.671   129811528.181         421.605          31.000    24702314.006    99465974.081         322.704          39.000  
G23  21846773.874   114805823.459       -4032.184          37.000    21846769.797    89459105.291       -3141.614          41.000  
G16  20579874.183   108147990.779       -3723.446          43.000                                                                  
R23  19169699.732   102545103.694        1577.096          46.000                                                                  
R13  20686141.529   110462894.017       -2636.971          38.000    20686142.170    85915570.956       -2051.205          39.000  
R21  20661042.609   110561598.502       -2851.072          49.000    20661038.918    85992424.036       -2217.397          44.000  
R08  18231247.510    97627523.159        2604.619          49.000    18231243.295    75932564.818        2025.837          49.000  
G21  20529669.428   107884122.151        1954.762          46.000                                                                  
S33  37538514.280   197266305.663        -635.286          42.000  
S31  36584990.098   192255515.642        -635.942          44.000  
E36  24208003.237   127213896.654         869.839          44.000    24208007.746    97475644.049         666.563          50.000  
G10  18884902.085    99241009.165       -3027.472          49.000    18884898.611    77330654.601       -2359.070          46.000  
E11  20856500.036   109601692.400        -376.583          43.000    20856498.709    83980580.125        -288.465          48.000  
R22  17961803.000    95881457.187        -830.501          49.000    17961800.594    74574519.386        -645.874          51.000  
R07  17507147.579    93717156.046       -1227.383          51.000    17507143.123    72891191.144        -954.654          51.000  
R06  20698909.912   110453470.934       -4377.240          40.000                                                                  
G27  17979794.249    94484491.201        -891.506          48.000    17979791.923    73624287.571        -694.754          48.000  
G08  18617928.219    97837958.631        1312.146          48.000    18617926.626    76237395.182        1022.510          45.000  
E04  23043128.866   121092506.648        1182.386          47.000    23043129.333    92785199.237         905.943          48.000  
E25  22974086.851   120729593.723       -1964.413          47.000    22974089.893    92507115.498       -1505.381          49.000  
E09  25024929.686   131506952.947        2319.100          40.000    25024934.513   100765043.588        1777.207          43.000  
E14  25744893.436   135290488.698        -433.859          44.000    25744895.329   103664114.434        -332.518          45.000  
E19  24472268.320   128602622.042       -1509.507          36.000    24472268.069    98539781.849       -1156.416          38.000  
E24  24563995.608   129084703.561       -3505.621          43.000    24563998.045    98909078.229       -2686.212          48.000  
G32  19789642.030   103995316.550        1065.896          50.000    19789639.640    81035346.415         830.402          45.000  
E12  23582794.773   123928560.014       -1911.109          40.000    23582794.590    94958333.642       -1464.171          47.000  
E10  22248441.863   116916564.353       -1270.800          47.000    22248442.279    89585623.248        -973.700          52.000  
> 2024 04 16 09 21 00.4930000  0 28                     
G02  21616058.957   113593159.626        2062.354          43.000                                                                  
E02  24699940.358   129799086.057         408.478          32.000    24699946.461    99456440.536         312.795          39.000  
G23  21869793.404   114926801.209       -4033.228          36.000    21869791.198    89553373.707       -3142.871          41.000  
G16  20601151.466   108259800.727       -3730.417          45.000                                                                  
R23  19160859.284   102497818.450        1575.538          45.000                                                                  
R13  20701005.233   110542269.979       -2654.286          37.000    20701006.495    85977307.865       -2064.492          38.000  
R21  20677048.148   110647243.558       -2858.196          49.000    20677044.136    86059036.850       -2223.069          44.000  
R08  18216709.424    97549670.451        2585.927          51.000    18216704.911    75872012.807        2011.267          49.000  
G21  20518513.928   107825499.632        1953.588          46.000                                                                  
S33  37542142.503   197285371.288        -635.502          42.000  
S31  36588621.432   192274597.965        -636.022          44.000  
E36  24203039.417   127187810.596         869.493          45.000    24203043.658    97455656.121         666.200          50.000  
G10  18902218.767    99332010.845       -3038.866          48.000    18902216.177    77401565.050       -2368.016          47.000  
E11  20858655.433   109613011.178        -378.132          44.000    20858652.634    83989252.979        -289.625          49.000  
R22  17966495.093    95906504.906        -839.205          47.000    17966493.068    74594000.955        -652.729          51.000  
R07  17514104.391    93754397.314       -1255.094          51.000    17514100.533    72920156.623        -976.092          50.000  
R06  20723551.966   110584966.118       -4388.933          40.000                                                                  
G27  17984934.337    94511502.608        -908.967          49.000    17984932.506    73645335.452        -708.352          48.000  
G08  18610475.381    97798795.551        1298.822          49.000    18610474.292    76206878.527        1012.085          45.000  
E04  23036408.411   121057190.680        1172.313          47.000    23036408.719    92758139.009         898.303          48.000  
E25  22985336.776   120788711.226       -1976.364          47.000    22985339.789    92552413.317       -1514.341          49.000  
E09  25011689.007   131437367.557        2319.872          40.000    25011692.298   100711724.914        1777.676          43.000  
E14  25747369.762   135303502.225        -433.352          43.000    25747372.155   103674085.843        -331.993          46.000  
E19  24480925.168   128648107.528       -1522.670          37.000    24480922.834    98574634.416       -1166.615          37.000  
E24  24584013.081   129189894.404       -3506.960          43.000    24584015.012    98989679.055       -2687.002          48.000  
G32  19783604.532   103963590.956        1049.458          50.000    19783601.819    81010625.196         817.806          44.000  
E12  23593708.970   123985905.508       -1911.681          40.000    23593706.807    95002273.667       -1464.961          47.000  
E10  22255701.186   116954715.378       -1272.212          47.000    22255701.875    89614855.877        -974.886          52.000  
> 2024 04 16 09 21 30.4930000  0 28                     
G02  21604289.410   113531311.708        2060.919          42.000                                                                  
E02  24697658.553   129787040.446         394.569          34.000    24697655.509    99447210.753         302.497          40.000  
G23  21892822.134   115047815.689       -4034.962          36.000    21892819.915    89647670.688       -3143.787          41.000  
G16  20622468.172   108371821.856       -3737.709          45.000                                                                  
R23  19152030.137   102450587.818        1573.184          46.000                                                                  
R13  20715966.715   110622154.011       -2671.847          38.000    20715966.872    86039439.945       -2077.953          39.000  
R21  20693095.555   110733112.847       -2866.299          49.000    20693090.973    86125824.065       -2229.330          44.000  
R08  18202277.858    97472386.871        2566.312          51.000    18202272.505    75811903.394        1996.000          48.000  
G21  20507366.873   107766916.830        1951.764          46.000                                                                  
S33  37545772.146   197304446.393        -636.293          42.000  
S31  36592253.952   192293688.702        -636.770          44.000  
E36  24198078.385   127161743.044         868.454          44.000    24198082.818    97435682.354         665.462          49.000  
G10  18919600.857    99423356.790       -3050.696          48.000    18919599.260    77472743.744       -2377.170          48.000  
E11  20860819.953   109624385.502        -380.026          44.000    20860817.264    83997968.412        -291.274          49.000  
R22  17971237.973    95931821.089        -848.676          49.000    17971235.775    74613691.316        -660.016          51.000  
R07  17521218.639    93792475.345       -1283.433          52.000    17521213.084    72949772.911        -998.204          50.000  
R06  20748261.484   110716822.107       -4401.757          37.000                                                                  
G27  17990175.821    94539046.442        -927.270          49.000    17990174.327    73666798.186        -722.521          49.000  
G08  18603101.847    97760045.390        1284.589          48.000    18603100.440    76176683.617        1000.928          46.000  
E04  23029746.934   121022180.385        1161.708          47.000    23029746.202    92731312.993         890.102          48.000  
E25  22996655.038   120848188.114       -1988.623          46.000    22996658.218    92597986.511       -1523.804          50.000  
E09  24998444.740   131367768.919        2320.050          41.000    24998447.837   100658396.104        1777.592          43.000  
E14  25749845.598   135316508.071        -433.519          43.000    25749847.523   103684051.354        -332.267          46.000  
E19  24489657.232   128694000.511       -1536.514          35.000    24489656.543    98609799.234       -1177.583          39.000  
E24  24604037.906   129295125.723       -3508.425          42.000    24604040.609    99070310.889       -2688.393          48.000  
G32  19777664.166   103932372.004        1032.004          51.000    19777661.391    80986298.792         804.165          44.000  
E12  23604628.461   124043287.190       -1913.371          41.000    23604626.145    95046241.469       -1466.269          47.000  
E10  22262971.478   116992918.401       -1274.440          47.000    22262971.620    89644128.335        -976.526          52.000  
> 2024 04 16 09 22 00.4930000  0 28                     
G02  21592526.112   113469497.517        2059.564          43.000                                                                  
E02  24695439.564   129775397.912         381.325          34.000    24695440.278    99438289.812         292.263          40.000  
G23  21915859.672   115168870.720       -4035.701          38.000    21915856.384    89741999.298       -3144.733          43.000  
G16  20643826.549   108484056.730       -3744.712          46.000                                                                  
R23  19143212.906   102403419.023        1571.260          47.000                                                                  
R13  20731023.647   110702548.205       -2688.618          37.000    20731021.461    86101968.781       -2090.570          38.000  
R21  20709184.423   110819212.758       -2873.823          48.000    20709180.698    86192790.657       -2235.017          43.000  
R08  18187953.142    97395682.369        2547.180          52.000    18187948.754    75752244.429        1981.102          50.000  
G21  20496227.309   107708380.175        1950.519          46.000                                                                  
S33  37549404.245   197323533.842        -636.612          42.000  
S31  36595889.773   192312793.879        -636.801          44.000  
E36  24193122.790   127135699.583         867.868          44.000    24193126.802    97415727.039         664.917          49.000  
G10  18937049.592    99515050.211       -3062.130          48.000    18937047.672    77544193.187       -2386.232          48.000  
E11  20862995.925   109635821.277        -382.165          44.000    20862993.238    84006730.927        -292.853          49.000  
R22  17976031.132    95957412.967        -857.524          48.000    17976030.240    74633596.188        -667.105          52.000  
R07  17528488.789    93831394.751       -1311.310          52.000    17528483.422    72980043.608       -1019.888          50.000  
R06  20773039.044   110849040.922       -4413.425          37.000                                                                  
G27  17995519.200    94567129.467        -945.100          48.000    17995518.172    73688681.086        -736.402          48.000  
G08  18595808.212    97721716.449        1270.721          49.000    18595807.028    76146816.939         990.106          46.000  
E04  23023144.913   120987483.429        1151.198          48.000    23023143.542    92704727.071         882.185          48.000  
E25  23008043.153   120908028.885       -2000.850          46.000    23008045.372    92643838.523       -1533.036          49.000  
E09  24985198.667   131298164.869        2320.346          40.000    24985202.644   100605063.165        1777.891          43.000  
E14  25752320.485   135329512.954        -433.581          44.000    25752322.401   103694016.134        -332.219          47.000  
E19  24498468.919   128740305.980       -1550.549          36.000    24498468.849    98645280.078       -1187.910          41.000  
E24  24624072.512   129400401.501       -3509.914          43.000    24624073.897    99150976.762       -2689.350          48.000  
G32  19771820.998   103901668.052        1015.058          50.000    19771819.108    80962373.703         790.843          44.000  
E12  23615556.204   124100711.403       -1914.898          41.000    23615553.805    95090241.826       -1467.192          47.000  
E10  22270252.202   117031179.478       -1276.333          47.000    22270252.466    89673445.298        -978.021          52.000  
> 2024 04 16 09 22 30.4930000  0 28                     
G02  21580769.216   113407714.922        2058.886          43.000                                                                  
E02  24693294.155   129764156.350         367.830          34.000    24693300.761    99429676.152         282.006          40.000  
G23  21938902.283   115289961.651       -4037.069          38.000    21938899.379    89836355.865       -3145.613          44.000  
G16  20665223.150   108596499.226       -3751.585          45.000                                                                  
R23  19134406.356   102356310.964        1569.393          47.000                                                                  
R13  20746171.158   110783445.588       -2704.972          37.000    20746169.799    86164889.000       -2103.719          37.000  
R21  20725316.908   110905541.239       -2881.484          49.000    20725314.015    86259934.998       -2241.043          44.000  
R08  18173737.187    97319557.986        2527.923          51.000    18173732.306    75693036.660        1965.975          49.000  
G21  20485096.336   107649887.967        1949.076          45.000                                                                  
S33  37553038.723   197342633.348        -636.764          42.000  
S31  36599527.244   192331910.033        -637.412          44.000  
E36  24188170.618   127109677.130         867.113          44.000    24188174.930    97395787.843         664.402          49.000  
G10  18954563.452    99607085.574       -3073.573          49.000    18954561.316    77615909.083       -2394.883          48.000  
E11  20865182.258   109647315.825        -384.010          43.000    20865180.503    84015538.463        -294.267          48.000  
R22  17980876.649    95983279.448        -866.783          47.000    17980876.159    74653714.578        -674.161          52.000  
R07  17535915.284    93871151.567       -1339.124          51.000    17535910.364    73010965.612       -1041.667          50.000  
R06  20797882.842   110981615.583       -4424.458          35.000                                                                  
G27  18000965.990    94595749.772        -962.899          49.000    18000964.801    73710982.646        -750.306          49.000  
G08  18588594.346    97683808.490        1256.494          48.000    18588593.905    76117278.293         979.053          46.000  
E04  23016601.554   120953098.716        1140.895          48.000    23016600.989    92678380.397         874.165          48.000  
E25  23019498.004   120968229.356       -2012.584          46.000    23019501.290    92689966.185       -1542.207          49.000  
E09  24971952.894   131228554.549        2320.400          41.000    24971955.931   100551725.436        1778.043          43.000  
E14  25754794.645   135342514.735        -433.290          44.000    25754796.225   103703978.541        -331.958          46.000  
E19  24507359.343   128787020.811       -1563.676          38.000    24507358.278    98681074.588       -1198.595          41.000  
E24  24644112.951   129505716.973       -3511.180          43.000    24644114.498    99231673.049       -2690.390          48.000  
G32  19766076.293   103871478.859         997.672          50.000    19766074.893    80938849.712         777.294          46.000  
E12  23626491.444   124158175.641       -1916.168          42.000    23626488.712    95134272.883       -1468.250          47.000  
E10  22277543.848   117069496.097       -1278.178          47.000    22277543.963    89702804.803        -979.359          52.000  
> 2024 04 16 09 23 00.4930000  0 28                     
G02  21569016.780   113345951.528        2058.365          44.000                                                                  
E02  24691230.542   129753304.225         355.002          35.000    24691235.200    99421360.946         272.224          41.000  
G23  21961948.358   115411074.308       -4037.984          36.000    21961946.215    89930729.347       -3145.895          43.000  
G16  20686655.920   108709133.452       -3757.691          43.000                                                                  
R23  19125609.358   102309252.085        1567.837          46.000                                                                  
R13  20761412.885   110864830.211       -2721.176          37.000    20761410.479    86228188.147       -2115.910          37.000  
R21  20741491.388   110992085.918       -2888.257          49.000    20741487.470    86327247.510       -2246.551          44.000  
R08  18159627.691    97244004.943        2508.909          50.000    18159623.324    75634273.218        1951.365          50.000  
G21  20473971.391   107591428.804        1948.235          45.000                                                                  
S33  37556673.088   197361731.964        -636.784          42.000  
S31  36603164.933   192351025.213        -637.145          44.000  
E36  24183220.142   127083663.002         867.002          44.000    24183224.665    97375854.981         664.280          49.000  
G10  18972139.690    99699448.063       -3084.066          49.000    18972136.808    77687879.887       -2403.036          47.000  
E11  20867378.403   109658856.819        -385.497          43.000    20867376.550    84024381.607        -295.427          48.000  
R22  17985772.770    96009409.311        -875.451          48.000    17985770.848    74674037.836        -680.844          52.000  
R07  17543495.987    93911732.017       -1366.357          52.000    17543491.332    73042528.239       -1062.812          50.000  
R06  20822790.075   111114529.728       -4435.823          35.000                                                                  
G27  18006512.696    94624895.848        -980.253          49.000    18006510.967    73733693.865        -763.807          48.000  
G08  18581458.967    97646311.687        1242.954          47.000    18581458.088    76088060.016         968.621          46.000  
E04  23010115.852   120919015.732        1131.007          48.000    23010115.276    92652264.903         866.668          49.000  
E25  23031018.805   121028775.906       -2023.945          45.000    23031022.362    92736359.032       -1550.874          49.000  
E09  24958703.536   131158927.631        2321.294          42.000    24958706.041   100498374.972        1778.580          43.000  
E14  25757265.380   135355501.962        -432.642          43.000    25757267.314   103713929.831        -331.606          46.000  
E19  24516322.179   128834132.247       -1576.852          37.000    24516322.530    98717172.998       -1208.234          41.000  
E24  24664159.671   129611057.930       -3511.897          44.000    24664160.122    99312388.888       -2690.844          48.000  
G32  19760428.028   103841794.614         981.083          50.000    19760426.427    80915719.165         764.501          46.000  
E12  23637431.491   124215668.138       -1916.796          41.000    23637429.226    95178325.582       -1468.879          47.000  
E10  22284843.199   117107856.211       -1279.302          47.000    22284843.619    89732197.661        -980.315          52.000  
> 2024 04 16 09 23 30.4930000  0 28                     
G02  21557268.326   113284209.291        2057.616          44.000                                                                  
E02  24689243.192   129742843.617         341.954          35.000    24689243.964    99413345.728         262.246          40.000  
G23  21984999.814   115532207.999       -4037.961          34.000    21984997.188    90025119.280       -3146.797          43.000  
G16  20708125.401   108821958.611       -3764.128          43.000                                                                  
R23  19116821.365   102262245.378        1565.910          45.000                                                                  
R13  20776743.866   110946699.545       -2737.021          33.000    20776742.696    86291864.379       -2128.848          37.000  
R21  20757705.231   111078848.943       -2895.786          49.000    20757699.879    86394729.823       -2252.324          42.000  
R08  18145625.698    97169028.381        2489.506          50.000    18145622.092    75575958.136        1936.320          50.000  
G21  20462853.732   107533004.085        1946.968          46.000                                                                  
S33  37560307.835   197380831.993        -636.779          42.000  
S31  36606802.523   192370140.479        -637.023          44.000  
E36  24178271.620   127057658.303         866.555          43.000    24178276.639    97355929.351         664.013          49.000  
G10  18989778.416    99792136.287       -3094.925          49.000    18989774.737    77760104.506       -2411.626          47.000  
E11  20869584.424   109670445.635        -387.306          44.000    20869581.590    84033261.390        -296.825          48.000  
R22  17990717.588    96035805.551        -884.394          48.000    17990715.553    74694568.247        -687.836          51.000  
R07  17551230.926    93953136.314       -1393.855          52.000    17551225.658    73074731.604       -1084.146          50.000  
R06  20847762.421   111247780.590       -4447.611          36.000                                                                  
G27  18012160.146    94654569.780        -998.025          50.000    18012157.003    73756816.420        -777.489          48.000  
G08  18574402.452    97609229.857        1228.947          48.000    18574401.245    76059165.106         957.641          45.000  
E04  23003687.411   120885237.417        1120.813          48.000    23003687.710    92626382.869         858.724          50.000  
E25  23042606.658   121089668.441       -2035.483          45.000    23042609.806    92783016.969       -1559.737          49.000  
E09  24945452.123   131089287.298        2321.580          41.000    24945453.519   100445014.225        1778.668          43.000  
E14  25759733.646   135368476.641        -432.397          42.000    25759736.443   103723871.491        -331.176          46.000  
E19  24525364.720   128881641.033       -1590.328          38.000    24525362.644    98753575.870       -1218.675          41.000  
E24  24684209.583   129716423.730       -3512.704          45.000    24684210.359    99393123.761       -2691.470          48.000  
G32  19754874.601   103812619.022         963.983          49.000    19754873.634    80892985.013         751.112          45.000  
E12  23648377.019   124273190.462       -1917.842          41.000    23648375.796    95222401.125       -1469.623          47.000  
E10  22292151.585   117146261.361       -1280.937          47.000    22292152.043    89761625.019        -981.552          53.000  
> 2024 04 16 09 24 00.4930000  0 29                     
G02  21545523.135   113222492.855        2056.835          44.000                                                                  
E02  24687325.867   129732779.449         328.734          34.000    24687328.627    99405634.269         252.035          40.000  
G23  22008053.283                3      -4038.880          32.000    22008052.526    90119527.391       -3147.057          43.000  
G16  20729632.062   108934975.271       -3770.340          43.000                                                                  
R23  19108044.884   102215296.347        1563.980          45.000                                                                  
R13  20792165.372   111029054.324       -2753.309          36.000    20792165.508    86355918.149       -2141.478          38.000  
R21  20773959.082   111165834.991       -2903.265          48.000    20773954.090    86462385.652       -2258.316          42.000  
R08  18131734.432    97094637.048        2469.974          50.000    18131729.400    75518098.211        1921.017          49.000  
G21  20451743.584   107474618.610        1945.613          46.000                                                                  
S33  37563942.545   197399933.261        -636.708          42.000  
S31  36610440.977   192389260.764        -637.373          44.000  
E36  24173325.457   127031666.823         866.190          43.000    24173330.668    97336013.838         663.698          50.000  
G10  19007478.622    99885151.761       -3106.026          50.000    19007475.276    77832584.116       -2420.184          47.000  
E11  20871799.692   109682086.505        -388.735          44.000    20871797.067    84042181.067        -297.954          48.000  
R22  17995713.031    96062473.706        -893.518          47.000    17995711.772    74715310.138        -694.962          52.000  
R07  17559119.598    93995367.139       -1421.497          52.000    17559114.892    73107577.826       -1105.551          51.000  
R06  20872797.511   111381368.440       -4458.916          35.000                                                                  
G27  18017907.684    94684776.466       -1015.875          49.000    18017904.720    73780354.090        -791.501          47.000  
G08  18567426.027    97572569.692        1214.951          48.000    18567424.928    76030598.767         946.801          45.000  
E04  22997318.532   120851769.728        1110.449          47.000    22997319.175    92600738.854         850.871          50.000  
E25  23054260.929   121150909.765       -2047.106          46.000    23054263.434    92829942.175       -1568.569          49.000  
E09  24932198.446   131019639.711        2321.713          42.000    24932200.218   100391647.930        1778.946          43.000  
E14  25762201.131   135381443.790        -432.370          41.000    25762204.611   103733807.366        -331.142          46.000  
E19  24534482.302   128929550.461       -1603.359          39.000    24534480.559    98790285.724       -1228.614          42.000  
E24  24704265.130   129821816.650       -3513.414          44.000    24704265.419    99473879.416       -2692.122          47.000  
G32  19749420.723   103783958.826         946.566          49.000    19749418.923    80870652.438         737.551          45.000  
E12  23659329.494   124330747.285       -1919.005          41.000    23659328.216    95266503.102       -1470.434          47.000  
E10  22299469.108   117184715.993       -1282.529          46.000    22299469.810    89791090.292        -982.740          53.000  
R14                                                                  21915729.354                3        218.010          11.000  
> 2024 04 16 09 24 30.4930000  0 28                     
G02  21533782.948   113160801.683        2056.012          43.000                                                                  
E02  24685485.569   129723111.531         315.487          33.000    24685489.185    99398226.377         241.809          40.000  
G23  22031113.933   115774276.7721      -4039.461          36.000    22031111.638    90213951.585       -3147.888          43.000  
G16  20751173.880   109048178.710       -3776.384          44.000                                                                  
R23  19099279.543   102168405.656        1562.044          47.000                                                                  
R13  20807677.893   111111889.666       -2768.760          38.000    20807678.171    86420345.647       -2153.456          37.000  
R21  20790255.664   111253043.468       -2910.772          48.000    20790250.197    86530214.447       -2263.567          41.000  
R08  18117953.094    97020832.979        2450.328          51.000    18117946.716    75460695.102        1905.772          48.000  
G21  20440641.152   107416272.213        1944.082          47.000                                                                  
S33  37567578.303   197419040.238        -636.827          42.000  
S31  36614079.967   192408384.181        -637.229          44.000  
E36  24168382.351   127005687.394         865.842          43.000    24168386.890    97316107.577         663.470          49.000  
G10  19025239.863    99978490.902       -3116.609          49.000    19025236.907    77905315.956       -2428.458          47.000  
E11  20874024.443   109693778.586        -390.437          44.000    20874022.084    84051139.961        -299.257          48.000  
R22  18000760.097    96089414.339        -902.597          47.000    18000758.335    74736263.982        -701.991          52.000  
R07  17567161.922    94038422.290       -1448.863          51.000    17567158.554    73141065.197       -1126.838          51.000  
R06  20897894.776   111515288.358       -4470.060          35.000                                                                  
G27  18023757.444    94715515.628       -1033.425          50.000    18023754.165    73804306.635        -805.293          47.000  
G08  18560530.614    97536332.685        1200.909          48.000    18560528.873    76002362.164         935.791          45.000  
E04  22991009.239   120818613.435        1100.071          47.000    22991009.589    92575333.440         842.734          50.000  
E25  23065979.788   121212497.496       -2058.611          45.000    23065983.024    92877132.821       -1577.427          49.000  
E09  24918944.305   130949985.865        2321.877          43.000    24918945.538   100338276.830        1779.195          43.000  
E14  25764667.531   135394403.197        -431.829          41.000    25764670.762   103743737.302        -330.908          47.000  
E19  24543675.451   128977859.216       -1616.881          40.000    24543673.224    98827301.564       -1238.978          43.000  
E24  24724325.702   129927233.838       -3514.252          44.000    24724325.669    99554653.668       -2692.837          47.000  
G32  19744065.254   103755815.457         929.511          49.000    19744063.969    80848722.588         724.252          45.000  
E12  23670287.854   124388337.989       -1920.176          40.000    23670287.007    95310631.029       -1471.283          47.000  
E10  22306795.269   117223219.458       -1284.132          46.000    22306796.701    89820592.974        -984.037          52.000  
> 2024 04 16 09 25 00.4930000  0 28                     
G02  21522048.011   113099134.928        2055.133          44.000                                                                  
E02  24683721.081   129713839.154         302.048          34.000    24683724.956    99391121.527         231.895          41.000  
G23  22054177.288   115895471.835       -4040.536          36.000    22054174.102    90308389.305       -3148.278          43.000  
G16  20772750.831   109161565.377       -3782.562          43.000                                                                  
R23  19090525.871   102121573.278        1559.976          48.000                                                                  
R13  20823279.343   111195200.250       -2785.210          38.000    20823279.434    86485142.860       -2166.312          37.000  
R21  20806595.440   111340473.783       -2918.198          49.000    20806590.068    86598215.818       -2269.646          44.000  
R08  18104280.070    96947619.039        2430.367          51.000    18104275.180    75403750.991        1890.354          49.000  
G21  20429545.526   107357964.515        1942.894          47.000                                                                  
S33  37571214.818   197438150.468        -636.819          42.000  
S31  36617719.396   192427510.408        -637.714          44.000  
E36  24163440.212   126979718.480         865.201          43.000    24163444.894    97296209.408         663.054          49.000  
G10  19043061.910   100072149.798       -3127.427          48.000    19043059.112    77978296.970       -2436.995          48.000  
E11  20876259.327   109705520.623        -392.188          45.000    20876256.500    84060137.141        -300.681          48.000  
R22  18005856.743    96116627.578        -911.800          45.000    18005856.621    74757429.847        -709.182          52.000  
R07  17575358.544    94082298.824       -1476.337          51.000    17575355.279    73175191.439       -1148.253          51.000  
R06  20923052.653   111649534.875       -4480.165          34.000                                                                  
G27  18029707.772    94746786.910       -1051.425          49.000    18029705.357    73828673.857        -819.208          48.000  
G08  18553715.619    97500520.017        1186.454          48.000    18553713.485    75974456.194         924.349          44.000  
E04  22984758.160   120785768.863        1089.523          46.000    22984758.776    92550166.862         834.791          49.000  
E25  23077764.361   121274428.927       -2070.276          44.000    23077768.507    92924586.781       -1586.278          50.000  
E09  24905688.487   130880326.463        2321.917          43.000    24905689.997   100284901.470        1779.108          44.000  
E14  25767132.045   135407354.165        -431.621          42.000    25767135.145   103753660.771        -330.742          47.000  
E19  24552943.422   129026565.385       -1630.009          40.000    24552941.130    98864621.890       -1249.080          42.000  
E24  24744389.124   130032672.060       -3515.028          43.000    24744389.936    99635444.043       -2693.323          46.000  
G32  19738808.711   103728190.047         912.228          50.000    19738806.925    80827196.339         710.781          45.000  
E12  23681253.312   124445961.747       -1921.435          41.000    23681252.483    95354784.311       -1472.399          47.000  
E10  22314131.366   117261770.712       -1285.978          46.000    22314132.619    89850132.268        -985.335          52.000  
> 2024 04 16 09 25 30.4930000  0 28                     
G02  21510317.815   113037488.134        2054.521          44.000                                                                  
E02  24682034.814   129704958.243         289.785          36.000    24682035.174    99384316.646         221.732          41.000  
G23  22077243.326   116016677.645       -4040.327          33.000    22077238.499    90402835.378       -3148.464          44.000  
G16  20794361.264   109275127.033       -3788.247          43.000                                                                  
R23  19081780.713   102074795.781        1558.194          47.000                                                                  
R13  20838968.199   111278977.683       -2800.192          39.000    20838968.263    86550303.044       -2177.448          39.000  
R21  20822974.130   111428121.187       -2925.211          48.000    20822970.457    86666385.983       -2275.162          45.000  
R08  18090717.712    96874994.210        2410.890          50.000    18090712.488    75347264.998        1875.086          47.000  
G21  20418455.901   107299691.578        1941.651          47.000                                                                  
S33  37574850.604   197457256.492        -636.825          42.000  
S31  36621358.715   192446634.467        -637.512          44.000  
E36  24158499.249   126953754.913         865.396          43.000    24158503.830    97276315.345         663.121          49.000  
G10  19060943.205   100166120.926       -3137.402          47.000    19060941.878    78051521.274       -2444.801          48.000  
E11  20878502.566   109717307.880        -393.744          45.000    20878499.326    84069168.943        -301.722          48.000  
R22  18011005.613    96144109.973        -920.603          46.000    18011005.424    74778805.071        -716.124          52.000  
R07  17583708.180    94126990.584       -1503.312          51.000    17583703.426    73209951.724       -1169.239          51.000  
R06  20948269.692                       -4490.592          32.000                                                                  
G27  18035758.756    94778586.032       -1068.845          48.000    18035756.480    73853452.373        -832.896          47.000  
G08  18546981.330    97465129.232        1172.685          48.000    18546978.599    75946878.940         913.842          44.000  
E04  22978567.897   120753232.899        1079.392          48.000    22978567.716    92525236.762         826.996          49.000  
E25  23089614.876   121336697.776       -2081.273          45.000    23089618.038    92972299.273       -1594.719          50.000  
E09  24892431.520   130810658.581        2322.327          44.000    24892433.173   100231519.603        1779.500          45.000  
E14  25769593.669   135420292.755        -431.085          42.000    25769597.002   103763574.751        -330.285          47.000  
E19  24562286.449   129075663.276       -1643.134          40.000    24562283.670    98902242.393       -1259.053          41.000  
E24  24764455.896   130138124.548       -3515.068          43.000    24764456.764    99716245.370       -2693.558          46.000  
G32  19733649.821   103701080.181         895.004          50.000    19733647.936    80806071.803         697.371          44.000  
E12  23692225.119   124503614.147       -1922.072          41.000    23692223.455    95398959.503       -1472.823          47.000  
E10  22321475.474   117300365.184       -1287.130          46.000    22321476.957    89879704.674        -986.272          52.000  
> 2024 04 16 09 26 00.4930000  0 28                     
G02  21498591.243   112975863.207        2053.405          45.000                                                                  
E02  24680418.989   129696471.014         275.983          35.000    24680420.548    99377813.414         211.563          42.000  
G23  22100309.784   116137893.984       -4041.094          33.000    22100304.862    90497289.572       -3148.951          44.000  
G16  20816003.533   109388861.695       -3794.185          43.000                                                                  
R23  19073046.092   102028076.632        1556.110          47.000                                                                  
R13  20854743.026   111363219.686       -2815.993          39.000    20854743.853    86615824.604       -2190.289          38.000  
R21  20839394.673   111515987.872       -2932.816          49.000    20839389.967    86734726.731       -2281.381          44.000  
R08  18077266.569    96802963.505        2390.754          51.000    18077261.138    75291241.178        1859.448          48.000  
G21  20407373.452   107241455.324        1940.247          45.000                                                                  
S33  37578486.458   197476363.320        -637.175          42.000  
S31  36624997.672   192465757.303        -637.800          44.000  
E36  24153560.354   126927798.008         864.810          43.000    24153564.232    97256426.374         662.637          49.000  
G10  19078885.380   100260403.328       -3148.330          48.000    19078883.056    78124988.092       -2453.207          48.000  
E11  20880754.062   109729142.041        -395.680          45.000    20880751.360    84078236.691        -303.337          48.000  
R22  18016205.367    96171864.740        -930.198          48.000    18016204.512    74800392.103        -723.365          52.000  
R07  17592209.143    94172497.781       -1530.770          51.000    17592204.503    73245346.260       -1190.667          51.000  
R06  20973545.594                       -4501.542          31.000                                                                  
G27  18041910.456    94810915.404       -1086.788          47.000    18041908.586    73878644.106        -846.882          48.000  
G08  18540327.796    97430164.532        1157.970          48.000    18540325.160    75919633.726         902.257          44.000  
E04  22972435.395   120721008.864        1068.510          48.000    22972435.668    92500545.674         818.778          49.000  
E25  23101528.097   121399304.223       -2092.826          44.000    23101531.714    93020270.444       -1603.645          50.000  
E09  24879173.434   130740985.766        2322.152          45.000    24879175.328   100178133.975        1779.236          47.000  
E14  25772054.684   135433221.289        -431.069          43.000    25772057.067   103773481.036        -330.378          47.000  
E19  24571703.295   129125154.167       -1656.528          40.000    24571701.993    98940164.037       -1269.193          42.000  
E24  24784526.135   130243591.028       -3516.146          43.000    24784526.159    99797057.400       -2694.200          46.000  
G32  19728589.788   103674489.849         877.226          50.000    19728587.988    80785352.088         683.632          45.000  
E12  23703201.892   124561297.212       -1923.528          41.000    23703200.044    95443158.220       -1474.036          47.000  
E10  22328828.513   117339004.781       -1289.139          46.000    22328829.834    89909311.660        -987.705          52.000  
> 2024 04 16 09 26 30.4930000  0 28                     
G02  21486869.461   112914265.438        2052.836          45.000                                                                  
E02  24678877.362   129688382.908         263.626          34.000    24678881.581    99371616.056         201.555          42.000  
G23  22123380.153   116259123.617       -4041.284          35.000    22123373.652    90591754.190       -3148.813          43.000  
G16  20837680.550   109502770.738       -3799.639          44.000                                                                  
R23  19064323.758   101981421.701        1554.344          47.000                                                                  
R13  20870606.265   111447927.125       -2831.186          37.000    20870607.796    86681708.166       -2201.770          38.000  
R21  20855856.561   111604079.288       -2939.992          49.000    20855851.271    86803242.267       -2286.560          44.000  
R08  18063927.877    96731536.165        2370.758          51.000    18063922.770    75235686.697        1843.829          50.000  
G21  20396299.434   107183261.663        1939.182          45.000                                                                  
S33  37582122.831   197495473.312        -636.907          42.000  
S31  36628637.217   192484884.898        -637.539          44.000  
E36  24148622.256   126901852.215         864.760          43.000    24148627.061    97236545.903         662.625          49.000  
G10  19096886.779   100354999.101       -3158.216          49.000    19096884.162    78198699.089       -2460.963          48.000  
E11  20883015.672   109741027.988        -396.985          44.000    20883013.207    84087344.135        -304.184          48.000  
R22  18021457.961    96199898.085        -938.967          49.000    18021456.060    74822195.833        -730.331          52.000  
R07  17600863.040    94218823.632       -1557.728          51.000    17600858.621    73281377.511       -1211.578          51.000  
R06  20998880.574   112054175.021       -4511.592          33.000                                                                  
G27  18048164.076    94843780.323       -1104.337          48.000    18048162.751    73904253.151        -860.550          48.000  
G08  18533756.347    97395633.071        1144.037          48.000    18533753.992    75892726.134         891.399          44.000  
E04  22966364.340   120689103.174        1058.234          48.000    22966363.665    92476098.507         810.854          49.000  
E25  23113507.166   121462251.602       -2103.897          45.000    23113509.938    93068502.829       -1611.989          50.000  
E09  24865915.419   130671314.762        2322.351          44.000    24865917.540   100124749.742        1779.594          47.000  
E14  25774513.883   135446145.273        -430.605          43.000    25774515.759   103783383.840        -329.931          46.000  
E19  24581196.749   129175041.793       -1669.314          40.000    24581195.318    98978389.661       -1279.234          42.000  
E24  24804598.043   130349074.320       -3516.182          42.000    24804599.080    99877882.324       -2694.177          46.000  
G32  19723630.670   103648426.150         860.070          51.000    19723627.389    80765042.783         670.158          43.000  
E12  23714186.402   124619016.129       -1924.559          42.000    23714184.152    95487384.375       -1474.660          47.000  
E10  22336190.986   117377694.534       -1290.337          46.000    22336192.217    89938957.083        -988.803          52.000  
> 2024 04 16 09 27 00.4930000  0 28                     
G02  21475151.834   112852690.578        2052.209          45.000                                                                  
E02  24677414.553   129680689.816         250.285          34.000    24677417.596    99365721.344         191.416          41.000  
G23  22146450.682   116380360.057       -4041.142          38.000    22146444.321    90686224.130       -3149.170          44.000  
G16  20859388.280   109616847.053       -3805.190          43.000                                                                  
R23  19055614.403   101934828.034        1552.042          49.000                                                                  
R13  20886554.623   111533091.439       -2846.557          35.000    20886557.262    86747947.074       -2213.862          35.000  
R21  20872360.978   111692390.823       -2947.386          50.000    20872353.388    86871929.051       -2292.536          43.000  
R08  18050701.243    96660710.328        2350.820          51.000    18050696.519    75180600.003        1828.403          51.000  
G21  20385232.673   107125106.390        1937.901          44.000                                                                  
S33  37585759.513   197514582.759        -636.977          42.000  
S31  36632276.778   192504011.512        -637.577          44.000  
E36  24143686.712   126875912.575         864.663          44.000    24143691.067    97216670.128         662.459          49.000  
G10  19114946.096   100449900.813       -3168.520          49.000    19114943.772    78272648.502       -2469.047          48.000  
E11  20885285.465   109752960.982        -398.309          44.000    20885284.026    84096487.624        -305.278          48.000  
R22  18026760.623    96228206.607        -948.134          48.000    18026758.731    74844213.599        -737.452          52.000  
R07  17609668.765    94265962.021       -1584.761          52.000    17609664.012    73318040.735       -1232.701          51.000  
R06  21024275.713   112189678.344       -4521.823          33.000                                                                  
G27  18054519.024    94877176.764       -1122.092          47.000    18054517.514    73930276.345        -874.412          48.000  
G08  18527266.979    97361532.573        1129.422          47.000    18527264.884    75866154.322         880.150          44.000  
E04  22960352.997   120657512.707        1047.772          48.000    22960352.247    92451892.874         802.833          49.000  
E25  23125548.553   121525533.721       -2114.840          44.000    23125552.073    93116991.703       -1620.491          50.000  
E09  24852656.689   130601642.787        2322.285          44.000    24852659.533   100071364.773        1779.566          47.000  
E14  25776971.979   135459060.639        -430.269          43.000    25776972.976   103793280.043        -329.723          44.000  
E19  24590764.594   129225320.978       -1682.606          40.000    24590762.675    99016915.275       -1289.188          42.000  
E24  24824672.639   130454567.793       -3516.566          42.000    24824673.918    99958715.058       -2694.603          46.000  
G32  19718770.826   103622886.711         842.522          51.000    19718767.199    80745141.963         656.487          42.000  
E12  23725175.940   124676766.490       -1925.597          42.000    23725173.110    95531634.648       -1475.375          47.000  
E10  22343562.709   117416430.027       -1291.812          47.000    22343563.508    89968637.538        -989.874          53.000  
> 2024 04 16 09 27 30.4930000  0 28                     
G02  21463437.960   112791136.259        2051.507          45.000                                                                  
E02  24676023.479   129673389.573         237.212          33.000    24676027.830    99360127.637         181.317          41.000  
G23  22169520.008   116501598.605       -4041.350          37.000    22169515.704    90780695.749       -3149.150          44.000  
G16  20881127.303   109731084.472       -3810.456          44.000                                                                  
R23  19046915.619   101888293.883        1550.114          49.000                                                                  
R13  20902587.734   111618705.725       -2862.108          34.000    20902589.704                       -2225.532          31.000  
R21  20888903.665   111780920.350       -2954.598          49.000    20888897.218    86940785.324       -2298.218          44.000  
R08  18037587.332    96590487.198        2330.766          51.000    18037583.146    75125982.071        1812.779          50.000  
G21  20374172.831   107066987.343        1936.677          44.000                                                                  
S33  37589395.152   197533689.575        -636.535          43.000  
S31  36635916.041   192523134.279        -637.615          44.000  
E36  24138751.586   126849975.977         864.540          44.000    24138755.580    97196796.703         662.510          50.000  
G10  19133062.302   100545103.032       -3178.648          49.000    19133059.814    78346832.065       -2476.641          48.000  
E11  20887564.661   109764938.325        -399.821          44.000    20887563.084    84105665.056        -306.329          48.000  
R22  18032114.161    96256788.978        -957.221          48.000    18032113.339    74866444.333        -744.601          52.000  
R07  17618625.333    94313908.305       -1611.659          51.000    17618621.530    73355332.314       -1253.554          52.000  
R06  21049726.715   112325482.177       -4531.922          33.000                                                                  
G27  18060975.200    94911102.462       -1139.614          47.000    18060973.494    73956711.960        -888.089          47.000  
G08  18520859.834    97327862.600        1115.240          48.000    18520857.926    75839917.989         869.203          44.000  
E04  22954401.098   120626236.307        1037.307          48.000    22954400.715    92427927.903         794.672          49.000  
E25  23137654.113   121589146.210       -2125.938          45.000    23137657.426    93165733.739       -1628.908          50.000  
E09  24839398.116   130531968.891        2322.603          44.000    24839400.690   100017978.333        1779.604          46.000  
E14  25779427.260   135471965.318        -429.686          43.000    25779428.653   103803168.085        -329.292          45.000  
E19  24600406.205   129275988.142       -1695.242          40.000    24600404.614    99055738.185       -1298.910          42.000  
E24  24844749.673   130560066.662       -3516.583          43.000    24844749.532   100039551.929       -2694.513          46.000  
G32  19714009.197   103597870.909         825.353          50.000    19714006.890    80725649.205         643.115          42.000  
E12  23736169.976   124734545.922       -1926.421          42.000    23736168.363    95575907.199       -1475.996          47.000  
E10  22350942.086   117455208.651       -1293.350          47.000    22350942.774    89998351.050        -990.951          53.000  
> 2024 04 16 09 28 00.4930000  0 28                     
G02  21451727.641   112729600.912        2050.793          46.000                                                                  
E02  24674709.065   129666481.087         223.816          34.000    24674713.329    99354834.135         171.404          41.000  
G23  22192590.144   116622835.882       -4041.362          38.000    22192586.687    90875166.344       -3149.147          45.000  
G16  20902895.806   109845477.840       -3815.748          43.000                                                                  
R23  19038227.664   101841819.413        1547.981          49.000                                                                  
R13  20918703.842                1      -2876.314          31.000    20918701.742                1      -2236.892          29.000  
R21  20905487.382   111869666.279       -2961.988          50.000    20905482.858    87009809.896       -2303.629          45.000  
R08  18024586.767    96520868.890        2310.532          50.000    18024581.847    75071834.538        1797.099          49.000  
G21  20363120.102   107008903.686        1935.435          44.000                                                                  
S33  37593029.813   197552790.587        -636.916          42.000  
S31  36639554.047   192542253.217        -637.272          44.000  
E36  24133815.564   126824040.577         864.508          44.000    24133820.065    97176924.261         662.374          50.000  
G10  19151234.916   100640601.443       -3188.379          49.000    19151232.224    78421246.471       -2484.104          48.000  
E11  20889852.578   109776958.510        -401.526          45.000    20889850.276    84114875.360        -307.573          48.000  
R22  18037521.183    96285644.919        -966.755          49.000    18037519.353    74888887.849        -751.817          52.000  
R07  17627732.239    94362658.928       -1638.662          51.000    17627728.688    73393249.508       -1274.397          52.000  
R06  21075232.933                       -4541.977          31.000                                                                  
G27  18067530.814    94945556.366       -1157.308          47.000    18067529.756    73983559.155        -901.858          48.000  
G08  18514534.433    97294623.948        1100.640          47.000    18514532.470    75814017.734         857.788          45.000  
E04  22948509.741   120595273.927        1026.794          49.000    22948508.837    92404203.521         786.835          50.000  
E25  23149821.919   121653085.996       -2136.961          46.000    23149824.652    93214726.533       -1637.243          51.000  
E09  24826138.771   130462293.450        2322.457          44.000    24826141.475    99964590.687        1779.491          46.000  
E14  25781881.908   135484858.396        -429.736          43.000    25781883.012   103813047.210        -329.263          46.000  
E19  24610121.571   129327040.739       -1708.179          40.000    24610119.799    99094856.455       -1308.934          42.000  
E24  24864825.462   130665567.385       -3516.595          43.000    24864825.582   100120390.234       -2694.682          46.000  
G32  19709348.338   103573379.504         807.794          50.000    19709346.803    80706565.050         629.267          44.000  
E12  23747171.592   124792353.220       -1927.419          42.000    23747168.787    95620201.088       -1476.838          46.000  
E10  22358329.759   117494029.110       -1294.756          47.000    22358330.085    90028096.622        -992.155          53.000  
> 2024 04 16 09 28 30.4930000  0 28                     
G02  21440020.926   112668080.683        2050.347          45.000                                                                  
E02  24673469.621   129659960.522         210.764          37.000    24673472.817    99349837.868         161.463          41.000  
G23  22215659.387   116744065.556       -4040.946          38.000    22215656.380    90969631.007       -3148.511          44.000  
G16  20924692.320   109960019.356       -3820.786          43.000                                                                  
R23  19029550.918   101795401.671        1546.261          50.000                                                                  
R13  20934901.850                       -2890.330          27.000    20934898.638                3      -2247.681          27.000  
R21  20922111.153   111958624.663       -2968.819          50.000    20922107.604    87078999.749       -2308.913          46.000  
R08  18011698.241    96451853.645        2290.341          50.000    18011692.813    75018156.081        1781.471          50.000  
G21  20352073.193   106950851.391        1934.556          45.000                                                                  
S33  37596662.826   197571882.474        -636.178          42.000  
S31  36643190.191   192561362.004        -636.680          44.000  
E36  24128879.491   126798101.584         864.646          43.000    24128883.768    97157049.080         662.558          49.000  
G10  19169462.291   100736388.976       -3197.830          48.000    19169459.899    78495886.125       -2491.748          48.000  
E11  20892147.908   109789017.083        -402.831          45.000    20892144.804    84124115.072        -308.701          48.000  
R22  18042977.526    96314771.345        -975.421          49.000    18042975.244    74911541.753        -758.712          52.000  
R07  17636987.970    94412207.464       -1664.958          51.000    17636984.511    73431787.296       -1294.974          51.000  
R06  21100789.771                       -4550.578          26.000                                                                  
G27  18074187.601    94980534.567       -1174.809          48.000    18074186.523    74010814.864        -915.414          48.000  
G08  18508291.187    97261814.545        1086.383          47.000    18508289.161    75788451.981         846.526          45.000  
E04  22942676.583   120564622.760        1016.415          48.000    22942675.938    92380717.622         778.796          49.000  
E25  23162050.696   121717347.090       -2147.473          46.000    23162053.308    93263965.533       -1645.497          51.000  
E09  24812879.497   130392613.983        2322.668          44.000    24812881.910    99911199.949        1779.634          47.000  
E14  25784332.810   135497736.132        -428.978          43.000    25784333.677   103822914.561        -328.862          46.000  
E19  24619907.487   129378473.838       -1720.864          38.000    24619907.065    99134266.261       -1318.811          43.000  
E24  24884900.193   130771063.619       -3516.397          43.000    24884900.842   100201225.064       -2694.428          47.000  
G32  19704787.299   103549410.239         790.295          49.000    19704785.930    80687887.753         615.670          44.000  
E12  23758174.664   124850184.309       -1928.199          41.000    23758173.489    95664513.219       -1477.494          46.000  
E10  22365724.416   117532887.190       -1295.881          47.000    22365724.185    90057871.013        -992.985          53.000  
> 2024 04 16 09 29 00.4930000  0 28                     
G02  21428317.160   112606575.196        2049.896          46.000                                                                  
E02  24672304.304   129653827.594         197.976          39.000    24672305.833    99345138.583         151.403          42.000  
G23  22238727.605   116865284.975       -4040.226          38.000    22238723.470    91064087.704       -3148.577          44.000  
G16  20946516.673   110074705.496       -3825.490          43.000                                                                  
R23  19020884.591   101749041.173        1544.270          50.000                                                                  
R13  20951176.213                3      -2902.292          25.000    20951179.523                3      -2264.461          24.000  
R21  20938774.419   112047794.994       -2975.964          48.000    20938771.008    87148354.480       -2314.421          46.000  
R08  17998923.800    96383444.666        2269.972          50.000    17998918.126    74964949.149        1765.517          49.000  
G21  20341031.562   106892831.027        1933.369          44.000                                                                  
S33  37600294.060   197590963.308        -635.998          42.000  
S31  36646824.734   192580460.817        -636.536          44.000  
E36  24123941.504   126772157.840         864.882          42.000    24123946.212    97137170.285         662.722          49.000  
G10  19187744.806   100832462.088       -3207.155          49.000    19187742.519    78570748.300       -2499.170          49.000  
E11  20894449.377   109801113.309        -403.952          45.000    20894446.466    84133383.636        -309.593          47.000  
R22  18048485.345    96344168.917        -984.560          49.000    18048482.405    74934406.525        -765.737          52.000  
R07  17646394.286    94462551.702       -1691.479          52.000    17646388.825    73470943.954       -1315.600          51.000  
R06  21126391.778                1      -4560.366          26.000                                                                  
G27  18080944.853    95016036.762       -1192.203          49.000    18080942.001    74038478.880        -929.032          48.000  
G08  18502129.877    97229435.861        1071.940          48.000    18502128.178    75763221.858         835.321          45.000  
E04  22936903.099   120534283.512        1006.199          49.000    22936901.828    92357470.711         770.857          49.000  
E25  23174339.234   121781927.137       -2157.984          45.000    23174342.691    93313448.908       -1653.500          51.000  
E09  24799618.775   130322931.503        2322.702          44.000    24799621.755    99857806.928        1779.679          47.000  
E14  25786779.244   135510598.394        -428.553          42.000    25786781.200   103832770.063        -328.290          46.000  
E19  24629767.728   129430285.714       -1733.065          39.000    24629767.069    99173966.302       -1328.382          44.000  
E24  24904974.246   130876552.529       -3516.284          43.000    24904974.777   100282054.284       -2694.346          47.000  
G32  19700326.365   103525964.506         772.687          50.000    19700324.877    80669618.394         602.227          44.000  
E12  23769185.335   124908038.784       -1928.947          41.000    23769182.555    95708843.238       -1477.865          46.000  
E10  22373125.551   117571782.340       -1297.217          47.000    22373125.851    90087673.811        -993.929          52.000  
> 2024 04 16 09 29 30.4930000  0 28                     
G02  21416616.231   112545086.517        2049.266          45.000                                                                  
E02  24671211.661   129648084.321         185.028          40.000    24671212.037    99340737.873         141.398          40.000  
G23  22261793.192   116986493.872       -4040.001          38.000    22261788.697    91158536.196       -3148.017          44.000  
G16  20968367.549   110189534.118       -3830.027          43.000                                                                  
R23  19012228.286   101702741.260        1542.335          50.000                                                                  
R13  20967543.569                3      -2918.474          23.000                                                                  
R21  20955478.220   112137179.107       -2982.973          49.000    20955474.600    87217875.448       -2320.169          46.000  
R08  17986263.072    96315647.252        2249.677          51.000    17986258.147    74912217.825        1749.802          49.000  
G21  20329997.853   106834844.474        1932.258          46.000                                                                  
S33  37603923.551   197610036.222        -635.854          41.000  
S31  36650457.328   192599551.134        -636.252          44.000  
E36  24119003.481   126746210.603         865.141          41.000    24119008.191    97117288.852         662.769          49.000  
G10  19206081.601   100928819.636       -3216.444          49.000    19206078.248    78645832.134       -2506.305          48.000  
E11  20896758.855   109813248.825        -405.168          45.000    20896755.734    84142682.283        -310.381          47.000  
R22  18054044.486    96373840.516        -993.629          51.000    18054040.999    74957484.454        -772.803          52.000  
R07  17655947.013    94513691.175       -1717.819          52.000    17655941.823    73510719.139       -1336.120          51.000  
R06  21152051.671                3      -4569.530          21.000                                                                  
G27  18087801.067    95052064.999       -1209.819          49.000    18087797.757    74066552.865        -942.803          47.000  
G08  18496051.339    97197491.798        1057.605          47.000    18496049.471    75738330.353         824.201          44.000  
E04  22931190.352   120504259.335         995.536          49.000    22931188.962    92334465.210         762.694          49.000  
E25  23186689.520   121846826.169       -2168.562          46.000    23186692.392    93363176.707       -1661.670          51.000  
E09  24786358.280   130253249.513        2322.780          43.000    24786361.511    99804414.296        1779.709          46.000  
E14  25789223.672   135523447.341        -427.969          41.000    25789225.981   103842615.351        -327.951          45.000  
E19  24639699.498   129482477.393       -1745.984          38.000    24639699.158    99213957.331       -1337.870          44.000  
E24  24925046.936   130982033.691       -3515.901          44.000    24925047.172   100362877.585       -2694.059          47.000  
G32  19695965.299   103503046.007         755.170          50.000    19695964.390    80651759.884         588.377          45.000  
E12  23780198.917   124965918.481       -1929.828          41.000    23780196.806    95753192.628       -1478.881          45.000  
E10  22380534.086   117610716.388       -1298.558          47.000    22380534.654    90117506.413        -994.949          52.000  
