     3.00           OBSERVATION DATA    M: Mixed            RINEX VERSION / TYPE
CONVBIN 2.4.3                           20240416 125942 UTC PGM / RUN BY / DATE 
format: u-blox UBX                                          COMMENT             
log: /home/regis/git/gnsspwv/obsdata/VERT00CHL/2024-04-16/VECOMMENT             
{self.marker}                                               MARKER NAME         
                                                            MARKER NUMBER       
GEODETIC                                                    MARKER TYPE         
{self.observer}     {self.institution}                      OBSERVER / AGENCY   
UNKNOWN             UBLOX-ZED-F9P                           REC # / TYPE / VERS 
UNKNOWN             TWIVSP6037L                             ANT # / TYPE        
  1713381.0000 -5047934.0000 -3490983.0000                  APPROX POSITION XYZ 
        0.0000        0.0000        0.0000                  ANTENNA: DELTA H/E/N
G    8 C1C L1C D1C S1C C2L L2L D2L S2L                      SYS / # / OBS TYPES 
R    8 C1C L1C D1C S1C C2C L2C D2C S2C                      SYS / # / OBS TYPES 
E    8 C1C L1C D1C S1C C7Q L7Q D7Q S7Q                      SYS / # / OBS TYPES 
S    4 C1C L1C D1C S1C                                      SYS / # / OBS TYPES 
  2024    04    16    12    45   00.4980000     GPS         TIME OF FIRST OBS   
  2024    04    16    12    59   30.4980000     GPS         TIME OF LAST OBS    
                                                            END OF HEADER       
> 2024 04 16 12 45 00.4980000  0 25                     
G31  22483777.583   118153110.1891        125.897          47.000    22483780.402    92067336.8101         98.035          45.000  
G02  19450481.714   102212965.5101      -1767.519          48.000                                                                  
G03  20335986.164   106866337.6641       -317.413          48.000    20335988.458    83272425.7031       -247.351          47.000  
G04  20204627.114   106175980.9271       1302.234          47.000    20204626.313    82734505.4991       1014.679          45.000  
R23  20639482.740   110407363.0721      -4336.758          47.000                                                                  
R24  18496540.588    98909123.2081       -549.072          51.000    18496540.252    76929419.1801       -427.004          49.000  
R02  20069950.847   107096795.0491       1123.113          52.000    20069953.797    83297580.7321        873.497          49.000  
R08  22341283.847   119636452.1661      -4423.483          46.000    22341285.755    93050588.4781      -3440.648          44.000  
G21  19517573.176   102565482.2611      -2736.465          50.000                                                                  
S33  39066113.317   205293789.2051       -812.979          43.000  
S31  38113846.938   200289634.4361       -813.386          44.000  
E36  22703270.368   119306462.1021       -362.829          48.000    22703274.876    91416698.1901       -277.975          50.000  
G09  23389331.884   122911730.4721       2575.630          37.000    23389336.730    95775414.9721       2006.969          34.000  
E11  23482992.882   123403904.5861      -2588.836          45.000    23482995.308    94556276.5771      -1983.900          44.000  
R01  18980096.879   101459642.6711      -2115.152          49.000    18980098.126    78912898.7611      -1645.245          44.000  
R17  21197945.533   113434385.0351       2904.508          49.000    21197947.481    88226730.2001       2258.898          48.000  
E04  26152960.686   137434668.8591      -3396.418          40.000    26152969.050   105307085.5101      -2602.358          46.000  
G28  22968037.020   120697807.7611      -1569.259          33.000    22968041.212    94050242.9491      -1222.399          35.000  
E09  22928740.959   120491376.5711      -1574.646          49.000    22928746.036    92324530.3261      -1206.575          53.000  
E34  25239079.571   132632264.5221       1554.180          43.000    25239086.504   101627297.6631       1190.717          46.000  
E05  22347713.970   117437969.0081       1091.356          48.000    22347719.367    89984953.6891        836.321          52.000  
G17  21448246.704   112711263.3281        388.499          47.000    21448248.356    87826963.4271        302.932          44.000  
E10  26930017.719   141518212.2811      -3236.426          43.000    26930030.709   108436183.4671      -2480.054          46.000  
E18  27588673.983   144979404.7091      -1719.999          43.000                                                                  
G08                                                                  23523270.188                3      -3473.492          17.000  
> 2024 04 16 12 45 30.4980000  0 24                     
G31  22483102.999   118149562.419         110.765          47.000    22483104.867    92064572.354          86.231          44.000  
G02  19460626.853   102266281.193       -1786.749          48.000                                                                  
G03  20337815.684   106875950.740        -323.163          48.000    20337817.888    83279916.388        -251.904          47.000  
G04  20197239.224   106137157.910        1286.047          47.000    20197238.736    82704253.832        1002.173          45.000  
R23  20663848.448   110537702.452       -4352.539          49.000                                                                  
R24  18499693.253    98925983.840        -574.815          51.000    18499693.757    76942532.978        -447.079          50.000  
R02  20063682.750   107063347.354        1106.886          52.000    20063684.849    83271565.909         860.914          48.000  
R08  22366064.669   119769154.817       -4423.096          45.000    22366067.444    93153801.316       -3440.098          45.000  
G21  19533251.434   102647869.655       -2755.858          50.000                                                                  
S33  39070756.051   205318188.404        -813.178          42.000  
S31  38118492.443   200314047.380        -814.176          44.000  
E36  22705368.948   119317494.873        -372.623          47.000    22705374.418    91425151.854        -285.585          51.000  
G09  23374647.108   122834565.358        2568.854          36.000    23374652.980    95715286.350        2001.544          36.000  
E11  23497800.066   123481714.794       -2598.034          45.000    23497801.640    94615897.264       -1990.822          44.000  
R01  18992006.300   101523305.368       -2128.818          49.000    18992007.839    78962414.131       -1655.808          44.000  
R17  21181692.368   113347409.272        2894.187          50.000    21181693.677    88159082.436        2250.961          47.000  
E04  26172361.743   137536619.363       -3400.323          41.000    26172369.273   105385203.209       -2605.390          45.000  
G28  22977052.745                1      -1586.825          29.000    22977050.591                       -1237.128          31.000  
E09  22937764.106   120538794.391       -1586.370          49.000    22937769.164    92360863.427       -1215.595          53.000  
E34  25230215.904   132585683.747        1551.562          44.000    25230222.446   101591605.926        1188.778          46.000  
E05  22341511.851   117405379.781        1081.303          47.000    22341517.829    89959982.776         828.394          52.000  
G17  21446089.871   112699927.041         367.343          46.000    21446091.079    87818129.940         286.235          44.000  
E10  26948512.372   141615403.117       -3242.659          43.000    26948525.400   108510654.069       -2484.665          46.000  
E18  27598496.716   145031022.428       -1721.104          43.000                                                                  
> 2024 04 16 12 46 00.4980000  0 24                     
G31  22482515.919   118146479.828          94.919          47.000    22482516.952    92062170.336          73.866          43.000  
G02  19470883.431   102320176.804       -1806.198          48.000                                                                  
G03  20339678.366   106885740.360        -329.401          49.000    20339680.647    83287544.625        -256.506          46.000  
G04  20189944.381   106098823.494        1269.672          47.000    20189943.921    82674382.905         989.209          46.000  
R23  20688304.153   110668523.251       -4368.849          48.000                                                                  
R24  18502993.145    98943628.935        -601.410          51.000    18502993.442    76956256.908        -467.785          49.000  
R02  20057507.794   107030395.796        1090.093          52.000    20057510.374    83245936.971         847.833          49.000  
R08  22390844.273   119901846.253       -4422.821          47.000    22390847.947    93257005.418       -3439.997          46.000  
G21  19549040.666   102730844.793       -2775.779          49.000                                                                  
S33  39075404.880   205342617.117        -815.025          42.000  
S31  38123143.852   200338489.935        -815.459          44.000  
E36  22707526.538   119328833.634        -383.265          47.000    22707532.359    91433839.971        -293.674          51.000  
G09  23359999.961   122757607.909        2561.560          35.000    23360009.189    95655319.560        1996.246          35.000  
E11  23512660.547   123559804.958       -2607.771          45.000    23512661.943    94675732.491       -1998.300          44.000  
R01  19003994.665   101587388.955       -2143.192          49.000    19003995.727    79012256.864       -1666.975          45.000  
R17  21165499.843   113260753.787        2882.990          50.000    21165500.293    88091683.814        2242.390          48.000  
E04  26191785.568   137638689.931       -3404.160          42.000    26191793.049   105463412.919       -2608.707          45.000  
G28  22986178.382   120793182.6133      -1606.378          30.000    22986167.428    94124475.917       -1252.447          35.000  
E09  22946856.324   120586570.586       -1598.557          49.000    22946860.664    92397471.114       -1224.928          53.000  
E34  25221368.576   132539187.712        1548.440          44.000    25221374.534   101555979.116        1186.267          47.000  
E05  22335370.462   117373107.216        1070.289          47.000    22335376.678    89935254.478         820.119          52.000  
G17  21444054.731   112689234.846         345.516          46.000    21444055.503    87809798.347         269.265          44.000  
E10  26967042.487   141712781.478       -3248.755          42.000    26967056.152   108585268.387       -2489.591          46.000  
E18  27608328.012   145082682.471       -1722.951          43.000                                                                  
> 2024 04 16 12 46 30.4980000  0 24                     
G31  22482019.023   118143868.871          79.243          47.000    22482019.736    92060135.811          61.775          42.000  
G02  19481250.899   102374657.455       -1825.646          48.000                                                                  
G03  20341575.959   106895711.089        -335.413          49.000    20341577.898    83295314.006        -261.255          46.000  
G04  20182743.371   106060983.734        1253.082          46.000    20182743.570    82644897.448         976.538          46.000  
R23  20712850.648   110799827.700       -4384.666          49.000                                                                  
R24  18506441.438    98962065.085        -627.631          51.000    18506440.553    76970596.095        -488.063          49.000  
R02  20051425.400   106997945.189        1073.462          52.000    20051428.698    83220697.651         834.955          49.000  
R08  22415622.074   120034529.103       -4422.489          48.000    22415626.588    93360202.859       -3439.676          46.000  
G21  19564942.634   102814411.533       -2795.195          49.000                                                                  
S33  39080060.315   205367080.566        -816.213          43.000  
S31  38127801.612   200362967.600        -816.472          44.000  
E36  22709743.940   119340484.368        -393.490          47.000    22709749.553    91442767.142        -301.521          51.000  
G09  23345396.644   122680864.831        2554.559          37.000    23345405.514    95595519.765        1990.399          34.000  
E11  23527574.144   123638179.817       -2617.161          45.000    23527576.345    94735785.842       -2005.429          44.000  
R01  19016062.628   101651895.560       -2157.209          49.000    19016062.770    79062428.599       -1677.827          45.000  
R17  21149367.634   113174427.575        2872.099          51.000    21149368.145    88024541.304        2233.903          48.000  
E04  26211231.842   137740883.947       -3408.395          42.000    26211239.970   105541717.193       -2611.564          44.000  
G28  22995387.784                1      -1625.702          28.000    22995396.228    94162255.197       -1266.614          35.000  
E09  22956017.084   120634708.803       -1610.597          49.000    22956021.311    92434356.206       -1234.021          53.000  
E34  25212537.480   132492782.628        1545.373          44.000    25212543.843   101520421.989        1184.155          46.000  
E05  22329291.115   117341156.743        1059.768          47.000    22329296.778    89910772.994         811.987          52.000  
G17  21442143.549   112679192.547         324.065          46.000    21442144.343    87801973.163         252.404          44.000  
E10  26985609.711   141810351.721       -3255.334          42.000    26985624.032   108660029.691       -2494.481          47.000  
E18  27618166.935   145134389.183       -1724.353          43.000                                                                  
> 2024 04 16 12 47 00.4980000  0 24                     
G31  22481612.497   118141728.649          63.540          46.000    22481613.563    92058468.087          49.557          43.000  
G02  19491728.382   102429720.020       -1845.024          47.000                                                                  
G03  20343507.607   106905859.944        -341.119          49.000    20343509.650    83303222.182        -265.820          47.000  
G04  20175636.126   106023637.057        1236.841          46.000    20175635.222    82615796.171         963.831          45.000  
R23  20737485.584   110931609.855       -4400.583          48.000                                                                  
R24  18510036.208    98981290.577        -653.816          51.000    18510036.174    76985549.253        -508.517          49.000  
R02  20045437.476   106965992.880        1056.896          52.000    20045440.262    83195845.923         822.046          49.000  
R08  22440397.764   120167198.547       -4421.810          48.000    22440402.244    93463389.924       -3439.244          46.000  
G21  19580957.616   102898566.337       -2814.734          50.000                                                                  
S33  39084721.004   205391575.652        -816.909          42.000  
S31  38132466.119   200387476.644        -817.369          44.000  
E36  22712020.337   119352445.535        -403.712          47.000    22712025.508    91451932.174        -309.334          51.000  
G09  23330834.733   122604334.944        2547.559          39.000    23330841.418    95535886.129        1984.760          33.000  
E11  23542542.038   123716836.521       -2626.717          45.000    23542544.749    94796055.121       -2012.586          45.000  
R01  19028207.505   101716819.290       -2171.035          49.000    19028208.256    79112924.786       -1688.573          45.000  
R17  21133297.143   113088431.994        2861.160          50.000    21133297.101    87957655.937        2225.309          47.000  
E04  26230702.411   137843197.097       -3412.193          43.000    26230709.901   105620112.777       -2614.661          44.000  
E09  22965245.520   120683205.162       -1622.316          49.000    22965250.027    92471515.736       -1243.135          53.000  
E34  25203724.595   132446467.117        1542.497          44.000    25203730.200   101484933.505        1181.855          46.000  
E05  22323272.613   117309526.225        1049.203          47.000    22323277.724    89886536.676         803.866          52.000  
G17  21440355.732   112669798.322         302.390          45.000    21440357.389    87794652.982         235.794          45.000  
E10  27004213.382   141908110.468       -3261.567          42.000    27004226.962   108734935.450       -2499.201          46.000  
E18  27628015.165   145186139.335       -1725.671          42.000                                                                  
G28                                                                  23004732.063    94200475.411       -1281.110          38.000  
> 2024 04 16 12 47 30.4980000  0 24                     
G31  22481291.743   118140051.308          48.005          45.000    22481295.466    92057161.112          37.492          44.000  
G02  19502315.247   102485354.770       -1864.119          47.000                                                                  
G03  20345470.178   106916176.990        -346.747          49.000    20345472.504    83311261.433        -270.227          46.000  
G04  20168621.007   105986774.958        1220.563          47.000    20168621.902    82587072.496         951.105          47.000  
R23  20762208.159   111063857.347       -4416.044          49.000                                                                  
R24  18513777.952    99001297.245        -679.915          51.000    18513777.533    77001109.957        -528.968          49.000  
R02  20039541.951   106934528.904        1040.526          52.000    20039543.824    83171374.018         809.233          49.000  
R08  22465168.856   120299842.724       -4421.036          47.000    22465173.603    93566557.281       -3438.750          46.000  
G21  19597081.034   102983298.424       -2834.059          49.000                                                                  
S33  39089386.870   205416093.051        -817.859          43.000  
S31  38137134.095   200412007.979        -818.224          44.000  
E36  22714354.093   119364708.670        -413.958          47.000    22714359.075    91461328.585        -317.143          51.000  
G09  23316312.526   122528010.481        2540.704          41.000    23316317.156    95476412.516        1979.675          32.000  
E11  23557562.234   123795765.203       -2635.627          46.000    23557564.664    94856532.828       -2019.480          46.000  
R01  19040428.422   101782148.232       -2184.478          49.000    19040429.525    79163736.123       -1699.137          44.000  
R17  21117286.924   113002761.334        2850.005          48.000    21117287.424    87891023.263        2216.767          47.000  
E04  26250192.381   137945618.221       -3415.967          43.000    26250200.919   105698591.060       -2617.435          44.000  
G28  23014173.516   120940314.5943      -1663.145          32.000    23014170.966    94239128.613       -1296.056          34.000  
E09  22974539.881   120732048.805       -1634.014          49.000    22974544.864    92508941.353       -1252.105          54.000  
E34  25194925.514   132400232.903        1539.826          44.000    25194932.221   101449507.290        1179.800          47.000  
E05  22317312.020   117278206.570        1038.770          48.000    22317317.391    89862538.560         795.853          52.000  
G17  21438689.725   112661043.417         281.157          47.000    21438691.429    87787830.965         218.989          45.000  
E10  27022850.582   142006047.499       -3267.429          42.000    27022864.422   108809977.838       -2503.743          47.000  
E18  27637868.276   145237922.815       -1726.693          42.000                                                                  
> 2024 04 16 12 48 00.4980000  0 24                     
G31  22481063.615   118138847.559          32.110          45.000    22481066.323    92056223.148          25.106          43.000  
G02  19513013.305   102541570.862       -1883.728          47.000                                                                  
G03  20347467.495   106926671.057        -352.948          48.000    20347469.065    83319438.583        -274.896          46.000  
G04  20161701.522   105950407.615        1203.894          47.000    20161701.749    82558734.349         938.098          47.000  
R23  20787019.161   111196576.075       -4431.969          50.000                                                                  
R24  18517667.920    99022095.369        -706.571          52.000    18517666.624    77017286.245        -549.483          49.000  
R02  20033737.739   106903562.486        1023.795          51.000    20033741.699    83147289.059         796.293          50.000  
R08  22489936.510   120432469.016       -4420.646          47.000    22489941.279    93669710.734       -3438.091          45.000  
G21  19613316.556   103068615.796       -2853.734          49.000                                                                  
S33  39094058.296   205440641.257        -819.091          42.000  
S31  38141808.328   200436570.919        -819.569          44.000  
E36  22716746.533   119377283.964        -424.385          47.000    22716752.238    91470964.169        -325.185          51.000  
G09  23301829.964   122451902.128        2533.209          40.000    23301833.911                        1973.956          32.000  
E11  23572636.598   123874974.804       -2644.977          46.000    23572637.986    94917225.776       -2026.666          46.000  
R01  19052727.375   101847888.548       -2198.372          50.000    19052727.685    79214867.422       -1709.758          44.000  
R17  21101340.372   112917428.714        2838.754          48.000    21101340.865    87824653.537        2207.743          47.000  
E04  26269705.261   138048154.865       -3419.772          44.000    26269712.986   105777157.870       -2620.362          44.000  
E09  22983901.884   120781247.587       -1645.983          49.000    22983906.908    92546639.101       -1261.180          54.000  
E34  25186145.219   132354090.398        1536.487          44.000    25186151.613   101414151.363        1177.393          46.000  
E05  22311413.514   117247207.442        1027.852          49.000    22311418.649    89838786.023         787.605          52.000  
G17  21437147.990   112652938.451         259.224          48.000    21437148.808    87781515.397         202.048          43.000  
E10  27041522.559   142104171.234       -3273.613          42.000    27041536.721   108885163.275       -2508.636          47.000  
E18  27647730.819   145289748.166       -1728.228          43.000                                                                  
G28                                                                  23023719.138    94278221.492       -1310.347          38.000  
> 2024 04 16 12 48 30.4980000  0 24                     
G31  22480924.237   118138119.094          16.367          45.000    22480925.864    92055655.535          12.418          41.000  
G02  19523820.715   102598368.697       -1902.866          46.000                                                                  
G03  20349498.527   106937342.243        -358.539          49.000    20349499.805    83327753.807        -279.535          46.000  
G04  20154875.054   105914536.517        1187.500          47.000    20154875.550    82530782.897         925.116          47.000  
R23  20811917.374   111329763.576       -4447.384          49.000                                                                  
R24  18521705.430    99043686.757        -732.869          51.000    18521704.815    77034079.525        -570.134          49.000  
R02  20028028.467   106873093.769        1007.292          52.000    20028031.832    83123591.248         783.427          50.000  
R08  22514699.277   120565075.731       -4419.739          47.000    22514704.019    93772848.991       -3437.563          43.000  
G21  19629663.265   103154517.719       -2873.042          49.000                                                                  
S33  39098736.309   205465221.832        -819.706          42.000  
S31  38146487.801   200461165.175        -820.416          43.000  
E36  22719200.505   119390173.021        -434.850          47.000    22719205.180    91480840.164        -333.294          51.000  
G09  23287388.725   122376012.048        2526.117          42.000    23287392.213    95357972.278        1968.207          33.000  
E11  23587762.015   123954465.568       -2654.173          45.000    23587765.066    94978134.173       -2033.901          46.000  
R01  19065101.350   101914038.251       -2211.824          49.000    19065102.279    79266317.112       -1720.252          44.000  
R17  21085457.344   112832438.488        2827.307          48.000    21085457.568    87758550.105        2199.005          47.000  
E04  26289238.999   138150805.910       -3423.687          43.000    26289247.068   105855812.351       -2623.320          44.000  
E09  22993331.555   120830800.760       -1657.610          48.000    22993336.492    92584608.380       -1270.186          53.000  
E34  25177382.260   132308041.410        1533.370          44.000    25177389.032   101378867.104        1174.893          47.000  
E05  22305575.778   117216529.848        1017.100          48.000    22305581.014    89815279.840         779.428          52.000  
G17  21435729.033   112645484.433         237.632          48.000    21435730.015    87775707.087         185.103          43.000  
E10  27060230.223   142202481.458       -3279.941          42.000    27060245.259   108960491.617       -2513.272          47.000  
E18  27657600.695   145341615.334       -1729.510          43.000                                                                  
G28                                                                  23033373.331    94317754.255       -1325.094          37.000  
> 2024 04 16 12 49 00.4980000  0 25                     
G31  22480876.912   118137868.927           0.129          46.000    22480879.568    92055460.590          -0.058          43.000  
G02  19534739.727   102655749.138       -1922.468          47.000                                                                  
G19  23667724.371   124374648.0691       1459.053          32.000                                                                  
G03  20351562.487   106948191.504        -364.758          48.000    20351564.500    83336207.753        -284.198          46.000  
G04  20148144.656   105879163.922        1170.624          48.000    20148144.284    82503219.871         912.085          47.000  
R23  20836903.125   111463417.916       -4463.157          49.000                                                                  
R24  18525891.799    99066073.728        -759.793          52.000    18525890.606    77051491.562        -590.977          48.000  
R02  20022412.385   106843124.039         990.508          53.000    20022414.539    83100281.473         770.415          49.000  
R08  22539459.315   120697661.944       -4419.338          47.000    22539463.099    93875971.318       -3437.165          43.000  
G21  19646120.449   103241004.188       -2892.856          48.000                                                                  
S33  39103420.036   205489835.389        -821.207          42.000  
S31  38151174.781   200485792.878        -821.742          44.000  
E36  22721713.193   119403378.068        -445.583          47.000    22721718.103    91490958.296        -341.571          52.000  
G09  23272988.314   122300343.116        2518.164          41.000    23272993.189    95299009.485        1962.457          34.000  
E11  23602942.550   124034238.382       -2663.888          46.000    23602945.228    95039258.685       -2041.104          46.000  
R01  19077552.064   101980595.729       -2225.529          48.000    19077553.516    79318083.996       -1731.045          45.000  
R17  21069639.215   112747796.137        2815.135          47.000    21069640.506    87692717.234        2189.643          47.000  
G28  23043142.205                3      -1719.771          26.000    23043134.115    94357727.262       -1340.152          37.000  
E04  26308794.992   138253570.987       -3427.491          44.000    26308802.482   105934554.193       -2626.200          43.000  
E09  23002828.925   120880708.250       -1669.677          48.000    23002833.439    92622849.137       -1279.354          53.000  
E34  25168637.615   132262088.446        1529.901          43.000    25168644.300   101343656.417        1172.326          47.000  
E05  22299798.057   117186175.401        1006.252          48.000    22299805.050    89792021.289         771.027          53.000  
G17  21434435.099   112638683.179         215.464          47.000    21434435.857    87770407.391         167.793          43.000  
E10  27078974.090   142300978.682       -3286.617          41.000    27078988.597   109035963.230       -2518.276          47.000  
E18  27667479.737   145393524.943       -1731.129          44.000                                                                  
> 2024 04 16 12 49 30.4980000  0 25                     
G31  22480921.417   118138097.222         -15.271          47.000    22480923.670    92055638.479         -11.917          43.000  
G02  19545769.161   102713710.767       -1941.467          46.000                                                                  
G19  23659432.813                        1445.138          27.000                                                                  
G03  20353660.477   106959217.132        -370.129          48.000    20353662.623    83344799.137        -288.580          46.000  
G04  20141508.129   105844289.467        1154.181          47.000    20141507.770    82476045.000         899.487          47.000  
R23  20861974.569   111597534.922       -4477.970          49.000                                                                  
R24  18530227.274    99089255.595        -785.837          51.000    18530225.452    77069521.861        -611.138          48.000  
R02  20016889.476   106813651.712         974.329          53.000    20016891.991    83077358.573         757.837          49.000  
R08  22564214.757   120830224.482       -4418.090          47.000    22564217.590    93979075.151       -3436.060          44.000  
G21  19662689.721   103328072.897       -2911.835          48.000                                                                  
S33  39108110.023   205514479.979        -821.616          42.000  
S31  38155867.136   200510451.160        -822.096          44.000  
E36  22724285.528   119416898.878        -455.815          47.000    22724291.064    91501318.374        -349.258          52.000  
G09  23258630.847   122224895.534        2511.279          40.000    23258636.621    95240219.220        1956.940          36.000  
E11  23618175.935   124114291.664       -2672.959          45.000    23618178.963    95100598.106       -2047.944          46.000  
R01  19090078.319   102047556.569       -2238.512          48.000    19090079.526    79370164.614       -1741.264          44.000  
R17  21053886.956   112663504.280        2804.126          48.000    21053888.755    87627156.997        2180.863          47.000  
G28  23052996.077   121144341.6661      -1738.262          31.000    23053004.715    94398138.985       -1354.366          38.000  
E04  26328370.835   138356447.180       -3430.801          44.000    26328379.256   106013381.187       -2628.768          42.000  
E09  23012393.471   120930967.368       -1681.001          48.000    23012397.431    92661359.323       -1288.076          53.000  
E34  25159910.770   132216231.471        1527.070          43.000    25159918.144   101308519.289        1170.143          47.000  
E05  22294083.487   117156143.248         995.795          47.000    22294090.261    89769009.676         762.999          53.000  
G17  21433264.971   112632534.389         194.161          47.000    21433266.689    87765616.113         151.179          44.000  
E10  27097753.160   142399660.830       -3292.470          41.000    27097767.416   109111576.549       -2522.798          47.000  
E18  27677365.466   145445475.051       -1732.202          44.000                                                                  
> 2024 04 16 12 50 00.4980000  0 25                     
G31  22481055.591   118138805.785         -31.659          46.000    22481058.191    92056190.621         -24.776          43.000  
G02  19556909.962   102772253.582       -1961.171          47.000                                                                  
G19  23651219.816                1       1431.332          26.000                                                                  
G03  20355792.110   106970419.052        -376.343          47.000    20355793.993    83353527.893        -293.170          46.000  
G04  20134966.163   105809914.314        1137.585          47.000    20134966.973    82449259.231         886.414          47.000  
R23  20887133.296   111732111.295       -4493.520          50.000    20886187.859                3      -3329.000          10.000  
R24  18534711.068    99113234.300        -812.530          51.000    18534709.097    77088171.930        -631.978          47.000  
R02  20011459.133   106784676.934         957.525          51.000    20011461.966    83054822.681         744.769          49.000  
R08  22588965.134   120962761.143       -4417.532          46.000    22588968.166    94082158.911       -3435.816          43.000  
G21  19679368.683   103415722.735       -2931.280          48.000                                                                  
S33  39112805.354   205539155.768        -822.858          42.000  
S31  38160565.569   200535141.143        -823.549          44.000  
E36  22726918.194   119430736.722        -466.613          46.000    22726924.151    91511921.372        -357.585          51.000  
G09  23244316.965   122149671.221        2503.735          40.000    23244322.152    95181602.936        1951.734          37.000  
E11  23633462.539   124194625.332       -2682.469          45.000    23633465.838    95162152.374       -2055.504          45.000  
R01  19102679.548   102114918.403       -2252.091          48.000    19102681.303    79422557.073       -1751.571          44.000  
R17  21038201.627   112579566.893        2791.885          49.000    21038202.611    87561872.423        2171.635          47.000  
G28  23062980.385   121196766.487       -1757.034          35.000    23062979.233    94438989.443       -1368.631          35.000  
E04  26347967.957   138459433.144       -3434.658          44.000    26347977.387   106092292.299       -2631.589          42.000  
E09  23022023.595   120981577.069       -1692.714          48.000    23022028.192    92700138.134       -1297.133          53.000  
E34  25151202.985   132170472.029        1523.729          42.000    25151210.551   101273456.915        1167.448          47.000  
E05  22288429.985   117126434.095         984.951          47.000    22288436.331    89746245.553         754.638          52.000  
G17  21432219.002   112627039.005         172.445          47.000    21432221.373    87761333.952         134.238          45.000  
E10  27116566.277   142498527.409       -3298.808          40.000    27116581.467   109187331.174       -2527.559          47.000  
E18  27687258.405   145497465.322       -1733.542          44.000                                                                  
> 2024 04 16 12 50 30.4980000  0 25                     
G31  22481283.688   118140001.256         -47.980          46.000    22481285.606    92057122.178         -37.301          43.000  
G02  19568161.881   102831382.476       -1980.860          47.000                                                                  
G19  23643099.409                        1417.055          27.000                                                                  
G03  20357958.505   106981802.113        -382.422          48.000    20357960.410    83362397.810        -297.961          46.000  
G04  20128521.099   105776044.675        1120.496          47.000    20128521.693    82422867.357         873.053          47.000  
R23  20912376.731   111867149.647       -4509.022          49.000                                                                  
R24  18539344.382    99138015.647        -839.447          51.000    18539343.481    77107446.282        -652.886          47.000  
R02  20006123.578   106756204.676         940.709          51.000    20006126.272    83032677.652         731.664          50.000  
R08  22613711.529   121095275.534       -4416.732          47.000    22613714.621    94185225.334       -3435.350          43.000  
G21  19696158.568   103503957.385       -2950.920          48.000                                                                  
S33  39117508.241   205563869.138        -824.520          42.000  
S31  38165271.164   200559867.846        -825.106          44.000  
E36  22729612.619   119444897.839        -477.331          46.000    22729618.809    91522772.066        -365.758          52.000  
G09  23230045.992   122074676.982        2496.069          39.000    23230051.287    95123165.955        1944.934          39.000  
E11  23648803.855   124275244.288       -2692.397          44.000    23648807.366    95223925.190       -2062.821          45.000  
R01  19115357.172   102182683.741       -2265.555          48.000    19115358.725    79475263.368       -1762.114          45.000  
R17  21022583.943   112495993.378        2779.613          49.000    21022584.432    87496870.905        2161.865          47.000  
G28  23073063.143   121249758.872       -1775.405          36.000    23073062.202    94480282.109       -1383.623          33.000  
E04  26367587.527   138562532.477       -3438.444          44.000    26367596.303   106171290.258       -2634.698          41.000  
E09  23031721.885   121032541.229       -1704.655          48.000    23031726.423    92739188.568       -1306.113          53.000  
E34  25142514.794   132124816.622        1520.051          42.000    25142522.653   101238474.245        1164.689          47.000  
E05  22282838.604   117097053.524         973.991          47.000    22282845.147    89723733.212         746.300          52.000  
G17  21431299.183   112622203.170         150.231          47.000    21431300.330    87757565.734         117.195          44.000  
E10  27135415.855   142597582.900       -3305.034          40.000    27135431.146   109263230.563       -2532.489          46.000  
E18  27697159.911   145549500.405       -1735.368          43.000                                                                  
> 2024 04 16 12 51 00.4980000  0 25                     
G31  22481603.660   118141682.723         -64.372          46.000    22481604.591    92058432.428         -50.093          43.000  
G02  19579525.119   102891094.748       -2000.401          48.000                                                                  
G19  23635041.748                3       1402.788          25.000                                                                  
G03  20360158.022   106993363.663        -388.702          48.000    20360160.126    83371406.821        -302.930          46.000  
G04  20122171.784   105742679.042        1103.528          47.000    20122172.559    82396868.213         859.882          48.000  
R23  20937705.921   112002644.281       -4524.331          49.000                                                                  
R24  18544127.987    99163598.371        -866.444          50.000    18544128.085    77127343.907        -673.751          48.000  
R02  20000881.130   106728232.222         923.776          51.000    20000884.046    83010921.314         718.658          50.000  
R08  22638452.463   121227762.708       -4416.076          46.000    22638456.082    94288270.575       -3434.340          43.000  
G21  19713060.284   103592773.356       -2970.377          48.000                                                                  
S33  39122217.496   205588615.652        -825.455          42.000  
S31  38169982.856   200584628.856        -826.276          43.000  
E36  22732369.113   119459380.870        -488.435          46.000    22732375.034    91533869.436        -374.162          52.000  
G09  23215819.123   121999911.997        2488.251          39.000    23215824.474    95064907.572        1938.928          40.000  
E11  23664199.323   124356145.893       -2701.709          44.000    23664202.067    95285914.611       -2070.086          45.000  
R01  19128107.989   102250847.014       -2279.000          49.000    19128110.369    79528279.202       -1772.529          45.000  
R17  21007034.423   112412785.461        2767.285          49.000    21007035.479    87432153.704        2152.467          48.000  
G28  23083252.930   121303315.657       -1794.627          32.000    23083257.213                       -1398.241          32.000  
E04  26387227.432   138665741.199       -3442.267          45.000    26387236.202   106250372.105       -2637.468          40.000  
E09  23041487.315   121083856.189       -1716.573          48.000    23041491.611    92778507.778       -1315.225          53.000  
E34  25133846.369   132079264.149        1516.582          43.000    25133854.019   101203570.451        1161.922          47.000  
E05  22277310.074   117067999.653         962.785          48.000    22277316.374    89701471.192         737.754          52.000  
G17  21430504.298   112618024.546         128.212          47.000    21430504.284    87754309.656          99.996          43.000  
E10  27154301.921   142696824.171       -3311.232          41.000    27154316.500   109339272.315       -2537.224          46.000  
E18  27707070.451   145601577.277       -1736.782          44.000                                                                  
> 2024 04 16 12 51 30.4980000  0 24                     
G31  22482015.600   118143853.192         -80.509          43.000    22482016.534    92060123.673         -62.752          43.000  
G02  19590999.918   102951391.693       -2019.772          48.000                                                                  
G03  20362393.083   107005104.894        -394.434          49.000    20362394.429    83380555.790        -307.330          46.000  
G04  20115918.590   105709819.878        1086.871          47.000    20115919.601    82371263.718         846.753          48.000  
R23  20963120.743   112138593.313       -4539.257          49.000                                                                  
R24  18549062.987    99189985.070        -893.024          50.000    18549063.011    77147866.886        -694.518          48.000  
R02  19995732.271   106700760.737         907.324          51.000    19995736.389    82989554.653         705.669          51.000  
R08  22663188.583   121360222.772       -4414.930          46.000    22663191.904    94391294.737       -3433.889          43.000  
G21  19730072.809   103682170.940       -2989.613          48.000                                                                  
S33  39126933.446   205613399.040        -826.685          43.000  
S31  38174701.416   200609425.472        -827.233          44.000  
E36  22735186.996   119474188.422        -498.929          46.000    22735192.920    91545215.466        -382.356          52.000  
G09  23201636.685   121925379.383        2480.292          39.000    23201641.062    95006830.262        1932.959          40.000  
E11  23679649.002   124437331.324       -2710.980          45.000    23679650.986    95348121.520       -2077.175          44.000  
R01  19140933.782   102319407.449       -2292.000          49.000    19140936.133    79581603.959       -1782.591          45.000  
R17  20991554.280   112329948.621        2754.969          48.000    20991555.680    87367725.130        2142.761          48.000  
G28  23093551.309   121357437.785       -1813.495          36.000    23093555.462    94564208.6321      -1413.177          32.000  
E04  26406888.518   138769059.299       -3445.720          45.000    26406897.008   106329537.717       -2640.448          40.000  
E09  23051318.713   121135522.068       -1728.025          48.000    23051323.354    92818095.888       -1324.138          53.000  
E34  25125198.550   132033817.463        1512.961          43.000    25125205.851   101168747.689        1159.442          47.000  
E05  22271844.080   117039274.377         952.064          48.000    22271850.064    89679460.956         729.404          52.000  
G17  21429835.150   112614506.006         106.261          47.000    21429834.715    87751567.927          82.815          43.000  
E10  27173221.383   142796251.995       -3317.169          40.000    27173237.846   109415457.006       -2541.867          47.000  
E18  27716989.300   145653696.919       -1738.077          44.000                                                                  
> 2024 04 16 12 52 00.4980000  0 25                     
G31  22482522.117   118146513.251         -97.079          45.000    22482523.695    92062196.459         -75.587          43.000  
G02  19602585.076   103012272.147       -2039.318          48.000                                                                  
G19  23619212.787                2       1374.174          27.000                                                                  
G03  20364661.563   107017024.870        -400.531          48.000    20364662.991    83389844.099        -312.061          46.000  
G04  20109762.049   105677467.412        1069.623          47.000    20109762.822    82346054.039         833.588          48.000  
R23  20988619.144   112274993.274       -4554.453          49.000                                                                  
R24  18554148.147    99217175.868        -919.991          50.000    18554147.899    77169015.260        -715.570          48.000  
R02  19990677.050   106673789.253         890.446          51.000    19990682.340    82968576.844         692.552          50.000  
R08  22687919.263   121492653.222       -4413.975          43.000    22687923.201    94494295.866       -3433.015          45.000  
G21  19747194.991   103772147.931       -3009.055          49.000                                                                  
S33  39131656.051   205638216.069        -827.924          42.000  
S31  38179427.056   200634257.030        -828.397          43.000  
E36  22738067.020   119489320.873        -509.958          47.000    22738072.768    91556810.439        -390.781          52.000  
G09  23187498.015   121851080.137        2472.742          38.000    23187502.448    94948934.800        1926.605          40.000  
E11  23695151.099   124518799.552       -2720.469          45.000    23695154.397    95410545.138       -2084.499          44.000  
R01  19153834.331   102388361.493       -2305.254          49.000    19153835.289    79635234.836       -1792.861          45.000  
R17  20976144.882   112247486.184        2742.203          50.000    20976145.669    87303587.777        2132.719          48.000  
G28  23103959.396   121412124.010       -1832.666          34.000    23103960.709    94606821.064       -1427.911          34.000  
E04  26426570.782   138872484.549       -3449.466          46.000    26426578.685   106408785.443       -2643.083          41.000  
E09  23061216.763   121187536.960       -1739.853          48.000    23061221.221    92857951.415       -1333.070          53.000  
E34  25116570.536   131988477.261        1509.443          43.000    25116577.605   101134006.540        1156.510          47.000  
E05  22266441.186   117010877.522         940.943          48.000    22266446.056    89657702.354         720.943          52.000  
G17  21429290.031   112611647.477          84.052          46.000    21429291.433    87749340.502          65.425          43.000  
E10  27192178.377   142895865.032       -3323.910          40.000    27192193.761   109491783.581       -2546.807          47.000  
E18  27726915.413   145705858.069       -1739.609          45.000                                                                  
> 2024 04 16 12 52 30.4980000  0 24                     
G31  22483122.041   118149669.509        -113.421          43.000    22483124.080    92064655.900         -88.456          43.000  
G02  19614282.398   103073740.781       -2058.753          48.000                                                                  
G03  20366964.262   107029128.201        -406.537          48.000    20366966.169    83399275.234        -316.809          46.000  
G04  20103702.892   105645627.419        1052.753          47.000    20103703.942    82321243.706         820.337          48.000  
R23  21014202.740   112411845.932       -4569.157          49.000                                                                  
R24  18559385.308    99245176.601        -946.902          51.000    18559384.190    77190793.588        -736.416          48.000  
R02  19985719.088   106647322.725         873.810          52.000    19985722.270    82947991.819         679.626          50.000  
R08  22712643.110   121625056.479       -4412.938          42.000    22712649.045    94597275.818       -3432.292          45.000  
G21  19764426.809   103862707.897       -3028.377          47.000                                                                  
S33  39136386.655   205663073.040        -829.165          43.000  
S31  38184159.042   200659128.069        -829.318          43.000  
E36  22741009.981   119504784.148        -520.912          47.000    22741015.400    91568658.911        -399.246          52.000  
G09  23173403.830   121777020.673        2464.532          36.000    23173409.366    94891226.190        1920.312          41.000  
E11  23710709.264   124600555.244       -2729.782          44.000    23710712.310    95473188.994       -2091.749          45.000  
R01  19166806.802   102457711.228       -2318.302          48.000    19166808.432    79689173.459       -1803.064          44.000  
R17  20960806.854   112165407.292        2729.612          50.000    20960807.209    87239748.719        2122.897          47.000  
G28  23114470.845   121467378.346       -1851.575          33.000    23114476.555    94649876.399       -1442.566          35.000  
E04  26446273.081   138976020.260       -3453.124          46.000    26446280.947   106488117.803       -2645.940          40.000  
E09  23071181.420   121239904.384       -1751.503          48.000    23071186.303    92898077.064       -1342.100          53.000  
E34  25107964.765   131943249.762        1505.650          43.000    25107971.036   101099351.723        1153.755          47.000  
E05  22261100.774   116982814.303         929.912          48.000    22261106.011    89636199.424         712.447          52.000  
G17  21428873.093   112609454.526          62.251          46.000    21428873.524    87747631.668          48.384          43.000  
E10  27211169.856   142995667.320       -3329.959          41.000    27211185.705   109568255.235       -2551.467          46.000  
E18  27736850.295   145758065.055       -1740.958          45.000                                                                  
> 2024 04 16 12 53 00.4980000  0 24                     
G31  22483816.642   118153320.712        -129.945          45.000    22483818.543    92067501.015        -101.534          45.000  
G02  19626090.465   103135794.996       -2078.317          48.000                                                                  
G03  20369301.816   107041412.333        -412.628          49.000    20369303.645    83408847.275        -321.478          46.000  
G04  20097741.995   105614298.535        1035.699          48.000    20097740.800    82296831.620         807.025          47.000  
R23  21039869.795   112549145.775       -4584.298          49.000                                                                  
R24  18564773.208    99273985.669        -973.871          51.000    18564772.565    77213200.615        -757.529          49.000  
R02  19980853.331   106621358.227         856.956          52.000    19980855.562    82927797.252         666.637          50.000  
R08  22737364.178   121757428.929       -4411.953          43.000    22737368.722    94700231.825       -3431.602          45.000  
G21  19781769.894   103953847.389       -3047.877          47.000                                                                  
S33  39141123.685   205687967.969        -830.464          42.000  
S31  38188899.876   200684036.537        -831.064          44.000  
E36  22744015.167   119520577.012        -532.085          47.000    22744020.750    91580759.913        -407.652          52.000  
G09  23159353.525   121703200.350        2457.056          35.000    23159361.213    94833703.913        1914.209          40.000  
E11  23726321.386   124682595.807       -2739.383          44.000    23726324.306    95536051.102       -2098.875          45.000  
R01  19179853.279   102527451.490       -2331.284          49.000    19179854.991    79743415.860       -1813.235          44.000  
R17  20945540.132   112083713.560        2716.511          50.000    20945540.638    87176209.212        2112.892          47.000  
G28  23125092.685   121523198.086       -1870.123          36.000    23125098.414    94693372.140       -1457.068          37.000  
E04  26465995.302   139079662.634       -3456.680          46.000    26466004.855   106567531.873       -2648.463          42.000  
E09  23081213.427   121292620.752       -1763.073          48.000    23081218.079    92938470.080       -1350.949          53.000  
E34  25099380.058   131898134.065        1501.838          43.000    25099385.869   101064782.580        1150.753          47.000  
E05  22255823.517   116955082.914         918.725          48.000    22255829.083    89614950.744         703.887          52.000  
G17  21428581.976   112607924.842          39.824          47.000    21428581.747    87746439.678          30.809          43.000  
E10  27230196.266   143095655.965       -3336.223          40.000    27230212.969   109644869.637       -2556.320          46.000  
E18  27746793.301   145810315.051       -1742.439          45.000                                                                  
> 2024 04 16 12 53 30.4980000  0 25                     
G31  22484607.118   118157470.818        -146.975          44.000    22484609.132    92070734.886        -114.351          45.000  
G02  19638010.998   103198436.570       -2097.972          48.000                                                                  
G19  23596014.739   123997881.8821       1330.948          28.000                                                                  
G03  20371674.719   107053879.238        -418.829          48.000    20371676.239    83418561.732        -326.447          46.000  
G04  20091878.115   105583483.800        1018.347          48.000    20091877.305    82272820.185         793.518          47.000  
R23  21065620.447   112686891.399       -4599.103          50.000                                                                  
R24  18570312.727    99303605.971       -1001.018          52.000    18570311.052    77236238.568        -778.517          48.000  
R02  19976080.745   106595897.889         840.110          51.000    19976083.688    82907994.808         653.441          49.000  
R08  22762079.182   121889770.775       -4411.014          44.000    22762083.561    94803164.043       -3430.782          45.000  
G21  19799224.040   104045567.244       -3067.153          47.000                                                                  
S33  39145868.341   205712901.690        -831.956          42.000  
S31  38193647.130   200708985.022        -832.439          44.000  
E36  22747083.814   119536702.714        -543.210          47.000    22747089.166    91593115.937        -416.223          52.000  
G09  23145353.052   121629622.972        2448.267          38.000    23145359.502    94776370.970        1907.806          40.000  
E11  23741987.503   124764923.011       -2749.056          44.000    23741990.580    95599132.879       -2106.447          45.000  
R01  19192974.135   102597581.788       -2344.343          50.000    19192973.851    79797961.591       -1823.315          44.000  
R17  20930346.609   112002411.254        2703.383          50.000    20930347.026    87112974.149        2102.563          47.000  
G28  23135819.749   121579584.683       -1888.299          33.000    23135827.771    94737309.651       -1472.314          37.000  
E04  26485738.135   139183412.352       -3460.299          45.000    26485747.664   106647028.184       -2651.348          42.000  
E09  23091311.220   121345686.929       -1774.811          47.000    23091316.381    92979131.129       -1359.933          53.000  
E34  25090816.252   131853133.717        1497.892          44.000    25090822.576   101030301.829        1147.672          47.000  
E05  22250610.248   116927685.968         907.539          48.000    22250615.363    89593958.293         695.453          51.000  
G17  21428417.314   112607061.922          17.303          47.000    21428417.699    87745767.255          13.579          43.000  
E10  27249259.061   143195832.376       -3342.461          39.000    27249275.803   109721627.899       -2561.140          46.000  
E18  27756744.425   145862609.719       -1744.001          45.000                                                                  
> 2024 04 16 12 54 00.4980000  0 25                     
G31  22485491.133   118162117.490        -163.204          45.000    22485494.180    92074355.727        -127.286          46.000  
G02  19650041.879   103261661.839       -2117.431          47.000                                                                  
G19  23588459.701   123958167.405        1316.412          29.000                                                                  
G03  20374080.898   107066525.263        -424.658          48.000    20374082.700    83428415.769        -330.872          46.000  
G04  20086111.547   105553180.693        1001.383          47.000    20086110.873    82249207.414         780.333          47.000  
R23  21091451.988   112825076.861       -4613.552          49.000                                                                  
R24  18576002.712    99334035.179       -1027.845          52.000    18576000.281    77259905.695        -799.526          47.000  
R02  19971403.584   106570937.904         823.638          52.000    19971406.296    82888581.550         640.593          49.000  
R08  22786786.840   122022076.708       -4409.540          45.000    22786791.711    94906068.319       -3429.731          45.000  
G21  19816788.363   104137862.686       -3086.189          48.000                                                                  
S33  39150620.131   205737872.070        -833.060          42.000  
S31  38198401.370   200733969.040        -833.528          44.000  
E36  22750215.694   119553158.902        -554.139          47.000    22750220.500    91605725.205        -424.621          52.000  
G09  23131397.521   121556286.677        2440.436          40.000    23131403.145    94719225.900        1901.776          40.000  
E11  23757707.954   124847533.274       -2758.445          44.000    23757711.026    95662431.516       -2113.593          45.000  
R01  19206164.032   102668095.800       -2356.932          49.000    19206163.908    79852805.777       -1833.211          43.000  
R17  20915226.631   111921501.063        2690.337          50.000    20915226.815    87050044.077        2092.493          46.000  
G28  23146660.111   121636534.051       -1907.922          38.000    23146664.137    94781685.606       -1486.298          36.000  
E04  26505500.535   139287264.515       -3463.376          45.000    26505509.969   106726602.999       -2653.826          42.000  
E09  23101475.022   121399098.252       -1786.109          47.000    23101480.288    93020056.644       -1368.665          53.000  
E34  25082273.776   131808246.731        1494.159          43.000    25082280.842   100995907.939        1144.870          47.000  
E05  22245459.627   116900620.481         896.567          48.000    22245464.852    89573219.842         687.042          51.000  
G17  21428380.037   112606862.919          -4.512          47.000    21428380.161    87745612.178          -3.620          43.000  
E10  27268358.154   143296192.390       -3348.306          40.000    27268374.483   109798526.845       -2565.635          47.000  
E18  27766703.192   145914945.090       -1745.148          45.000                                                                  
> 2024 04 16 12 54 30.4980000  0 24                     
G31  22486471.068   118167264.421        -179.821          44.000    22486473.895    92078366.370        -140.248          46.000  
G02  19662184.570   103325472.248       -2137.093          47.000                                                                  
G03  20376521.264   107079352.344        -430.878          47.000    20376523.264    83438410.849        -335.608          45.000  
G04  20080442.400   105523392.173         984.233          47.000    20080441.927    82225995.635         766.954          47.000  
R23  21117366.244   112963700.767       -4628.278          49.000                                                                  
R24  18581845.003    99365275.876       -1055.102          51.000    18581842.162    77284203.976        -820.499          47.000  
R02  19966820.402   106546479.993         806.656          51.000    19966823.918    82869558.772         627.427          49.000  
R08  22811487.522   122154346.587       -4408.608          45.000    22811491.876    95008944.510       -3428.872          44.000  
G21  19834461.229   104230734.474       -3105.496          48.000                                                                  
S33  39155378.993   205762880.699        -834.476          42.000  
S31  38203163.460   200758991.627        -834.877          44.000  
E36  22753410.173   119569948.767        -565.424          46.000    22753415.569    91618590.150        -433.244          52.000  
G09  23117489.123   121483195.266        2432.080          41.000    23117494.504    94662271.646        1895.441          40.000  
E11  23773482.252   124930428.334       -2768.168          44.000    23773485.260    95725948.359       -2120.947          44.000  
R01  19219425.276   102738993.350       -2369.857          47.000    19219426.812    79907948.282       -1843.211          43.000  
R17  20900181.047   111840989.419        2676.837          49.000    20900181.620    86987424.015        2081.960          47.000  
G28  23157606.890   121694047.646       -1926.672          39.000    23157609.599    94826501.232       -1501.734          38.000  
E04  26525282.935   139391219.759       -3467.081          45.000    26525292.066   106806256.812       -2656.516          42.000  
E09  23111705.399   121452855.510       -1797.860          48.000    23111710.141    93061247.219       -1377.505          53.000  
E34  25073753.966   131763476.610        1490.394          43.000    25073761.313   100961603.622        1141.707          47.000  
E05  22240372.920   116873888.984         885.344          48.000    22240378.147    89552737.306         678.401          51.000  
G17  21428469.507   112607330.345         -26.837          48.000    21428468.913    87745976.381         -20.861          42.000  
E10  27287492.180   143396737.410       -3354.820          41.000    27287508.016   109875567.578       -2570.515          47.000  
E18  27776669.978   145967322.762       -1746.809          45.000                                                                  
> 2024 04 16 12 55 00.4980000  0 24                     
G31  22487545.814   118172916.928        -196.965          44.000    22487548.759    92082770.938        -153.528          45.000  
G02  19674440.076   103389871.521       -2156.617          47.000                                                                  
G03  20378997.891   107092364.070        -436.902          48.000    20378999.517    83448549.860        -340.430          46.000  
G04  20074873.081   105494122.945         966.905          47.000    20074872.300    82203188.461         753.373          48.000  
R23  21143363.687   113102763.974       -4642.850          50.000                                                                  
R24  18587839.938    99397332.840       -1082.350          51.000    18587837.333    77309137.140        -841.839          47.000  
R02  19962331.318   106522527.741         789.920          51.000    19962335.854    82850929.302         614.365          50.000  
R08  22836181.497   122286582.875       -4407.282          44.000    22836186.039    95111794.608       -3427.592          43.000  
G21  19852243.451   104324184.894       -3124.666          47.000                                                                  
S33  39160146.049   205787930.766        -835.775          42.000  
S31  38207933.238   200784055.756        -836.272          44.000  
E36  22756669.345   119587077.201        -576.729          46.000    22756675.038    91631714.503        -441.888          52.000  
G09  23103628.431   121410354.118        2423.743          42.000    23103633.553    94605512.481        1888.373          40.000  
E11  23789311.876   125013611.755       -2777.807          45.000    23789314.377    95789686.169       -2128.357          44.000  
R01  19232760.356   102810275.322       -2382.627          48.000    19232762.391    79963389.743       -1853.107          43.000  
R17  20885210.528   111760883.861        2663.298          49.000    20885211.869    86925119.739        2071.558          47.000  
G28  23168658.486   121752128.298       -1945.343          41.000    23168661.394    94871758.800       -1515.741          37.000  
E04  26545085.188   139495280.371       -3470.512          45.000    26545094.738   106885991.395       -2659.130          42.000  
E09  23122001.395   121506961.209       -1809.298          48.000    23122005.938    93102704.792       -1386.414          53.000  
E34  25065257.834   131718828.672        1485.929          43.000    25065264.900   100927392.877        1138.819          47.000  
E05  22235349.986   116847495.747         874.049          48.000    22235355.673    89532513.943         669.803          51.000  
G17  21428685.638   112608468.643         -49.268          47.000    21428686.126    87746863.379         -38.538          44.000  
E10  27306661.377   143497470.560       -3361.203          41.000    27306677.462   109952752.450       -2575.248          48.000  
E18  27786645.085   146019745.993       -1748.251          44.000                                                                  
> 2024 04 16 12 55 30.4980000  0 24                     
G31  22488717.111   118179068.204        -213.216          45.000    22488719.200    92087564.164        -166.119          45.000  
G02  19686804.926   103454851.031       -2175.542          47.000                                                                  
G03  20381507.723   107105552.147        -442.560          48.000    20381509.116    83458826.251        -344.745          46.000  
G04  20069400.226   105465365.651         950.061          46.000    20069400.269    82180780.214         740.344          48.000  
R23  21169439.613   113242254.978       -4656.744          49.000                                                                  
R24  18593984.900    99430198.548       -1108.904          50.000    18593983.724    77334699.322        -862.477          47.000  
R02  19957936.707   106499072.616         773.615          52.000    19957940.362    82832686.483         601.802          50.000  
R08  22860866.143   122418775.101       -4405.561          43.000    22860872.833    95214610.489       -3426.606          42.000  
G21  19870133.636   104418204.346       -3143.328          46.000                                                                  
S33  39164919.446   205813014.778        -836.752          42.000  
S31  38212709.048   200809153.627        -837.250          45.000  
E36  22759990.831   119604537.098        -587.538          45.000    22759997.486    91645092.850        -450.118          52.000  
G09  23089813.723   121337756.680        2415.894          43.000    23089819.217    94548943.191        1882.440          41.000  
E11  23805194.683   125097075.043       -2786.831          45.000    23805197.151    95853638.425       -2135.344          43.000  
R01  19246165.780   102881930.999       -2394.634          49.000    19246167.714    80019121.891       -1862.575          44.000  
R17  20870315.415   111681180.474        2650.178          47.000    20870317.110    86863128.314        2061.193          47.000  
G28  23179817.165   121810767.414       -1963.873          41.000    23179820.742    94917451.481       -1530.585          37.000  
E04  26564905.364   139599436.778       -3473.481          45.000    26564915.760   106965799.336       -2661.369          44.000  
E09  23132361.325   121561405.907       -1820.322          48.000    23132366.205    93144422.111       -1394.831          53.000  
E34  25056783.671   131674296.119        1482.738          44.000    25056790.438   100893270.585        1136.049          47.000  
E05  22230390.451   116821433.012         863.328          48.000    22230395.561    89512543.820         661.542          51.000  
G17  21429027.895   112610269.779         -70.999          46.000    21429028.983    87748266.847         -55.402          44.000  
E10  27325864.726   143598382.950       -3366.664          42.000    27325880.576   110030074.663       -2579.630          48.000  
E18  27796627.561   146072206.155       -1749.141          44.000                                                                  
> 2024 04 16 12 56 00.4980000  0 24                     
G31  22489985.655   118185728.729        -230.447          47.000    22489985.791    92092754.217        -179.640          44.000  
G02  19699281.541   103520419.356       -2195.402          47.000                                                                  
G03  20384052.518   107118925.454        -448.944          49.000    20384054.062    83469246.979        -349.750          46.000  
G04  20064026.786   105437130.204         932.493          46.000    20064027.292    82158778.590         726.697          47.000  
R23  21195597.165   113382179.615       -4671.341          49.000                                                                  
R24  18600283.895    99463882.576       -1136.479          50.000    18600282.812    77360897.999        -883.978          47.000  
R02  19953635.771   106476123.113         756.548          52.000    19953639.852    82814836.938         588.531          50.000  
R08  22885546.402   122550931.212       -4404.555          44.000    22885552.220    95317398.209       -3425.635          41.000  
G21  19888135.349   104512800.807       -3162.751          46.000                                                                  
S33  39169700.983   205838141.284        -838.608          43.000  
S31  38217493.378   200834295.043        -838.862          45.000  
E36  22763378.399   119622338.585        -599.060          45.000    22763385.079    91658732.925        -459.018          52.000  
G09  23076047.376   121265413.643        2407.078          43.000    23076053.310    94492572.110        1875.621          41.000  
E11  23821132.315   125180826.939       -2796.598          45.000    23821134.085    95917811.838       -2142.939          43.000  
R01  19259641.387   102953966.244       -2407.444          49.000    19259642.701    80075149.276       -1872.512          43.000  
R17  20855498.967   111601892.621        2635.791          48.000    20855499.682    86801460.070        2050.299          47.000  
G28  23191083.019   121869973.158       -1983.087          41.000    23191086.486    94963585.641       -1545.111          36.000  
E04  26584745.204   139703696.575       -3476.910          45.000    26584755.693   107045686.490       -2664.131          44.000  
E09  23142787.102   121616197.355       -1832.068          47.000    23142792.621    93186405.127       -1403.781          52.000  
E34  25048333.382   131629889.511        1478.120          44.000    25048340.081   100859244.784        1132.664          47.000  
E05  22225494.831   116795710.261         851.899          48.000    22225500.796    89492834.196         652.707          51.000  
G17  21429499.009   112612744.177         -93.820          47.000    21429500.115    87750194.953         -73.184          44.000  
E10  27345103.773   143699482.902       -3373.143          43.000    27345118.941   110107540.624       -2584.649          47.000  
E18  27806618.428   146124711.800       -1751.009          43.000                                                                  
> 2024 04 16 12 56 30.4980000  0 25                     
G31  22491349.250   118192896.673        -247.437          46.000    22491349.725    92098339.644        -192.781          44.000  
G02  19711870.339   103586573.428       -2214.985          47.000                                                                  
G19  23551952.732                1       1241.926          27.000                                                                  
G03  20386632.271   107132481.152        -454.865          48.000    20386634.002    83479809.835        -354.433          46.000  
G04  20058753.148   105409414.753         915.136          47.000    20058753.111    82137182.150         713.031          47.000  
R23  21221834.679   113522532.113       -4685.545          50.000                                                                  
R24  18606736.068    99498383.068       -1163.566          51.000    18606735.762    77387731.671        -905.090          48.000  
R02  19949429.523   106453676.516         739.929          52.000    19949433.229    82797378.516         575.494          50.000  
R08  22910218.554   122683046.488       -4403.167          43.000    22910224.090    95420154.172       -3424.411          43.000  
G21  19906246.093   104607969.468       -3181.793          47.000                                                                  
S33  39174490.526   205863308.758        -839.522          42.000  
S31  38222285.266   200859475.616        -840.099          45.000  
E36  22766831.178   119640480.044        -610.463          45.000    22766837.396    91672633.487        -467.772          52.000  
G09  23062328.941   121193323.932        2398.588          42.000    23062335.591    94436398.443        1869.091          41.000  
E11  23837123.560   125264864.504       -2805.958          44.000    23837126.255    95982204.133       -2150.071          43.000  
R01  19273186.853   103026376.379       -2419.916          49.000    19273188.025    80131468.194       -1882.022          42.000  
R17  20840759.228   111523021.736        2622.130          47.000    20840760.937    86740116.164        2039.352          48.000  
G28  23202457.215   121929742.176       -2001.770          43.000    23202462.848    95010158.751       -1559.613          38.000  
E04  26604605.018   139808055.620       -3480.343          44.000    26604614.509   107125649.684       -2666.703          45.000  
E09  23153278.614   121671331.603       -1843.522          47.000    23153284.257    93228650.796       -1412.539          52.000  
E34  25039906.490   131585607.613        1473.855          44.000    25039913.546   100825314.542        1129.378          47.000  
E05  22220664.048   116770325.237         840.483          48.000    22220670.224    89473383.353         644.074          52.000  
G17  21430097.717   112615889.256        -115.996          48.000    21430099.137    87752645.661         -90.375          44.000  
E10  27364377.124   143800767.029       -3379.328          42.000    27364392.959   110185147.718       -2589.197          47.000  
E18  27816618.160   146177259.727       -1752.278          43.000                                                                  
> 2024 04 16 12 57 00.4980000  0 25                     
G31  22492809.980   118200574.979        -264.932          45.000    22492810.625    92104322.758        -206.451          43.000  
G02  19724571.376   103653313.878       -2234.685          48.000                                                                  
G03  20389246.327   107146220.318        -461.108          48.000    20389248.196    83490515.688        -359.380          46.000  
G04  20053578.937   105382221.332         897.513          47.000    20053578.917    82115992.488         699.375          48.000  
R23  21248152.406   113663310.652       -4699.916          49.000                                                                  
R24  18613340.994    99533701.521       -1191.074          51.000    18613340.933    77415201.546        -926.377          47.000  
R02  19945318.069   106431733.656         722.764          52.000    19945320.762    82780311.914         562.119          49.000  
R08  22934883.606   122815120.819       -4402.095          45.000    22934888.512    95522878.351       -3423.892          42.000  
G21  19924466.082   104703710.771       -3201.014          47.000                                                                  
S33  39179287.382   205888516.728        -841.061          43.000  
S31  38227084.823   200884697.971        -841.592          44.000  
E36  22770348.985   119658963.804        -622.044          46.000    22770355.093    91686796.342        -476.596          52.000  
G09  23048659.279   121121490.364        2389.947          41.000    23048665.738    94380424.381        1862.032          40.000  
E11  23853169.016   125349188.667       -2815.768          44.000    23853172.119    96046816.047       -2157.732          42.000  
R01  19286803.999   103099159.361       -2432.508          50.000    19286804.412    80188077.138       -1892.056          44.000  
R17  20826099.522   111444573.186        2607.581          48.000    20826101.150    86679100.676        2028.057          48.000  
R11  23911157.477                1       1998.335          31.000    23911199.597                2       1554.265          27.000  
G28  23213938.745   121990074.893       -2020.752          42.000    23213944.660    95057171.178       -1574.829          36.000  
E04  26624482.810   139912513.743       -3483.851          43.000    26624492.579   107205688.786       -2669.390          45.000  
E09  23163836.430   121726808.582       -1855.179          47.000    23163841.257    93271159.076       -1421.491          52.000  
E34  25031504.262   131541453.101        1469.339          44.000    25031511.378   100791481.926        1125.938          47.000  
E05  22215898.120   116745279.580         829.058          48.000    22215904.404    89454192.541         635.278          52.000  
G17  21430823.862   112619706.656        -138.901          48.000    21430824.675    87755620.224        -107.757          43.000  
E10  27383686.578   143902235.876       -3385.708          41.000    27383702.173   110262896.357       -2594.130          48.000  
E18  27826626.622   146229850.706       -1754.036          43.000                                                                  
> 2024 04 16 12 57 30.4980000  0 26                     
G31  22494367.063   118208762.186        -281.260          43.000    22494368.955    92110702.396        -219.247          44.000  
G02  19737382.623   103720637.475       -2253.787          47.000                                                                  
G19  23537924.158   123692632.3711       1212.482          32.000                                                                  
G03  20391895.363   107160140.002        -467.065          49.000    20391897.142    83501362.189        -363.967          46.000  
G04  20048503.649   105355547.866         880.295          48.000    20048502.703    82095207.997         685.947          48.000  
R23  21274547.819   113804509.034       -4713.770          49.000                                                                  
R24  18620098.276    99569835.868       -1218.076          51.000    18620097.765    77443305.994        -947.389          47.000  
R02  19941299.889   106410291.047         706.290          53.000    19941301.248    82763634.370         549.246          48.000  
R08  22959540.004   122947149.164       -4400.395          43.000    22959544.260    95625566.711       -3422.506          39.000  
G21  19942792.725   104800020.102       -3219.827          47.000                                                                  
S33  39184091.796   205913764.595        -842.190          42.000  
S31  38231891.639   200909959.244        -842.494          44.000  
E36  22773931.985   119677788.061        -633.198          46.000    22773937.203    91701220.101        -485.296          53.000  
G09  23035037.915   121049911.709        2381.522          41.000    23035044.644    94324648.925        1855.846          41.000  
E11  23869269.538   125433796.231       -2824.858          44.000    23869272.915    96111645.109       -2164.615          43.000  
R01  19300488.038   103172309.997       -2444.576          49.000    19300489.375    80244971.989       -1901.401          44.000  
R17  20811518.793   111366548.113        2593.521          49.000    20811519.912    86618414.604        2017.229          47.000  
R11  23899952.418                        1991.652          27.000    23899966.155                1       1549.612          28.000  
G28  23225525.993   122050967.573       -2039.282          43.000    23225530.840    95104619.896       -1589.069          36.000  
E04  26644378.223   140017066.622       -3486.702          43.000    26644388.485   107285800.489       -2671.700          45.000  
E09  23174458.239   121782624.113       -1866.222          47.000    23174462.828    93313926.770       -1429.981          52.000  
E34  25023125.203   131497424.595        1465.429          43.000    25023133.060   100757745.862        1122.763          47.000  
E05  22211196.886   116720570.836         817.884          49.000    22211202.638    89435259.885         626.696          52.000  
G17  21431677.967   112624193.655        -160.945          48.000    21431678.325    87759116.574        -125.517          43.000  
E10  27403028.862   144003885.806       -3391.264          41.000    27403046.012   110340783.738       -2598.622          48.000  
E18  27836642.082   146282481.304       -1755.028          43.000                                                                  
> 2024 04 16 12 58 00.4980000  0 26                     
G31  22496021.877   118217454.160        -298.293          45.000    22496022.916    92117475.390        -232.436          44.000  
G02  19750303.482   103788538.714       -2273.111          47.000                                                                  
G19  23531047.931                        1198.406          27.000                                                                  
G03  20394577.793   107174234.863        -472.833          49.000    20394579.215    83512345.189        -368.427          46.000  
G04  20043525.392   105329389.963         863.219          47.000    20043524.806    82074825.260         672.649          47.000  
R23  21301019.012   113946118.887       -4727.138          48.000                                                                  
R24  18627007.204    99606781.235       -1245.073          51.000    18627006.300    77472041.263        -968.398          47.000  
R02  19937373.388   106389343.172         689.897          53.000    19937375.066    82747341.616         536.627          48.000  
R08  22984186.123   123079124.792       -4398.236          41.000    22984190.506    95728214.061       -3420.672          39.000  
G21  19961226.396   104896891.422       -3238.397          46.000                                                                  
S33  39188902.311   205939044.098        -843.252          42.000  
S31  38236705.170   200935253.804        -843.738          44.000  
E36  22777577.297   119696948.669        -644.449          46.000    22777583.343    91715901.585        -493.662          52.000  
G09  23021464.648   120978584.396        2373.173          41.000    23021470.775    94269069.339        1848.909          40.000  
E11  23885423.228   125518681.716       -2834.158          44.000    23885426.916    96176687.113       -2171.520          44.000  
R01  19314239.777   103245820.067       -2456.324          49.000    19314240.938    80302146.458       -1910.651          44.000  
R17  20797017.944   111288945.479        2579.642          49.000    20797017.841    86558057.109        2006.328          47.000  
R11  23888779.227                3       1986.591          26.000    23888799.852                        1544.349          30.000  
G28  23237219.839   122112414.291       -2057.617          44.000    23237223.381    95152500.290       -1603.192          36.000  
E04  26664290.288   140121707.729       -3489.537          41.000    26664301.037   107365979.787       -2673.836          45.000  
E09  23185143.162   121838771.733       -1877.150          47.000    23185147.397    93356948.934       -1438.323          53.000  
E34  25014769.637   131453518.459        1461.399          43.000    25014777.725   100724103.540        1119.750          47.000  
E05  22206558.620   116696194.268         807.006          49.000    22206564.136    89416581.749         618.330          52.000  
G17  21432657.999   112629345.648        -182.826          47.000    21432659.452    87763131.090        -142.648          44.000  
E10  27422405.500   144105710.937       -3396.991          40.000    27422422.920   110418805.336       -2603.050          48.000  
E18  27846662.960   146335145.913       -1756.221          43.000                                                                  
> 2024 04 16 12 58 30.4980000  0 25                     
G31  22497772.702   118226653.332        -315.185          45.000    22497774.201    92124643.609        -245.656          44.000  
G02  19763334.871   103857017.938       -2292.458          48.000                                                                  
G03  20397294.019   107188505.673        -478.739          49.000    20397294.702    83523465.278        -373.074          46.000  
G04  20038645.678   105303749.285         845.965          47.000    20038645.602    82054845.552         659.100          47.000  
R23  21327568.528   114088137.500       -4740.910          48.000                                                                  
R24  18634068.464    99644539.112       -1272.260          51.000    18634066.955    77501408.481        -989.659          47.000  
R02  19933540.575   106368890.517         673.376          52.000    19933543.090    82731434.045         523.803          50.000  
R08  23008821.789   123211046.655       -4396.312          39.000    23008826.301    95830819.619       -3419.353          39.000  
G21  19979767.605   104994323.817       -3257.197          46.000                                                                  
S33  39193719.593   205964359.629        -844.455          42.000  
S31  38241525.173   200960582.492        -844.996          44.000  
E36  22781288.262   119716447.603        -655.763          46.000    22781293.987    91730842.295        -502.466          53.000  
G09  23007939.923   120907510.902        2364.685          42.000    23007945.920    94213687.482        1842.545          41.000  
E11  23901629.947   125603845.654       -2843.332          44.000    23901633.169    96241942.475       -2178.724          44.000  
R01  19328058.316   103319688.103       -2468.323          50.000    19328058.295    80359599.304       -1919.805          42.000  
R17  20782596.531   111211770.419        2565.226          49.000    20782595.948    86498032.156        1994.983          47.000  
R11  23877655.143                1       1979.535          29.000    23877654.575                3       1544.908          21.000  
G28  23249018.001   122174415.113       -2076.001          44.000    23249020.601    95200812.473       -1617.615          36.000  
E04  26684220.705   140226436.500       -3492.585          41.000    26684230.015   107446226.245       -2676.004          45.000  
E09  23195890.280   121895251.024       -1888.281          47.000    23195895.021    93400225.228       -1446.883          52.000  
E34  25006438.319   131409737.021        1457.003          43.000    25006446.239   100690556.771        1116.556          47.000  
E05  22201982.725   116672151.107         795.793          48.000    22201988.475    89398159.100         609.726          52.000  
G17  21433765.285   112635164.468        -205.256          47.000    21433767.175    87767665.219        -160.094          44.000  
E10  27441817.042   144207711.502       -3403.143          41.000    27441832.665   110496961.363       -2607.451          47.000  
E18  27856692.433   146387844.910       -1757.295          44.000                                                                  
> 2024 04 16 12 59 00.4980000  0 25                     
G31  22499621.294   118236367.706        -332.589          45.000    22499622.390    92132213.273        -259.246          43.000  
G02  19776477.902   103926081.230       -2311.952          49.000                                                                  
G03  20400043.829   107202959.187        -484.930          48.000    20400044.878    83534727.728        -377.841          45.000  
G04  20033865.874   105278633.400         828.282          46.000    20033866.938    82035274.735         645.427          48.000  
R23  21354195.070   114230568.968       -4754.713          49.000                                                                  
R24  18641282.342    99683116.778       -1299.759          51.000    18641280.989    77531413.282       -1010.952          47.000  
R02  19929801.580   106348939.464         656.523          52.000    19929804.675    82715916.605         510.625          50.000  
R08  23033448.058   123342920.912       -4395.481          38.000    23033452.380    95933388.137       -3418.317          37.000  
G21  19998415.798   105092322.056       -3276.316          46.000                                                                  
S33  39198544.755   205989715.154        -845.965          42.000  
S31  38246353.203   200985952.431        -846.467          44.000  
E36  22785063.956   119736292.798        -667.502          45.000    22785070.513    91746048.322        -511.404          53.000  
G09  22994464.823   120836699.664        2355.815          42.000    22994470.555    94158510.051        1835.753          40.000  
E11  23917890.862   125689294.547       -2853.313          44.000    23917893.677    96307416.177       -2186.146          44.000  
R01  19341944.399   103393918.104       -2480.486          50.000    19341944.730    80417333.673       -1929.137          43.000  
R17  20768255.044   111135034.065        2550.270          48.000    20768256.235    86438348.405        1983.631          47.000  
R11  23866560.794                        1972.600          30.000    23866570.748                3       1530.034          20.000  
G28  23260922.575   122236975.925       -2094.739          45.000    23260925.912    95249561.081       -1632.355          39.000  
E04  26704167.683   140331258.388       -3495.993          40.000    26704177.067   107526544.071       -2678.531          44.000  
E09  23206703.069   121952067.549       -1899.635          47.000    23206706.819    93443759.926       -1455.529          52.000  
E34  24998131.713   131366088.644        1452.493          43.000    24998140.171   100657111.959        1113.077          47.000  
E05  22197473.076   116648448.601         784.292          48.000    22197477.601    89379997.473         600.942          52.000  
G17  21435000.728   112641656.743        -227.772          47.000    21435002.786    87772724.088        -177.516          44.000  
E10  27461262.210   144309893.562       -3409.181          41.000    27461277.125   110575256.463       -2612.310          46.000  
E18  27866728.916   146440584.680       -1758.732          44.000                                                                  
> 2024 04 16 12 59 30.4980000  0 25                     
G31  22501567.371   118246598.556        -349.469          45.000    22501568.808    92140185.381        -272.428          43.000  
G02  19789731.360   103995728.495       -2331.387          48.000                                                                  
G03  20402828.920   107217595.585        -490.946          49.000    20402830.463    83546132.696        -382.524          46.000  
G04  20029186.623   105254043.225         810.832          46.000    20029187.237    82016113.595         631.828          48.000  
R23  21380898.123   114373410.280       -4768.212          48.000                                                                  
R24  18648650.259    99722514.722       -1326.866          51.000    18648648.741    77562056.094       -1031.963          47.000  
R02  19926156.523   106329489.776         639.915          52.000    19926159.435    82700789.113         497.654          49.000  
R08  23058065.868   123474745.366       -4393.231          36.000    23058069.273    96035917.901       -3416.856          37.000  
G21  20017172.401   105190884.949       -3294.900          46.000                                                                  
S33  39203377.908   206015112.282        -847.334          42.000  
S31  38251188.869   201011364.009        -847.777          44.000  
E36  22788906.891   119756485.469        -678.872          45.000    22788913.021    91761520.594        -520.225          53.000  
G09  22981039.933   120766152.476        2347.210          41.000    22981044.746    94103538.368        1828.911          40.000  
E11  23934205.636   125775028.275       -2862.614          44.000    23934208.766    96373108.155       -2193.440          45.000  
R01  19355897.969   103468507.806       -2492.321          50.000    19355899.536    80475347.813       -1938.297          44.000  
R17  20753996.671   111058740.632        2535.741          46.000    20753998.728    86379009.122        1972.169          48.000  
R11  23855504.928   127476552.8881       1965.315          32.000    23855514.192                3       1533.581          17.000  
G28  23272933.687   122300096.111       -2113.300          44.000    23272937.910    95298745.534       -1647.016          40.000  
E04  26724132.394   140436172.207       -3498.752          40.000    26724142.148   107606932.324       -2680.745          45.000  
E09  23217578.499   122009220.173       -1910.699          47.000    23217582.636    93487552.164       -1464.010          52.000  
E34  24989851.614   131322575.054        1448.120          43.000    24989859.855   100623770.442        1109.605          47.000  
E05  22193026.752   116625087.353         772.971          47.000    22193032.469    89362097.331         592.197          52.000  
G17  21436365.144   112648823.143        -250.098          48.000    21436366.482    87778308.267        -194.825          44.000  
E10  27480741.402   144412256.585       -3415.253          40.000    27480756.132   110653690.197       -2616.787          45.000  
E18  27876772.381   146493364.938       -1760.016          44.000                                                                  
