     3.00           OBSERVATION DATA    M: Mixed            RINEX VERSION / TYPE
CONVBIN 2.4.3                           20240416 234442 UTC PGM / RUN BY / DATE 
format: u-blox UBX                                          COMMENT             
log: /home/regis/git/gnsspwv/obsdata/VERT00CHL/2024-04-16/VECOMMENT             
{self.marker}                                               MARKER NAME         
                                                            MARKER NUMBER       
GEODETIC                                                    MARKER TYPE         
{self.observer}     {self.institution}                      OBSERVER / AGENCY   
UNKNOWN             UBLOX-ZED-F9P                           REC # / TYPE / VERS 
UNKNOWN             TWIVSP6037L                             ANT # / TYPE        
  1713381.0000 -5047934.0000 -3490983.0000                  APPROX POSITION XYZ 
        0.0000        0.0000        0.0000                  ANTENNA: DELTA H/E/N
G    8 C1C L1C D1C S1C C2L L2L D2L S2L                      SYS / # / OBS TYPES 
R    8 C1C L1C D1C S1C C2C L2C D2C S2C                      SYS / # / OBS TYPES 
E    8 C1C L1C D1C S1C C7Q L7Q D7Q S7Q                      SYS / # / OBS TYPES 
S    4 C1C L1C D1C S1C                                      SYS / # / OBS TYPES 
  2024    04    16    23    30   00.0100000     GPS         TIME OF FIRST OBS   
  2024    04    16    23    44   30.0110000     GPS         TIME OF LAST OBS    
                                                            END OF HEADER       
> 2024 04 16 23 30 00.0100000  0 26                     
G13  25727271.729   135197663.3521      -4235.498          48.000                                                                  
G15  24633365.851   129449221.0231      -3030.212          49.000    24633367.361   100869557.4801      -2361.244          43.000  
G19  25033192.413   131550808.2721      -2952.660          44.000                                                                  
G24  23900036.315   125595736.5881        526.093          49.000    23900035.727    97866916.6621        409.906          47.000  
R09  23848626.031   127350404.0931        446.045          52.000    23848624.601    99050613.7861        346.936          47.000  
R16  23930480.930   127832348.7011      -1983.820          52.000    23930479.930    99425691.5381      -1542.944          48.000  
R06  24353110.986   129952761.5301      -3923.732          34.000                                                                  
R17  26412596.825   141339176.9361      -3335.663          34.000    26412592.997   109930455.0321      -2594.811          33.000  
G12  24628813.726   129425504.0761        288.230          48.000    24628811.763   100851347.0511        224.530          46.000  
E08  28556488.963   150065421.0851      -3497.482          47.000    28556499.021   114985234.2931      -2679.884          51.000  
S31  41846316.291   219903854.4801       -748.798          45.000  
S33  42798924.284   224909812.8691       -749.491          43.000  
E36  30820534.662                1        -94.009          28.000    30820538.185   124101556.0001        -72.219          40.000  
R19  24878107.340   133081471.7361       2603.176          41.000    24878109.760   103507992.6001       2024.806          46.000  
R07  24043740.347   128708051.9211       -483.948          51.000    24043739.879   100106288.4601       -376.359          48.000  
R18  24251148.537   129454375.9461       -143.988          50.000    24251149.785   100686922.0021       -111.975          49.000  
E07  26875671.971   141232775.7801      -1199.624          48.000    26875676.526   108217366.5221       -919.102          51.000  
E27  28462893.937   149573878.2851        579.897          47.000    28462899.905   114608765.8341        444.287          48.000  
E34  30339134.548   159433447.8431       1525.239          44.000    30339144.601   122163335.9451       1168.781          46.000  
G25  26483167.944   139170138.6251       1299.822          42.000    26483176.735   108444313.1681       1012.828          42.000  
E30  26771850.373   140687491.0951      -1302.813          48.000    26771852.815   107799776.3191       -998.140          51.000  
G06  27164206.316   142749014.8851       1285.912          43.000    27164212.839   111233079.0491       1001.971          42.000  
E02  29327092.164   154115196.6791      -2730.187          41.000    29327094.473   118088461.6531      -2091.964          45.000  
G22  27266350.729                1      -3819.339          26.000                                                                  
G17  26491841.960   139215960.6731      -3916.495          33.000    26491840.297   108480178.9811      -3052.090          43.000  
E18  27863826.560   146425872.4241      -5745.901          40.000                                                                  
> 2024 04 16 23 30 30.0100000  0 27                     
G13  25751474.412   135324848.496       -4243.645          48.000                                                                  
G15  24650702.860   129540326.327       -3043.609          48.000    24650704.996   100940548.423       -2371.760          44.000  
G19  25050093.239   131639622.330       -2968.353          44.000                                                                  
G24  23897060.038   125580098.159         516.315          49.000    23897059.586    97854730.908         402.509          47.000  
R09  23846132.772   127337094.152         441.205          52.000    23846132.522    99040261.671         343.146          48.000  
R16  23941632.854   127891921.893       -1987.805          51.000    23941632.221    99472026.272       -1546.021          48.000  
R06  24375214.383   130070705.690       -3939.397          36.000                                                                  
R17  26431357.408   141439567.099       -3356.163          34.000    26431354.395                       -2611.000          31.000  
G12  24627194.014   129416992.338         279.064          48.000    24627191.684   100844714.685         217.506          46.000  
E08  28576474.367   150170445.313       -3504.162          46.000    28576485.072   115065707.034       -2685.056          51.000  
S31  41850591.845   219926323.631        -749.205          45.000  
S33  42803204.342   224932305.273        -749.969          43.000  
G11  28021152.723   147252162.0941       1896.733          38.000                                                                  
E36  30821107.553                        -107.253          29.000    30821113.843   124103873.786         -82.238          40.000  
R19  24863544.699   133003577.437        2589.356          38.000    24863547.538   103447408.568        2014.109          45.000  
R07  24046529.690   128722980.753        -511.422          51.000    24046528.696   100117899.739        -397.674          49.000  
R18  24252031.039   129459088.815        -170.388          50.000    24252032.405   100690587.690        -132.461          48.000  
E07  26882561.482   141268980.082       -1213.974          48.000    26882565.953   108245107.465        -930.228          51.000  
E27  28459598.333   149556562.026         574.511          46.000    28459604.609   114595497.711         440.169          49.000  
E34  30330439.918   159387756.624        1520.764          45.000    30330449.292   122128326.200        1165.107          46.000  
G25  26475763.529   139131226.235        1294.235          43.000    26475771.509   108413992.172        1008.445          42.000  
E30  26779299.906   140726639.549       -1307.313          47.000    26779302.427   107829773.243       -1001.725          51.000  
G06  27156892.255   142710579.315        1276.374          43.000    27156897.229   111203129.488         994.632          39.000  
E02  29342677.713   154197095.012       -2730.066          42.000    29342679.313   118151214.885       -2091.700          45.000  
G22  27288153.371                       -3819.698          30.000                                                                  
G17  26514233.925   139333623.793       -3927.490          33.000    26514230.726   108571864.509       -3060.450          42.000  
E18  27896636.044   146598284.570       -5748.196          41.000                                                                  
> 2024 04 16 23 31 00.0100000  0 27                     
G13  25775723.469   135452276.435       -4251.553          48.000                                                                  
G15  24668116.045   129631833.467       -3056.810          49.000    24668119.214   101011852.478       -2381.940          45.000  
G19  25067083.178   131728907.469       -2983.983          44.000                                                                  
G24  23894139.454   125564751.174         506.622          49.000    23894139.327    97842772.270         394.812          47.000  
R09  23843667.715   127323925.909         436.609          52.000    23843666.534    99030019.788         339.667          48.000  
R16  23952807.535   127951610.976       -1991.516          52.000    23952806.461    99518451.124       -1548.975          49.000  
R06  24397406.059   130189118.146       -3954.844          36.000                                                                  
R17  26450231.823                       -3377.095          28.000    26450232.281                       -2626.728          28.000  
G12  24625624.605   129408749.868         270.430          47.000    24625623.176   100838292.125         210.762          46.000  
E08  28596498.590   150275670.619       -3510.719          47.000    28596508.799   115146333.843       -2690.015          50.000  
S31  41854870.297   219948807.880        -749.823          45.000  
S33  42807487.305   224954813.160        -750.916          43.000  
G11  28010320.668   147195242.543        1897.705          41.000    28010349.097   114697707.6401       1478.599          41.000  
E36  30821766.336                        -120.972          29.000    30821764.747   124106492.908         -92.362          42.000  
R19  24849059.499   132926093.267        2575.885          38.000    24849061.065   103387143.514        2003.521          44.000  
R07  24049472.819   128738729.713        -538.663          52.000    24049471.413   100130148.910        -418.884          49.000  
R18  24253062.807   129464592.472        -196.632          51.000    24253062.649   100694868.394        -152.942          48.000  
E07  26889533.481   141305617.271       -1228.449          48.000    26889537.952   108273180.088        -941.168          51.000  
E27  28456332.597   149539405.034         569.335          46.000    28456339.887   114582351.625         436.217          49.000  
E34  30321769.621   159342202.698        1516.238          43.000    30321779.970   122093421.639        1161.804          46.000  
G25  26468389.946   139092480.061        1288.794          43.000    26468397.837   108383800.709        1004.309          43.000  
E30  26786773.921   140765922.423       -1311.540          47.000    26786777.307   107859873.154       -1004.949          51.000  
G06  27149632.142   142672426.556        1266.860          42.000    27149636.541   111173400.323         986.906          40.000  
E02  29358261.956   154278985.530       -2729.375          42.000    29358261.866   118213962.200       -2091.381          44.000  
G22  27309962.470   143514859.7881      -3820.291          30.000                                                                  
G17  26536681.810                       -3938.495          27.000    26536682.950   108663805.140       -3068.847          42.000  
E18  27929457.637   146770759.559       -5750.118          42.000                                                                  
> 2024 04 16 23 31 30.0100000  0 27                     
G13  25800020.391   135579953.280       -4260.232          48.000                                                                  
G15  24685606.986   129723748.526       -3070.823          49.000    24685610.303   101083474.366       -2392.879          45.000  
G19  25084165.532   131818670.411       -3000.166          46.000                                                                  
G24  23891276.504   125549706.261         496.283          49.000    23891276.312    97831048.987         386.603          47.000  
R09  23841230.781   127310908.403         431.232          52.000    23841229.444    99019895.164         335.370          49.000  
R16  23964004.524   128011424.268       -1996.124          52.000    23964003.034    99564972.584       -1552.551          47.000  
R06  24419684.403   130308003.255       -3970.900          36.000                                                                  
R17  26469220.342                       -3397.639          26.000    26469223.763                       -2642.708          31.000  
G12  24624109.550   129400785.126         260.528          48.000    24624107.061   100832085.964         203.176          45.000  
E08  28616562.254   150381104.069       -3517.979          47.000    28616572.071   115227120.144       -2695.632          50.000  
S31  41859153.340   219971315.969        -750.699          45.000  
S33  42811774.675   224977344.234        -751.652          43.000  
G11  27999485.089   147138307.325        1897.873          43.000    27999512.250   114653344.447        1478.984          43.000  
E36  30822496.770   161973269.7321       -134.219          29.000    30822492.048   124109420.873        -102.822          41.000  
R19  24834654.390   132849032.718        2561.029          40.000    24834655.417   103327207.881        1992.278          44.000  
R07  24052569.673   128755307.259        -566.650          51.000    24052568.367   100143042.545        -440.806          49.000  
R18  24254243.075   129470897.219        -223.755          49.000    24254243.626   100699772.175        -174.075          48.000  
E07  26896589.171   141342695.831       -1243.458          49.000    26896594.100   108301590.919        -952.694          51.000  
E27  28453099.740   149522415.571         563.415          46.000    28453106.877   114569333.910         431.559          49.000  
E34  30313128.922   159296797.034        1510.865          42.000    30313139.198   122058630.630        1157.590          45.000  
G25  26461050.177   139053908.593        1282.917          43.000    26461057.796   108353745.412         999.221          42.000  
G17  26559225.772                3      -3947.867          28.000    26559199.463   108756005.368       -3077.755          42.000  
E30  26794275.682   140805347.647       -1316.671          46.000    26794279.736   107890082.136       -1008.937          51.000  
G06  27142428.300   142634568.312        1256.915          44.000    27142432.094   111143900.663         979.263          40.000  
E02  29373843.860   154360876.673       -2729.631          41.000    29373845.514   118276709.954       -2091.775          45.000  
G22  27331770.014                       -3820.370          28.000                                                                  
E18  27962292.406   146943302.739       -5752.532          43.000                                                                  
> 2024 04 16 23 32 00.0100000  0 27                     
G13  25824364.998   135707883.467       -4268.485          47.000                                                                  
G15  24703176.971   129816075.963       -3084.278          50.000    24703179.473   101155417.594       -2403.301          44.000  
G19  25101339.222   131908915.652       -3016.311          46.000                                                                  
G24  23888472.638   125534972.361         486.084          48.000    23888472.312    97819568.070         378.802          47.000  
R09  23838821.917   127298048.058         426.038          52.000    23838821.194    99009892.756         331.506          50.000  
R16  23975226.815   128071369.652       -2000.293          51.000    23975225.566    99611596.810       -1555.780          49.000  
R06  24442051.940   130427364.146       -3986.010          37.000                                                                  
R17  26488334.752                3      -3413.246          15.000    26488330.667                       -2658.190          29.000  
G12  24622648.528   129393103.749         251.500          48.000    24622645.528   100826100.592         195.966          45.000  
E08  28636666.261   150486751.115       -3524.904          47.000    28636676.130   115308070.107       -2700.833          49.000  
S31  41863442.386   219993854.582        -751.963          44.000  
S33  42816068.162   224999905.702        -752.763          43.000  
G11  27988648.113   147081366.461        1898.191          42.000    27988674.249   114608976.949        1479.286          44.000  
E36  30823289.664   161977538.9501       -147.662          29.000    30823297.442   124112663.946        -113.259          42.000  
R19  24820329.297   132772407.986        2546.833          39.000    24820331.774   103267611.270        1980.962          46.000  
R07  24055822.189   128772721.144        -594.384          52.000    24055820.964   100156586.634        -462.182          49.000  
R18  24255575.846   129478011.900        -250.595          50.000    24255576.895   100705305.903        -194.889          49.000  
E07  26903730.465   141380222.767       -1258.273          49.000    26903735.399   108330345.316        -964.106          52.000  
E27  28449899.711   149505600.344         557.810          47.000    28449906.797   114556449.685         427.402          49.000  
E34  30304519.134   159251548.896        1505.818          44.000    30304528.879   122023960.375        1153.739          46.000  
G25  26453744.393   139015518.754        1276.755          42.000    26453751.848   108323831.622         994.816          42.000  
E30  26801806.069   140844921.486       -1321.435          46.000    26801810.391   107920405.006       -1012.539          51.000  
G06  27135281.840   142597014.813        1246.925          44.000    27135285.966   111114638.454         971.475          41.000  
E02  29389428.768   154442775.105       -2729.895          41.000    29389430.834   118339463.258       -2091.695          46.000  
G22  27353588.020   143744082.166       -3820.897          33.000                                                                  
E18  27995138.784   147115918.119       -5754.812          43.000                                                                  
G17                                                                  26581780.030   108848468.030       -3086.059          42.000  
> 2024 04 16 23 32 30.0100000  0 27                     
G13  25848755.628   135836052.990       -4276.229          47.000                                                                  
G15  24720821.781   129908802.122       -3097.354          49.000    24720825.484   101227671.540       -2413.575          45.000  
G19  25118601.393   131999629.225       -3031.493          45.000                                                                  
G24  23885726.499   125520539.816         476.062          48.000    23885725.996    97808321.953         370.905          47.000  
R09  23836440.500   127285333.553         421.466          51.000    23836439.305    99000003.784         327.808          49.000  
R16  23986469.769   128131435.121       -2004.095          51.000    23986468.625    99658314.372       -1558.685          48.000  
R06  24464506.399   130547184.440       -4001.656          38.000                                                                  
G12  24621236.739   129385693.900         242.535          47.000    24621236.070   100820326.820         188.921          46.000  
E08  28656808.780   150592598.536       -3531.544          48.000    28656818.351   115389173.607       -2705.959          49.000  
S31  41867735.232   220016413.170        -752.265          44.000  
S33  42820365.118   225022487.296        -752.873          42.000  
G11  27977807.421   147024411.093        1898.342          41.000    27977833.442   114564598.284        1479.490          40.000  
R19  24806083.808   132696211.611        2532.873          38.000    24806087.550   103208347.825        1969.943          45.000  
R07  24059229.380   128790958.995        -621.599          52.000    24059228.372   100170771.608        -483.425          49.000  
R18  24257058.090   129485926.156        -277.010          50.000    24257059.148   100711461.504        -215.401          49.000  
E07  26910954.896   141418186.280       -1272.661          49.000    26910959.520   108359434.228        -975.158          52.000  
E27  28446731.026   149488947.316         552.419          47.000    28446737.282   114543689.731         423.292          48.000  
E34  30295936.584   159206449.024        1500.947          45.000    30295946.119   121989403.672        1150.094          47.000  
G25  26446470.983   138977298.645        1271.247          42.000    26446477.776   108294050.098         990.371          41.000  
G17  26604421.390   139807150.7701      -3971.334          30.000    26604422.080   108941182.617       -3094.421          42.000  
E30  26809363.526   140884631.585       -1325.929          46.000    26809367.040   107950832.261       -1015.961          51.000  
G06  27128190.889   142559757.457        1236.844          43.000    27128195.819   111085606.949         963.875          42.000  
E02  29405011.608   154524668.893       -2729.586          40.000    29405014.415   118402213.023       -2091.536          45.000  
G22  27375400.204   143858705.708       -3820.969          35.000                                                                  
E18  28027998.373   147288590.845       -5756.776          44.000                                                                  
E36                                                                  30824179.362   124116213.948        -123.472          42.000  
R17                                                                  26507547.331                       -2673.614          28.000  
> 2024 04 16 23 33 00.0100000  0 27                     
G13  25873190.724   135964456.362       -4283.793          47.000                                                                  
G15  24738541.824   130001922.080       -3110.408          49.000    24738544.970   101300232.347       -2423.831          44.000  
G19  25135951.549   132090806.290       -3046.766          45.000                                                                  
G24  23883037.623   125506408.064         466.046          49.000    23883037.059    97797310.245         363.129          47.000  
R09  23834085.992   127272761.638         416.736          52.000    23834084.707    98990225.691         324.237          49.000  
R16  23997737.146   128191618.537       -2007.949          51.000    23997735.324    99705123.716       -1561.721          48.000  
R06  24487047.290   130667457.313       -4016.343          38.000                                                                  
R17  26526887.565                1      -3458.913          25.000    26526879.196                       -2689.570          29.000  
G12  24619877.864   129378552.359         233.746          46.000    24619876.909   100814762.106         181.995          46.000  
E08  28676988.257   150698642.225       -3537.960          47.000    28676998.169   115470427.480       -2710.955          49.000  
S31  41872030.703   220038987.680        -752.373          44.000  
S33  42824665.762   225045085.540        -753.532          43.000  
G11  27966964.706   146967441.837        1899.407          43.000    27966989.735   114520208.836        1479.900          42.000  
E36  30825125.066   161987128.970        -174.284          29.000    30825137.090   124120069.841        -133.504          43.000  
R19  24791920.189   132620446.291        2518.433          38.000    24791923.500   103149419.579        1958.662          45.000  
R07  24062788.811   128810018.103        -648.817          51.000    24062788.731   100185595.320        -504.626          50.000  
R18  24258690.487   129494638.851        -303.654          50.000    24258691.088   100718238.141        -236.216          49.000  
E07  26918261.349   141456583.760       -1287.096          48.000    26918266.236   108388855.651        -986.188          52.000  
E27  28443592.470   149472453.590         547.249          47.000    28443598.376   114531051.852         419.370          48.000  
E34  30287382.954   159161497.135        1495.887          45.000    30287391.917   121954960.348        1146.166          47.000  
G25  26439229.228   138939245.731        1265.742          42.000    26439236.546   108264398.807         986.445          42.000  
G17  26627125.090   139926451.834       -3981.686          32.000    26627124.139   109034144.626       -3102.624          42.000  
E30  26816946.431   140924474.659       -1330.284          47.000    26816948.933   107981361.404       -1019.228          51.000  
G06  27121158.135   142522796.846        1226.912          45.000    27121162.204   111056806.690         956.232          43.000  
E02  29420594.935   154606555.203       -2729.161          41.000    29420596.684   118464957.133       -2091.341          45.000  
G22  27397211.492   143973330.118       -3820.715          35.000                                                                  
E18  28060867.055   147461315.293       -5758.226          45.000                                                                  
> 2024 04 16 23 33 30.0100000  0 27                     
G13  25897668.729   136093088.518       -4291.577          47.000                                                                  
G15  24756335.616   130095430.625       -3123.507          48.000    24756339.816   101373095.932       -2433.873          45.000  
G19  25153388.489   132182441.754       -3062.221          45.000                                                                  
G24  23880405.232   125492576.289         455.945          48.000    23880404.919    97786532.271         355.267          47.000  
R09  23831758.756   127260330.102         411.884          52.000    23831756.642    98980556.813         320.380          50.000  
R16  24009024.750   128251917.047       -2012.065          52.000    24009022.890    99752022.536       -1564.846          48.000  
R06  24509671.482   130788175.349       -4031.232          38.000                                                                  
R17  26546327.535                3      -3477.409          22.000    26546317.023                3      -2712.257          21.000  
G12  24618568.843   129371675.805         224.767          46.000    24618568.260   100809403.864         175.014          45.000  
E08  28697204.202   150804877.852       -3544.561          48.000    28697214.704   115551828.412       -2716.005          49.000  
S31  41876329.219   220061577.078        -753.510          44.000  
S33  42828968.506   225067697.625        -754.115          43.000  
G11  27956119.762   146910458.780        1899.317          42.000    27956144.939   114475808.704        1480.103          42.000  
E36  30826155.119                        -188.194          27.000    30826170.834   124124230.281        -143.904          44.000  
R19  24777838.344   132545113.597        2503.658          39.000    24777840.920   103090827.826        1947.138          46.000  
R07  24066503.361   128829895.424        -676.306          52.000    24066501.928   100201055.406        -526.024          50.000  
R18  24260470.917   129504148.735        -330.434          49.000    24260472.603   100725634.820        -257.033          49.000  
E07  26925650.539   141495412.312       -1301.539          48.000    26925655.002   108418607.380        -997.320          52.000  
E27  28440482.721   149456116.045         541.916          47.000    28440489.389   114518533.644         415.236          48.000  
E34  30278856.212   159116692.761        1490.844          45.000    30278866.580   121920630.103        1142.372          49.000  
G25  26432018.053   138901356.956        1260.298          41.000    26432025.742   108234875.482         981.939          42.000  
G17  26649887.010   140046064.832       -3992.305          37.000    26649884.699   109127349.569       -3110.890          39.000  
E30  26824552.995   140964447.230       -1334.697          47.000    26824555.324   108011989.778       -1022.705          51.000  
G06  27114181.167   142486133.278        1217.040          45.000    27114184.853   111028237.912         948.048          44.000  
E02  29436174.830   154688431.073       -2729.088          41.000    29436177.873   118527693.169       -2091.185          45.000  
G22  27419023.682   144087951.840       -3820.634          34.000                                                                  
E18  28093743.995   147634085.606       -5759.928          45.000                                                                  
> 2024 04 16 23 34 00.0100000  0 27                     
G13  25922190.789   136221947.723       -4299.133          46.000                                                                  
G15  24774203.775   130189325.894       -3136.291          49.000    24774208.585   101446260.852       -2443.804          45.000  
G19  25170912.374   132274533.816       -3077.196          45.000                                                                  
G24  23877830.616   125479046.958         445.947          49.000    23877830.444    97775989.969         347.406          47.000  
R09  23829455.894   127248038.930         407.397          50.000    23829455.139    98970997.095         316.791          50.000  
R16  24020334.896   128312331.403       -2015.609          53.000    24020333.411    99799011.471       -1567.774          49.000  
R06  24532377.109   130909335.019       -4045.869          40.000                                                                  
R17  26565885.974                3      -3495.669          21.000    26565866.180                3      -2715.722          22.000  
G12  24617311.052   129365064.120         216.090          46.000    24617308.872   100804251.990         168.319          44.000  
E08  28717457.483   150911304.308       -3550.721          48.000    28717467.457   115633375.547       -2720.658          49.000  
S31  41880630.801   220084181.793        -753.630          44.000  
S33  42833274.286   225090325.419        -754.335          43.000  
G11  27945272.586   146853465.413        1899.933          43.000    27945296.950   114431400.532        1480.273          42.000  
E36  30827270.968                        -200.684          28.000    30827279.279   124128696.483        -154.010          43.000  
R19  24763836.831   132470219.305        2489.161          39.000    24763839.051   103032577.039        1936.000          45.000  
R07  24070369.687   128850591.480        -703.500          52.000    24070368.003   100217152.305        -547.136          50.000  
R18  24262401.787   129514457.754        -356.869          49.000    24262404.012   100733653.018        -277.690          50.000  
E07  26933121.052   141534672.264       -1315.871          48.000    26933126.211   108448689.659       -1008.207          52.000  
E27  28437403.335   149439934.840         536.748          47.000    28437410.097   114506135.212         411.339          48.000  
E34  30270358.476   159072038.743        1485.920          44.000    30270369.220   121886415.090        1138.556          50.000  
G25  26424838.953   138863632.736        1254.719          42.000    26424846.166   108205480.343         977.594          41.000  
G17  26672707.594   140165987.621       -4002.397          38.000    26672704.470   109220795.879       -3118.846          37.000  
E30  26832184.169   141004549.078       -1338.818          47.000    26832186.137   108042717.225       -1026.005          51.000  
G06  27107261.160   142449770.314        1207.169          44.000    27107265.382   110999903.343         940.515          44.000  
E02  29451754.315   154770296.668       -2728.634          43.000    29451755.743   118590421.381       -2090.667          44.000  
G22  27440835.237   144202570.301       -3820.243          36.000                                                                  
E18  28126628.973   147806899.200       -5761.164          46.000                                                                  
> 2024 04 16 23 34 30.0100000  0 28                     
G13  25946758.949   136351045.732       -4307.383          47.000                                                                  
G15  24792147.737   130283620.198       -3149.961          49.000    24792151.915   101519736.711       -2454.502          45.000  
G19  25188526.912   132367094.594       -3093.267          46.000                                                                  
G24  23875316.779   125465836.787         435.016          48.000    23875316.629    97765696.368         338.837          47.000  
R09  23827183.072   127235903.181         401.770          50.000    23827182.796    98961558.275         312.476          49.000  
R08  26673364.630                1       2239.972          27.000                                                                  
R16  24031669.224   128372876.933       -2020.594          52.000    24031668.225    99846102.456       -1571.570          50.000  
R06  24555167.376   131030946.571       -4061.542          40.000                                                                  
R17  26585551.852                3      -3516.063          20.000    26585533.661                3      -2735.500          24.000  
G12  24616106.055   129358731.498         206.202          47.000    24616103.543   100799317.581         160.691          44.000  
E08  28737749.340   151017934.781       -3557.785          48.000    28737758.875   115715079.010       -2726.174          49.000  
S31  41884937.979   220106815.478        -755.026          44.000  
S33  42837585.452   225112982.298        -756.051          43.000  
G11  27934426.345   146796479.587        1899.149          42.000    27934450.882   114386998.222        1479.781          42.000  
E36  30828465.213                1       -215.884          26.000    30828467.207   124133480.571        -164.828          43.000  
R19  24749921.542   132395782.747        2473.424          40.000    24749924.841   102974682.316        1923.614          47.000  
R07  24074391.498   128872121.068        -731.762          52.000    24074389.970   100233897.520        -569.083          50.000  
R18  24264486.228   129525582.265        -384.662          49.000    24264487.694   100742305.502        -299.124          50.000  
E07  26940676.587   141574378.230       -1331.120          47.000    26940682.081   108479113.702       -1019.861          52.000  
E27  28434357.332   149423924.339         530.757          47.000    28434363.221   114493867.599         406.722          48.000  
E34  30261892.825   159027552.142        1479.907          45.000    30261902.699   121852328.329        1133.970          49.000  
G25  26417694.233   138826087.618        1248.264          43.000    26417700.949   108176224.749         972.592          40.000  
G17  26695590.176   140286232.355       -4013.513          41.000    26695585.580   109314493.107       -3127.686          36.000  
E30  26839842.996   141044794.246       -1344.011          48.000    26839844.307   108073554.472       -1029.725          51.000  
G06  27100401.891   142413725.856        1195.946          45.000    27100406.317   110971816.972         931.918          44.000  
E02  29467332.602   154852166.541       -2729.199          42.000    29467335.061   118653152.905       -2091.217          44.000  
G22  27462648.669   144317199.765       -3821.104          35.000                                                                  
E18  28159523.980   147979767.797       -5763.284          45.000                                                                  
> 2024 04 16 23 35 00.0100000  0 28                     
G13  25971373.353   136480392.174       -4315.508          46.000                                                                  
G15  24810169.822   130378323.037       -3163.365          49.000    24810173.686   101593530.882       -2464.988          45.000  
G19  25206231.870   132460133.899       -3109.126          46.000                                                                  
G24  23872866.501   125452959.784         423.724          48.000    23872866.057    97755662.375         330.219          47.000  
R09  23824941.294   127223935.133         396.210          50.000    23824941.362    98952249.883         308.191          50.000  
R08  26660848.771                1       2220.921          24.000    26660849.810                3       1726.321          26.000  
R16  24043030.058   128433566.283       -2025.333          52.000    24043029.667    99893305.290       -1575.183          50.000  
R06  24578042.716   131153017.956       -4076.608          38.000                                                                  
R17  26605290.578                3      -3536.719          21.000    26605338.283                3      -2752.353          25.000  
G12  24614956.569   129352689.488         196.760          47.000    24614953.761   100794609.645         153.169          44.000  
E08  28758081.459   151124779.693       -3564.882          48.000    28758091.306   115796946.763       -2731.448          50.000  
S31  41889252.759   220129491.389        -756.497          44.000  
S33  42841905.313   225135681.359        -757.388          43.000  
G11  27923585.112   146739516.251        1898.356          42.000    27923608.823   114342613.419        1479.401          41.000  
R19  24736095.194   132321821.180        2457.726          39.000    24736098.128   102917157.020        1911.392          46.000  
R07  24078571.108   128894496.096        -759.773          51.000    24078569.134   100251300.286        -590.942          49.000  
R18  24266725.181   129537535.769        -412.178          49.000    24266727.881   100751602.756        -320.586          50.000  
E07  26948320.002   141614542.053       -1346.339          47.000    26948325.209   108509888.566       -1031.501          52.000  
E27  28431345.817   149408096.211         524.687          47.000    28431351.074   114481739.723         402.058          48.000  
E34  30253460.879   158983247.264        1473.891          45.000    30253471.144   121818380.791        1129.411          48.000  
G25  26410585.880   138788733.401        1241.990          43.000    26410592.376   108147117.940         967.821          40.000  
G17  26718535.576   140406807.705       -4024.640          43.000    26718530.111   109408447.922       -3136.053          35.000  
E30  26847531.087   141085194.049       -1348.994          48.000    26847532.323   108104510.213       -1033.582          51.000  
G06  27093606.126   142378015.020        1185.236          44.000    27093609.921   110943990.556         923.320          44.000  
E02  29482915.165   154934052.486       -2729.670          43.000    29482916.875   118715896.702       -2091.501          43.000  
G22  27484466.021   144431851.381       -3821.993          34.000                                                                  
E18  28192431.515   148152700.351       -5765.411          45.000                                                                  
E36                                                                  30829736.373   124138592.519        -175.694          43.000  
> 2024 04 16 23 35 30.0100000  0 28                     
G13  25996030.821   136609969.993       -4322.662          45.000                                                                  
G15  24828266.367   130473417.624       -3175.903          49.000    24828269.614   101667630.310       -2474.668          44.000  
G19  25224024.255   132553634.895       -3123.915          47.000                                                                  
G24  23870477.196   125440403.301         413.782          49.000    23870476.625    97745878.143         322.339          47.000  
R09  23822729.129   127212120.034         391.589          51.000    23822728.529    98943060.448         304.657          50.000  
R08  26648463.423                1       2202.746          31.000    26648460.179                        1712.734          30.000  
R16  24054415.717   128494384.290       -2028.887          53.000    24054414.666    99940608.215       -1577.984          50.000  
R06  24601001.341   131275529.911       -4090.280          38.000                                                                  
R17  26625188.728                3      -3557.898          23.000    26625212.390                3      -2772.966          17.000  
G12  24613858.339   129346922.815         188.167          46.000    24613856.883   100790116.241         146.669          44.000  
E08  28778450.580   151231822.873       -3570.990          48.000    28778461.148   115878966.447       -2736.124          49.000  
S31  41893573.352   220152194.660        -756.723          44.000  
S33  42846230.173   225158408.094        -757.772          42.000  
G11  27912746.562   146682563.817        1898.627          43.000    27912768.916   114298237.123        1479.443          42.000  
E36  30831077.106                        -242.371          28.000    30831083.911   124144021.915        -185.929          42.000  
R19  24722355.429   132248324.546        2442.454          41.000    24722357.261   102859993.303        1899.848          44.000  
R07  24082906.317   128917701.145        -786.777          52.000    24082904.047   100269348.642        -611.913          48.000  
R18  24269118.768   129550304.754        -438.734          50.000    24269119.338   100761534.280        -341.211          50.000  
E07  26956047.040   141655148.947       -1360.403          48.000    26956052.465   108541002.938       -1042.385          52.000  
E27  28428365.110   149392435.427         519.838          47.000    28428370.531   114469740.083         398.198          47.000  
E34  30245061.679   158939111.812        1468.762          44.000    30245071.808   121784563.074        1125.392          47.000  
G25  26403511.889   138751555.387        1236.823          45.000    26403517.267   108118148.420         963.486          39.000  
G17  26741540.056   140527696.999       -4034.332          43.000    26741533.802   109502647.463       -3143.518          37.000  
E30  26855244.864   141125733.219       -1352.971          48.000    26855246.831   108135572.741       -1036.829          51.000  
G06  27086871.327   142342626.278        1174.816          43.000    27086875.291   110916415.125         915.510          44.000  
E02  29498498.528   155015939.615       -2728.973          44.000    29498499.765   118778641.388       -2091.006          43.000  
G22  27506284.885   144546510.134       -3821.544          34.000                                                                  
E18  28225348.818   148325679.271       -5766.153          46.000                                                                  
> 2024 04 16 23 36 00.0100000  0 28                     
G13  26020730.511   136739765.693       -4330.303          45.000                                                                  
G15  24846433.785   130568890.510       -3188.874          48.000    24846437.334   101742024.526       -2484.898          44.000  
G19  25241901.725   132647584.070       -3139.180          47.000                                                                  
G24  23868147.221   125428158.281         402.960          49.000    23868146.513    97736336.591         313.861          47.000  
R09  23820543.015   127200446.200         386.621          51.000    23820541.876    98933980.898         300.659          50.000  
R08  26636174.137   142635402.4401       2183.112          35.000    26636174.093   110938721.8191       1698.371          32.000  
R16  24065821.569   128555320.327       -2033.249          51.000    24065821.927    99988002.918       -1581.411          50.000  
R06  24624040.625   131398466.753       -4105.260          39.000    24624847.509                3      -2858.117          15.000  
R17  26645201.314                3      -3578.167          19.000    26645193.148                1      -2781.936          27.000  
G12  24612810.466   129341419.843         178.896          45.000    24612809.521   100785828.322         139.248          45.000  
E08  28798855.757   151339051.668       -3577.482          47.000    28798866.513   115961128.346       -2741.215          49.000  
S31  41897896.775   220174914.380        -757.855          44.000  
S33  42850557.760   225181150.757        -758.411          42.000  
G11  27901908.162   146625614.208        1897.906          44.000    27901929.319   114253863.074        1479.111          43.000  
E36  30832504.635                        -256.628          30.000    30832509.192   124149761.107        -196.473          41.000  
R19  24708702.018   132175286.560        2426.899          41.000    24708702.695   102803186.288        1887.500          44.000  
R07  24087392.973   128941724.628        -814.559          51.000    24087391.761   100288033.522        -633.564          49.000  
R18  24271659.978   129563879.188        -466.067          49.000    24271662.022   100772092.243        -362.444          49.000  
E07  26963856.456   141696187.698       -1375.305          47.000    26963861.884   108572448.199       -1053.733          52.000  
E27  28425414.864   149376930.663         514.040          47.000    28425419.960   114457859.978         393.861          48.000  
E34  30236694.000   158895137.038        1463.041          44.000    30236703.250   121750868.447        1120.949          47.000  
G25  26396468.502   138714542.357        1230.876          44.000    26396473.628   108089307.389         959.295          40.000  
G17  26764601.318   140648886.109       -4044.867          43.000    26764596.748   109597080.536       -3151.746          39.000  
E30  26862983.428   141166400.000       -1357.717          48.000    26862985.411   108166733.037       -1040.341          51.000  
G06  27080196.492   142307551.623        1163.842          44.000    27080200.419   110889084.474         906.722          43.000  
E02  29514079.249   155097816.680       -2729.236          43.000    29514080.058   118841378.381       -2091.039          43.000  
G22  27528103.272                       -3821.187          31.000                                                                  
E18  28258272.388   148498690.523       -5767.582          46.000                                                                  
> 2024 04 16 23 36 30.0100000  0 28                     
G13  26045472.977   136869784.199       -4337.557          44.000                                                                  
G15  24864675.097   130664746.976       -3201.425          49.000    24864678.316   101816717.643       -2494.572          43.000  
G19  25259866.675   132741987.152       -3154.153          47.000                                                                  
G24  23865878.020   125416234.624         392.169          49.000    23865877.356    97727045.451         305.780          47.000  
R09  23818385.091   127188921.717         381.732          51.000    23818383.307    98925017.508         296.936          49.000  
R08  26623990.172   142570163.879        2165.317          38.000    26623993.350   110887980.845        1684.154          32.000  
R16  24077253.646   128616382.618       -2037.384          52.000    24077253.141   100035495.826       -1584.652          50.000  
R06  24647160.061   131521832.223       -4119.186          39.000                                                                  
R17  26665270.600                3      -3591.920          18.000    26665279.058                3      -2795.954          23.000  
G12  24611815.291   129336187.959         170.001          46.000    24611814.153   100781751.613         132.384          45.000  
E08  28819297.878   151446472.469       -3583.732          48.000    28819308.680   116043437.353       -2746.040          49.000  
S31  41902224.553   220197658.959        -758.383          44.000  
S33  42854890.211   225203917.959        -759.181          42.000  
G11  27891071.962   146568678.492        1897.714          43.000    27891092.670   114209499.809        1478.572          43.000  
E36  30834010.648   162033812.4691       -270.450          31.000    30834012.892   124155816.969        -206.967          41.000  
R19  24695136.160   132102719.768        2411.253          41.000    24695138.510   102746745.766        1875.432          46.000  
R07  24092035.283   128966574.143        -841.963          51.000    24092034.220   100307360.904        -654.921          49.000  
R18  24274356.093   129578268.310        -493.199          48.000    24274357.888   100783283.888        -383.515          50.000  
E07  26971750.350   141737666.040       -1389.668          48.000    26971754.677   108604230.297       -1064.899          52.000  
E27  28422494.843   149361589.429         508.682          47.000    28422500.595   114446105.181         389.849          48.000  
E34  30228357.918   158851333.197        1457.342          44.000    30228367.388   121717304.793        1116.607          48.000  
G25  26389457.451   138677702.022        1225.114          44.000    26389462.820   108060600.973         954.680          40.000  
G17  26787720.571   140770380.177       -4054.736          44.000    26787716.801   109691751.300       -3159.479          38.000  
E30  26870747.450   141207201.631       -1362.194          48.000    26870749.549   108197996.674       -1043.791          51.000  
G06  27073584.120   142272802.123        1152.901          44.000    27073587.526   110862007.121         898.296          43.000  
E02  29529659.361   155179691.359       -2728.924          44.000    29529660.413   118904113.585       -2091.041          43.000  
G22  27549924.232                       -3821.919          31.000                                                                  
E18  28291202.678   148671739.058       -5768.828          47.000                                                                  
> 2024 04 16 23 37 00.0100000  0 28                     
G13  26070254.529   137000011.880       -4344.703          44.000                                                                  
G15  24882986.857   130760973.363       -3213.871          50.000    24882990.547   101891699.018       -2504.432          44.000  
G19  25277914.737   132836830.183       -3168.881          48.000                                                                  
G24  23863668.835   125404622.918         381.610          49.000    23863667.750    97717997.387         297.369          47.000  
R09  23816252.319   127177535.298         377.136          51.000    23816251.637    98916161.482         293.329          50.000  
R08  26611908.610   142505479.813        2146.858          36.000    26611904.722                        1669.517          28.000  
R16  24088706.528   128677560.018       -2041.292          52.000    24088705.476   100083078.279       -1587.724          49.000  
R06  24670355.736   131645610.280       -4132.857          39.000    24670251.752                3      -2899.609          14.000  
R17  26685512.270                3      -3614.155          22.000                                                                  
G12  24610869.481   129331215.107         161.413          47.000    24610867.428   100777876.769         125.506          44.000  
E08  28839773.919   151554072.221       -3589.784          47.000    28839784.740   116125883.513       -2750.658          49.000  
S31  41906555.422   220220416.490        -759.116          44.000  
S33  42859225.293   225226698.996        -759.867          42.000  
G11  27880236.233   146511748.228        1897.504          41.000    27880257.517   114165140.764        1478.267          44.000  
E36  30835593.787   162042118.536        -283.495          30.000    30835593.314   124162181.433        -217.611          40.000  
R19  24681657.738   132030617.590        2395.281          41.000    24681658.771   102690666.618        1863.092          45.000  
R07  24096830.188   128992237.857        -869.273          52.000    24096829.528   100327321.533        -676.015          51.000  
R18  24277201.581   129593461.981        -520.111          49.000    24277204.448   100795101.245        -404.471          50.000  
E07  26979724.657   141779572.370       -1404.232          48.000    26979729.073   108636340.326       -1075.968          52.000  
E27  28419602.825   149346399.995         503.521          46.000    28419610.031   114434466.718         385.713          49.000  
E34  30220052.817   158807691.147        1451.719          45.000    30220062.853   121683865.136        1112.389          49.000  
G25  26382476.861   138641022.844        1219.725          43.000    26382482.559   108032020.123         950.346          40.000  
G17  26810895.173   140892165.073       -4064.600          43.000    26810892.301   109786648.676       -3167.688          38.000  
E30  26878536.047   141248126.019       -1366.369          48.000    26878536.961   108229354.381       -1046.894          50.000  
G06  27067032.084   142238369.404        1142.064          43.000    27067035.658   110835176.606         889.936          43.000  
E02  29545236.473   155261552.078       -2728.626          43.000    29545238.825   118966838.064       -2090.691          44.000  
G22  27571741.640                       -3821.219          30.000                                                                  
E18  28324136.749   148844810.521       -5769.554          46.000                                                                  
> 2024 04 16 23 37 30.0100000  0 28                     
G13  26095078.114   137130453.231       -4351.366          44.000                                                                  
G15  24901369.321   130857574.116       -3226.007          49.000    24901372.734   101966972.082       -2513.973          44.000  
G19  25296047.737   132932117.711       -3183.423          48.000                                                                  
G24  23861519.835   125393331.979         371.246          48.000    23861518.848    97709199.272         289.301          47.000  
R09  23814147.187   127166293.481         372.516          51.000    23814146.563    98907417.937         289.716          50.000  
R08  26599919.393                        2128.290          27.000    26599929.915   110787800.854        1655.257          35.000  
R16  24100182.368   128738859.773       -2045.086          53.000    24100181.081   100130755.878       -1590.586          49.000  
R06  24693629.800   131769803.502       -4146.402          39.000                                                                  
R17  26705842.762                3      -3627.449          22.000    26705836.183                3      -2832.247          16.000  
G12  24609973.723   129326507.404         152.654          47.000    24609971.516   100774208.500         119.053          44.000  
E08  28860284.930   151661856.234       -3595.604          47.000    28860295.949   116208470.834       -2755.095          50.000  
S31  41910889.747   220243194.329        -759.337          44.000  
S33  42863563.805   225249499.355        -760.293          42.000  
G11  27869403.561   146454833.352        1897.045          41.000    27869424.016   114120793.616        1478.133          43.000  
E36  30837250.191   162050835.340        -297.425          30.000    30837252.580   124168860.579        -227.944          39.000  
R19  24668266.812   131958991.978        2379.807          39.000    24668268.583   102634958.132        1850.865          45.000  
R07  24101777.232   129018722.067        -896.307          52.000    24101776.985   100347920.338        -697.058          49.000  
R18  24280200.484   129609468.041        -546.843          49.000    24280202.706   100807550.477        -425.336          50.000  
E07  26987781.545   141821913.256       -1418.427          47.000    26987785.896   108668783.330       -1086.775          51.000  
E27  28416743.116   149331368.829         498.641          46.000    28416749.585   114422949.501         382.049          50.000  
E34  30211780.284   158764220.088        1446.393          45.000    30211790.234   121650556.491        1108.205          49.000  
G25  26375528.999   138604511.467        1214.329          43.000    26375535.129   108003570.051         946.274          41.000  
G17  26834125.955   141014244.747       -4074.023          44.000    26834122.524   109881775.754       -3174.609          37.000  
E30  26886348.192   141289179.351       -1370.439          48.000    26886349.045   108260810.886       -1050.115          50.000  
G06  27060541.513   142204263.305        1131.658          43.000    27060545.934   110808600.606         881.856          44.000  
E02  29560812.417   155343405.508       -2728.046          42.000    29560814.999   119029556.923       -2090.363          45.000  
G22  27593558.393                1      -3821.680          28.000                                                                  
E18  28357076.419   149017908.823       -5770.114          46.000                                                                  
> 2024 04 16 23 38 00.0100000  0 27                     
G13  26119940.535   137261096.660       -4358.194          45.000                                                                  
G15  24919820.441   130954538.090       -3238.049          48.000    24919823.802   102042528.172       -2523.238          44.000  
G19  25314262.103   133027838.659       -3197.946          47.000                                                                  
G24  23859430.828   125382355.152         360.565          49.000    23859429.712    97700645.951         280.927          47.000  
R09  23812067.615   127155187.763         367.883          51.000    23812066.369    98898780.276         286.121          50.000  
R08  26588050.232   142377800.945        2109.351          36.000    26588063.679   110738365.672        1640.570          34.000  
R16  24111677.826   128800273.283       -2049.060          52.000    24111678.440   100178521.927       -1593.589          50.000  
R06  24716979.902   131894398.843       -4159.910          40.000                                                                  
R17  26726248.286                3      -3652.965          19.000                                                                  
G12  24609126.160   129322055.960         144.220          47.000    24609124.123   100770739.939         112.325          45.000  
E08  28880828.817   151769814.257       -3601.528          47.000    28880840.007   116291191.489       -2759.543          49.000  
S31  41915226.372   220265983.878        -759.864          44.000  
S33  42867905.176   225272312.911        -760.671          42.000  
G11  27858573.650   146397928.316        1896.679          41.000    27858593.574   114076454.045        1477.798          42.000  
E36  30838984.296                        -310.373          30.000    30838988.002   124175848.523        -238.225          40.000  
R19  24654964.675   131887838.140        2363.937          40.000    24654966.392   102579616.533        1838.665          46.000  
R07  24106876.394   129046017.567        -923.317          52.000    24106876.087   100369150.134        -718.098          49.000  
R18  24283349.299   129626278.914        -573.750          48.000    24283351.353   100820625.683        -446.245          49.000  
E07  26995919.602   141864679.895       -1432.629          48.000    26995924.083   108701552.552       -1097.648          51.000  
E27  28413912.407   149316486.956         493.540          47.000    28413918.042   114411546.682         378.134          50.000  
E34  30203539.222   158720913.719        1440.747          45.000    30203549.431   121617374.033        1103.921          50.000  
G25  26368611.638   138568159.075        1209.343          43.000    26368617.680   107975243.855         942.323          41.000  
G17  26857411.145   141136607.675       -4083.270          44.000    26857407.766   109977123.577       -3181.549          38.000  
E30  26894182.068   141330352.376       -1374.443          47.000    26894183.934   108292359.085       -1053.188          50.000  
G06  27054112.051   142170478.316        1120.683          43.000    27054116.835   110782274.844         873.486          44.000  
E02  29576386.388   155425242.758       -2727.505          42.000    29576387.025   119092263.426       -2089.848          43.000  
E18  28390019.106   149191022.440       -5770.667          47.000                                                                  
> 2024 04 16 23 38 30.0100000  0 27                     
G13  26144841.178   137391943.871       -4364.994          46.000                                                                  
G15  24938342.141   131051867.112       -3250.344          49.000    24938345.409   102118368.703       -2532.706          44.000  
G19  25332559.452   133123994.641       -3212.489          45.000                                                                  
G24  23857403.165   125371698.548         349.921          49.000    23857401.900    97692342.141         272.717          47.000  
R09  23810014.630   127144222.858         363.165          52.000    23810013.345    98890252.117         282.513          50.000  
R08  26576296.621   142314809.148        2090.461          37.000    26576303.142                3       1625.879          27.000  
R16  24123196.789   128861804.885       -2052.995          52.000    24123196.954   100226379.842       -1596.738          50.000  
R06  24740404.933   132019395.879       -4173.024          40.000                                                                  
R17  26746753.967                3      -3673.666          18.000    26746774.110                3      -2859.200          21.000  
G12  24608328.244   129317863.892         135.629          47.000    24608326.203   100767473.505         105.534          44.000  
E08  28901404.230   151877948.834       -3607.230          45.000    28901417.622   116374047.412       -2764.124          49.000  
S31  41919565.979   220288790.007        -760.506          44.000  
S33  42872249.009   225295141.546        -761.058          43.000  
G11  27847746.478   146341040.309        1895.820          41.000    27847765.742   114032127.728        1477.277          41.000  
R19  24641753.301   131817165.328        2347.817          41.000    24641755.127   102524649.082        1825.998          46.000  
R07  24112127.727   129074127.745        -950.544          52.000    24112126.823   100391013.577        -739.250          49.000  
R18  24286652.028   129643899.802        -600.914          50.000    24286652.445   100834330.871        -467.333          50.000  
E07  27004139.320   141907876.096       -1446.989          48.000    27004143.795   108734650.934       -1108.576          51.000  
E27  28411108.234   149301758.077         488.486          46.000    28411114.934   114400261.092         374.362          50.000  
E34  30195330.310   158677778.390        1434.966          45.000    30195340.565   121584322.635        1099.521          50.000  
G25  26361724.786   138531969.682        1203.782          42.000    26361730.333   107947044.646         938.107          40.000  
G17  26880750.570   141259255.616       -4093.079          43.000    26880747.231   110072693.438       -3189.044          37.000  
E30  26902040.718   141371648.444       -1378.464          48.000    26902042.314   108324001.558       -1056.264          50.000  
G06  27047745.006   142137021.620        1109.810          43.000    27047750.610   110756204.909         864.855          44.000  
E02  29591956.253   155507067.809       -2727.304          40.000    29591958.260   119154960.556       -2089.755          44.000  
E18  28422965.104   149364152.540       -5771.208          47.000                                                                  
E36                                                                  30840801.043   124183149.056        -248.510          40.000  
> 2024 04 16 23 39 00.0100000  0 28                     
G13  26169777.132   137522980.413       -4370.815          45.000                                                                  
G15  24956930.300   131149546.394       -3261.751          49.000    24956934.263   102194482.176       -2541.685          44.000  
G19  25350936.868   133220571.653       -3225.999          45.000                                                                  
G24  23855433.447   125361352.108         339.886          49.000    23855433.106    97684280.043         264.710          47.000  
R09  23807984.802   127133386.047         359.186          51.000    23807984.000    98881823.593         279.272          50.000  
R08  26564639.447   142252376.023        2072.078          35.000    26564624.279                1       1611.390          28.000  
R16  24134735.698   128923443.027       -2056.307          53.000    24134734.597   100274320.627       -1599.403          48.000  
R06  24763901.549   132144777.830       -4185.996          38.000                                                                  
R17  26767411.273                3      -3690.104          13.000    26767413.140                2      -2869.354          28.000  
G12  24607577.399   129313918.994         127.387          47.000    24607575.455   100764399.662          99.239          45.000  
E08  28922014.394   151986246.406       -3612.520          46.000    28922026.030   116457028.207       -2768.145          48.000  
S31  41923906.402   220311599.622        -760.220          44.000  
S33  42876594.263   225317974.379        -761.195          43.000  
G11  27836920.874   146284160.506        1895.734          42.000    27836939.640   113987807.751        1477.017          41.000  
E36  30842682.179                1       -337.477          31.000    30842690.137   124190753.800        -258.519          41.000  
R19  24628630.709   131746966.598        2332.035          41.000    24628632.314   102470050.364        1813.901          46.000  
R07  24117529.095   129103039.846        -976.974          52.000    24117527.598   100413500.744        -759.951          49.000  
R18  24290102.884   129662319.533        -627.227          50.000    24290103.299   100848657.410        -487.849          50.000  
E07  27012438.533   141951489.654       -1460.759          47.000    27012442.951   108768069.091       -1119.178          50.000  
E27  28408332.379   149287169.899         483.886          46.000    28408338.977   114389083.313         370.767          50.000  
E34  30187152.458   158634804.459        1429.769          45.000    30187162.497   121551394.920        1095.443          50.000  
G25  26354866.138   138495931.076        1199.018          43.000    26354871.244   107918962.894         934.280          40.000  
G17  26904141.338   141382173.931       -4101.520          43.000    26904137.319   110168474.067       -3196.198          38.000  
E30  26909920.245   141413054.990       -1382.024          48.000    26909922.029   108355728.685       -1058.950          51.000  
G06  27041439.178   142103884.218        1099.279          44.000    27041442.945   110730383.749         856.439          42.000  
E02  29607521.086   155588868.462       -2726.349          38.000    29607524.524   119217638.958       -2088.866          44.000  
G22  27658991.701                3      -3820.125          27.000                                                                  
E18  28455910.809   149537284.304       -5770.963          47.000                                                                  
> 2024 04 16 23 39 30.0100000  0 27                     
G13  26194750.091   137654209.366       -4378.012          45.000                                                                  
G15  24975585.069   131247579.416       -3273.975          49.000    24975588.774   102270871.304       -2551.184          44.000  
G19  25369395.775   133317572.461       -3240.829          46.000                                                                  
G24  23853524.893   125351323.568         328.595          48.000    23853524.926    97676465.627         256.036          47.000  
R09  23805980.293   127122683.322         354.077          51.000    23805979.328    98873499.329         275.348          51.000  
R08  26553085.799                        2052.688          30.000    26553090.366   110592611.4631       1595.889          33.000  
R16  24146296.003   128985193.657       -2060.645          53.000    24146294.042   100322348.939       -1602.763          48.000  
R06  24787470.400   132270546.433       -4198.884          38.000                                                                  
R17  26788161.480                3      -3708.184          25.000    26788138.308                       -2883.880          25.000  
G12  24606874.662   129310226.292         118.515          48.000    24606872.759   100761522.323          92.334          44.000  
E08  28942656.263   152094711.001       -3618.636          47.000    28942666.801   116540136.994       -2772.681          48.000  
S31  41928248.848   220334419.641        -761.235          44.000  
S33  42880941.164   225340817.643        -761.942          43.000  
G11  27826098.690   146227297.595        1894.744          43.000    27826117.742   113943500.873        1476.604          43.000  
E36  30844648.999                        -351.219          28.000    30844655.106   124198667.800        -269.333          40.000  
R19  24615598.072   131677251.926        2314.905          40.000    24615599.371   102415828.126        1800.783          46.000  
R07  24123080.651   129132758.847       -1004.429          52.000    24123079.196   100436615.441        -781.218          49.000  
R18  24293704.982   129681544.808        -654.700          49.000    24293704.888   100863610.475        -509.209          49.000  
E07  27020818.985   141995525.938       -1475.468          48.000    27020822.870   108801811.157       -1130.457          50.000  
E27  28405583.128   149272727.689         478.569          45.000    28405590.298   114378017.367         366.718          50.000  
E34  30179008.093   158591999.926        1423.626          46.000    30179016.043   121518597.011        1090.661          49.000  
G25  26348037.982   138460048.760        1193.178          43.000    26348043.282   107891002.937         929.456          41.000  
G17  26927583.161   141505365.190       -4111.310          43.000    26927580.444   110264467.341       -3203.595          40.000  
E30  26917821.124   141454576.997       -1386.440          48.000    26917823.614   108387544.288       -1062.297          51.000  
G06  27035195.723   142071074.861        1087.597          45.000    27035198.105   110704818.181         847.351          41.000  
E02  29623084.536   155670650.193       -2726.247          39.000    29623086.666   119280302.911       -2088.771          44.000  
E18  28488857.708   149710420.530       -5771.714          47.000                                                                  
> 2024 04 16 23 40 00.0100000  0 27                     
G13  26219760.031   137785630.498       -4383.668          45.000                                                                  
G15  24994307.654   131345966.043       -3285.302          49.000    24994311.306   102347535.938       -2559.815          43.000  
G19  25387935.249   133414996.865       -3254.323          46.000                                                                  
G24  23851677.932   125341617.188         318.317          48.000    23851677.972    97668902.239         248.041          47.000  
R09  23804001.704   127112117.106         349.982          52.000    23804000.660    98865281.244         272.321          50.000  
R08  26541638.232   142129220.405        2033.673          35.000    26541642.666   110544940.662        1581.533          32.000  
R16  24157877.415   129047059.378       -2064.000          53.000    24157875.446   100370466.710       -1605.398          46.000  
R06  24811111.973   132396699.225       -4211.216          37.000                                                                  
R17  26808990.507                1      -3725.299          26.000    26808974.391                       -2897.412          26.000  
G12  24606219.634   129306787.016         110.490          47.000    24606217.846   100758842.458          86.243          44.000  
E08  28963328.497   152203343.318       -3623.639          47.000    28963339.326   116623374.292       -2776.535          48.000  
S31  41932593.810   220357252.160        -760.997          44.000  
S33  42885290.564   225363673.182        -761.997          43.000  
G11  27815280.682   146170457.132        1894.431          43.000    27815300.613   113899211.469        1476.233          44.000  
R19  24602656.826   131608028.671        2299.126          39.000    24602658.532   102361988.074        1788.554          46.000  
R07  24128783.368   129163286.218       -1030.908          51.000    24128781.627   100460358.918        -801.760          49.000  
R18  24297455.447   129701578.884        -681.097          47.000    24297457.417   100879192.595        -529.889          49.000  
E07  27029278.784   142039986.954       -1488.937          48.000    27029284.058   108835878.671       -1140.729          51.000  
E27  28402862.501   149258433.432         474.185          44.000    28402870.116   114367064.799         363.360          50.000  
E34  30170894.850   158549369.415        1418.263          45.000    30170903.370   121485932.395        1086.635          49.000  
G25  26341239.445   138424324.839        1188.314          42.000    26341244.739   107863166.441         925.800          41.000  
G17  26951077.753   141628828.987       -4119.824          43.000    26951075.342   110360672.970       -3210.486          39.000  
E30  26925744.848   141496216.164       -1389.694          48.000    26925747.642   108419449.657       -1064.812          52.000  
G06  27029016.383   142038598.897        1077.240          46.000    27029018.673   110679512.432         839.318          42.000  
E02  29638642.323   155752415.165       -2725.059          38.000    29638646.484   119342954.030       -2087.905          44.000  
E18  28521804.543   149883560.706       -5771.232          46.000                                                                  
E36                                                                  30846698.181   124206893.539        -279.250          42.000  
> 2024 04 16 23 40 30.0100000  0 27                     
G13  26244802.760   137917224.228       -4389.378          45.000                                                                  
G15  25013094.075   131444686.588       -3296.255          48.000    25013097.679   102424460.811       -2568.408          44.000  
G19  25406552.327   133512825.604       -3267.596          46.000                                                                  
G24  23849889.989   125332217.904         308.057          49.000    23849889.448    97661578.150         240.100          47.000  
R09  23802045.762   127101670.089         346.198          52.000    23802043.655    98857155.898         269.360          50.000  
R08  26530303.844   142068489.635        2014.901          38.000    26530297.614                        1567.342          30.000  
R16  24169477.436   129109023.376       -2067.182          54.000    24169474.530   100418660.961       -1607.911          46.000  
R06  24834821.386   132523214.848       -4223.409          36.000                                                                  
R17  26829915.113                3      -3746.640          20.000    26829915.071                       -2911.395          26.000  
G12  24605611.006   129303583.905         102.736          48.000    24605608.148   100756346.618          80.134          44.000  
E08  28984029.110   152312124.749       -3628.539          46.000    28984040.258   116706725.839       -2780.183          48.000  
S31  41936938.071   220380080.159        -760.835          44.000  
S33  42889638.730   225386524.281        -761.405          43.000  
G11  27804465.041   146113625.091        1894.110          44.000    27804484.046   113854928.603        1475.868          44.000  
R19  24589805.629   131539283.666        2283.256          40.000    24589807.521   102308520.030        1775.994          47.000  
R07  24134633.197   129194604.408       -1057.131          51.000    24134632.360   100484717.456        -822.240          49.000  
R18  24301355.721   129722405.386        -707.380          46.000    24301357.993   100895391.066        -550.341          48.000  
E07  27037816.662   142084855.440       -1502.537          47.000    27037822.384   108870258.392       -1151.161          51.000  
E27  28400167.871   149244269.728         469.813          45.000    28400174.423   114356212.255         360.031          49.000  
E34  30162812.054   158506898.171        1412.990          44.000    30162820.876   121453389.799        1082.638          48.000  
G25  26334467.521   138388742.095        1183.545          42.000    26334473.729   107835439.972         922.155          42.000  
G17  26974620.054   141752545.582       -4128.156          43.000    26974617.643   110457075.627       -3216.968          40.000  
E30  26933687.667   141537954.790       -1392.913          48.000    26933690.209   108451431.250       -1067.406          52.000  
G06  27022897.677   142006442.298        1066.464          45.000    27022900.730   110654455.523         831.001          43.000  
E02  29654195.921   155834146.224       -2723.955          39.000    29654199.427   119405579.165       -2087.135          44.000  
E18  28554749.061   150056684.982       -5770.543          46.000                                                                  
E36                                                                  30848815.446   124215418.637        -289.268          42.000  
> 2024 04 16 23 41 00.0110000  0 27                     
G13  26269876.176   138048986.304       -4394.718          44.000                                                                  
G15  25031941.860   131543735.712       -3306.949          48.000    25031946.677   102501641.654       -2576.747          45.000  
G19  25425244.301   133611053.503       -3280.692          46.000                                                                  
G24  23848158.970   125323121.304         298.112          48.000    23848158.409    97654489.915         232.397          47.000  
R09  23800111.219   127091335.812         342.532          53.000    23800108.459    98849118.216         266.601          50.000  
R08  26519067.511   142008314.645        1996.298          36.000    26519058.326                        1552.039          31.000  
R16  24181095.211   129171081.910       -2070.062          54.000    24181092.018   100466928.695       -1610.059          46.000  
R06  24858597.439   132650086.690       -4234.473          37.000                                                                  
R17  26850954.392                1      -3759.589          26.000    26850950.263                3      -2926.428          24.000  
G12  24605044.993   129300610.052          95.255          48.000    24605042.934   100754029.433          74.167          44.000  
E08  29004756.704   152421051.248       -3633.100          46.000    29004768.574   116790188.511       -2783.711          48.000  
S31  41941280.017   220402898.740        -760.443          44.000  
S33  42893985.112   225409365.310        -761.161          43.000  
G11  27793649.549   146056796.759        1893.995          45.000    27793668.148   113810648.594        1475.750          44.000  
R19  24577042.120   131471013.657        2267.765          39.000    24577045.356   102255421.428        1763.829          47.000  
R07  24140630.773   129226706.839       -1083.173          51.000    24140629.278   100509685.999        -842.365          48.000  
R18  24305407.250   129744019.646        -733.527          48.000    24305407.422   100912202.186        -570.414          48.000  
E07  27046431.972   142130126.432       -1515.610          48.000    27046437.265   108904946.531       -1161.292          51.000  
E27  28397496.758   149230229.602         465.913          46.000    28397502.323   114345454.415         357.066          49.000  
E34  30154758.705   158464581.001        1408.010          42.000    30154768.126   121420965.218        1078.816          48.000  
G25  26327721.896   138353293.097        1179.315          44.000    26327728.738   107807817.717         918.954          43.000  
G17  26998209.421   141876510.155       -4136.126          42.000    26998207.457   110553671.443       -3222.864          41.000  
E30  26941647.451   141579787.530       -1395.948          48.000    26941650.244   108483484.936       -1069.598          51.000  
G06  27016837.165   141974600.865        1056.024          44.000    27016840.626   110629644.236         822.852          42.000  
E02  29669740.835   155915839.804       -2722.658          37.000    29669745.483   119468175.545       -2085.943          45.000  
E18  28587689.801   150229790.190       -5769.444          45.000                                                                  
E36                                                                  30851006.227   124224239.418        -298.869          42.000  
> 2024 04 16 23 41 30.0110000  0 27                     
G13  26294981.115   138180909.982       -4400.452          44.000                                                                  
G15  25050852.258   131643109.049       -3318.273          48.000    25050856.805   102579075.144       -2585.640          44.000  
G19  25444012.002   133709676.495       -3294.367          46.000                                                                  
G24  23846486.742   125314334.534         287.370          48.000    23846485.858    97647643.102         223.898          46.000  
R09  23798196.601   127081120.076         338.132          51.000    23798195.755    98841172.760         263.115          50.000  
R08  26507934.924   141948707.329        1976.535          36.000    26507932.349   110404541.975        1538.516          33.000  
R16  24192729.786   129233235.757       -2073.828          53.000    24192727.990   100515270.577       -1613.092          47.000  
R06  24882438.838   132777306.228       -4246.904          36.000                                                                  
R17  26872075.248                3      -3772.705          16.000                                                                  
G12  24604523.575   129297870.002          87.122          47.000    24604521.359   100751894.426          67.877          44.000  
E08  29025511.919   152530118.454       -3638.407          46.000    29025523.518   116873759.000       -2787.702          48.000  
S31  41945621.158   220425710.472        -760.524          45.000  
S33  42898330.666   225432201.061        -761.550          43.000  
G11  27782837.449   145999983.514        1893.086          45.000    27782854.853   113766380.278        1474.942          44.000  
E36  30853268.676                1       -402.789          27.000    30853270.609   124233359.485        -309.189          41.000  
R19  24564371.247   131403232.240        2250.949          41.000    24564372.701   102202702.787        1750.535          44.000  
R07  24146774.431   129259595.360       -1109.863          50.000    24146773.090   100535265.898        -863.178          48.000  
R18  24309603.465   129766425.570        -760.457          47.000    24309604.662   100929629.119        -591.464          47.000  
E07  27055123.831   142175801.202       -1529.612          48.000    27055128.999   108939944.031       -1171.952          51.000  
E27  28394850.086   149216318.183         461.161          47.000    28394854.642   114334795.196         353.443          49.000  
E34  30146737.014   158422427.522        1402.156          41.000    30146746.148   121388666.093        1074.405          48.000  
G25  26321003.944   138317984.578        1174.245          45.000    26321009.174   107780304.898         915.152          42.000  
G17  27021845.674   142000716.436       -4144.543          42.000    27021843.199   110650455.612       -3229.858          41.000  
E30  26949625.679   141621715.510       -1399.603          47.000    26949628.489   108515611.592       -1072.397          51.000  
G06  27010838.600   141943084.316        1044.678          43.000    27010843.141   110605086.126         814.081          43.000  
E02  29685280.745   155997494.848       -2721.173          38.000    29685283.432   119530742.428       -2085.386          44.000  
E18  28620624.697   150402866.569       -5768.938          45.000                                                                  
> 2024 04 16 23 42 00.0110000  0 26                     
G13  26320117.708   138312997.836       -4405.581          44.000                                                                  
G15  25069824.915   131742808.652       -3328.744          48.000    25069828.948   102656762.884       -2593.791          44.000  
G19  25462854.578   133808695.796       -3307.194          46.000                                                                  
G24  23844873.934   125305860.289         277.264          48.000    23844873.015    97641039.843         216.002          46.000  
R09  23796305.344   127071023.165         334.544          52.000    23796303.965    98833319.682         260.334          50.000  
R08  26496908.191   141889670.211        1958.441          35.000    26496909.694   110358624.301        1523.548          35.000  
R16  24204384.272   129295488.638       -2076.746          53.000    24204381.642   100563689.460       -1615.076          46.000  
R06  24906345.103   132904874.493       -4257.991          38.000                                                                  
G12  24604045.708   129295363.714          79.697          47.000    24604043.739   100749941.592          61.963          44.000  
E08  29046294.002   152639329.443       -3642.656          46.000    29046306.169   116957439.695       -2791.169          48.000  
S31  41949961.057   220448517.633        -760.123          44.000  
S33  42902674.857   225455031.200        -760.901          43.000  
G11  27772028.340   145943187.503        1892.920          44.000    27772045.403   113722125.354        1474.824          44.000  
E36  30855601.186                        -416.785          29.000    30855609.544   124242780.556        -318.966          41.000  
R19  24551792.329   131335943.382        2234.780          41.000    24551793.319   102150367.206        1738.184          46.000  
R07  24153065.723   129293271.210       -1135.626          51.000    24153064.739   100561458.174        -883.240          48.000  
R18  24313950.331   129789625.718        -786.609          47.000    24313951.026   100947673.718        -611.832          47.000  
E07  27063893.029   142221881.887       -1542.829          48.000    27063897.858   108975252.572       -1182.080          51.000  
E27  28392227.313   149202535.710         457.317          47.000    28392231.554   114324234.784         350.414          49.000  
E34  30138746.163   158380439.705        1396.808          41.000    30138755.501   121356493.897        1070.334          48.000  
G25  26314311.582   138282816.181        1170.099          45.000    26314315.403   107752901.234         911.882          42.000  
G17  27045527.853   142125166.968       -4152.393          43.000    27045525.129   110747430.105       -3235.504          40.000  
E30  26957623.380   141663740.554       -1402.347          48.000    26957625.408   108547812.635       -1074.598          50.000  
G06  27004904.029   141911895.638        1034.192          45.000    27004908.412   110580783.487         805.750          43.000  
E02  29700816.284   156079115.023       -2720.132          39.000    29700814.964   119593282.594       -2084.115          44.000  
E18  28653554.625   150575918.196       -5767.978          44.000                                                                  
> 2024 04 16 23 42 30.0110000  0 26                     
G13  26345283.301   138445240.483       -4410.770          43.000                                                                  
G15  25088857.343   131842824.527       -3339.375          48.000    25088861.863   102734697.056       -2602.042          45.000  
G19  25481770.425   133908102.598       -3320.192          45.000                                                                  
G24  23843319.239   125297693.583         266.978          47.000    23843319.075    97634676.204         208.117          45.000  
R09  23794435.206   127061038.379         330.686          52.000    23794434.103    98825553.800         257.329          50.000  
R08  26485985.236                        1939.093          31.000    26485992.183   110313147.282        1508.811          35.000  
R16  24216054.778   129357833.534       -2079.919          53.000    24216053.906   100612179.909       -1617.639          48.000  
R06  24930315.499   133032780.110       -4269.400          40.000                                                                  
G12  24603612.078   129293083.885          72.112          48.000    24603609.589   100748165.222          56.083          44.000  
E08  29067101.522   152748675.674       -3647.269          45.000    29067114.902   117041223.994       -2794.552          49.000  
S31  41954298.738   220471313.951        -759.868          44.000  
S33  42907016.915   225477849.802        -760.688          43.000  
G11  27761221.289   145886405.032        1892.298          43.000    27761237.459   113677880.886        1474.563          43.000  
E36  30858016.530                        -428.921          32.000    30858023.432   124252497.997        -329.115          41.000  
R19  24539304.106   131269144.414        2218.294          40.000    24539305.857   102098412.696        1725.279          46.000  
R07  24159502.685   129327726.473       -1161.664          51.000    24159501.457   100588256.661        -903.473          48.000  
R18  24318444.378   129813613.791        -812.991          48.000    24318445.195   100966331.155        -632.221          48.000  
E07  27072736.159   142268361.210       -1556.105          46.000    27072742.515   109010866.568       -1192.313          51.000  
E27  28389628.165   149188874.833         453.160          47.000    28389631.769   114313767.534         347.228          48.000  
E34  30130787.688   158338612.941        1391.239          43.000    30130796.966   121324445.114        1066.003          49.000  
G25  26307643.917   138247780.758        1165.549          44.000    26307648.094   107725601.224         908.201          42.000  
G17  27069255.054   142249852.185       -4160.254          43.000    27069251.616   110844587.486       -3241.803          38.000  
E30  26965637.780   141705855.105       -1405.438          48.000    26965639.491   108580082.256       -1076.892          50.000  
G06  26999031.427   141881030.898        1023.169          46.000    26999034.069   110556733.219         797.333          43.000  
E02  29716338.505   156160693.309       -2718.759          37.000    29716339.797   119655790.582       -2083.203          45.000  
E18  28686479.729   150748935.322       -5766.820          45.000                                                                  
> 2024 04 16 23 43 00.0110000  0 27                     
G13  26370479.439   138577642.156       -4415.994          44.000                                                                  
G15  25107951.445   131943160.778       -3349.758          48.000    25107955.730   102812880.843       -2610.573          44.000  
G19  25500760.857   134007900.481       -3333.042          43.000                                                                  
G24  23841825.248   125289842.911         256.395          48.000    23841824.860    97628558.836         199.890          45.000  
R09  23792588.037   127051172.422         326.872          52.000    23792586.797    98817880.351         254.253          50.000  
R08  26475169.267   141773305.472        1920.177          34.000    26475183.968   110268118.752        1493.616          34.000  
R16  24227744.249   129420277.716       -2083.087          52.000    24227742.620   100660747.612       -1620.233          47.000  
R06  24954349.363   133161025.254       -4280.526          40.000                                                                  
R17  26936093.556                3      -3827.789          13.000                                                                  
G12  24603222.629   129291036.297          64.365          49.000    24603220.284   100746569.792          50.197          44.000  
E08  29087936.837   152858162.005       -3651.770          46.000    29087950.037   117125115.646       -2798.266          49.000  
S31  41958635.816   220494104.739        -759.880          45.000  
S33  42911358.613   225500664.267        -760.398          43.000  
G11  27750419.020   145829645.746        1891.807          42.000    27750435.028   113633654.501        1473.960          43.000  
R19  24526911.361   131202845.801        2201.695          42.000    24526912.705   102046847.345        1712.187          47.000  
R07  24166086.135   129362966.811       -1187.622          51.000    24166084.215   100615665.762        -923.737          48.000  
R18  24323085.737   129838396.941        -839.314          48.000    24323086.939   100985606.975        -652.803          47.000  
E07  27081657.933   142315245.333       -1569.555          46.000    27081664.334   109046790.735       -1202.675          51.000  
E27  28387052.875   149175341.648         448.985          47.000    28387056.325   114303398.129         344.078          49.000  
E34  30122859.628   158296955.972        1385.834          42.000    30122869.420   121292526.453        1061.717          49.000  
G25  26301002.127   138212884.573        1160.945          43.000    26301007.310   107698409.736         904.706          42.000  
G17  27093027.760   142374775.463       -4168.097          43.000    27093023.054   110941930.335       -3247.449          36.000  
E30  26973670.256   141748064.983       -1408.569          49.000    26973671.683   108612424.926       -1079.295          50.000  
G06  26993221.037   141850499.484        1012.146          45.000    26993223.842   110532942.726         788.641          43.000  
E02  29731853.849   156242235.913       -2717.120          35.000    29731856.592   119718271.270       -2082.160          45.000  
E18  28719399.191   150921921.725       -5765.716          45.000                                                                  
E36                                                                  30860511.094   124262517.402        -339.099          40.000  
> 2024 04 16 23 43 30.0110000  0 27                     
G13  26395704.203   138710191.620       -4421.021          44.000                                                                  
G15  25127104.547   132043806.974       -3360.082          49.000    25127107.696   102891306.194       -2618.317          43.000  
G19  25519824.052   134108078.680       -3345.701          43.000                                                                  
G24  23840390.704   125282301.804         245.870          48.000    23840389.807    97622682.653         191.647          45.000  
R09  23790761.542   127041416.914         323.191          53.000    23790760.101    98810292.825         251.385          51.000  
R08  26464473.267   141715982.667        1900.709          37.000    26464481.871   110223534.539        1478.547          35.000  
R16  24239451.061   129482812.784       -2086.182          53.000    24239449.764   100709385.987       -1622.668          48.000  
R06  24978444.468   133289596.656       -4291.172          40.000                                                                  
G12  24602874.841   129289211.486          56.868          48.000    24602872.946   100745147.961          44.447          45.000  
E08  29108796.645   152967778.377       -3656.089          46.000    29108809.959   117209106.924       -2801.465          49.000  
S31  41962970.510   220516883.262        -759.303          44.000  
S33  42915697.236   225523465.790        -759.754          43.000  
G11  27739620.366   145772904.379        1890.919          43.000    27739636.620   113589442.010        1473.350          44.000  
R19  24514610.014   131137044.553        2184.656          40.000    24514611.693   101995668.873        1699.385          47.000  
R07  24172813.734   129398982.237       -1213.489          51.000    24172811.335   100643677.728        -943.836          47.000  
R18  24327875.665   129863967.056        -865.579          48.000    24327877.367   101005494.927        -673.257          47.000  
E07  27090655.344   142362525.384       -1582.720          46.000    27090661.539   109083018.269       -1212.679          51.000  
E27  28384499.698   149161927.338         445.072          47.000    28384503.757   114293119.810         340.910          49.000  
E34  30114963.810   158255462.643        1380.153          43.000    30114972.985   121260733.188        1057.587          49.000  
G25  26294385.933   138178119.056        1156.595          44.000    26294391.762   107671320.066         900.983          41.000  
G17  27116842.665   142499925.652       -4175.727          42.000    27116837.765   111039450.012       -3253.546          36.000  
E30  26981718.967   141790361.154       -1411.385          49.000    26981720.356   108644833.719       -1081.459          50.000  
G06  26987472.814   141820295.981        1001.147          45.000    26987476.541   110509407.726         780.334          43.000  
E02  29747364.450   156323734.360       -2715.965          36.000    29747365.121   119780718.132       -2081.135          45.000  
E18  28752308.816   151094866.247       -5764.009          45.000                                                                  
E36                                                                  30863073.294   124272832.949        -348.761          40.000  
R17                                                                  26957519.194                3      -2985.476          14.000  
> 2024 04 16 23 44 00.0110000  0 26                     
G13  26420956.115   138842885.011       -4426.013          45.000                                                                  
G15  25146315.102   132144758.516       -3370.475          48.000    25146318.572   102969969.428       -2626.190          43.000  
G19  25538959.225   134208633.700       -3358.241          44.000                                                                  
G24  23839014.961   125275071.018         235.521          49.000    23839013.804    97617048.317         183.433          45.000  
R09  23788954.675   127031770.488         319.489          52.000    23788953.329    98802790.128         248.437          51.000  
R08  26453875.704   141659233.638        1881.640          36.000    26453883.094   110179396.423        1464.052          34.000  
R16  24251174.730   129545438.236       -2089.319          53.000    24251173.598   100758094.633       -1625.031          47.000  
R06  25002598.028   133418488.846       -4301.877          39.000                                                                  
G12  24602570.090   129287608.348          49.358          49.000    24602567.562   100743898.865          38.452          45.000  
E08  29129681.032   153077522.063       -3660.538          46.000    29129694.224   117293195.750       -2804.890          50.000  
S31  41967302.146   220539647.525        -758.701          44.000  
S33  42920033.484   225546253.035        -759.850          43.000  
G11  27728826.541   145716182.968        1890.074          44.000    27728841.705   113545245.010        1472.610          45.000  
R19  24502402.701   131071743.533        2167.724          41.000    24502402.970   101944879.401        1686.177          46.000  
R07  24179686.676   129435770.759       -1239.594          52.000    24179684.269   100672290.947        -964.087          48.000  
R18  24332813.404   129890323.937        -892.080          48.000    24332815.087   101025994.740        -693.826          47.000  
E07  27099727.423   142410199.849       -1596.101          47.000    27099734.004   109119548.011       -1222.987          52.000  
E27  28381968.988   149148630.393         440.972          47.000    28381973.212   114282931.406         337.921          49.000  
E34  30107099.990   158214134.178        1374.378          44.000    30107107.866   121229066.207        1053.150          48.000  
G25  26287795.150   138143482.809        1152.100          44.000    26287799.614   107644331.099         897.512          40.000  
G17  27140700.529   142625299.175       -4183.191          42.000    27140695.507   111137143.706       -3259.924          35.000  
E30  26989783.625   141832741.846       -1414.499          49.000    26989785.165   108677307.276       -1083.807          50.000  
G06  26981788.092   141790422.167         989.905          45.000    26981791.538   110486129.628         771.252          45.000  
E02  29762863.235   156405187.322       -2714.687          36.000    29762865.419   119843130.176       -2080.130          44.000  
E18  28785209.171   151267765.037       -5762.777          43.000                                                                  
E36                                                                  30865708.338   124283444.431        -358.813          38.000  
> 2024 04 16 23 44 30.0110000  0 26                     
G13  26446235.835   138975728.226       -4430.539          43.000                                                                  
G15  25165585.019   132246021.263       -3380.500          48.000    25165588.441   103048875.201       -2634.225          43.000  
G19  25558166.827   134309570.772       -3371.129          43.000                                                                  
G24  23837699.839   125268160.599         225.006          49.000    23837698.591    97611663.612         175.207          45.000  
R09  23787170.141   127022241.856         315.736          52.000    23787169.135    98795379.058         245.538          51.000  
R08  26443384.683   141603069.246        1862.297          35.000    26443391.549   110135713.031        1448.495          34.000  
R16  24262917.714   129608162.688       -2092.493          53.000    24262914.493   100806880.307       -1627.472          47.000  
R06  25026812.997   133547705.429       -4313.147          38.000                                                                  
G12  24602309.388   129286233.811          42.102          50.000    24602305.892   100742827.906          32.700          45.000  
E08  29150590.280   153187399.430       -3664.911          46.000    29150603.904   117377386.994       -2808.115          50.000  
S31  41971633.083   220562406.383        -758.483          45.000  
S33  42924368.692   225569034.790        -759.226          43.000  
G11  27718037.376   145659492.538        1889.142          44.000    27718052.107   113501072.124        1472.100          44.000  
R19  24490291.036   131006956.022        2151.181          41.000    24490292.461   101894489.338        1673.009          47.000  
R07  24186704.044   129473339.487       -1265.308          51.000    24186702.368   100701511.012        -984.131          48.000  
R18  24337900.143   129917475.868        -918.357          50.000    24337901.511   101047112.933        -714.234          47.000  
E07  27108877.246   142458276.352       -1609.184          48.000    27108882.520   109156385.808       -1233.004          51.000  
E27  28379461.268   149135458.496         436.964          46.000    28379466.651   114272838.817         334.788          49.000  
E34  30099268.420   158172980.812        1368.659          45.000    30099275.961   121197533.372        1048.821          47.000  
G25  26281230.344   138108983.707        1147.653          44.000    26281234.822   107617449.000         894.345          40.000  
G17  27164602.012   142750900.960       -4190.454          41.000    27164596.899   111235015.245       -3265.015          34.000  
E30  26997865.599   141875214.489       -1417.300          49.000    26997867.398   108709851.301       -1085.933          50.000  
G06  26976167.865   141760889.021         978.692          44.000    26976171.660   110463116.970         762.794          45.000  
E02  29778356.453   156486602.772       -2713.352          38.000    29778357.298   119905513.478       -2079.006          43.000  
E18  28818102.538   151440623.442       -5761.135          42.000                                                                  
E36                                                                  30868418.259   124294358.593        -369.000          37.000  
