     3.00           OBSERVATION DATA    M: Mixed            RINEX VERSION / TYPE
CONVBIN 2.4.3                           20240416 171442 UTC PGM / RUN BY / DATE 
format: u-blox UBX                                          COMMENT             
log: /home/regis/git/gnsspwv/obsdata/VERT00CHL/2024-04-16/VECOMMENT             
{self.marker}                                               MARKER NAME         
                                                            MARKER NUMBER       
GEODETIC                                                    MARKER TYPE         
{self.observer}     {self.institution}                      OBSERVER / AGENCY   
UNKNOWN             UBLOX-ZED-F9P                           REC # / TYPE / VERS 
UNKNOWN             TWIVSP6037L                             ANT # / TYPE        
  1713381.0000 -5047934.0000 -3490983.0000                  APPROX POSITION XYZ 
        0.0000        0.0000        0.0000                  ANTENNA: DELTA H/E/N
G    8 C1C L1C D1C S1C C2L L2L D2L S2L                      SYS / # / OBS TYPES 
R    8 C1C L1C D1C S1C C2C L2C D2C S2C                      SYS / # / OBS TYPES 
E    8 C1C L1C D1C S1C C7Q L7Q D7Q S7Q                      SYS / # / OBS TYPES 
S    4 C1C L1C D1C S1C                                      SYS / # / OBS TYPES 
  2024    04    16    17    00   00.4980000     GPS         TIME OF FIRST OBS   
  2024    04    16    17    14   30.4990000     GPS         TIME OF LAST OBS    
                                                            END OF HEADER       
> 2024 04 16 17 00 00.4980000  0 26                     
G03  23941873.766   125815139.2371      -4105.570          41.000    23941892.502    98037718.3791      -3198.966          40.000  
G04  23172069.533   121769992.2851      -3152.625          42.000    23172070.689                3      -2461.137          17.000  
G06  21338065.112   112132294.7451      -3052.987          46.000    21338072.002    87375837.3871      -2378.735          43.000  
G07  19237411.144   101093436.9781       -588.203          49.000    19237410.926    78774178.1541       -458.223          47.000  
G09  20639095.486   108459181.4801      -1798.049          46.000    20639099.316    84513660.0501      -1401.041          48.000  
R02  21773145.566   116185579.5191      -2814.180          46.000    21773154.752    90366552.4851      -2188.730          43.000  
R18  22310478.946   119094727.9671      -4357.029          46.000    22310493.090    92629222.1481      -3388.569          44.000  
R12  22181966.117   118492094.4501      -4276.966          51.000    22181971.058    92160555.5441      -3326.616          43.000  
R04  21226171.776   113665320.7011       1514.172          48.000    21226173.621    88406346.9791       1177.706          47.000  
R14  20527341.852   109422330.7251       2866.291          54.000    20527349.089    85106443.2251       2229.313          49.000  
G11  21928796.329   115236613.8831       -691.757          46.000    21928797.937    89794919.2431       -538.990          44.000  
E08  26740013.692   140519756.2811        854.060          42.000    26740024.980   107671017.3171        654.406          45.000  
S31  38271285.277   201116953.1431       -819.144          44.000  
S33  39222350.035   206114825.2301       -819.216          43.000  
G20  22267455.797   117016305.1491       2180.138          40.000                                                                  
E03  23572151.769   123872571.1921       -276.207          45.000    23572158.606    94915404.1311       -211.705          53.000  
R03  19578551.757   104805579.1941       -539.104          52.000    19578551.033    81515482.6391       -419.297          51.000  
R13  19484544.302   104046643.9811      -1397.348          41.000    19484546.812    80925160.2841      -1087.145          44.000  
R19  21652965.743   115828872.3731      -2321.534          40.000    21652971.203    90089092.7131      -1805.593          46.000  
E05  22776349.175   119690484.3941      -1936.326          49.000    22776354.600    91710903.4581      -1483.691          48.000  
G16  24650274.262                1      -2143.567          28.000                                                                  
E15  24489119.666   128691210.9801      -1419.304          44.000    24489127.749    98607620.1311      -1087.531          51.000  
G30  20686249.440   108707168.5721       1435.839          48.000    20686252.461    84707002.9881       1118.802          44.000  
E34  25189716.368   132372754.6761      -3560.460          46.000    25189726.236   101428474.2481      -2728.127          48.000  
E24  25737314.265   135250660.6241       -646.348          42.000    25737324.384   103633740.8191       -495.236          45.000  
E25  25191579.363   132382828.3231       1518.026          44.000    25191591.305   101436308.4771       1163.232          49.000  
> 2024 04 16 17 00 30.4980000  0 26                     
G03  23965325.936   125938377.283       -4110.873          41.000    23965344.347    98133747.340       -3203.002          39.000  
G04  23190066.927   121864572.800       -3152.972          41.000    23190073.219                3      -2458.371          22.000  
G06  21355532.021   112224073.806       -3066.245          46.000    21355536.831    87447353.333       -2389.203          43.000  
G07  19240823.030   101111364.847        -607.479          49.000    19240822.167    78788147.941        -473.289          47.000  
G09  20649370.994   108513176.449       -1802.132          47.000    20649374.420    84555734.033       -1404.306          48.000  
R02  21788982.342   116270080.001       -2819.763          47.000    21788989.635    90432274.895       -2193.092          44.000  
R18  22334981.488   119225513.110       -4362.429          46.000    22334992.710    92730943.361       -3392.956          41.000  
R12  22206024.228   118620606.365       -4290.917          51.000    22206029.422    92260509.185       -3337.440          45.000  
R04  21217685.765   113619883.471        1514.443          48.000    21217688.534    88371007.035        1177.832          48.000  
R14  20511245.898   109336532.397        2853.079          53.000    20511253.047    85039711.415        2219.034          49.000  
G11  21932796.309   115257637.067        -710.168          47.000    21932798.744    89811300.916        -553.438          45.000  
E08  26735137.044   140494129.985         854.012          42.000    26735147.841   107651381.825         654.259          45.000  
S31  38275958.106   201141511.646        -818.482          44.000  
S33  39227022.246   206139376.208        -818.274          42.000  
G20  22255024.516   116950986.000        2173.660          38.000                                                                  
E03  23573732.728   123880878.544        -277.882          45.000    23573739.365    94921769.532        -212.831          53.000  
R03  19581589.905   104821843.378        -545.689          53.000    19581589.383    81528132.529        -424.418          50.000  
R13  19492467.712   104088955.461       -1423.878          41.000    19492470.982    80958069.191       -1107.283          45.000  
R19  21666044.090   115898830.100       -2342.900          39.000    21666047.555    90143504.112       -1822.194          44.000  
E05  22787403.964   119748577.525       -1937.034          49.000    22787409.168    91755416.337       -1484.103          48.000  
G16  24662547.964   129602557.6731      -2156.629          31.000                                                                  
E15  24497259.901   128733989.899       -1433.110          43.000    24497268.267    98640398.711       -1098.007          51.000  
G30  20678088.917   108664287.469        1422.327          48.000    20678093.160    84673589.299        1108.208          45.000  
E34  25210053.327   132479631.761       -3565.093          45.000    25210064.943   101510366.832       -2731.579          48.000  
E24  25741040.697   135270233.981        -658.905          42.000    25741048.753   103648738.584        -505.023          45.000  
E25  25182927.712   132337361.176        1512.400          45.000    25182938.964   101401470.205        1158.900          49.000  
> 2024 04 16 17 01 00.4980000  0 26                     
G03  23988809.971   126061782.765       -4116.253          41.000    23988828.179    98229906.795       -3207.459          39.000  
G04  23208067.109   121959168.518       -3153.394          39.000    23208081.893                       -2457.605          26.000  
G06  21373076.474   112316268.388       -3080.123          45.000    21373081.207    87519193.089       -2399.952          43.000  
G07  19244347.014   101129882.063        -627.087          49.000    19244346.234    78802576.933        -488.541          47.000  
G09  20659671.029   108567304.262       -1806.546          46.000    20659674.676    84597911.507       -1407.689          48.000  
R02  21804850.625   116354764.975       -2825.967          46.000    21804860.253    90498140.790       -2197.772          44.000  
R18  22359515.646   119356476.918       -4368.482          46.000    22359525.709    92832803.449       -3397.719          41.000  
R12  22230162.005   118749549.884       -4305.142          52.000    22230169.155    92360798.437       -3348.585          46.000  
R04  21209202.179   113574449.780        1514.459          48.000    21209204.051    88335669.845        1177.900          48.000  
R14  20495226.788   109251146.121        2839.325          52.000    20495233.950    84973300.123        2208.394          49.000  
G11  21936904.155   115279224.699        -729.088          48.000    21936906.922    89828122.442        -568.132          45.000  
E08  26730262.750   140468517.473         853.402          42.000    26730273.463   107631756.878         654.055          44.000  
S31  38280629.629   201166061.931        -818.063          43.000  
S33  39231692.653   206163918.211        -817.852          43.000  
G20  22242634.949   116885875.593        2166.627          39.000                                                                  
E03  23575324.894   123889240.681        -279.663          46.000    23575330.275    94928176.909        -214.268          52.000  
R03  19584668.040   104838320.268        -552.888          51.000    19584666.972    81540947.885        -430.013          50.000  
R13  19500541.302   104132065.260       -1450.095          42.000    19500543.722    80991599.006       -1128.066          44.000  
R19  21679242.415   115969433.895       -2364.219          40.000    21679246.696    90198418.075       -1838.833          46.000  
E05  22798463.887   119806698.938       -1937.855          49.000    22798469.767    91799950.889       -1484.898          48.000  
G16  24674897.549                       -2170.620          30.000                                                                  
E15  24505481.656   128777189.673       -1446.871          44.000    24505488.942    98673499.781       -1108.824          50.000  
G30  20670009.798   108621826.911        1408.180          50.000    20670012.581    84640503.254        1097.392          43.000  
E34  25230420.240   132586657.832       -3570.088          45.000    25230431.400   101592373.550       -2735.453          47.000  
E24  25744839.711   135290204.490        -672.516          41.000    25744848.587   103664040.697        -515.210          45.000  
E25  25174309.562   132292076.645        1506.339          44.000    25174321.886   101366771.885        1154.111          49.000  
> 2024 04 16 17 01 30.4980000  0 26                     
G03  24012328.214   126185365.924       -4122.384          43.000    24012345.124    98326204.732       -3212.330          37.000  
G04  23226072.922   122053791.310       -3154.370          38.000    23226097.071                3      -2457.055          26.000  
G06  21390701.123   112408887.426       -3094.277          45.000    21390705.995    87591363.590       -2410.986          42.000  
G07  19247984.847   101148999.578        -647.021          50.000    19247984.645    78817473.709        -504.327          47.000  
G09  20669999.297   108621576.597       -1811.480          47.000    20670001.807    84640201.594       -1411.498          48.000  
R02  21820758.497   116439646.924       -2832.559          45.000    21820768.053    90564159.905       -2203.134          45.000  
R18  22384083.434   119487626.685       -4374.595          45.000    22384095.265    92934808.234       -3402.428          40.000  
R12  22254382.556   118878932.790       -4319.994          50.000    22254389.827    92461429.455       -3359.841          45.000  
R04  21200720.461   113529032.943        1513.636          47.000    21200721.304    88300345.773        1177.321          47.000  
R14  20479289.961   109166187.720        2824.877          53.000    20479296.850    84907221.603        2197.093          50.000  
G11  21941121.435   115301388.190        -748.300          47.000    21941123.894    89845392.708        -583.110          44.000  
E08  26725392.556   140442930.182         852.775          41.000    26725404.078   107612151.308         653.421          44.000  
S31  38285302.143   201190612.482        -818.259          44.000  
S33  39236362.938   206188462.787        -817.897          43.000  
G20  22230287.240   116820988.349        2159.172          39.000                                                                  
E03  23576928.882   123897669.168        -282.042          46.000    23576934.138    94934635.123        -216.080          52.000  
R03  19587787.565   104855023.247        -560.459          50.000    19587787.366    81553939.111        -435.875          50.000  
R13  19508765.454   104175983.670       -1477.408          41.000    19508768.120    81025757.750       -1148.918          45.000  
R19  21692564.449   116040693.645       -2386.351          40.000    21692568.579    90253842.191       -1855.831          46.000  
E05  22809531.542   119864860.513       -1939.230          48.000    22809537.676    91844516.210       -1485.965          49.000  
G16  24687328.389   129732805.019       -2184.709          31.000                                                                  
E15  24513783.742   128820821.382       -1461.473          43.000    24513791.844    98706931.817       -1119.866          50.000  
G30  20662011.715   108579799.778        1393.810          50.000    20662015.592    84607754.948        1085.989          44.000  
E34  25250817.843   132693842.495       -3575.314          46.000    25250828.261   101674501.796       -2739.489          47.000  
E24  25748718.451   135310584.330        -685.893          42.000    25748726.967   103679656.415        -525.703          46.000  
E25  25165730.040   132246988.520        1499.664          45.000    25165741.048   101332224.027        1149.029          49.000  
> 2024 04 16 17 02 00.4980000  0 26                     
G03  24035881.714   126309135.634       -4128.924          45.000    24035898.063    98422648.011       -3217.415          38.000  
G04  23244086.681   122148451.330       -3155.896          39.000    23244097.000                       -2459.235          27.000  
G06  21408407.736   112501938.125       -3108.905          45.000    21408413.062    87663870.467       -2422.711          42.000  
G07  19251738.939   101168727.142        -667.887          49.000    19251738.340    78832845.810        -520.374          47.000  
G09  20680356.814   108676003.636       -1817.038          46.000    20680358.948    84682612.222       -1415.818          48.000  
R02  21836703.878   116524736.862       -2840.140          46.000    21836713.292    90630340.754       -2208.765          45.000  
R18  22408688.962   119618968.115       -4381.405          46.000    22408701.456    93036962.052       -3407.930          42.000  
R12  22278687.368   119008761.670       -4335.147          52.000    22278694.583    92562407.329       -3371.823          47.000  
R04  21192244.003   113483644.002        1512.384          47.000    21192244.967    88265043.405        1176.244          47.000  
R14  20463433.968   109081671.824        2809.547          52.000    20463442.883    84841487.254        2185.212          50.000  
G11  21945450.106   115324137.365        -768.243          46.000    21945453.006    89863119.316        -598.549          45.000  
E08  26720530.991   140417378.017         850.995          42.000    26720541.930   107592572.589         652.075          44.000  
S31  38289976.894   201215175.919        -819.294          44.000  
S33  39241035.861   206213018.126        -818.660          42.000  
G20  22217984.275   116756336.928        2150.881          40.000                                                                  
E03  23578547.723   123906174.023        -284.781          47.000    23578552.748    94941151.850        -218.259          52.000  
R03  19590952.759   104871964.629        -568.874          51.000    19590952.265    81567115.720        -442.471          50.000  
R13  19517143.390   104220720.525       -1505.121          41.000    19517146.144    81060553.081       -1170.722          45.000  
R19  21706009.716   116112615.935       -2408.736          41.000    21706014.035    90309781.635       -1873.552          47.000  
E05  22820608.942   119923072.556       -1941.410          48.000    22820615.192    91889120.193       -1487.548          48.000  
G16  24699850.206   129798586.512       -2200.500          34.000                                                                  
E15  24522170.118   128864894.471       -1476.571          44.000    24522178.793    98740702.063       -1131.416          50.000  
G30  20654098.916   108538217.469        1378.492          49.000    20654102.517    84575353.226        1074.101          44.000  
E34  25271246.048   132801193.844       -3581.305          47.000    25271256.903   101756757.740       -2743.966          48.000  
E24  25752676.373   135331384.121        -700.486          41.000    25752685.191   103695593.911        -536.704          47.000  
E25  25157189.133   132202109.047        1492.422          45.000    25157200.395   101297836.028        1143.531          49.000  
> 2024 04 16 17 02 30.4980000  0 26                     
G03  24059471.428   126433097.757       -4134.938          45.000    24059486.786    98519241.198       -3222.196          38.000  
G04  23262110.551   122243156.127       -3157.306          39.000    23262128.734                       -2459.912          30.000  
G06  21426197.873   112595425.123       -3123.341          46.000    21426202.188    87736717.306       -2433.964          42.000  
G07  19255610.725   101189071.277        -688.134          50.000    19255609.626    78848698.404        -536.178          47.000  
G09  20690744.622   108730592.823       -1821.958          45.000    20690746.952    84725149.242       -1419.816          48.000  
R02  21852690.645   116610042.935       -2846.759          46.000    21852699.772    90696689.723       -2214.198          45.000  
R18  22433331.424   119750504.116       -4387.398          46.000    22433343.767    93139267.249       -3412.530          44.000  
R12  22303075.864   119139040.127       -4349.773          51.000    22303083.187    92663734.902       -3383.321          45.000  
R04  21183774.780   113438291.527        1511.475          49.000    21183775.443    88229769.364        1175.562          47.000  
R14  20447663.742   108997609.965        2794.811          52.000    20447671.876    84776106.059        2173.731          49.000  
G11  21949892.077   115347479.351        -787.658          47.000    21949895.426    89881307.832        -613.776          45.000  
E08  26715675.677   140391868.011         849.951          41.000    26715687.956   107573026.221         651.249          44.000  
S31  38294654.718   201239759.535        -819.741          44.000  
S33  39245712.452   206237593.945        -819.367          43.000  
G20  22205728.541   116691931.492        2143.032          41.000                                                                  
E03  23580181.144   123914762.568        -287.315          46.000    23580187.005    94947732.700        -220.145          52.000  
R03  19594162.070   104889152.721        -576.723          49.000    19594162.874    81580484.254        -448.617          50.000  
R13  19525675.315   104266282.195       -1532.159          41.000    19525678.667    81095989.948       -1191.882          45.000  
R19  21719579.922   116185205.480       -2430.166          38.000    21719583.929    90366240.016       -1890.271          46.000  
E05  22831697.059   119981342.696       -1942.999          48.000    22831703.579    91933768.697       -1488.793          48.000  
G16  24712452.998   129864816.472       -2215.183          32.000                                                                  
E15  24530642.194   128909415.768       -1491.219          44.000    24530650.974    98774815.741       -1142.604          50.000  
G30  20646271.666   108497088.564        1363.520          49.000    20646275.452    84543304.824        1062.546          44.000  
E34  25291706.580   132908717.348       -3586.665          47.000    25291718.272   101839145.596       -2748.165          47.000  
E24  25756717.206   135352611.834        -714.383          41.000    25756724.942   103711859.298        -547.363          47.000  
E25  25148689.593   132157447.759        1485.439          43.000    25148701.391   101263615.243        1138.166          48.000  
> 2024 04 16 17 03 00.4980000  0 26                     
G03  24083094.143   126557234.189       -4140.791          44.000    24083109.745    98615970.124       -3226.430          39.000  
G04  23280136.740   122337889.242       -3158.270          35.000    23280148.080    95328299.8161      -2461.890          35.000  
G06  21444067.691   112689328.812       -3137.261          46.000    21444072.370    87809888.859       -2444.578          42.000  
G07  19259595.911   101210014.886        -708.200          50.000    19259595.106    78865018.086        -551.847          47.000  
G09  20701159.610   108785327.607       -1827.167          45.000    20701162.978    84767799.669       -1423.607          48.000  
R02  21868715.425   116695549.234       -2853.740          46.000    21868723.088    90763194.446       -2219.572          46.000  
R18  22458004.330   119882213.354       -4393.290          45.000    22458017.938    93241707.049       -3416.881          44.000  
R12  22327545.096   119269747.413       -4364.207          51.000    22327551.903    92765395.935       -3394.263          45.000  
R04  21175309.565   113392959.525        1510.614          50.000    21175309.858    88194511.246        1175.003          47.000  
R14  20431976.157   108913990.101        2779.721          52.000    20431984.264    84711068.593        2162.050          50.000  
G11  21954444.360   115371397.155        -807.001          48.000    21954446.217    89899945.029        -628.801          45.000  
E08  26710827.492   140366383.299         849.016          43.000    26710838.712   107553499.194         650.490          45.000  
S31  38299333.125   201264345.078        -819.758          43.000  
S33  39250389.399   206262172.495        -819.337          42.000  
G20  22193516.847   116627757.728        2135.254          41.000                                                                  
E03  23581828.295   123923418.078        -289.673          47.000    23581834.411    94954364.856        -221.917          52.000  
R03  19597417.204   104906572.729        -584.646          50.000    19597417.627    81594033.200        -454.676          50.000  
R13  19534358.195   104312650.645       -1559.326          40.000    19534361.899    81132054.264       -1212.617          45.000  
R19  21733269.846   116258442.260       -2452.232          39.000    21733275.078    90423201.815       -1907.139          45.000  
E05  22842793.171   120039654.451       -1944.594          48.000    22842799.645    91978449.043       -1489.794          47.000  
G16  24725137.444                       -2229.754          31.000                                                                  
E15  24539198.430   128954367.998       -1505.680          45.000    24539205.245    98809259.566       -1153.655          50.000  
G30  20638528.849   108456397.685        1348.896          49.000    20638532.231    84511597.721        1051.062          44.000  
E34  25312197.542   133016394.350       -3591.830          47.000    25312208.690   101921651.068       -2752.146          47.000  
E24  25760832.446   135374251.241        -728.385          39.000    25760842.536   103728440.157        -558.061          46.000  
E25  25140229.310   132112990.188        1478.333          43.000    25140241.204   101229550.510        1132.797          48.000  
> 2024 04 16 17 03 30.4980000  0 26                     
G03  24106750.581   126681546.707       -4146.643          40.000    24106767.419    98712836.367       -3231.027          36.000  
G04  23298170.392   122432653.798       -3159.467          40.000    23298181.437    95402141.999       -2462.024          36.000  
G06  21462017.169   112783649.464       -3150.916          46.000    21462021.474    87883385.294       -2455.350          42.000  
G07  19263695.380   101231560.142        -728.198          50.000    19263694.634    78881806.602        -567.323          47.000  
G09  20711602.982   108840211.025       -1832.102          45.000    20711607.200    84810565.922       -1427.385          48.000  
R02  21884775.072   116781259.064       -2860.449          44.000    21884786.186    90829857.514       -2224.777          46.000  
R18  22482708.427   120014094.056       -4398.951          44.000    22482725.099    93344280.318       -3421.272          44.000  
R12  22352093.620   119400882.552       -4378.289          49.000    22352100.497    92867389.789       -3405.319          44.000  
R04  21166849.561   113347652.127        1509.843          50.000    21166849.093    88159272.286        1174.340          47.000  
R14  20416372.855   108830819.091        2764.845          52.000    20416381.407    84646380.276        2150.424          50.000  
G11  21959106.273   115395893.510        -826.132          48.000    21959107.921    89919033.055        -643.698          45.000  
E08  26705983.396   140340926.659         848.159          44.000    26705993.252   107533993.631         649.804          44.000  
S31  38304012.774   201288938.539        -819.912          43.000  
S33  39255067.689   206286757.970        -819.636          41.000  
G20  22181350.568   116563821.015        2127.177          43.000                                                                  
E03  23583488.938   123932143.459        -291.904          47.000    23583494.717    94961050.557        -223.712          52.000  
R03  19600716.543   104924229.031        -592.439          52.000    19600715.480    81607765.870        -460.831          50.000  
R13  19543193.503   104359827.974       -1585.976          41.000    19543195.888    81168747.761       -1233.634          44.000  
R19  21747081.666   116332326.074       -2473.465          40.000    21747087.246    90480666.864       -1923.866          45.000  
E05  22853899.038   120098011.080       -1946.031          49.000    22853904.814    92023163.807       -1491.117          47.000  
G16  24737904.434   129998571.393       -2243.972          30.000                                                                  
E15  24547833.486   128999753.488       -1520.274          45.000    24547842.294    98844035.389       -1164.736          51.000  
G30  20630870.219   108416149.046        1334.189          50.000    20630873.340    84480235.214        1039.679          43.000  
E34  25332716.963   133124225.886       -3596.978          47.000    25332728.545   102004274.960       -2756.098          47.000  
E24  25765030.624   135396305.923        -742.131          40.000    25765039.325   103745339.207        -568.553          46.000  
E25  25131809.295   132068741.423        1471.432          44.000    25131821.055   101195645.791        1127.563          49.000  
> 2024 04 16 17 04 00.4980000  0 26                     
G03  24130439.187   126806028.571       -4152.217          35.000    24130457.017                       -3234.658          31.000  
G04  23316208.356   122527444.586       -3159.839          38.000    23316218.459    95476004.716       -2462.750          35.000  
G06  21480043.793   112878378.733       -3164.747          46.000    21480048.818    87957200.124       -2465.879          44.000  
G07  19267908.372   101253701.015        -748.255          48.000    19267908.065    78899059.228        -583.104          47.000  
G09  20722074.146   108895237.755       -1836.805          45.000    20722077.883    84853443.878       -1431.293          48.000  
R02  21900876.070   116867168.516       -2867.189          44.000    21900885.076    90896675.694       -2230.123          45.000  
R18  22507446.922   120146136.596       -4404.521          45.000    22507461.871    93446979.493       -3425.588          44.000  
R12  22376720.128   119532436.359       -4392.353          49.000    22376728.010    92969709.338       -3416.278          47.000  
R04  21158392.947   113302365.057        1508.899          51.000    21158392.636    88124049.098        1173.780          47.000  
R14  20400854.838   108748096.084        2749.557          53.000    20400862.002    84582040.399        2138.686          49.000  
G11  21963876.361   115420962.629        -845.552          46.000    21963878.173    89938567.425        -658.818          44.000  
E08  26701142.234   140315492.461         847.016          41.000    26701153.431   107514505.280         649.107          45.000  
S31  38308692.757   201313531.847        -820.065          44.000  
S33  39259746.099   206311343.375        -819.847          42.000  
G20  22169228.409   116500119.107        2119.208          42.000                                                                  
E03  23585161.873   123940933.288        -294.301          48.000    23585167.172    94967785.618        -225.458          52.000  
R03  19604058.136   104942117.540        -600.405          51.000    19604057.691    81621679.172        -466.970          51.000  
R13  19552178.471   104407807.794       -1613.175          41.000    19552181.863    81206065.391       -1254.657          45.000  
R19  21761013.401   116406848.496       -2495.065          41.000    21761017.962    90538628.619       -1940.508          44.000  
E05  22865011.583   120156407.426       -1947.571          49.000    22865017.046    92067908.995       -1492.239          47.000  
G16  24750752.111   130066091.768       -2257.826          32.000                                                                  
E15  24556550.848   129045566.136       -1534.499          44.000    24556560.472    98879138.532       -1175.678          52.000  
G30  20623294.070   108376338.421        1319.409          49.000    20623297.818    84449214.020        1028.030          45.000  
E34  25353264.302   133232204.586       -3602.016          47.000    25353277.007   102087011.607       -2759.862          47.000  
E24  25769305.928   135418770.877        -755.851          41.000    25769314.178   103762552.613        -579.214          48.000  
E25  25123427.214   132024698.236        1464.461          43.000    25123440.141   101161898.595        1122.066          50.000  
> 2024 04 16 17 04 30.4980000  0 26                     
G03  24154159.620                       -4158.212          30.000    24154178.561                       -3239.500          25.000  
G04  23334250.711   122622264.156       -3161.084          36.000    23334260.439    95549889.757       -2463.177          35.000  
G06  21498147.567   112973516.126       -3177.636          45.000    21498153.376    88031332.971       -2476.391          44.000  
G07  19272235.268   101276439.454        -767.745          49.000    19272235.124    78916777.473        -598.226          48.000  
G09  20732573.181   108950410.265       -1841.298          45.000    20732576.902    84896435.411       -1434.937          48.000  
R02  21917014.391   116953279.895       -2873.725          47.000    21917021.527    90963651.002       -2235.123          45.000  
R18  22532210.912   120278338.510       -4409.426          41.000    22532228.016    93549802.584       -3429.379          43.000  
R12  22401425.278   119664407.232       -4405.770          50.000    22401433.250    93072353.189       -3426.773          45.000  
R04  21149939.351   113257101.341        1508.526          51.000    21149940.431    88088844.126        1173.247          48.000  
R14  20385422.032   108665827.202        2734.741          53.000    20385428.147    84518053.727        2127.173          49.000  
G11  21968756.459   115446606.443        -864.305          48.000    21968757.959    89958549.595        -673.476          44.000  
E08  26696305.530   140290082.652         846.527          39.000    26696317.767   107495035.622         648.781          45.000  
S31  38313373.688   201338128.472        -819.858          44.000  
S33  39264425.980   206335934.221        -819.860          43.000  
G20  22157152.021   116436656.737        2111.342          42.000                                                                  
E03  23586847.245   123949789.795        -296.271          48.000    23586852.355    94974571.786        -226.978          52.000  
R03  19607444.786   104960242.218        -608.018          51.000    19607443.595    81635776.158        -472.873          51.000  
R13  19561313.780   104456591.116       -1639.336          41.000    19561317.608    81244007.972       -1275.097          45.000  
R19  21775064.504   116482008.485       -2515.719          40.000    21775068.202    90597086.240       -1956.919          44.000  
E05  22876132.037   120214846.010       -1948.595          49.000    22876137.576    92112686.545       -1493.135          46.000  
G16  24763682.310   130134040.045       -2272.182          29.000                                                                  
E15  24565351.185   129091807.664       -1548.388          46.000    24565359.803    98914570.286       -1186.380          51.000  
G30  20615802.120   108336969.338        1305.034          49.000    20615805.963    84418536.887        1016.853          44.000  
E34  25373839.768   133340330.765       -3606.577          46.000    25373853.084   102169861.249       -2763.430          48.000  
E24  25773659.660   135441648.951        -769.459          40.000    25773667.641   103780082.557        -589.548          48.000  
E25  25115086.957   131980865.070        1457.514          44.000    25115098.504   101128312.322        1116.957          49.000  
> 2024 04 16 17 05 00.4980000  0 26                     
G04  23352300.623   122717113.970       -3162.213          37.000    23352309.926    95623798.451       -2464.227          35.000  
G06  21516329.701   113069060.172       -3191.630          45.000    21516335.167    88105782.661       -2486.885          43.000  
G07  19276676.533   101299775.888        -787.904          50.000    19276676.010    78934961.692        -613.958          47.000  
G09  20743100.421   109005730.125       -1846.583          46.000    20743104.154    84939541.763       -1438.911          48.000  
R02  21933190.370   117039596.061       -2880.813          44.000    21933197.751    91030785.607       -2240.656          45.000  
R18  22557007.203   120410696.859       -4414.612          42.000    22557024.140    93652747.421       -3433.551          45.000  
R12  22426208.942   119796792.795       -4419.857          49.000    22426216.092    93175319.594       -3437.483          46.000  
R04  21141490.732   113211863.860        1507.387          50.000    21141493.075    88053659.526        1172.368          48.000  
R14  20370073.976   108584018.503        2719.196          53.000    20370081.476    84454424.960        2114.911          49.000  
G11  21973745.973   115472826.002        -883.636          48.000    21973747.672    89978980.400        -688.388          44.000  
E08  26691475.360   140264698.458         845.733          39.000    26691486.847   107475585.624         648.037          45.000  
S31  38318055.557   201362731.139        -820.375          44.000  
S33  39269106.145   206360528.317        -820.216          42.000  
G20  22145121.964   116373437.965        2103.330          42.000                                                                  
E03  23588544.912   123958714.398        -298.633          47.000    23588550.782    94981410.130        -228.824          52.000  
R03  19610874.120   104978606.501        -616.168          52.000    19610874.298    81650059.475        -479.242          51.000  
R13  19570599.952   104506178.579       -1666.078          41.000    19570603.150    81282576.000       -1295.913          45.000  
R19  21789233.201   116557804.469       -2537.047          39.000    21789236.996    90656038.497       -1973.344          44.000  
E05  22887260.785   120273328.558       -1950.269          49.000    22887265.985    92157497.783       -1494.432          46.000  
G16  24776692.428                       -2286.772          27.000                                                                  
E15  24574231.972   129138478.813       -1562.953          46.000    24574240.748    98950331.229       -1197.611          51.000  
G30  20608395.121   108298044.406        1289.993          49.000    20608398.281    84388205.826        1005.161          44.000  
E34  25394443.381   133448603.923       -3611.609          45.000    25394456.779   102252823.522       -2767.428          48.000  
E24  25778090.751   135464941.949        -783.424          40.000    25778099.898   103797930.495        -600.311          47.000  
E25  25106785.583   131937245.483        1450.314          44.000    25106797.713   101094889.730        1111.198          49.000  
G03                                                                  24177930.394                3      -3243.054          20.000  
> 2024 04 16 17 05 30.4980000  0 26                     
G04  23370354.119   122811985.022       -3162.823          39.000    23370365.417    95697723.684       -2464.343          35.000  
G06  21534586.767   113164998.618       -3204.526          45.000    21534590.844    88180539.743       -2497.286          43.000  
G07  19281229.314   101323700.250        -807.275          50.000    19281228.293    78953604.058        -629.022          47.000  
G09  20753654.059   109061188.053       -1850.967          46.000    20753657.605    84982755.661       -1442.177          48.000  
R02  21949400.358   117126107.944       -2886.964          44.000    21949410.119    91098072.388       -2245.384          45.000  
R18  22581830.439   120543197.897       -4419.141          41.000    22581846.893    93755803.136       -3437.074          45.000  
R12  22451066.994   119929579.519       -4432.960          48.000    22451074.090    93278597.997       -3447.860          46.000  
R04  21133046.128   113166644.040        1506.952          49.000    21133048.103    88018488.674        1172.179          48.000  
R14  20354811.708   108502664.610        2704.089          53.000    20354818.968    84391149.914        2103.308          49.000  
G11  21978842.928   115499611.608        -902.290          48.000    21978845.048    89999852.280        -703.081          45.000  
E08  26686647.731   140239330.488         845.308          39.000    26686659.949   107456148.004         647.536          46.000  
S31  38322736.043   201387329.081        -819.978          44.000  
S33  39273785.585   206385119.511        -819.575          43.000  
G20  22133136.614   116310456.112        2095.088          43.000                                                                  
E03  23590254.712   123967697.757        -300.465          48.000    23590260.313    94988293.499        -230.198          52.000  
R03  19614348.295   104997201.958        -623.704          51.000    19614347.841    81664522.598        -485.062          51.000  
R13  19580035.067   104556558.967       -1692.537          41.000    19580037.861    81321760.732       -1316.406          45.000  
R19  21803519.526   116634223.737       -2557.583          38.000    21803522.855    90715475.504       -1989.352          44.000  
E05  22898396.240   120331846.022       -1951.114          48.000    22898401.651    92202335.801       -1495.060          46.000  
E15  24583192.743   129185569.561       -1576.643          45.000    24583201.773    98986413.683       -1208.169          50.000  
G30  20601070.874   108259555.498        1275.637          49.000    20601073.733    84358214.516         994.177          44.000  
E34  25415073.214   133557012.772       -3615.923          44.000    25415086.561   102335889.771       -2770.634          48.000  
E24  25782602.470   135488641.113        -796.654          40.000    25782609.184   103816089.648        -610.456          47.000  
E25  25098524.510   131893832.337        1443.625          44.000    25098535.782   101061625.298        1106.098          48.000  
E13                                                                  27049835.092                3        673.322          25.000  
G03                                                                  24201715.187                3      -3257.185          19.000  
> 2024 04 16 17 06 00.4980000  0 27                     
G04  23388411.855   122906870.848       -3163.637          40.000    23388420.755    95771660.502       -2464.598          35.000  
G06  21552916.165   113261321.960       -3217.144          44.000    21552920.437    88255596.681       -2506.939          44.000  
G07  19285893.235   101348205.190        -826.648          51.000    19285891.252    78972698.820        -643.975          46.000  
G09  20764232.789   109116777.495       -1855.255          47.000    20764235.990    85026072.063       -1445.527          48.000  
R02  21965649.452   117212809.485       -2893.304          45.000    21965658.977    91165506.749       -2250.320          46.000  
R18  22606678.475   120675830.144       -4423.268          42.000    22606693.219    93858960.891       -3440.408          43.000  
R12  22475998.541   120062756.959       -4445.792          49.000    22476005.388    93382180.230       -3457.917          46.000  
R04  21124603.295   113121436.508        1506.654          50.000    21124604.859    87983327.366        1171.781          47.000  
R14  20339634.327   108421763.388        2689.130          53.000    20339642.259    84328226.967        2091.443          49.000  
G11  21984046.519   115526956.089        -920.849          47.000    21984048.993    90021159.620        -717.493          45.000  
E08  26681822.809   140213971.704         845.125          41.000    26681834.051   107436717.412         647.539          46.000  
S31  38327415.084   201411916.179        -819.330          44.000  
S33  39278462.890   206409699.735        -819.190          43.000  
G20  22121195.821   116247706.875        2087.616          44.000                                                                  
E03  23591973.827   123976733.099        -301.969          48.000    23591979.765    94995216.703        -231.465          52.000  
R03  19617864.125   105016023.533        -631.233          52.000    19617864.423    81679161.612        -490.975          50.000  
R13  19589616.949   104607724.787       -1718.588          41.000    19589619.596    81361556.363       -1336.634          45.000  
R19  21817919.685   116711255.933       -2578.122          39.000    21817925.845    90775389.285       -2005.186          47.000  
E05  22909537.591   120390391.955       -1951.983          49.000    22909542.864    92247195.627       -1495.710          47.000  
G16  24802956.660                3      -2314.351          25.000                                                                  
E15  24592232.401   129233072.504       -1590.147          45.000    24592241.195    99022811.977       -1218.480          50.000  
G30  20593828.036   108221497.079        1261.428          48.000    20593831.200    84328558.703         982.622          43.000  
E34  25435727.160   133665548.625       -3619.852          44.000    25435740.693   102419053.315       -2773.656          48.000  
E24  25787186.383   135512740.110        -809.903          39.000    25787195.510   103834555.172        -620.670          47.000  
E25  25090301.982   131850621.076        1437.019          44.000    25090312.680   101028515.519        1100.992          48.000  
E13                                                                  27044846.629                         665.198          27.000  
G03                                                                  24225527.016                3      -3245.046          19.000  
> 2024 04 16 17 06 30.4980000  0 26                     
G04  23406473.127   123001777.489       -3164.276          41.000    23406482.045    95845613.502       -2465.831          38.000  
G06  21571319.151   113358033.152       -3230.385          44.000    21571325.248    88330955.826       -2517.229          45.000  
G07  19290668.000   101373295.988        -846.471          51.000    19290666.264    78992250.103        -659.611          47.000  
G09  20774838.081   109172504.554       -1859.944          47.000    20774840.353    85069495.717       -1449.529          48.000  
R02  21981934.695   117299707.882       -2900.235          45.000    21981944.240    91233094.177       -2255.797          47.000  
R18  22631551.430   120808595.229       -4428.132          40.000    22631564.571    93962221.970       -3443.813          43.000  
R12  22501003.568   120196327.158       -4459.162          49.000    22501009.873    93486067.982       -3468.205          45.000  
R04  21116165.485   113076247.938        1505.667          50.000    21116166.195    87948180.798        1171.005          47.000  
R14  20324544.642   108341324.557        2673.303          53.000    20324552.240    84265663.640        2079.102          49.000  
G11  21989357.166   115554864.899        -940.072          46.000    21989359.591    90042906.710        -732.358          45.000  
E08  26676998.345   140188627.762         844.241          39.000    26677010.864   107417298.217         646.855          46.000  
S31  38332093.419   201436499.108        -819.656          43.000  
S33  39283139.600   206434275.656        -819.345          43.000  
G20  22109300.277   116185199.199        2079.188          44.000                                                                  
E03  23593704.928   123985826.307        -304.316          48.000    23593710.131    95002184.220        -233.193          52.000  
R03  19621423.944   105035079.148        -639.451          52.000    19621424.083    81693982.619        -497.350          51.000  
R13  19599346.983   104659680.319       -1745.398          41.000    19599349.447    81401966.195       -1357.306          45.000  
R19  21832434.953   116788904.490       -2598.957          39.000    21832441.948    90835782.419       -2021.324          45.000  
E05  22920685.654   120448972.546       -1953.482          49.000    22920690.955    92292082.021       -1496.782          48.000  
E15  24601351.812   129280992.900       -1604.594          44.000    24601359.843    99059530.124       -1229.511          49.000  
G30  20586669.308   108183876.169        1246.323          48.000    20586672.319    84299243.737         971.242          43.000  
E34  25456406.243   133774215.408       -3624.740          44.000    25456419.903   102502317.184       -2777.333          49.000  
E24  25791848.909   135537245.334        -823.766          41.000    25791858.672   103853331.913        -631.317          48.000  
E25  25082119.962   131807619.718        1429.579          45.000    25082130.110   100995566.602        1095.355          48.000  
E13                                                                  27039927.699                         655.572          27.000  
G03                                                                  24249368.511                3      -3259.052          20.000  
> 2024 04 16 17 07 00.4980000  0 26                     
G04  23424537.082   123096706.370       -3164.581          40.000    23424546.315    95919583.836       -2466.324          35.000  
G06  21589796.577   113455130.567       -3242.945          46.000    21589802.673    88406615.910       -2527.055          45.000  
G07  19295553.270   101398973.004        -865.523          49.000    19295552.181    79012258.182        -674.506          47.000  
G09  20785468.260   109228370.556       -1864.458          48.000    20785471.568    85113027.654       -1452.809          48.000  
R02  21998256.927   117386804.488       -2906.512          46.000    21998266.775    91300835.760       -2260.531          47.000  
R18  22656445.233   120941489.806       -4431.937          38.000    22656459.789    94065583.776       -3446.998          42.000  
R12  22526080.619   120330287.403       -4471.715          47.000    22526087.894    93590259.125       -3477.986          45.000  
R04  21107731.236   113031081.076        1505.269          50.000    21107732.179    87913051.119        1170.788          48.000  
R14  20309542.882   108261353.945        2657.947          53.000    20309548.821    84203464.485        2067.242          49.000  
G11  21994775.261   115583338.775        -958.435          47.000    21994777.782    90065094.121        -746.887          44.000  
E08  26672179.898   140163299.742         844.013          39.000    26672190.818   107397891.176         646.727          46.000  
S31  38336770.896   201461078.645        -819.152          43.000  
S33  39287815.589   206458847.756        -819.185          43.000  
G20  22097451.599   116122936.806        2071.166          44.000                                                                  
E03  23595446.329   123994978.653        -306.131          48.000    23595451.499    95009197.070        -234.512          51.000  
R03  19625028.306   105054371.294        -646.953          53.000    19625028.052    81708987.638        -503.286          51.000  
R13  19609223.413   104712425.676       -1771.224          40.000    19609226.758    81442990.365       -1377.595          45.000  
R19  21847065.761   116867166.854       -2618.602          39.000    21847070.847    90896653.015       -2036.858          44.000  
E05  22931838.685   120507589.277       -1954.531          48.000    22931845.894    92336996.110       -1497.662          49.000  
E15  24610550.812   129329331.226       -1618.223          44.000    24610558.472    99096568.512       -1240.008          49.000  
G30  20579593.968   108146695.148        1232.100          49.000    20579597.577    84270271.589         960.108          43.000  
E34  25477109.275   133883012.396       -3628.632          42.000    25477123.482   102585680.809       -2780.441          49.000  
E24  25796591.303   135562158.491        -837.434          41.000    25796599.298   103872421.211        -641.508          48.000  
E25  25073977.032   131764831.629        1422.764          45.000    25073987.655   100962781.090        1090.080          48.000  
E13                                                                  27035072.640                         646.920          30.000  
G03                                                                  24273245.812                3      -3266.235          15.000  
> 2024 04 16 17 07 30.4990000  0 25                     
G04  23442606.396   123191665.953       -3166.021          39.000    23442616.626    95993578.113       -2466.797          37.000  
G06  21608348.426   113552619.467       -3256.092          45.000    21608353.540    88482581.091       -2537.240          44.000  
G07  19300552.271   101425241.419        -885.583          50.000    19300551.657    79032727.055        -689.874          48.000  
G09  20796126.554   109284382.554       -1869.604          46.000    20796130.072    85156673.369       -1456.915          48.000  
R02  22014618.416   117474108.542       -2913.541          47.000    22014626.547    91368738.704       -2265.854          44.000  
R18  22681367.805   121074519.047       -4436.312          39.000    22681381.160    94169050.313       -3450.598          41.000  
R12  22551232.717   120464643.524       -4485.035          47.000    22551240.247    93694758.104       -3488.323          47.000  
R04  21099301.260   112985940.588        1504.025          51.000    21099302.140    87877941.951        1169.772          47.000  
R14  20294629.217   108181857.755        2641.694          54.000    20294635.706    84141634.321        2054.651          49.000  
G11  22000302.039   115612383.213        -977.688          47.000    22000305.136    90087726.113        -761.909          44.000  
E08  26667362.887   140137991.616         842.992          39.000    26667374.455   107378499.402         645.811          45.000  
S31  38341448.442   201485660.626        -819.520          44.000  
S33  39292492.190   206483423.116        -819.268          42.000  
G20  22085651.244   116060925.405        2062.590          43.000                                                                  
E03  23597199.990   124004195.456        -308.400          48.000    23597205.475    95016259.295        -236.316          51.000  
R03  19628677.211   105073907.448        -655.426          52.000    19628675.781    81724182.440        -509.763          49.000  
R13  19619250.431   104765966.378       -1798.073          40.000    19619253.200    81484633.126       -1398.371          45.000  
R19  21861811.828   116946047.523       -2639.631          38.000    21861816.857    90958004.421       -2052.987          44.000  
E05  22943002.259   120566249.474       -1956.110          48.000    22943008.388    92381943.489       -1498.811          48.000  
E15  24619829.236   129378093.378       -1632.514          45.000    24619838.190    99133931.629       -1250.887          50.000  
G30  20572603.732   108109958.945        1216.937          49.000    20572606.442    84241646.041         948.108          43.000  
E34  25497838.825   133991946.264       -3633.408          42.000    25497853.236   102669149.295       -2783.930          49.000  
E24  25801408.284   135587485.745        -851.210          39.000    25801418.764   103891827.867        -652.304          48.000  
E25  25065876.299   131722262.598        1415.033          45.000    25065887.123   100930163.395        1084.379          49.000  
E13                                                                  27030280.373   108839750.3201        637.629          31.000  
> 2024 04 16 17 08 00.4990000  0 25                     
G04  23460681.662   123286653.353       -3166.815          37.000    23460691.671    96067593.968       -2467.230          37.000  
G06  21626973.083   113650493.749       -3269.035          45.000    21626978.662    88558846.556       -2547.236          44.000  
G07  19305663.929   101452102.030        -905.420          50.000    19305663.455    79053657.422        -705.612          48.000  
G09  20806813.186   109340540.176       -1874.556          47.000    20806816.835    85200432.533       -1460.755          48.000  
R02  22031017.579   117561617.853       -2920.667          48.000    22031025.844    91436801.304       -2271.469          45.000  
R18  22706312.142   121207672.793       -4440.875          36.000    22706327.243    94272613.668       -3454.049          41.000  
R12  22576456.071   120599386.047       -4498.127          46.000    22576465.264    93799557.607       -3498.427          48.000  
R04  21090877.929   112940833.934        1502.916          50.000    21090879.200    87842859.124        1168.831          48.000  
R14  20279806.992   108102848.905        2625.420          53.000    20279813.918    84080183.192        2041.917          50.000  
G11  22005937.845   115641998.934        -996.958          46.000    22005941.182    90110803.263        -776.720          44.000  
E08  26662551.441   140112707.993         842.387          40.000    26662563.476   107359126.391         645.341          46.000  
S31  38346127.363   201510248.375        -819.717          42.000  
S33  39297169.670   206508002.720        -819.671          43.000  
G20  22073900.890   115999175.111        2053.736          45.000                                                                  
E03  23598966.462   124013479.281        -310.627          48.000    23598972.018    95023372.886        -238.086          51.000  
R03  19632373.921   105093691.167        -663.704          53.000    19632371.996    81739569.761        -516.301          50.000  
R13  19629425.141   104820300.822       -1824.716          38.000    19629428.325    81526893.268       -1419.158          44.000  
R19  21876672.438   117025541.163       -2660.235          38.000    21876677.783    91019832.613       -2069.088          46.000  
E05  22954173.053   120624952.708       -1957.615          48.000    22954179.115    92426923.868       -1500.016          48.000  
E15  24629189.347   129427278.605       -1646.606          45.000    24629198.053    99171618.939       -1261.757          50.000  
G30  20565698.451   108073674.341        1201.770          48.000    20565702.083    84213372.369         936.383          43.000  
E34  25518595.588   134101011.022       -3637.870          44.000    25518607.209   102752718.088       -2787.441          48.000  
E24  25806307.687   135613228.968        -865.177          40.000    25806317.379   103911553.266        -662.976          48.000  
E25  25057819.186   131679920.775        1407.505          45.000    25057830.027   100897719.823        1078.478          49.000  
E13                                                                  27025561.833   108820752.489         628.831          31.000  
> 2024 04 16 17 08 30.4990000  0 25                     
G04  23478762.995   123381674.498       -3167.932          35.000    23478772.259    96141636.167       -2468.512          34.000  
G06  21645671.695   113748756.105       -3281.668          46.000    21645677.840    88635414.417       -2556.848          44.000  
G07  19310888.846   101479556.800        -924.904          50.000    19310887.628    79075050.737        -720.698          48.000  
G09  20817528.191   109396847.921       -1879.192          47.000    20817531.803    85244308.658       -1464.295          47.000  
R02  22047457.995   117649338.536       -2927.312          48.000    22047465.022    91505028.273       -2277.023          46.000  
R18  22731278.568                       -4444.278          32.000    22731296.384    94376275.966       -3456.990          41.000  
R12  22601751.939   120734517.773       -4510.680          41.000    22601762.239    93904659.867       -3508.268          47.000  
R04  21082461.352   112895763.578        1501.875          50.000    21082462.041    87807804.468        1168.223          48.000  
R14  20265076.372   108024331.723        2609.205          53.000    20265083.679    84019114.505        2029.272          49.000  
G11  22011683.142   115672188.816       -1015.720          47.000    22011685.788    90134327.783        -791.472          44.000  
E08  26657746.594   140087450.365         841.697          41.000    26657757.099   107339773.266         644.850          46.000  
S31  38350807.676   201534842.698        -819.557          44.000  
S33  39301848.885   206532590.135        -819.583          43.000  
G20  22062200.142   115937688.747        2045.197          44.000                                                                  
E03  23600745.809   124022832.914        -312.846          48.000    23600752.281    95030539.966        -239.670          52.000  
R03  19636116.587   105113727.584        -671.892          52.000    19636115.309    81755153.669        -522.570          51.000  
R13  19639749.004   104875432.068       -1850.829          37.000    19639752.119    81569773.097       -1439.391          43.000  
R19  21891648.366   117105650.237       -2680.182          40.000    21891653.701    91082139.443       -2084.674          45.000  
E05  22965352.090   120683703.693       -1958.993          47.000    22965359.037    92471940.808       -1501.053          49.000  
E15  24638629.872   129476890.172       -1660.875          45.000    24638639.220    99209632.912       -1272.452          50.000  
G30  20558880.069   108037843.662        1186.890          49.000    20558884.712    84185452.410         924.829          44.000  
E34  25539375.309   134210210.797       -3642.144          43.000    25539388.089   102836390.339       -2790.691          48.000  
E24  25811289.471   135639391.900        -878.836          42.000    25811296.304   103931600.237        -673.441          49.000  
E25  25049804.821   131637809.280        1399.898          45.000    25049815.962   100865452.770        1072.730          49.000  
E13                                                                  27020911.615   108802035.005         619.664          35.000  
> 2024 04 16 17 09 00.4990000  0 25                     
G04  23496851.928   123476722.233       -3168.835          38.000    23496859.552    96215699.154       -2469.617          34.000  
G06  21664442.613   113847396.401       -3294.234          46.000    21664448.720    88712276.785       -2566.662          43.000  
G07  19316224.473   101507598.014        -944.573          50.000    19316223.037    79096901.078        -735.951          48.000  
G09  20828270.728   109453298.701       -1884.242          47.000    20828274.580    85288296.233       -1468.123          48.000  
R02  22063934.566   117737264.727       -2934.568          47.000    22063942.940    91573415.038       -2282.125          45.000  
R18  22756268.608   121474505.2981      -4448.479          33.000    22756286.700    94480027.995       -3460.114          39.000  
R12  22627120.258   120870027.682       -4523.334          41.000    22627130.145    94010056.232       -3518.109          48.000  
R04  21074050.393   112850723.121        1500.775          50.000    21074050.390    87772773.156        1167.289          46.000  
R14  20250438.833   107946302.632        2592.668          53.000    20250445.487    83958425.389        2016.503          49.000  
G11  22017536.354   115702945.069       -1034.748          47.000    22017538.431    90158293.625        -806.081          44.000  
E08  26652942.503   140062211.204         841.067          39.000    26652954.352   107320434.330         644.393          46.000  
S31  38355488.628   201559439.148        -820.170          43.000  
S33  39306527.585   206557179.612        -819.866          42.000  
G20  22050549.315   115876461.966        2036.587          45.000                                                                  
E03  23602537.266   124032249.126        -314.986          47.000    23602544.255    95037754.988        -241.375          52.000  
R03  19639904.874   105134010.601        -680.294          51.000    19639904.298    81770929.371        -529.166          50.000  
R13  19650221.184   104931351.056       -1877.659          39.000    19650224.007    81613265.620       -1459.811          44.000  
R19  21906736.859   117186362.926       -2700.762          39.000    21906742.313    91144915.769       -2100.517          45.000  
E05  22976539.967   120742495.495       -1960.473          47.000    22976546.868    92516989.049       -1502.235          49.000  
E15  24648150.851   129526920.126       -1674.826          46.000    24648159.468    99247967.460       -1283.143          50.000  
G30  20552146.549   108002460.675        1171.777          48.000    20552150.523    84157881.331         912.909          43.000  
E34  25560179.880   134319536.311       -3646.244          44.000    25560192.341   102920158.907       -2793.906          48.000  
E24  25816346.958   135665967.706        -892.934          43.000    25816353.383   103951963.533        -684.014          49.000  
E25  25041834.931   131595923.076        1392.271          46.000    25041845.111   100833358.322        1066.873          49.000  
E13                                                                  27016328.235   108783593.530         609.633          31.000  
> 2024 04 16 17 09 30.4990000  0 25                     
G04  23514943.044   123571798.862       -3169.873          39.000    23514952.322    96289784.651       -2470.374          36.000  
G06  21683285.162   113946413.782       -3307.124          45.000    21683290.973    88789432.991       -2576.901          44.000  
G07  19321671.588   101536226.747        -964.209          49.000    19321670.791    79119209.211        -751.530          48.000  
G09  20839040.286   109509894.799       -1889.100          47.000    20839044.025    85332397.071       -1472.049          48.000  
R02  22080448.741   117825398.420       -2941.480          45.000    22080460.200    91641963.318       -2287.752          46.000  
R18  22781282.110   121608006.798       -4452.538          37.000    22781298.574    94583867.869       -3462.801          39.000  
R12  22652560.465   121005913.891       -4536.109          43.000    22652567.923    94115745.319       -3527.951          47.000  
R04  21065645.495   112805716.045        1499.487          48.000    21065645.596    87737767.776        1166.264          47.000  
R14  20235893.818   107868768.221        2575.981          53.000    20235899.322    83898121.013        2003.439          48.000  
G11  22023497.127   115734269.158       -1053.733          47.000    22023499.143    90182701.982        -821.159          44.000  
E08  26648143.046   140036992.470         839.822          38.000    26648155.121   107301111.031         643.679          46.000  
S31  38360169.035   201584038.452        -820.044          43.000  
S33  39311207.131   206581771.645        -820.099          42.000  
G20  22038948.296   115815499.287        2027.546          46.000                                                                  
E03  23604341.891   124041730.064        -317.301          47.000    23604348.293    95045019.607        -243.192          51.000  
R03  19643740.778   105154543.953        -688.841          53.000    19643740.684    81786899.764        -535.846          51.000  
R13  19660840.809   104988058.439       -1903.682          38.000    19660843.900    81657371.365       -1480.614          44.000  
R19  21921938.766   117267679.062       -2720.750          41.000    21921942.465    91208161.450       -2116.135          42.000  
E05  22987735.688   120801330.525       -1962.217          47.000    22987742.868    92562070.377       -1503.478          49.000  
E15  24657751.066   129577369.732       -1688.870          46.000    24657759.736    99286623.589       -1294.103          49.000  
G30  20545499.698   107967528.587        1156.702          48.000    20545503.207    84130661.578         901.331          44.000  
E34  25581008.182   134428987.799       -3650.691          43.000    25581020.493   103004024.004       -2797.245          48.000  
E24  25821482.509   135692958.766        -906.727          42.000    25821489.793   103972645.061        -694.784          49.000  
E25  25033907.067   131554266.403        1384.419          46.000    25033917.572   100801439.720        1060.895          49.000  
E13                                                                  27011816.271                         600.323          30.000  
> 2024 04 16 17 10 00.4990000  0 25                     
G04  23533042.170   123666902.695       -3170.685          41.000    23533050.415    96363891.257       -2470.526          37.000  
G06  21702198.467   114045803.188       -3319.402          45.000    21702205.206    88866879.031       -2586.456          44.000  
G07  19327230.108   101565440.009        -983.667          48.000    19327229.910    79141972.783        -766.393          47.000  
G09  20849837.623   109566634.331       -1893.851          46.000    20849841.307    85376609.625       -1475.551          48.000  
R02  22097004.445   117913738.602       -2948.281          47.000    22097016.120    91710672.136       -2292.976          47.000  
R18  22806311.121   121741622.626       -4455.032          33.000    22806330.578    94687790.728       -3465.757          36.000  
R12  22678068.756   121142170.633       -4548.302          45.000    22678075.654    94221722.583       -3537.402          48.000  
R04  21057245.586   112760741.398        1498.394          49.000    21057248.710    87702787.607        1165.381          48.000  
R14  20221440.713   107791730.620        2559.430          53.000    20221447.324    83838203.056        1990.649          49.000  
G11  22029564.879   115766158.330       -1072.566          47.000    22029567.798    90207550.622        -835.651          45.000  
E08  26643347.141   140011791.789         839.600          38.000    26643358.810   107281801.619         643.321          45.000  
S31  38364850.417   201608638.898        -820.107          44.000  
S33  39315887.362   206606365.130        -819.977          42.000  
G20  22027397.217   115754801.446        2018.707          45.000                                                                  
E03  23606158.133   124051273.602        -319.219          48.000    23606164.369    95052332.194        -244.659          52.000  
R03  19647624.203   105175327.272        -697.050          52.000    19647623.176    81803064.532        -542.106          51.000  
R13  19671607.221   105045550.423       -1929.814          39.000    19671610.549    81702087.331       -1500.778          44.000  
R19  21937252.040   117349592.095       -2740.367          41.000    21937255.717    91271871.391       -2131.472          43.000  
E05  22998939.945   120860206.981       -1963.432          47.000    22998946.651    92607183.431       -1504.383          49.000  
E15  24667429.804   129628236.123       -1702.590          45.000    24667438.916    99325599.050       -1304.514          49.000  
G30  20538938.316   107933046.278        1141.803          50.000    20538941.443    84103792.319         889.618          44.000  
E34  25601858.793   134538561.162       -3654.575          44.000    25601871.605   103087982.463       -2800.275          48.000  
E24  25826696.666   135720363.427        -920.603          42.000    25826704.932   103993643.457        -705.314          50.000  
E25  25026023.955   131512839.187        1376.799          47.000    25026033.886   100769696.943        1055.052          48.000  
E13                                                                  27007370.280                         591.050          27.000  
> 2024 04 16 17 10 30.4990000  0 25                     
G04  23551144.692   123762030.790       -3171.545          41.000    23551154.321    96438016.824       -2471.301          38.000  
G06  21721182.366   114145558.637       -3331.370          45.000    21721188.630    88944610.312       -2595.968          44.000  
G07  19332899.887   101595233.713       -1002.866          48.000    19332899.518    79165188.670        -781.349          47.000  
G09  20860662.109   109623514.439       -1898.557          47.000    20860665.047    85420931.759       -1479.360          48.000  
R02  22113597.010   118002282.868       -2955.049          46.000    22113609.000    91779539.686       -2298.430          46.000  
R18  22831361.168   121875358.8921      -4459.153          33.000    22831379.840                       -3467.872          30.000  
R12  22703644.640   121278790.693       -4560.241          43.000    22703651.233    94327982.499       -3546.814          46.000  
R04  21048853.958   112715797.257        1497.435          50.000    21048855.026    87667831.143        1164.607          48.000  
R14  20207081.895   107715190.367        2542.814          53.000    20207088.030    83778671.942        1977.578          49.000  
G11  22035740.014   115798608.967       -1091.284          46.000    22035743.314    90232836.778        -850.275          45.000  
E08  26638555.239   139986606.097         838.824          40.000    26638565.679   107262503.667         642.825          45.000  
S31  38369531.503   201633237.629        -819.917          44.000  
S33  39320566.781   206630955.895        -819.591          42.000  
G20  22015897.271   115694367.906        2009.886          45.000                                                                  
E03  23607986.366   124060876.818        -321.262          48.000    23607991.686    95059690.487        -246.202          52.000  
R03  19651553.020   105196359.091        -705.382          52.000    19651552.447    81819422.609        -548.701          51.000  
R13  19682519.617   105103822.181       -1955.385          40.000    19682522.876    81747409.857       -1520.997          45.000  
R19  21952675.056   117432096.028       -2760.160          40.000    21952678.603    91336040.868       -2146.661          42.000  
E05  23010151.123   120919122.192       -1964.647          47.000    23010158.129    92652326.207       -1505.444          49.000  
E15  24677188.945   129679515.489       -1716.334          45.000    24677197.478    99364890.943       -1315.109          49.000  
G30  20532461.248   107899011.844        1126.813          49.000    20532464.364    84077272.047         878.101          44.000  
E34  25622732.210   134648251.426       -3658.316          44.000    25622744.454   103172030.537       -2803.132          46.000  
E24  25831990.907   135748178.913        -933.961          42.000    25831997.802   104014956.682        -715.686          50.000  
E25  25018184.469   131471640.601        1369.171          47.000    25018194.002   100738129.337        1049.292          48.000  
E13                                                                  27002998.701                         582.086          28.000  
> 2024 04 16 17 11 00.4990000  0 25                     
G04  23569252.034   123857182.291       -3172.064          41.000    23569261.371    96512160.527       -2471.979          38.000  
G06  21740233.108   114245675.783       -3343.301          44.000    21740240.198    89022623.465       -2605.200          44.000  
G07  19338679.882   101625605.670       -1022.027          49.000    19338678.541    79188855.150        -796.298          47.000  
G09  20871512.505   109680534.016       -1903.176          47.000    20871515.487    85465362.541       -1483.024          48.000  
R02  22130229.601   118091030.581       -2961.599          46.000    22130239.842    91848565.489       -2303.554          46.000  
R18  22856430.668                       -4463.151          31.000    22856445.559                       -3470.125          30.000  
R12  22729286.921   121415769.078       -4571.883          43.000    22729293.596    94434521.096       -3556.067          45.000  
R04  21040467.293   112670883.968        1496.641          50.000    21040467.429    87632898.675        1164.021          48.000  
R14  20192816.472   107639150.799        2526.245          53.000    20192822.711    83719530.237        1964.868          49.000  
G11  22042022.059   115831619.021       -1109.599          47.000    22042025.380    90258558.838        -864.566          46.000  
E08  26633765.805   139961433.759         838.832          40.000    26633775.120   107243215.945         642.747          44.000  
S31  38374211.562   201657833.660        -819.791          44.000  
S33  39325246.248   206655545.694        -819.598          42.000  
G20  22004448.209   115634200.291        2001.119          45.000                                                                  
E03  23609824.768   124070538.385        -323.115          48.000    23609830.572    95067093.503        -247.631          52.000  
R03  19655527.217   105217639.870        -713.600          51.000    19655527.176    81835974.324        -555.020          51.000  
R13  19693577.423   105162871.346       -1981.232          39.000    19693580.157    81793336.959       -1540.958          44.000  
R19  21968207.107   117515185.868       -2779.329          40.000    21968211.958    91400666.036       -2161.639          44.000  
E05  23021369.451   120978075.134       -1965.810          47.000    23021376.438    92697497.874       -1506.213          49.000  
E15  24687024.953   129731205.628       -1729.898          45.000    24687033.831    99404497.586       -1325.427          49.000  
G30  20526069.330   107865424.874        1112.042          49.000    20526073.017    84051100.511         866.718          44.000  
E34  25643625.886   134758055.300       -3662.115          43.000    25643640.193   103256165.658       -2805.894          47.000  
E24  25837361.064   135776404.199        -947.927          41.000    25837368.748   104036583.874        -726.119          49.000  
E25  25010388.137   131430671.404        1361.641          47.000    25010397.695   100706737.506        1043.319          49.000  
E13                                                                  26998697.809                         573.299          29.000  
> 2024 04 16 17 11 30.4990000  0 25                     
G04  23587362.633   123952351.217       -3172.577          41.000    23587370.850    96586317.931       -2471.887          38.000  
G06  21759351.506   114346145.638       -3354.827          44.000    21759359.669    89100911.462       -2614.276          44.000  
G07  19344568.822   101656549.012       -1040.920          49.000    19344567.352    79212966.864        -811.117          47.000  
G09  20882388.792   109737687.153       -1907.567          47.000    20882391.100    85509897.390       -1486.236          48.000  
R02  22146898.774   118179976.205       -2968.118          49.000    22146907.842    91917745.155       -2308.432          45.000  
R18  22881516.316   122143058.485       -4464.762          35.000    22881533.574                       -3472.370          29.000  
R12  22754994.360   121553095.589       -4583.462          40.000    22755001.983    94541330.443       -3564.728          45.000  
R04  21032084.028   112625996.130        1495.908          49.000    21032084.173    87597986.010        1163.526          48.000  
R14  20178646.396   107563609.755        2509.729          52.000    20178651.700    83660776.268        1952.014          49.000  
G11  22048408.493   115865181.672       -1127.979          47.000    22048411.711    90284711.527        -879.032          45.000  
E08  26628976.831   139936268.568         838.676          40.000    26628986.955   107223933.640         642.743          45.000  
S31  38378890.871   201682420.851        -819.457          43.000  
S33  39329923.773   206680125.715        -819.287          43.000  
G20  21993048.252   115574295.178        1992.493          45.000                                                                  
E03  23611673.313   124080252.272        -324.694          48.000    23611678.903    95074536.611        -248.824          52.000  
R03  19659547.507   105239164.911        -721.620          52.000    19659548.017    81852716.026        -561.287          50.000  
R13  19704779.252   105222689.675       -2006.639          39.000    19704782.662    81839862.350       -1560.906          44.000  
R19  21983847.990   117598851.985       -2798.161          39.000    21983851.219    91465739.479       -2176.849          42.000  
E05  23032594.779   121037060.060       -1966.726          48.000    23032601.014    92742694.045       -1506.927          49.000  
E15  24696938.325   129783299.627       -1743.058          45.000    24696947.059    99444413.680       -1335.635          49.000  
G30  20519761.959   107832280.388        1097.583          48.000    20519765.826    84025273.693         855.139          44.000  
E34  25664541.428   134867964.749       -3665.371          43.000    25664556.212   103340381.661       -2808.528          48.000  
E24  25842808.791   135805033.468        -960.842          42.000    25842816.683   104058520.625        -736.331          49.000  
E25  25002634.836   131389927.615        1354.404          47.000    25002644.621   100675518.406        1037.679          49.000  
E13                                                                  26994462.708                         564.092          30.000  
> 2024 04 16 17 12 00.4990000  0 25                     
G04  23605476.664   124047538.826       -3173.358          40.000    23605485.772    96660489.820       -2472.589          37.000  
G06  21778537.716   114446966.264       -3366.791          45.000    21778545.461    89179472.777       -2623.357          44.000  
G07  19350564.920   101688063.780       -1060.045          48.000    19350564.662    79237523.847        -826.149          48.000  
G09  20893291.002   109794975.194       -1912.098          48.000    20893292.647    85554537.406       -1489.804          48.000  
R02  22163605.704   118269121.842       -2974.992          49.000    22163613.304    91987080.429       -2313.970          45.000  
R18  22906621.584   122277082.1341      -4466.910          36.000    22906637.580                1      -3473.760          29.000  
R12  22780768.230   121690767.511       -4594.845          44.000    22780774.942    94648408.429       -3573.922          42.000  
R04  21023706.189   112581136.535        1494.765          49.000    21023705.667    87563095.318        1162.503          47.000  
R14  20164569.418   107488572.134        2492.658          53.000    20164576.408    83602413.849        1938.690          50.000  
G11  22054900.916   115899297.391       -1146.655          46.000    22054902.823    90311295.109        -893.347          44.000  
E08  26624189.397   139911111.304         838.177          40.000    26624199.742   107204657.476         642.209          45.000  
S31  38383567.864   201707000.662        -819.498          43.000  
S33  39334600.059   206704699.198        -819.017          42.000  
G20  21981699.641   115514656.295        1983.406          45.000                                                                  
E03  23613531.853   124090019.635        -326.617          48.000    23613537.338    95082020.700        -250.311          52.000  
R03  19663615.682   105260937.113        -729.996          51.000    19663615.533    81869649.960        -567.773          50.000  
R13  19716125.693   105283276.576       -2032.208          37.000    19716128.479    81886985.480       -1580.766          44.000  
R19  21999596.052   117683091.646       -2817.653          40.000    21999600.407    91531259.005       -2191.531          45.000  
E05  23043824.908   121096078.434       -1967.913          47.000    23043831.705    92787915.869       -1507.897          49.000  
E15  24706928.375   129835797.752       -1756.817          45.000    24706937.113    99484639.427       -1346.156          50.000  
G30  20513540.011   107799580.370        1082.452          49.000    20513542.642    83999793.231         843.530          44.000  
E34  25685476.955   134977978.893       -3669.086          44.000    25685491.184   103424677.865       -2811.218          46.000  
E24  25848333.821   135834068.200        -974.651          43.000    25848342.173   104080768.044        -746.882          49.000  
E25  24994923.805   131349412.487        1346.366          45.000    24994934.813   100644474.480        1031.722          49.000  
E13                                                                  26990298.054   108678767.551         554.970          34.000  
> 2024 04 16 17 12 30.4990000  0 25                     
G04  23623591.523   124142742.604       -3173.767          36.000    23623602.022    96734674.292       -2472.663          36.000  
G06  21797789.238   114548131.770       -3378.148          45.000    21797796.169    89258302.812       -2632.107          43.000  
G07  19356670.381   101720146.032       -1079.114          48.000    19356669.584    79262522.982        -840.759          48.000  
G09  20904217.433   109852395.410       -1916.407          48.000    20904219.484    85599280.386       -1493.360          47.000  
R02  22180348.785   118358464.874       -2981.640          48.000    22180356.347    92056569.225       -2319.072          45.000  
R18  22931723.047                1      -4469.102          29.000    22931750.733                1      -3476.001          27.000  
R12  22806603.251   121828778.061       -4606.111          41.000    22806611.158    94755749.860       -3582.542          41.000  
R04  21015333.533   112536303.330        1493.744          49.000    21015334.208    87528225.152        1161.951          47.000  
R14  20150587.513   107414038.942        2475.797          53.000    20150593.745    83544443.752        1925.552          50.000  
G11  22061497.321   115933962.416       -1164.816          46.000    22061500.050    90338306.782        -907.718          44.000  
E08  26619402.725   139885958.910         838.558          40.000    26619413.499   107185385.062         642.125          45.000  
S31  38388243.586   201731570.524        -819.135          44.000  
S33  39339273.971   206729262.768        -818.646          43.000  
G20  21970400.799   115455283.395        1974.546          46.000                                                                  
E03  23615399.910   124099837.570        -328.186          48.000    23615405.680    95089543.547        -251.550          51.000  
R03  19667728.970   105282954.967        -738.271          51.000    19667729.152    81886774.937        -574.261          51.000  
R13  19727615.008   105344627.483       -2057.541          39.000    19727617.834    81934702.856       -1600.572          44.000  
R19  22015449.903   117767898.730       -2836.239          40.000    22015456.217    91597219.838       -2206.143          45.000  
E05  23055062.514   121155127.667       -1968.955          47.000    23055068.530    92833161.335       -1508.644          49.000  
E15  24716995.266   129888696.196       -1770.116          46.000    24717003.489    99525171.899       -1356.302          50.000  
G30  20507401.191   107767322.833        1067.737          49.000    20507404.043    83974657.598         832.001          43.000  
E34  25706431.934   135088092.881       -3672.323          44.000    25706445.547   103509050.593       -2813.765          46.000  
E24  25853936.448   135863505.778        -988.165          44.000    25853943.866   104103324.127        -757.067          48.000  
E25  24987257.116   131309125.151        1338.862          45.000    24987267.811   100613605.095        1025.897          49.000  
E13                                                                  26986199.628   108662259.547         545.313          36.000  
> 2024 04 16 17 13 00.4990000  0 25                     
G04  23641711.361   124237965.370       -3174.475          37.000    23641722.340    96808873.613       -2473.773          36.000  
G06  21817105.960   114649641.519       -3389.808          46.000    21817113.398    89337401.126       -2641.344          43.000  
G07  19362883.656   101752796.908       -1098.292          48.000    19362882.972    79287965.221        -855.721          48.000  
G09  20915169.969   109909950.432       -1921.115          48.000    20915172.201    85644128.416       -1496.965          48.000  
R02  22197126.834   118448008.519       -2988.332          45.000    22197136.016    92126214.022       -2324.511          42.000  
R18  22956855.919                3      -4473.132          26.000    22956883.532                3      -3482.542          22.000  
R12  22832502.280   121967125.731       -4617.394          39.000    22832510.615    94863353.427       -3591.372          38.000  
R04  21006967.426   112491500.289        1492.574          49.000    21006967.714    87493378.459        1161.007          47.000  
R14  20136700.873   107340016.791        2458.488          53.000    20136706.754    83486871.135        1912.119          50.000  
G11  22068198.758   115969178.446       -1183.379          46.000    22068201.245    90365747.757        -922.141          44.000  
E08  26614617.649   139860813.734         837.655          40.000    26614628.419   107166118.108         641.894          45.000  
S31  38392917.896   201756132.890        -819.117          44.000  
S33  39343946.930   206753817.646        -818.589          42.000  
G20  21959154.230   115396181.505        1965.095          45.000                                                                  
E03  23617278.678   124109708.576        -330.247          48.000    23617283.902    95097107.039        -253.095          51.000  
R03  19671889.030   105305222.746        -746.769          51.000    19671888.980    81904094.297        -580.732          49.000  
R13  19739247.237   105406742.984       -2083.702          38.000    19739249.360    81983014.887       -1620.600          44.000  
R19  22031409.386   117853272.123       -2855.405          40.000    22031415.595    91663621.135       -2221.028          45.000  
E05  23066304.273   121214210.492       -1970.254          47.000    23066311.481    92878432.511       -1509.621          49.000  
E15  24727137.426   129941996.489       -1783.751          45.000    24727146.523    99566012.280       -1366.751          50.000  
G30  20501347.812   107735511.201        1052.509          49.000    20501350.880    83949869.398         820.337          44.000  
E34  25727404.430   135198307.062       -3675.891          44.000    25727418.216   103593500.059       -2816.293          45.000  
E24  25859615.147   135893348.828       -1001.999          43.000    25859622.712   104126190.895        -767.677          49.000  
E25  24979634.970   131269070.059        1330.983          44.000    24979645.249   100582913.712        1019.853          48.000  
E13                                                                  26982168.971   108646028.415         535.797          34.000  
> 2024 04 16 17 13 30.4990000  0 25                     
G04  23659836.940   124333216.994       -3175.513          36.000    23659847.347    96883095.379       -2474.774          38.000  
G06  21836489.361   114751502.312       -3401.304          46.000    21836497.630    89416772.953       -2650.292          44.000  
G07  19369206.685   101786025.450       -1117.208          48.000    19369205.893    79313857.579        -870.629          48.000  
G09  20926149.305   109967650.222       -1925.750          47.000    20926152.304    85689089.229       -1500.543          48.000  
R02  22213946.913   118537763.543       -2995.327          46.000    22213957.247    92196023.224       -2329.800          44.000  
R18  22981986.178                       -4474.081          29.000                                                                  
R12  22858465.622   122105816.606       -4628.958          34.000    22858473.591    94971224.020       -3600.404          37.000  
R04  20998607.332   112446738.864        1491.304          49.000    20998609.128    87458564.068        1159.902          47.000  
R14  20122912.176   107266520.285        2441.106          53.000    20122919.308    83429707.348        1898.466          50.000  
G11  22075006.755   116004954.417       -1201.805          45.000    22075009.663    90393625.069        -936.472          44.000  
E08  26609835.626   139835685.214         837.513          40.000    26609846.171   107146863.998         641.520          44.000  
S31  38397592.499   201780697.440        -818.774          41.000  
S33  39348619.770   206778375.346        -818.551          43.000  
G20  21947961.174   115337363.297        1955.634          45.000                                                                  
E03  23619169.704   124119642.487        -332.265          49.000    23619174.121    95104718.738        -254.550          51.000  
R03  19676097.534   105327752.051        -755.294          51.000    19676097.714    81921617.073        -587.566          50.000  
R13  19751023.580   105469631.241       -2109.323          37.000    19751026.842    82031927.977       -1640.585          44.000  
R19  22047476.548   117939218.184       -2874.510          38.000    22047483.341    91730467.830       -2235.684          46.000  
E05  23077555.762   121273337.048       -1971.594          46.000    23077562.948    92923737.197       -1510.550          49.000  
E15  24737358.034   129995707.491       -1797.141          45.000    24737367.366    99607167.365       -1377.117          50.000  
G30  20495381.079   107704156.156        1037.415          49.000    20495383.768    83925436.950         808.472          44.000  
E34  25748398.775   135308629.297       -3679.196          44.000    25748413.316   103678032.370       -2819.164          47.000  
E24  25865372.095   135923607.329       -1015.438          43.000    25865380.732   104149375.985        -778.146          49.000  
E25  24972059.517   131229259.176        1322.865          45.000    24972068.977   100552409.394        1013.737          48.000  
E13                                                                  26978206.312   108630082.835         526.604          33.000  
> 2024 04 16 17 14 00.4990000  0 26                     
G04  23677968.726   124428488.188       -3176.141          38.000    23677976.937    96957332.391       -2474.689          37.000  
G06  21855936.926   114853701.615       -3412.645          44.000    21855943.745    89496408.502       -2659.005          41.000  
G07  19375637.892   101819820.873       -1136.234          48.000    19375637.060    79340191.665        -885.407          48.000  
G09  20937155.673   110025485.563       -1930.384          48.000    20937157.994    85734155.678       -1504.294          48.000  
R02  22230805.893   118627720.725       -3002.332          47.000    22230816.297    92265989.680       -2335.169          44.000  
R18  23007140.006                1      -4476.116          26.000                                                                  
R12  22884489.436   122244837.140       -4639.693          34.000    22884499.274    95079350.981       -3608.705          37.000  
R04  20990254.719   112402010.903        1490.004          50.000    20990255.885    87423775.726        1158.842          47.000  
R14  20109221.779   107193543.043        2423.515          52.000    20109228.216    83372947.426        1884.991          49.000  
G11  22081918.541   116041279.973       -1220.395          46.000    22081921.830    90421930.623        -950.939          45.000  
E08  26605055.080   139810563.736         836.751          40.000    26605065.247   107127615.211         641.301          44.000  
S31  38402265.353   201805255.008        -818.903          43.000  
S33  39353292.110   206802926.252        -818.792          42.000  
G20  21936821.436   115278821.744        1946.312          46.000                                                                  
E03  23621069.844   124129629.824        -334.188          48.000    23621074.679    95112371.361        -256.063          51.000  
R03  19680353.643   105350534.606        -764.012          51.000    19680353.986    81939336.801        -594.236          50.000  
R13  19762942.852   105533280.467       -2135.025          37.000    19762946.373    82081432.905       -1660.333          44.000  
R19  22063647.361   118025723.276       -2893.312          38.000    22063652.890    91797749.318       -2250.255          42.000  
E05  23088813.780   121332498.213       -1972.843          46.000    23088820.963    92969068.414       -1511.760          49.000  
E15  24747656.189   130049818.837       -1810.793          45.000    24747664.287    99648629.157       -1387.395          49.000  
G30  20489499.632   107673249.109        1022.308          50.000    20489502.687    83901353.593         796.643          43.000  
E34  25769412.099   135419048.099       -3682.557          45.000    25769425.182   103762638.624       -2821.656          46.000  
E24  25871208.457   135954272.018       -1029.448          44.000    25871215.917   104172872.304        -788.728          49.000  
E25  24964528.576   131189685.007        1314.885          46.000    24964538.651   100522086.473        1007.436          49.000  
E13                                                                  26974315.026   108614416.552         517.657          33.000  
G14                                                                  23890895.642                3       2069.822          26.000  
> 2024 04 16 17 14 30.4990000  0 26                     
G04  23696102.896   124523782.315       -3177.195          38.000    23696111.266    97031587.332       -2475.523          38.000  
G06  21875449.288   114956239.227       -3423.604          45.000    21875455.814    89576307.734       -2667.702          41.000  
G07  19382176.641   101854185.271       -1154.969          48.000    19382176.257    79366969.122        -899.957          47.000  
G09  20948187.245   110083459.555       -1934.847          48.000    20948190.159    85779330.188       -1507.668          48.000  
R02  22247701.900   118717883.949       -3008.888          46.000    22247712.713    92336116.393       -2340.435          44.000  
R18  23032310.983                3      -4467.406          14.000                                                                  
R12  22910578.099   122384186.310       -4650.543          33.000    22910585.891    95187733.580       -3616.833          35.000  
R04  20981909.554   112357320.396        1489.054          50.000    20981909.711    87389016.510        1158.136          46.000  
R14  20095629.811   107121092.129        2406.082          53.000    20095636.243    83316596.914        1871.409          49.000  
G11  22088936.722   116078157.218       -1238.698          46.000    22088940.116    90450666.037        -965.079          45.000  
E08  26600275.985   139785451.984         836.886          40.000    26600286.371   107108373.889         641.292          44.000  
S31  38406937.190   201829808.526        -818.586          43.000  
S33  39357963.220   206827472.806        -818.017          42.000  
G20  21925733.515   115220562.645        1937.179          44.000                                                                  
E03  23622980.450   124139673.582        -335.741          48.000    23622986.115    95120067.226        -257.344          51.000  
R03  19684657.521   105373575.642        -772.435          52.000    19684658.170    81957257.550        -600.759          50.000  
R13  19775005.190   105597692.189       -2159.677          38.000    19775008.766    82131530.899       -1679.825          44.000  
R19  22079924.026   118112786.800       -2911.334          37.000    22079927.830    91865465.143       -2264.370          42.000  
E05  23100079.853   121391697.214       -1973.964          47.000    23100086.159    93014428.632       -1512.516          48.000  
E15  24758029.141   130104332.455       -1823.771          45.000    24758037.403    99690399.242       -1397.475          48.000  
G30  20483703.920   107642793.827        1007.477          49.000    20483707.455    83877622.242         785.242          45.000  
E34  25790442.487   135529564.478       -3685.592          45.000    25790455.862   103847319.608       -2823.976          46.000  
E24  25877121.144   135985346.031       -1042.786          44.000    25877129.151   104196682.258        -798.871          49.000  
E25  24957043.893   131150352.576        1307.068          46.000    24957054.113   100491948.779        1001.485          49.000  
E13                                                                  26970494.417   108599032.788         508.590          34.000  
G14                                                                  23875721.284                        2070.015          28.000  
