     3.00           OBSERVATION DATA    M: Mixed            RINEX VERSION / TYPE
CONVBIN 2.4.3                           20240416 084442 UTC PGM / RUN BY / DATE 
format: u-blox UBX                                          COMMENT             
log: /home/regis/git/gnsspwv/obsdata/VERT00CHL/2024-04-16/VECOMMENT             
{self.marker}                                               MARKER NAME         
                                                            MARKER NUMBER       
GEODETIC                                                    MARKER TYPE         
{self.observer}     {self.institution}                      OBSERVER / AGENCY   
UNKNOWN             UBLOX-ZED-F9P                           REC # / TYPE / VERS 
UNKNOWN             TWIVSP6037L                             ANT # / TYPE        
  1713381.0000 -5047934.0000 -3490983.0000                  APPROX POSITION XYZ 
        0.0000        0.0000        0.0000                  ANTENNA: DELTA H/E/N
G    8 C1C L1C D1C S1C C2L L2L D2L S2L                      SYS / # / OBS TYPES 
R    8 C1C L1C D1C S1C C2C L2C D2C S2C                      SYS / # / OBS TYPES 
E    8 C1C L1C D1C S1C C7Q L7Q D7Q S7Q                      SYS / # / OBS TYPES 
S    4 C1C L1C D1C S1C                                      SYS / # / OBS TYPES 
  2024    04    16    08    30   00.4910000     GPS         TIME OF FIRST OBS   
  2024    04    16    08    44   30.4920000     GPS         TIME OF LAST OBS    
                                                            END OF HEADER       
> 2024 04 16 08 30 00.4910000  0 28                     
G18  22280466.107   117084629.6221      -3164.738          36.000    22280462.028                       -2465.808          31.000  
G26  20707366.279   108817949.5611      -4043.129          45.000    20707366.687    84793212.3051      -3150.656          43.000  
G23  19625199.004   103131354.8771      -3536.295          46.000    19625195.326    80362113.7511      -2755.480          43.000  
G16  18735365.895    98455037.5671      -2509.844          47.000                                                                  
R23  20076277.650   107394648.9501       1589.489          45.000                                                                  
R13  19770291.793   105572314.5421       -459.655          38.000    19770291.585    82111788.8471       -357.414          37.000  
R21  19231670.103   102912739.9821      -2241.390          48.000    19231666.406    80043313.0851      -1743.320          47.000  
R08  20101652.154   107643431.8271       3759.753          49.000    20101647.936    83722710.7911       2924.160          46.000  
G21  21673929.609   113897217.1421       1998.964          44.000                                                                  
S33  37172418.171   195342448.1861       -635.669          42.000  
S31  36218612.742   190330181.1541       -636.034          43.000  
E36  24734170.877   129978912.8101        980.600          39.000    24734177.518    99594287.5351        751.267          41.000  
G10  17553529.935    92244591.1461      -1455.524          51.000    17553527.911    71878897.0621      -1134.268          46.000  
E11  20691388.279   108734002.4621       -180.662          43.000    20691387.585    83315721.8461       -138.510          48.000  
R12  19268679.126   102929844.5041      -3296.201          47.000    19268679.714    80056668.6291      -2563.726          48.000  
R22  17696465.926    94465057.1651       -169.894          50.000    17696463.274    73472872.5611       -132.063          51.000  
R07  17600908.586    94219043.9111       1487.545          52.000    17600904.684    73281543.5121       1156.955          49.000  
R06  18681580.498    99688599.9441      -2523.253          43.000                                                                  
G27  17933039.332    94238787.7041        636.168          49.000    17933037.393    73432829.3371        495.751          48.000  
G08  19683027.961   103435081.0891       2239.628          43.000    19683028.553    80598785.3061       1745.127          45.000  
E04  23951574.857   125866400.2341       1855.812          43.000    23951578.385    96443111.3451       1421.906          50.000  
E25  22219249.568   116762896.6891       -612.610          46.000    22219252.549    89467698.4011       -469.530          51.000  
E14  25454574.734   133764849.5981       -618.356          46.000    25454575.807   102495119.0041       -473.902          49.000  
E19  23998291.360   126111941.1751       -142.373          38.000    23998289.670    96631253.7611       -108.774          38.000  
E24  22641568.521   118982277.3281      -3051.967          47.000    22641569.061    91168258.9701      -2338.438          50.000  
G32  20792601.033   109265873.5171       2235.792          47.000    20792600.440    85142267.3541       1741.911          44.000  
E12  22501167.032   118244552.0321      -1847.500          46.000    22501164.126    90603053.7381      -1415.852          47.000  
E10  21557201.461   113284065.6391      -1121.959          47.000    21557202.893    86802277.5901       -859.638          51.000  
> 2024 04 16 08 30 30.4910000  0 28                     
G18  22298530.234   117179558.322       -3163.235          35.000    22298533.971    91308780.259       -2465.372          33.000  
G26  20730456.454   108939286.596       -4045.733          44.000    20730456.818    84887760.633       -3152.379          43.000  
G23  19645413.858   103237583.661       -3545.343          47.000    19645410.398    80444889.455       -2762.674          43.000  
G16  18749741.381    98530579.844       -2526.067          47.000                                                                  
R23  20067363.136   107346960.954        1590.181          44.000                                                                  
R13  19772943.380   105586472.403        -484.082          39.000    19772942.393    82122800.446        -376.714          36.000  
R21  19244250.546   102980053.844       -2245.965          47.000    19244244.981    80095668.305       -1746.833          46.000  
R08  20080601.038   107530704.145        3755.575          50.000    20080596.933    83635033.802        2921.163          46.000  
G21  21662519.158   113837256.128        1998.818          44.000                                                                  
S33  37176046.962   195361519.141        -635.731          42.000  
S31  36222243.894   190349264.157        -635.836          43.000  
E36  24728579.884   129949532.304         978.738          40.000    24728586.883    99571775.280         749.752          43.000  
G10  17561895.389    92288549.533       -1474.747          52.000    17561892.225    71913150.363       -1149.155          46.000  
E11  20692427.351   108739461.686        -183.286          43.000    20692426.354    83319904.948        -140.404          47.000  
R12  19287236.310   103028969.172       -3311.886          47.000    19287236.307    80133765.550       -2575.815          47.000  
R22  17697434.686    94470223.689        -174.469          51.000    17697431.673    73476890.990        -135.730          51.000  
R07  17592637.797    94174771.241        1464.036          51.000    17592633.618    73247109.306        1138.819          49.000  
R06  18695833.064    99764656.346       -2547.096          43.000                                                                  
G27  17929441.980    94219885.950         624.237          49.000    17929440.068    73418100.723         486.586          47.000  
G08  19670257.540   103367972.949        2234.688          43.000    19670258.058    80546493.260        1741.300          44.000  
E04  23940989.840   125810779.487        1852.556          43.000    23940994.087    96400492.924        1419.521          50.000  
E25  22222787.959   116781491.717        -626.755          46.000    22222791.123    89481946.533        -480.216          51.000  
E14  25458097.060   133783356.928        -615.242          46.000    25458097.530   102509299.948        -471.355          49.000  
E19  23999138.777   126116403.424        -155.260          36.000    23999139.784    96634672.945        -118.916          39.000  
E24  22659013.507   119073952.373       -3059.500          47.000    22659014.093    91238503.487       -2344.222          49.000  
G32  20779855.343   109198897.045        2229.688          47.000    20779854.994    85090077.902        1737.489          43.000  
E12  22511715.989   118299988.646       -1848.017          46.000    22511713.606    90645531.160       -1415.951          47.000  
E10  21563611.695   113317751.946       -1123.646          47.000    21563613.063    86828089.191        -860.872          51.000  
> 2024 04 16 08 31 00.4910000  0 28                     
G18  22316585.263   117274453.172       -3162.275          33.000    22316581.304                3      -2468.759          23.000  
G26  20753560.737   109060703.952       -4048.537          43.000    20753561.612    84982371.583       -3154.854          42.000  
G23  19665680.343   103344083.689       -3554.482          46.000    19665676.210    80527876.516       -2769.604          44.000  
G16  18764210.239    98606616.121       -2542.665          46.000                                                                  
R23  20058444.806   107299255.162        1590.712          43.000                                                                  
R13  19775731.970   105601362.132        -508.507          41.000    19775731.915    82134381.215        -395.495          37.000  
R21  19256855.576   103047507.418       -2250.683          48.000    19256850.910    80148132.205       -1750.621          46.000  
R08  20059573.155   107418101.680        3751.398          50.000    20059569.576    83547454.183        2917.716          46.000  
G21  21651109.524   113777297.739        1998.453          42.000                                                                  
S33  37179675.757   195380587.109        -635.591          42.000  
S31  36225874.961   190368344.844        -636.058          43.000  
E36  24723000.067   129920205.594         976.703          40.000    24723006.236    99549304.238         748.292          44.000  
G10  17570369.987    92333081.133       -1493.869          52.000    17570365.904    71947850.298       -1163.984          46.000  
E11  20693481.012   108744995.030        -185.344          44.000    20693479.076    83324144.867        -142.182          47.000  
R12  19305880.581   103128566.189       -3327.970          47.000    19305880.807    80211229.864       -2588.239          47.000  
R22  17698429.733    94475534.306        -179.476          51.000    17698426.339    73481021.501        -139.558          50.000  
R07  17584499.474    94131206.477        1440.341          51.000    17584495.289    73213225.673        1120.173          50.000  
R06  18710219.742    99841426.196       -2570.828          42.000                                                                  
G27  17925913.970    94201346.034         611.813          48.000    17925912.111    73403654.065         476.829          47.000  
G08  19657516.189   103301016.984        2229.280          42.000    19657516.926    80494319.799        1736.977          45.000  
E04  23930424.900   125755255.966        1849.123          44.000    23930428.019    96357948.967        1416.940          50.000  
E25  22226406.660   116800511.298        -640.905          45.000    22226410.431    89496519.997        -491.154          51.000  
E14  25461599.803   133801767.601        -612.111          46.000    25461600.974   102523406.838        -468.931          49.000  
E19  24000062.405   126121252.337        -167.870          36.000    24000062.479    96638388.385        -128.774          39.000  
E24  22676501.390   119165855.527       -3067.269          46.000    22676502.869    91308922.767       -2350.184          49.000  
G32  20767144.669   109132106.879        2223.223          46.000    20767145.663    85038033.690        1732.291          45.000  
E12  22522268.006   118355440.894       -1848.614          45.000    22522265.587    90688020.560       -1416.490          47.000  
E10  21570031.884   113351489.815       -1125.410          47.000    21570033.061    86853940.294        -862.397          51.000  
> 2024 04 16 08 31 30.4910000  0 28                     
G18  22334638.521   117369318.274       -3161.250          32.000                                                                  
G26  20776681.067   109182202.742       -4051.186          43.000    20776681.511    85077045.969       -3156.813          42.000  
G23  19685998.391   103450856.346       -3563.387          46.000    19685994.149    80611076.030       -2776.596          43.000  
G16  18778773.619    98683147.453       -2558.955          47.000                                                                  
R23  20049524.263   107251535.661        1590.947          42.000                                                                  
R13  19778658.724   105616987.264        -532.476          40.000    19778658.105    82146533.929        -415.009          36.000  
R21  19269487.690   103115105.559       -2255.439          46.000    19269482.981    80200708.569       -1754.276          46.000  
R08  20038569.606   107305632.600        3746.856          49.000    20038566.955    83459978.302        2914.324          47.000  
G21  21639700.435   113717345.566        1998.523          42.000                                                                  
S33  37183304.504   195399655.779        -635.402          42.000  
S31  36229506.262   190387427.145        -635.850          43.000  
E36  24717430.195   129890936.321         975.255          39.000    24717436.511    99526877.218         747.010          45.000  
G10  17578953.671    92378188.429       -1512.867          52.000    17578949.109    71982998.886       -1178.784          45.000  
E11  20694548.551   108750606.105        -188.038          44.000    20694546.624    83328444.328        -144.039          47.000  
R12  19324613.426   103228635.414       -3343.109          47.000    19324613.023    80289061.411       -2600.407          46.000  
R22  17699452.428    94480993.886        -184.279          52.000    17699449.471    73485267.860        -143.453          50.000  
R07  17576495.291    94088357.162        1416.549          52.000    17576491.529    73179898.496        1101.698          50.000  
R06  18724741.363    99918911.303       -2594.722          42.000                                                                  
G27  17922456.247    94183174.199         599.730          49.000    17922454.153    73389494.239         467.370          47.000  
G08  19644805.670   103234219.558        2224.183          43.000    19644805.850    80442269.897        1732.960          45.000  
E04  23919880.161   125699835.977        1845.767          46.000    23919881.357    96315484.360        1414.182          49.000  
E25  22230108.367   116819959.506        -655.161          46.000    22230111.243    89511421.899        -502.032          51.000  
E14  25465085.101   133820086.565        -608.812          45.000    25465086.902   102537443.434        -466.500          49.000  
E19  24001061.332   126126492.978        -181.121          36.000    24001059.550    96642403.966        -138.836          38.000  
E24  22694033.207   119257989.004       -3074.601          46.000    22694035.305    91379518.550       -2355.968          49.000  
G32  20754471.422   109065510.226        2217.122          45.000    20754473.338    84986140.259        1727.323          46.000  
E12  22532823.668   118410912.780       -1849.201          45.000    22532821.637    90730525.018       -1417.020          47.000  
E10  21576463.426   113385283.043       -1127.213          48.000    21576463.833    86879833.809        -863.681          51.000  
> 2024 04 16 08 32 00.4910000  0 28                     
G18  22352682.254   117464144.020       -3160.524          28.000                                                                  
G26  20799814.941   109303770.319       -4053.425          43.000    20799815.434    85171773.957       -3158.621          42.000  
G23  19706366.095   103557889.203       -3572.270          45.000    19706362.009    80694478.236       -2783.528          43.000  
G16  18793429.096    98760162.351       -2575.344          47.000                                                                  
R23  20040599.143   107203792.643        1592.072          43.000                                                                  
R13  19781720.018   105633337.567        -557.215          39.000    19781719.060    82159250.703        -433.535          36.000  
R21  19282145.896   103182839.069       -2260.213          47.000    19282140.421    80253390.153       -1757.795          46.000  
R08  20017590.472   107193291.433        3742.475          48.000    20017587.772    83372601.928        2910.879          47.000  
G21  21628291.252   113657389.687        1998.489          42.000                                                                  
S33  37186931.722   195418717.528        -635.266          41.000  
S31  36233135.598   190406501.185        -635.618          43.000  
E36  24711869.357   129861714.376         973.166          38.000    24711875.573    99504486.434         745.864          44.000  
G10  17587644.666    92423860.010       -1531.787          52.000    17587640.328    72018587.190       -1193.549          45.000  
E11  20695628.946   108756284.644        -190.328          44.000    20695627.395    83332795.467        -145.807          47.000  
R12  19343432.489   103329162.590       -3358.633          48.000    19343431.331    80367249.120       -2612.256          46.000  
R22  17700501.029    94486593.446        -189.069          50.000    17700497.634    73489623.091        -147.009          50.000  
R07  17568623.900    94046216.402        1392.752          52.000    17568619.108    73147122.400        1083.299          50.000  
R06  18739393.841    99997099.010       -2618.051          42.000                                                                  
G27  17919067.041    94165362.835         587.498          49.000    17919064.836    73375615.306         457.830          47.000  
G08  19632123.885   103167573.198        2218.944          43.000    19632123.296    80390337.705        1728.892          45.000  
E04  23909352.074   125644511.869        1842.610          45.000    23909352.625    96273093.208        1411.780          48.000  
E25  22233888.673   116839826.590        -669.395          47.000    22233891.844    89526644.758        -512.813          51.000  
E14  25468551.876   133838304.947        -605.721          45.000    25468553.111   102551402.939        -464.091          48.000  
E19  24002131.052   126132116.155        -193.419          35.000    24002129.210    96646712.676        -148.401          38.000  
E24  22711607.948   119350341.354       -3082.104          46.000    22711609.531    91450282.013       -2361.637          49.000  
G32  20741834.941   108999100.863        2210.449          46.000    20741835.431    84934392.753        1722.455          45.000  
E12  22543382.424   118466394.411       -1849.759          45.000    22543379.194    90773036.920       -1417.269          47.000  
E10  21582903.402   113419121.522       -1128.782          49.000    21582903.339    86905762.002        -864.940          52.000  
> 2024 04 16 08 32 30.4910000  0 28                     
G18  22370723.985   117558934.486       -3159.294          29.000    22370723.045                3      -2460.146          23.000  
G26  20822961.469   109425407.931       -4055.436          42.000    20822962.588    85266556.529       -3160.062          42.000  
G23  19726784.233   103665183.781       -3580.561          46.000    19726780.115    80778084.422       -2790.350          44.000  
G16  18808177.165    98837663.335       -2591.355          47.000                                                                  
R23  20031668.894   107156030.476        1592.536          42.000                                                                  
R13  19784918.277   105650416.951        -581.329          39.000    19784918.647    82172534.594        -452.339          38.000  
R21  19294829.706   103250713.313       -2264.739          48.000    19294824.161    80306181.201       -1761.335          45.000  
R08  19996636.881   107081086.891        3738.187          49.000    19996634.076    83285331.801        2907.317          46.000  
G21  21616882.321   113597435.147        1998.381          43.000                                                                  
S33  37190558.210   195437774.163        -635.297          41.000  
S31  36236764.526   190425570.605        -635.314          44.000  
E36  24706318.573   129832543.382         971.715          38.000    24706324.440    99482134.723         744.433          44.000  
G10  17596442.547    92470098.335       -1550.472          51.000    17596439.570    72054617.116       -1208.207          46.000  
E11  20696722.932   108762034.364        -192.913          44.000    20696721.936    83337201.148        -147.740          48.000  
R12  19362337.077   103430147.597       -3373.684          47.000    19362335.944    80445792.966       -2623.838          45.000  
R22  17701576.782    94492337.889        -193.742          51.000    17701573.571    73494091.010        -150.787          48.000  
R07  17560884.726    94004792.146        1369.027          52.000    17560881.413    73114903.619        1064.709          51.000  
R06  18754177.910   100075990.929       -2641.250          41.000                                                                  
G27  17915747.691    94147918.227         575.558          49.000    17915745.217    73362022.128         448.457          47.000  
G08  19619471.883   103101084.477        2213.841          44.000    19619471.062    80338528.334        1724.962          45.000  
E04  23898842.110   125589289.906        1839.072          43.000    23898844.474    96230780.304        1409.083          47.000  
E25  22237749.551   116860116.702        -683.277          47.000    22237752.887    89542191.737        -523.561          52.000  
E14  25472001.377   133856427.768        -602.438          46.000    25472001.511   102565289.242        -461.600          47.000  
E19  24003272.094   126138127.143        -207.268          33.000    24003274.090    96651318.557        -158.243          38.000  
E24  22729223.587   119442914.971       -3089.385          46.000    22729225.471    91521215.035       -2367.206          49.000  
G32  20729234.926   108932886.367        2203.919          47.000    20729234.154    84882797.029        1717.519          45.000  
E12  22553942.107   118521889.914       -1849.842          45.000    22553939.980    90815559.477       -1417.555          48.000  
E10  21589351.559   113453009.111       -1130.309          49.000    21589351.975    86931727.846        -866.151          52.000  
> 2024 04 16 08 33 00.4910000  0 28                     
G18  22388751.930                1      -3157.823          25.000    22388747.131                       -2460.875          28.000  
G26  20846121.583   109547117.236       -4058.243          41.000    20846122.571    85361394.956       -3161.981          41.000  
G23  19747251.236   103772741.895       -3589.628          45.000    19747246.880    80861895.968       -2796.997          43.000  
G16  18823017.768    98915651.897       -2607.786          47.000                                                                  
R23  20022738.767   107108253.802        1592.650          45.000                                                                  
R13  19788253.853   105668229.270        -605.981          38.000    19788254.347    82186388.493        -471.173          38.000  
R21  19307541.145   103318733.597       -2269.734          48.000    19307536.585    80359085.870       -1765.457          46.000  
R08  19975711.565   106969027.801        3732.974          49.000    19975707.646    83198174.804        2903.370          47.000  
G21  21605474.841   113537486.210        1997.998          43.000                                                                  
S33  37194184.357   195456831.705        -635.507          42.000  
S31  36240393.680   190444641.241        -635.826          44.000  
E36  24700777.120   129803427.526         969.584          37.000    24700784.084    99459825.240         742.962          44.000  
G10  17605349.616    92516906.249       -1569.681          51.000    17605346.537    72091090.853       -1223.005          46.000  
E11  20697831.550   108767859.339        -195.563          44.000    20697830.383    83341664.506        -149.949          48.000  
R12  19381328.076   103531590.953       -3389.073          47.000    19381327.585    80524693.334       -2635.971          47.000  
R22  17702681.230    94498232.448        -198.903          50.000    17702677.827    73498675.762        -154.639          49.000  
R07  17553282.035    93964091.729        1344.544          52.000    17553277.978    73083247.810        1045.791          50.000  
R06  18769094.704   100155589.278       -2665.078          42.000                                                                  
G27  17912499.110    94130847.087         562.704          50.000    17912496.792    73348720.001         438.554          48.000  
G08  19606850.756   103034760.256        2208.047          45.000    19606849.772    80286847.165        1720.590          45.000  
E04  23888354.726   125534176.752        1835.344          44.000    23888356.845    96188550.841        1406.354          48.000  
E25  22241692.315   116880834.370        -697.743          46.000    22241695.273    89558066.319        -534.538          51.000  
E14  25475432.141   133874460.397        -599.589          46.000    25475432.983   102579106.449        -459.355          47.000  
E19  24004494.507   126144531.156        -220.157          36.000    24004492.616    96656225.605        -168.657          38.000  
E24  22746882.333   119535712.586       -3096.881          45.000    22746884.335    91592319.680       -2372.957          49.000  
G32  20716673.021   108866874.511        2197.008          46.000    20716673.292    84831359.245        1712.023          45.000  
E12  22564506.021   118577403.639       -1850.753          44.000    22564503.818    90858095.962       -1418.124          48.000  
E10  21595810.065   113486950.024       -1132.219          49.000    21595810.739    86957734.552        -867.514          52.000  
> 2024 04 16 08 33 30.4920000  0 28                     
G26  20869294.842   109668892.577       -4059.730          42.000    20869295.807    85456284.859       -3163.562          42.000  
G23  19767767.820   103880557.723       -3597.837          45.000    19767763.949    80945908.281       -2803.462          44.000  
G16  18837949.590    98994121.285       -2623.218          46.000                                                                  
R23  20013803.014   107060453.831        1593.894          44.000                                                                  
R13  19791725.365   105686767.234        -629.969          39.000    19791725.775    82200806.772        -489.710          38.000  
R21  19320277.670   103386896.155       -2274.181          45.000    19320273.351    80412101.232       -1768.677          45.000  
R08  19954812.214   106857107.807        3728.238          49.000    19954807.080    83111126.006        2899.653          46.000  
G21  21594066.357   113477533.656        1998.622          42.000                                                                  
S33  37197810.055   195475883.317        -634.954          42.000  
S31  36244021.357   190463705.537        -635.151          43.000  
E36  24695246.724   129774358.512         968.161          38.000    24695251.704    99437551.643         741.722          44.000  
G10  17614364.669    92564276.765       -1588.161          51.000    17614361.353    72128002.962       -1237.544          46.000  
E11  20698952.869   108773752.607        -197.665          45.000    20698951.891    83346180.190        -151.470          49.000  
R12  19400402.844   103633484.693       -3403.578          47.000    19400402.137    80603943.961       -2647.247          45.000  
R22  17703811.890    94504271.489        -203.470          50.000    17703809.951    73503372.804        -158.282          50.000  
R07  17545812.411    93924109.807        1320.831          52.000    17545808.183    73052150.867        1027.338          50.000  
R06  18784141.446   100235887.014       -2688.106          41.000                                                                  
G27  17909320.479    94114144.085         550.769          49.000    17909318.091    73335704.704         429.132          48.000  
G08  19594259.528   102968593.832        2202.876          45.000    19594258.372    80235288.947        1716.612          44.000  
E04  23877887.761   125479165.881        1832.080          45.000    23877888.561    96146399.688        1403.725          48.000  
E25  22245714.369   116901973.385        -711.391          46.000    22245717.753    89574263.789        -545.121          51.000  
E14  25478845.799   133892397.497        -596.113          45.000    25478846.694   102592850.462        -456.799          48.000  
E19  24005787.150   126151322.514        -232.610          37.000    24005784.881    96661429.452        -178.032          38.000  
E24  22764583.413   119628728.650       -3103.868          46.000    22764585.070    91663591.716       -2378.383          49.000  
G32  20704148.392   108801059.780        2190.528          45.000    20704148.395    84780075.135        1706.927          45.000  
E12  22575071.988   118632930.547       -1850.896          44.000    22575070.312    90900642.570       -1418.326          48.000  
E10  21602277.685   113520938.353       -1133.552          48.000    21602277.963    86983777.640        -868.552          52.000  
G18                                                                  22406782.445                       -2459.618          32.000  
> 2024 04 16 08 34 00.4920000  0 28                     
G26  20892478.502   109790722.802       -4062.112          42.000    20892479.941    85551217.511       -3165.385          42.000  
G23  19788331.546   103988621.186       -3606.730          45.000    19788328.507    81030113.617       -2810.341          44.000  
G16  18852972.216    99073064.930       -2639.672          46.000                                                                  
R23  20004863.686   107012634.076        1594.164          43.000                                                                  
R13  19795332.230   105706029.200        -654.470          40.000    19795332.306    82215788.208        -509.100          38.000  
R21  19333041.719   103455197.315       -2279.515          47.000    19333036.864    80465224.352       -1772.806          45.000  
R08  19933940.009   106745338.810        3722.719          49.000    19933934.699    83024194.656        2895.473          47.000  
G21  21582657.434   113417581.784        1998.163          41.000                                                                  
S33  37201434.078   195494928.160        -635.242          42.000  
S31  36247648.115   190482764.190        -635.743          43.000  
E36  24689724.165   129745337.735         966.543          39.000    24689729.094    99415314.996         740.446          45.000  
G10  17623485.138    92612204.889       -1607.175          51.000    17623482.028    72165349.581       -1252.517          47.000  
E11  20700087.386   108779713.071        -199.958          45.000    20700086.063    83350747.391        -153.333          49.000  
R12  19419559.984   103735817.544       -3418.813          48.000    19419559.782    80683536.140       -2658.817          47.000  
R22  17704970.594    94510455.106        -208.883          50.000    17704967.782    73508182.327        -162.415          49.000  
R07  17538478.678    93884852.887        1296.175          51.000    17538474.961    73021617.813        1008.126          49.000  
R06  18799319.185   100316875.935       -2711.222          41.000    18798676.604                3      -2350.461          11.000  
G27  17906212.659    94097812.364         537.908          49.000    17906210.117    73322978.732         419.146          47.000  
G08  19581699.573   102902591.776        2197.075          45.000    19581698.396    80183858.800        1712.054          45.000  
E04  23867440.455   125424263.087        1827.866          46.000    23867441.641    96104331.354        1400.598          49.000  
E25  22249817.589   116923532.173        -726.047          47.000    22249820.056    89590782.855        -556.250          51.000  
E14  25482240.244   133910238.632        -593.434          45.000    25482242.191   102606520.925        -454.733          49.000  
E19  24007152.729   126158501.313        -246.195          36.000    24007150.451    96666930.153        -188.484          37.000  
E24  22782323.700   119721955.017       -3111.334          46.000    22782325.289    91735024.885       -2384.068          49.000  
G32  20691663.401   108735449.627        2183.306          47.000    20691662.888    84728950.448        1701.138          43.000  
E12  22585640.115   118688466.659       -1851.682          44.000    22585638.143    90943196.227       -1418.805          47.000  
E10  21608753.533   113554971.136       -1135.548          48.000    21608754.015    87009854.728        -870.121          51.000  
G18                                                                  22424799.523                       -2458.915          31.000  
> 2024 04 16 08 34 30.4920000  0 28                     
G26  20915673.549   109912615.644       -4064.093          42.000    20915675.569    85646198.950       -3166.687          43.000  
G23  19808943.758   104096939.847       -3614.854          46.000    19808940.732    81114517.771       -2816.693          45.000  
G16  18868086.724    99152489.277       -2655.436          47.000                                                                  
R23  19995921.820   106964799.660        1594.860          44.000                                                                  
R13  19799077.251   105726021.288        -678.610          40.000    19799077.084    82231337.502        -527.638          39.000  
R21  19345833.290   103523646.704       -2284.098          47.000    19345827.935    80518462.729       -1776.473          43.000  
R08  19913097.277   106633728.142        3717.912          48.000    19913091.731    82937386.449        2891.829          46.000  
G21  21571249.362   113357635.248        1998.260          39.000                                                                  
S33  37205058.154   195513972.682        -634.560          42.000  
S31  36251274.647   190501821.807        -635.364          44.000  
E36  24684211.838   129716370.408         964.736          38.000    24684216.883    99393119.295         739.191          45.000  
G10  17632712.409    92660697.025       -1625.721          52.000    17632709.886    72203135.698       -1266.734          47.000  
E11  20701235.262   108785747.217        -202.231          45.000    20701234.083    83355371.042        -154.889          49.000  
R12  19438800.142   103838595.544       -3433.282          49.000    19438800.603    80763474.564       -2670.235          47.000  
R22  17706157.026    94516790.962        -213.644          50.000    17706154.461    73513110.235        -166.294          49.000  
R07  17531282.527    93846329.032        1271.909          52.000    17531277.895    72991654.855         989.388          49.000  
R06  18814627.050   100398562.820       -2734.240          40.000                                                                  
G27  17903176.842    94081860.004         525.453          49.000    17903174.842    73310548.342         409.382          48.000  
G08  19569171.964   102836760.884        2191.600          44.000    19569171.172    80132562.021        1707.781          44.000  
E04  23857013.781   125369475.160        1824.363          45.000    23857015.660    96062351.071        1397.925          49.000  
E25  22254000.988   116945517.900        -739.781          47.000    22254003.856    89607629.066        -566.848          51.000  
E14  25485618.531   133927991.768        -590.052          45.000    25485620.625   102620123.957        -452.237          49.000  
E19  24008594.155   126166075.088        -258.957          35.000    24008591.940    96672733.428        -198.431          38.000  
E24  22800104.959   119815399.592       -3118.391          45.000    22800107.280    91806625.271       -2389.369          48.000  
G32  20679219.055   108670052.018        2176.353          48.000    20679217.897    84677991.358        1696.094          43.000  
E12  22596211.807   118744020.349       -1851.937          43.000    22596209.426    90985763.338       -1418.964          47.000  
E10  21615239.966   113589055.916       -1136.849          49.000    21615240.160    87035971.664        -871.145          51.000  
G18                                                                  22442809.006    91899501.3731      -2458.041          33.000  
> 2024 04 16 08 35 00.4920000  0 28                     
G18  22460830.910                1      -3153.109          25.000    22460813.871                       -2457.572          31.000  
G26  20938880.611   110034566.793       -4066.307          42.000    20938881.458    85741225.846       -3168.421          42.000  
G23  19829603.675   104205509.656       -3623.314          46.000    19829599.865    81199117.664       -2823.268          44.000  
G16  18883290.717    99232389.946       -2671.358          47.000                                                                  
R23  19986977.099   106916949.184        1595.191          43.000                                                                  
R13  19802957.297   105746741.578        -702.930          38.000    19802957.067    82247453.139        -546.437          39.000  
R21  19358653.369   103592243.656       -2289.093          46.000    19358647.190    80571815.966       -1780.598          43.000  
R08  19892284.257   106522278.545        3712.212          47.000    19892278.987    82850703.534        2887.281          46.000  
G21  21559843.009   113297693.171        1997.858          40.000                                                                  
S33  37208682.126   195533017.499        -635.230          41.000  
S31  36254901.473   190520879.503        -635.454          43.000  
E36  24678707.885   129687454.582         962.906          37.000    24678714.428    99370963.107         737.925          45.000  
G10  17642047.028    92709750.062       -1644.564          52.000    17642044.182    72241358.904       -1281.565          47.000  
E11  20702397.185   108791852.984        -204.720          45.000    20702395.563    83360049.565        -156.780          48.000  
R12  19458121.968   103941812.658       -3448.018          49.000    19458121.898    80843754.519       -2681.729          46.000  
R22  17707372.795    94523278.606        -219.077          52.000    17707370.105    73518156.167        -170.302          49.000  
R07  17524223.280    93808539.761        1247.294          52.000    17524217.886    72962263.254         970.166          49.000  
R06  18830064.490   100480943.714       -2757.613          39.000                                                                  
G27  17900213.722    94066287.785         512.691          49.000    17900211.521    73298414.166         399.331          47.000  
G08  19556677.752   102771102.177        2185.723          45.000    19556676.560    80081399.432        1702.885          44.000  
E04  23846609.498   125314802.817        1820.312          44.000    23846611.855    96020459.338        1394.875          49.000  
E25  22258266.063   116967929.134        -754.311          47.000    22258268.698    89624801.308        -577.887          51.000  
E14  25488979.402   133945656.428        -587.505          44.000    25488982.097   102633659.202        -450.086          49.000  
E19  24010109.207   126174043.187        -272.496          33.000    24010107.480    96678838.908        -208.561          38.000  
E24  22817928.560   119909059.142       -3125.684          46.000    22817930.045    91878390.376       -2394.962          48.000  
G32  20666815.711   108604868.801        2169.105          49.000    20666814.467    84627199.284        1690.041          43.000  
E12  22606786.451   118799590.188       -1852.842          43.000    22606783.997    91028342.819       -1419.667          48.000  
E10  21621735.824   113623190.976       -1138.833          49.000    21621735.981    87062127.119        -872.638          51.000  
> 2024 04 16 08 35 30.4920000  0 28                     
G26  20962099.442   110156582.145       -4068.369          43.000    20962100.102    85836302.775       -3170.101          42.000  
G23  19850313.468   104314336.714       -3631.937          46.000    19850309.600    81283917.968       -2829.964          43.000  
G16  18898587.642    99312773.245       -2687.465          47.000                                                                  
R23  19978031.112   106869091.836        1595.196          42.000                                                                  
R13  19806975.810   105768198.226        -727.421          39.000    19806975.764    82264141.501        -565.813          39.000  
R21  19371499.980   103660998.205       -2294.344          45.000    19371496.016    80625291.721       -1784.456          43.000  
R08  19871503.887   106411003.290        3706.095          48.000    19871499.490    82764156.227        2882.487          46.000  
G21  21548438.907   113237763.657        1997.308          40.000                                                                  
S33  37212307.557   195552068.839        -635.218          42.000  
S31  36258529.099   190539944.455        -635.539          44.000  
E36  24673216.572   129658598.707         960.691          38.000    24673223.822    99348852.800         736.436          46.000  
G10  17651489.278    92759370.792       -1663.534          52.000    17651486.628    72280024.414       -1296.293          47.000  
E11  20703574.203   108798038.821        -207.619          44.000    20703572.277    83364789.418        -159.018          48.000  
R12  19477527.189   104045473.453       -3462.746          48.000    19477528.247    80924379.530       -2693.321          47.000  
R22  17708618.661    94529927.609        -224.311          52.000    17708615.942    73523327.668        -174.501          51.000  
R07  17517302.742    93771497.279        1222.167          51.000    17517297.794    72933452.536         950.600          48.000  
R06  18845633.421   100564024.386       -2781.118          36.000                                                                  
G27  17897324.704    94051106.555         499.385          49.000    17897322.995    73286584.684         389.246          47.000  
G08  19544217.757   102705626.704        2179.469          45.000    19544216.810    80030379.603        1698.273          44.000  
E04  23836229.375   125260256.948        1815.939          44.000    23836232.020    95978664.515        1391.555          49.000  
E25  22262613.301   116990774.429        -768.752          47.000    22262616.246    89642306.151        -589.040          52.000  
E14  25492326.055   133963242.169        -584.909          44.000    25492328.413   102647134.002        -448.229          49.000  
E19  24011699.291                        -285.808          31.000    24011699.907    96685253.835        -218.901          38.000  
E24  22835793.254   120002940.588       -3132.932          46.000    22835795.553    91950325.519       -2400.631          49.000  
G32  20654454.797   108539912.120        2161.475          47.000    20654453.185    84576583.726        1684.323          42.000  
E12  22617366.047   118855184.839       -1853.559          43.000    22617363.309    91070941.302       -1420.197          47.000  
E10  21628242.536   113657384.817       -1140.710          49.000    21628242.708    87088327.621        -874.055          51.000  
G18                                                                  22478813.416                       -2457.283          30.000  
> 2024 04 16 08 36 00.4920000  0 28                     
G18  22496815.455   118221573.5361      -3151.940          30.000    22496807.907                       -2456.472          25.000  
G26  20985329.444   110278660.103       -4070.203          42.000    20985331.069    85931428.511       -3171.848          43.000  
G23  19871070.636   104423419.576       -3640.435          46.000    19871067.007    81368917.668       -2836.704          44.000  
G16  18913976.206    99393638.890       -2703.688          48.000                                                                  
R23  19969083.235   106821229.103        1595.257          42.000                                                                  
R13  19811131.895   105790391.333        -752.552          39.000    19811131.503    82281402.649        -585.008          38.000  
R21  19384378.825   103729912.584       -2299.918          45.000    19384374.237    80678891.871       -1788.889          42.000  
R08  19850757.794   106299908.439        3699.744          48.000    19850753.393    82677749.170        2877.732          47.000  
G21  21537037.633   113177848.907        1996.735          42.000                                                                  
S33  37215934.936   195571130.295        -635.910          42.000  
S31  36262158.531   190559018.413        -636.010          43.000  
E36  24667738.379   129629803.592         958.705          41.000    24667744.054    99326789.055         734.466          45.000  
G10  17661039.096    92809558.756       -1682.435          51.000    17661037.080    72319131.947       -1311.012          47.000  
E11  20704766.328   108804305.564        -210.534          44.000    20704764.489    83369591.289        -161.389          47.000  
R12  19497015.626   104149575.077       -3477.455          47.000    19497017.610    81005347.431       -2704.619          47.000  
R22  17709895.396    94536740.278        -229.942          52.000    17709892.877    73528626.417        -178.868          50.000  
R07  17510522.758    93735205.675        1196.986          51.000    17510518.588    72905225.831         931.010          49.000  
R06  18861333.627   100647803.495       -2804.870          36.000                                                                  
G27  17894510.845    94036319.657         486.133          49.000    17894508.936    73275062.460         378.561          47.000  
G08  19531793.656   102640338.229        2172.924          45.000    19531792.947    79979505.505        1693.345          44.000  
E04  23825875.009   125205841.068        1811.568          45.000    23825877.313    95936969.327        1387.973          50.000  
E25  22267043.692   117014054.981        -783.359          46.000    22267046.497    89660144.514        -600.260          52.000  
E14  25495657.328   133980751.199        -582.467          43.000    25495659.726   102660550.026        -446.269          48.000  
E19  24013365.452                        -299.463          30.000    24013370.746    96691979.650        -229.705          38.000  
E24  22853701.868   120097043.440       -3140.593          47.000    22853702.950    92022430.288       -2406.495          49.000  
G32  20642136.891   108475186.601        2153.429          45.000    20642136.856    84526148.329        1678.204          43.000  
E12  22627950.365   118910805.509       -1854.527          44.000    22627947.574    91113559.738       -1421.014          48.000  
E10  21634760.164   113691638.409       -1142.898          48.000    21634761.011    87114573.889        -875.718          51.000  
> 2024 04 16 08 36 30.4920000  0 28                     
G18  22514807.356   118316126.009       -3151.165          29.000    22514802.958                       -2455.310          28.000  
G26  21008571.540   110400796.394       -4071.836          43.000    21008573.306    86026599.656       -3172.949          43.000  
G23  19891876.557   104532754.234       -3648.610          46.000    19891872.840    81454113.499       -2842.989          44.000  
G16  18929455.675    99474982.627       -2719.177          48.000                                                                  
R23  19960132.172   106773359.449        1595.929          40.000                                                                  
R13  19815425.545   105813318.850        -776.544          38.000    19815424.664    82299235.063        -603.750          37.000  
R21  19397287.103   103798985.916       -2305.064          47.000    19397280.773    80732615.493       -1792.662          41.000  
R08  19830045.382   106188996.546        3694.007          48.000    19830041.775    82591484.432        2873.268          47.000  
G21  21525638.904   113117947.082        1996.704          42.000                                                                  
S33  37219563.219   195590198.852        -635.556          42.000  
S31  36265790.009   190578100.896        -636.148          44.000  
E36  24662270.166   129601067.318         957.102          41.000    24662275.942    99304770.391         733.251          46.000  
G10  17670697.332    92860310.731       -1700.795          52.000    17670694.722    72358678.971       -1325.314          47.000  
E11  20705973.755   108810651.241        -212.764          44.000    20705972.013    83374453.619        -162.899          47.000  
R12  19516584.137   104254111.582       -3491.529          46.000    19516586.770    81086653.607       -2715.656          47.000  
R22  17711202.044    94543715.814        -235.020          53.000    17711198.867    73534051.834        -182.744          50.000  
R07  17503883.942    93699666.144        1172.327          52.000    17503879.518    72877584.038         911.779          49.000  
R06  18877164.355   100732276.568       -2827.449          35.000                                                                  
G27  17891771.541    94021927.698         473.340          48.000    17891769.919    73263847.978         368.787          46.000  
G08  19519405.056   102575237.558        2166.880          45.000    19519405.024    79928777.737        1688.727          44.000  
E04  23815545.812   125151555.752        1807.535          46.000    23815546.955    95895374.125        1384.947          50.000  
E25  22271555.187   117037769.199        -797.470          46.000    22271559.224    89678315.181        -611.135          52.000  
E14  25498974.519   133998182.910        -579.608          44.000    25498976.885   102673906.810        -444.116          48.000  
E19  24015116.580   126200375.770        -313.147          32.000    24015118.590    96699015.955        -239.513          39.000  
E24  22871649.594   120191364.366       -3147.408          46.000    22871651.262    92094702.152       -2411.678          49.000  
G32  20629864.071   108410694.211        2145.776          46.000    20629864.109    84475894.638        1672.065          43.000  
E12  22638538.856   118966450.725       -1855.172          43.000    22638536.830    91156196.982       -1421.436          48.000  
E10  21641289.297   113725950.032       -1144.470          48.000    21641290.357    87140864.660        -876.951          51.000  
> 2024 04 16 08 37 00.4920000  0 28                     
G18  22532791.327   118410649.730       -3150.065          28.000    22532785.454                3      -2454.004          26.000  
G26  21031823.990   110522982.631       -4073.632          45.000    21031824.550    86121809.763       -3174.095          43.000  
G23  19912727.887   104642332.591       -3656.677          44.000    19912724.821    81539499.226       -2849.191          43.000  
G16  18945024.614    99556796.855       -2734.960          47.000                                                                  
R23  19951183.132   106725477.673        1596.200          43.000                                                                  
R13  19819855.416   105836974.134        -800.848          39.000    19819854.976    82317633.408        -622.819          39.000  
R21  19410221.814   103868213.787       -2310.125          46.000    19410218.186    80786459.368       -1796.733          42.000  
R08  19809367.353   106078266.622        3687.886          49.000    19809363.396    82505361.220        2868.440          47.000  
G21  21514240.820   113058052.746        1996.552          41.000                                                                  
S33  37223192.532   195609269.866        -635.786          42.000  
S31  36269421.503   190597184.715        -635.989          44.000  
E36  24656812.936   129572384.045         955.269          40.000    24656817.582    99282792.311         732.040          46.000  
G10  17680461.556    92911619.371       -1719.621          52.000    17680457.917    72398659.763       -1340.006          47.000  
E11  20707195.535   108817070.029        -214.835          44.000    20707193.417    83379371.982        -164.782          48.000  
R12  19536234.603   104359072.907       -3505.543          46.000    19536235.485    81168290.220       -2726.639          47.000  
R22  17712538.668    94550849.669        -240.324          52.000    17712534.845    73539600.415        -187.025          50.000  
R07  17497384.908    93664876.704        1147.146          52.000    17497381.592    72850525.645         892.235          50.000  
R06  18893123.064   100817435.612       -2850.464          36.000                                                                  
G27  17889107.334    94007927.386         460.155          48.000    17889105.807    73252938.685         358.412          46.000  
G08  19507051.914   102510321.770        2160.807          45.000    19507052.087    79878194.065        1683.599          44.000  
E04  23805240.020   125097397.778        1803.126          46.000    23805240.803    95853876.502        1381.631          49.000  
E25  22276149.520   117061911.541        -811.676          46.000    22276153.166    89696813.880        -622.033          52.000  
E14  25502275.872   134015532.728        -576.869          43.000    25502278.462   102687200.824        -442.082          48.000  
E19  24016935.050   126209958.944        -326.049          31.000    24016942.288    96706358.989        -249.880          40.000  
E24  22889639.207   120285896.137       -3154.397          47.000    22889640.258    92167135.556       -2417.015          50.000  
G32  20617635.915   108346432.836        2138.188          46.000    20617635.107    84425820.905        1666.182          43.000  
E12  22649131.689   119022114.943       -1855.623          43.000    22649129.700    91198848.795       -1421.935          48.000  
E10  21647828.596   113760313.952       -1146.278          47.000    21647829.745    87167195.497        -878.355          52.000  
> 2024 04 16 08 37 30.4920000  0 28                     
G18  22550775.744   118505141.310       -3149.047          29.000    22550778.025                3      -2453.955          26.000  
G26  21055082.899   110645212.634       -4075.074          43.000    21055083.906    86217053.997       -3175.491          43.000  
G23  19933625.613   104752148.682       -3664.752          44.000    19933623.074    81625070.215       -2855.483          45.000  
G16  18960681.493    99639075.651       -2750.473          47.000                                                                  
R23  19942229.277   106677580.423        1596.558          41.000                                                                  
R13  19824421.474   105861353.044        -824.661          39.000    19824421.513    82336594.627        -641.223          40.000  
R21  19423189.382   103937593.607       -2315.279          45.000    19423184.367    80840421.444       -1800.771          42.000  
R08  19788723.524   105967719.334        3681.648          49.000    19788718.875    82419380.066        2863.563          46.000  
G21  21502843.752   112998163.001        1996.185          41.000                                                                  
S33  37226821.370   195628340.082        -636.072          42.000  
S31  36273052.955   190616268.016        -636.056          43.000  
E36  24651362.846   129543749.953         953.435          39.000    24651368.738    99260851.969         730.708          46.000  
G10  17690330.380    92963479.445       -1737.931          52.000    17690326.617    72439070.244       -1354.288          47.000  
E11  20708430.270   108823558.251        -217.253          44.000    20708428.110    83384343.529        -166.451          47.000  
R12  19555961.674   104464451.436       -3519.649          47.000    19555961.816    81250251.245       -2737.474          47.000  
R22  17713904.233    94558139.343        -245.787          53.000    17713900.441    73545270.155        -191.197          50.000  
R07  17491026.448    93630836.474        1122.031          53.000    17491022.326    72824049.974         872.730          50.000  
R06  18909207.900   100903274.089       -2872.942          36.000                                                                  
G27  17886516.943    93994317.453         447.005          48.000    17886516.055    73242333.582         348.431          46.000  
G08  19494734.224   102445589.828        2154.669          46.000    19494733.872    79827753.585        1678.716          44.000  
E04  23794957.004   125043365.872        1798.908          45.000    23794958.986    95812475.488        1378.492          49.000  
E25  22280825.206   117086478.457        -826.015          47.000    22280827.910    89715637.885        -632.942          51.000  
E14  25505562.114   134032798.141        -574.036          44.000    25505564.421   102700430.163        -439.916          48.000  
E19  24018839.567   126219939.866        -339.140          31.000    24018842.329    96714006.778        -259.927          41.000  
E24  22907667.605   120380633.562       -3161.273          47.000    22907668.018    92239726.563       -2422.264          49.000  
G32  20605451.413   108282402.522        2130.359          47.000    20605450.007    84375927.214        1660.043          42.000  
E12  22659727.211   119077794.788       -1856.310          43.000    22659725.290    91241512.574       -1422.317          48.000  
E10  21654377.308   113794726.554       -1147.963          47.000    21654378.521    87193563.596        -879.497          52.000  
> 2024 04 16 08 38 00.4920000  0 28                     
G18  22568752.328   118599600.623       -3148.446          28.000    22568734.207                3      -2453.134          26.000  
G26  21078349.559   110767483.199       -4076.304          43.000    21078351.050    86312329.792       -3176.230          42.000  
G23  19954567.872   104862199.351       -3672.147          44.000    19954564.071    81710824.020       -2861.364          44.000  
G16  18976426.096    99721815.597       -2765.578          47.000                                                                  
R23  19933272.362   106629667.183        1597.522          42.000                                                                  
R13  19829121.690   105886453.974        -848.714          39.000    19829122.416    82356117.513        -660.220          39.000  
R21  19436181.132   104007126.026       -2320.321          46.000    19436180.031    80894502.178       -1804.727          44.000  
R08  19768114.813   105857359.178        3675.518          49.000    19768109.907    82333544.465        2858.630          47.000  
G21  21491447.925   112938277.574        1996.185          41.000                                                                  
S33  37230450.122   195647408.935        -635.623          42.000  
S31  36276684.352   190635350.181        -635.842          44.000  
E36  24645922.512   129515164.239         952.031          39.000    24645928.752    99238948.678         729.249          46.000  
G10  17700303.002    93015888.718       -1756.287          52.000    17700300.611    72479908.690       -1368.555          48.000  
E11  20709677.680   108830115.074        -219.781          44.000    20709675.842    83389367.690        -168.357          48.000  
R12  19575766.191   104570242.444       -3533.346          48.000    19575766.328    81332533.080       -2748.021          47.000  
R22  17715298.875    94565585.313        -250.822          52.000    17715295.347    73551061.505        -195.061          49.000  
R07  17484807.519    93597547.919        1097.042          52.000    17484803.747    72798158.927         853.273          50.000  
R06  18925420.729   100989788.539       -2894.424          36.000                                                                  
G27  17884001.850    93981099.525         433.973          48.000    17884000.792    73232033.916         338.210          47.000  
G08  19482451.242   102381043.777        2148.321          47.000    19482451.118    79777457.974        1674.141          43.000  
E04  23784698.890   124989461.808        1794.649          44.000    23784700.600    95771172.476        1375.136          48.000  
E25  22285579.535   117111469.357        -840.250          46.000    22285583.317    89734786.761        -643.756          51.000  
E14  25508832.007   134049979.650        -571.452          45.000    25508834.077   102713595.202        -437.924          49.000  
E19  24020816.949                        -352.028          31.000    24020817.559    96721959.522        -270.229          41.000  
E24  22925734.067   120475574.378       -3168.192          47.000    22925734.656    92312473.424       -2427.587          49.000  
G32  20593311.189   108218606.256        2122.550          47.000    20593310.254    84326215.901        1653.975          44.000  
E12  22670325.359   119133489.910       -1856.933          43.000    22670323.594    91284188.081       -1422.705          48.000  
E10  21660935.245   113829187.202       -1149.510          48.000    21660935.917    87219968.535        -880.840          52.000  
> 2024 04 16 08 38 30.4920000  0 28                     
G18  22586724.284                       -3147.983          28.000    22586714.087                       -2452.113          29.000  
G26  21101624.648   110889796.578       -4077.938          42.000    21101625.533    86407638.940       -3177.373          41.000  
G23  19975555.013   104972487.237       -3680.370          43.000    19975550.940    81796762.671       -2867.704          43.000  
G16  18992259.043    99805019.866       -2781.235          48.000                                                                  
R23  19924313.396   106581744.036        1597.402          41.000                                                                  
R13  19833957.896   105912281.107        -872.905          39.000    19833958.844    82376205.203        -678.794          39.000  
R21  19449206.303   104076816.596       -2325.696          46.000    19449203.662    80948705.987       -1808.845          44.000  
R08  19747541.996   105747195.223        3668.837          49.000    19747537.219    82247861.479        2853.304          46.000  
G21  21480053.751   112878401.527        1995.807          41.000                                                                  
S33  37234079.373   195666481.629        -635.815          42.000  
S31  36280316.098   190654436.098        -636.323          44.000  
E36  24640492.197   129486631.583         949.813          39.000    24640498.856    99217086.070         728.084          45.000  
G10  17710380.814    93068850.367       -1774.673          51.000    17710379.448    72521177.541       -1382.845          49.000  
E11  20710939.675   108836745.085        -222.239          44.000    20710937.612    83394447.852        -170.357          48.000  
R12  19595647.404   104676446.583       -3546.865          46.000    19595648.341    81415136.236       -2758.740          47.000  
R22  17716723.675    94573193.667        -256.397          52.000    17716720.263    73556979.147        -199.390          51.000  
R07  17478730.521    93565019.383        1071.599          52.000    17478726.202    72772859.042         833.401          49.000  
R06  18941761.558   101076981.610       -2917.751          39.000                                                                  
G27  17881562.351    93968280.839         420.618          48.000    17881561.429    73222045.346         327.739          46.000  
G08  19470205.730   102316691.239        2141.763          47.000    19470204.870    79727313.160        1669.107          43.000  
E04  23774465.913   124935692.714        1790.042          43.000    23774469.105    95729972.826        1371.585          49.000  
E25  22290417.032   117136889.204        -854.281          47.000    22290420.628    89754264.313        -654.674          51.000  
E14  25512086.907   134067083.225        -568.771          45.000    25512088.991   102726700.540        -435.883          49.000  
E19  24022865.696   126241101.640        -365.600          31.000    24022868.856    96730221.720        -280.559          41.000  
E24  22943840.063   120570721.917       -3175.029          46.000    22943840.714    92385378.654       -2432.841          49.000  
G32  20581216.505   108155052.534        2114.399          46.000    20581217.350    84276693.614        1647.582          45.000  
E12  22680928.364   119189205.290       -1857.761          43.000    22680925.772    91326879.110       -1423.338          48.000  
E10  21667503.417   113863700.773       -1151.347          48.000    21667503.467    87246413.999        -882.269          52.000  
> 2024 04 16 08 39 00.4920000  0 28                     
G26  21124907.096   111012147.191       -4078.899          42.000    21124907.411    86502977.136       -3178.547          40.000  
G23  19996586.116   105083006.886       -3687.800          42.000    19996583.044    81882881.901       -2873.712          44.000  
G16  19008179.804    99888683.339       -2796.408          48.000                                                                  
R23  19915350.526   106533808.139        1598.109          39.000                                                                  
R13  19838929.301   105938830.647        -897.087          38.000    19838930.654    82396854.809        -697.673          39.000  
R21  19462259.479   104146663.956       -2330.744          47.000    19462255.209    81003031.687       -1812.773          43.000  
R08  19727006.365   105637229.819        3662.280          49.000    19727001.477    82162332.890        2848.532          46.000  
G21  21468662.191   112818532.292        1995.532          42.000                                                                  
S33  37237709.136   195685555.939        -635.908          42.000  
S31  36283948.194   190673523.503        -636.016          44.000  
E36  24635072.430   129458148.747         948.770          40.000    24635078.472    99195261.596         727.048          44.000  
G10  17720563.084    93122359.725       -1792.543          51.000    17720561.299    72562873.171       -1396.781          48.000  
E11  20712215.326   108843445.401        -224.756          45.000    20712212.560    83399581.938        -172.153          48.000  
R12  19615605.068   104783056.665       -3560.228          47.000    19615606.425    81498055.165       -2769.094          48.000  
R22  17718178.838    94580962.492        -261.614          52.000    17718175.664    73563021.580        -203.423          49.000  
R07  17472796.181    93533250.599        1046.246          52.000    17472791.319    72748150.054         813.680          49.000  
R06  18958228.031   101164847.141       -2940.202          40.000                                                                  
G27  17879198.817    93955860.705         407.256          47.000    17879197.782    73212367.357         317.463          46.000  
G08  19457996.546   102252531.771        2135.429          47.000    19457995.704    79677318.773        1664.007          43.000  
E04  23764260.045   124882058.165        1785.648          43.000    23764262.743    95688876.294        1368.220          49.000  
E25  22295335.842   117162735.034        -868.649          47.000    22295339.038    89774068.247        -665.592          51.000  
E14  25515326.224   134084106.989        -566.182          44.000    25515328.727   102739744.703        -433.826          49.000  
E19  24024996.354   126252286.260        -380.044          32.000    24024997.206    96738791.731        -290.613          41.000  
E24  22961985.565   120666071.587       -3181.652          47.000    22961984.771    92458438.770       -2437.872          48.000  
G32  20569169.339   108091741.947        2106.287          46.000    20569169.808    84227360.749        1641.422          45.000  
E12  22691533.178   119244938.171       -1858.057          43.000    22691531.420    91369583.542       -1423.706          48.000  
E10  21674081.132   113898264.206       -1152.905          49.000    21674080.180    87272897.659        -883.362          51.000  
G18                                                                  22604678.518                       -2451.707          31.000  
> 2024 04 16 08 39 30.4920000  0 28                     
G26  21148196.219   111134533.246       -4079.795          42.000    21148196.659    86598342.919       -3178.878          39.000  
G23  20017660.875   105193756.784       -3695.193          42.000    20017657.167    81969180.560       -2879.296          43.000  
G16  19024187.419    99972804.528       -2811.235          48.000                                                                  
R23  19906386.796   106485860.634        1598.959          41.000                                                                  
R13  19844035.704   105966102.313        -920.674          38.000    19844037.602    82418066.069        -716.116          38.000  
R21  19475341.883   104216669.792       -2335.897          48.000    19475336.901    81057480.655       -1816.965          42.000  
R08  19706509.623   105527468.131        3655.372          49.000    19706504.432    82076962.739        2843.165          47.000  
G21  21457270.983   112758671.171        1995.532          43.000                                                                  
S33  37241339.095   195704631.223        -635.743          42.000  
S31  36287580.830   190692612.594        -635.961          44.000  
E36  24629661.967   129429716.440         947.356          40.000    24629667.351    99173475.891         725.668          44.000  
G10  17730850.052    93176415.955       -1810.719          51.000    17730847.191    72604994.918       -1410.925          48.000  
E11  20713502.562   108850216.412        -226.402          43.000    20713500.997    83404770.210        -173.615          48.000  
R12  19635637.984   104890069.455       -3573.570          46.000    19635638.840    81581287.278       -2779.360          48.000  
R22  17719665.684    94588893.889        -266.980          52.000    17719662.009    73569190.484        -207.524          50.000  
R07  17467003.550    93502245.490        1021.010          52.000    17466999.148    72724035.007         794.130          49.000  
R06  18974820.058   101253383.582       -2961.932          41.000                                                                  
G27  17876912.025    93943842.156         394.178          48.000    17876910.412    73203002.287         307.181          46.000  
G08  19445825.050   102188568.969        2129.155          48.000    19445823.605    79627477.636        1659.066          43.000  
E04  23754081.140   124828561.289        1781.354          45.000    23754083.146    95647885.247        1364.886          50.000  
E25  22300335.180   117189007.675        -882.492          47.000    22300338.592    89794199.231        -676.251          51.000  
E14  25518550.380   134101052.877        -563.227          44.000    25518552.929   102752729.205        -431.571          49.000  
E19  24027204.316   126263874.054        -392.306          33.000    24027202.046    96747670.802        -300.794          41.000  
E24  22980167.967   120761622.571       -3188.013          47.000    22980167.399    92531653.164       -2442.737          48.000  
G32  20557169.271   108028678.947        2098.233          47.000    20557168.573    84178220.836        1635.088          44.000  
E12  22702142.147   119300689.624       -1858.455          43.000    22702140.084    91412302.219       -1423.911          47.000  
E10  21680667.010   113932878.359       -1154.353          48.000    21680666.918    87299420.214        -884.465          51.000  
G18                                                                  22622637.354                       -2450.485          31.000  
> 2024 04 16 08 40 00.4920000  0 28                     
G18  22640609.605                1      -3144.220          25.000    22640595.631    92709392.9901      -2450.257          33.000  
G26  21171492.229   111256952.347       -4081.042          43.000    21171492.216    86693734.467       -3180.041          39.000  
G23  20038779.042   105304734.756       -3702.822          42.000    20038773.887    82055656.942       -2885.716          40.000  
G16  19040281.952   100057380.786       -2826.730          47.000                                                                  
R23  19897422.875   106437902.179        1598.728          42.000                                                                  
R13  19849278.957   105994095.852        -945.091          39.000    19849280.438    82439838.802        -735.047          39.000  
R21  19488451.675   104286835.675       -2341.389          45.000    19488448.645    81112054.091       -1821.288          42.000  
R08  19686051.595   105417915.621        3648.135          49.000    19686047.447    81991755.316        2837.639          48.000  
G21  21445881.456   112698818.295        1994.879          43.000                                                                  
S33  37244969.912   195723711.362        -635.743          42.000  
S31  36291213.902   190711705.473        -636.509          44.000  
E36  24624262.571   129401334.676         945.294          42.000    24624267.302    99151728.859         724.311          44.000  
G10  17741240.641    93231017.457       -1828.929          52.000    17741237.724    72647541.561       -1425.046          48.000  
E11  20714803.797   108857058.298        -229.042          42.000    20714802.894    83410012.756        -175.512          48.000  
R12  19655745.993   104997480.899       -3586.934          46.000    19655746.703    81664829.451       -2789.804          47.000  
R22  17721182.730    94596989.099        -272.423          52.000    17721179.089    73575486.770        -211.957          50.000  
R07  17461354.786    93472006.942         995.157          52.000    17461350.580    72700516.139         774.027          49.000  
R06  18991536.759   101342588.375       -2984.752          40.000                                                                  
G27  17874702.012    93932227.792         380.562          48.000    17874699.978    73193952.168         296.596          45.000  
G08  19433691.667   102124805.691        2122.073          48.000    19433689.519    79577791.990        1653.526          43.000  
E04  23743927.776   124775204.620        1776.046          45.000    23743929.997    95607001.609        1360.917          51.000  
E25  22305416.619   117215707.320        -897.205          47.000    22305419.380    89814657.384        -687.394          51.000  
E14  25521761.108   134117922.172        -561.180          45.000    25521763.062   102765655.030        -429.817          49.000  
E19  24029480.053   126275866.400        -406.273          32.000    24029483.835    96756859.760        -311.420          41.000  
E24  22998387.926   120857373.515       -3195.000          46.000    22998388.624    92605020.778       -2448.164          49.000  
G32  20545216.406   107965867.305        2089.425          48.000    20545215.452    84129276.762        1628.386          44.000  
E12  22712754.335   119356460.049       -1859.229          42.000    22712752.997    91455035.428       -1424.695          47.000  
E10  21687263.618   113967543.549       -1156.267          49.000    21687263.716    87325981.913        -886.060          51.000  
> 2024 04 16 08 40 30.4920000  0 28                     
G26  21194792.944   111379394.991       -4081.825          42.000    21194792.279    86789144.332       -3180.228          39.000  
G23  20059939.358   105415931.451       -3710.123          42.000    20059935.580    82142303.705       -2890.933          42.000  
G16  19056460.679   100142403.323       -2841.663          45.000                                                                  
R23  19888454.862   106389926.323        1599.454          42.000                                                                  
R13  19854655.956   106022802.738        -968.896          41.000    19854656.536    82462166.397        -753.552          38.000  
R21  19501592.930   104357155.365       -2346.761          46.000    19501589.874    81166747.165       -1825.108          42.000  
R08  19665631.152   105308569.114        3641.498          48.000    19665627.516    81906708.111        2832.331          47.000  
G21  21434491.741   112638967.710        1995.087          43.000                                                                  
S33  37248599.559   195742785.821        -635.759          42.000  
S31  36294846.388   190730794.322        -636.338          43.000  
E36  24618870.209   129372996.253         943.986          43.000    24618874.325    99130015.030         723.357          43.000  
G10  17751733.472    93286155.652       -1846.797          52.000    17751730.604    72690506.422       -1439.076          49.000  
E11  20716117.984   108863963.830        -231.059          42.000    20716116.798    83415304.068        -177.227          48.000  
R12  19675925.322   105105279.656       -3599.830          45.000    19675927.324    81748672.917       -2799.920          48.000  
R22  17722728.274    94605242.394        -277.861          52.000    17722724.384    73581906.023        -216.073          50.000  
R07  17455848.554    93442531.221         969.739          52.000    17455844.691    72677590.633         754.281          50.000  
R06  19008376.733   101432451.351       -3006.493          41.000                                                                  
G27  17872567.783    93921012.856         367.166          48.000    17872565.743    73185213.253         286.088          46.000  
G08  19421594.881   102061237.674        2115.712          48.000    19421592.865    79528258.521        1648.598          42.000  
E04  23733799.228   124721983.632        1771.739          44.000    23733802.150    95566221.983        1357.573          51.000  
E25  22310577.490   117242826.987        -910.952          48.000    22310580.342    89835437.404        -697.995          51.000  
E14  25524956.247   134134709.024        -558.239          46.000    25524957.683   102778517.686        -427.663          49.000  
E19  24031834.593   126288257.225        -420.284          30.000    24031841.874    96766354.031        -321.499          40.000  
E24  23016644.184   120953315.773       -3201.139          45.000    23016645.903    92678534.979       -2452.913          49.000  
G32  20533311.105   107903303.684        2081.145          48.000    20533310.553    84080525.936        1621.597          44.000  
E12  22723370.325   119412242.771       -1859.795          42.000    22723367.882    91497778.047       -1424.957          47.000  
E10  21693868.917   114002252.618       -1157.705          49.000    21693868.892    87352577.192        -887.095          52.000  
G18                                                                  22658540.991    92782881.924       -2448.933          32.000  
> 2024 04 16 08 41 00.4920000  0 28                     
G26  21218097.145   111501857.707       -4082.645          43.000    21218095.625    86884569.907       -3181.018          39.000  
G23  20081139.805   105527343.658       -3717.252          43.000    20081136.878    82229118.455       -2896.743          44.000  
G16  19072723.922   100227868.961       -2856.293          46.000                                                                  
R23  19879482.537   106341932.615        1599.954          43.000                                                                  
R13  19860165.873   106052221.250        -992.840          40.000    19860165.036    82485047.438        -772.092          38.000  
R21  19514762.792   104427629.113       -2351.800          46.000    19514760.172    81221560.064       -1829.192          42.000  
R08  19645251.426   105199432.701        3634.355          49.000    19645247.414    81821824.322        2826.707          48.000  
G21  21423102.355   112579118.755        1994.763          41.000                                                                  
S33  37252228.464   195761856.884        -635.755          42.000  
S31  36298478.152   190749878.665        -635.917          44.000  
E36  24613484.904   129344700.136         942.395          43.000    24613489.596    99108333.648         722.067          45.000  
G10  17762327.274    93341827.804       -1864.650          52.000    17762324.553    72733887.363       -1452.893          49.000  
E11  20717444.664   108870932.105        -233.369          43.000    20717442.832    83420643.417        -178.874          48.000  
R12  19696177.945   105213460.827       -3612.406          47.000    19696178.764    81832813.846       -2809.753          47.000  
R22  17724302.914    94613653.911        -283.188          51.000    17724299.951    73588448.330        -220.242          50.000  
R07  17450484.978    93413820.052         944.208          52.000    17450480.691    72655259.796         734.458          49.000  
R06  19025339.051   101522969.222       -3028.319          40.000                                                                  
G27  17870509.482    93910198.784         353.657          48.000    17870507.274    73176786.704         275.564          45.000  
G08  19409535.476   101997866.742        2108.903          48.000    19409533.966    79478878.641        1643.313          42.000  
E04  23723697.537   124668899.757        1767.079          44.000    23723700.640    95525547.394        1353.949          51.000  
E25  22315817.462   117270365.824        -925.038          48.000    22315820.991    89856538.592        -708.779          52.000  
E14  25528135.051   134151413.671        -555.523          45.000    25528136.024   102791317.360        -425.580          48.000  
E19  24034274.892                        -432.066          31.000    24034274.656    96776153.356        -331.521          40.000  
E24  23034937.550   121049446.928       -3207.518          45.000    23034939.126    92752193.891       -2457.685          50.000  
G32  20521453.440   107840990.794        2072.875          47.000    20521452.705    84031970.487        1615.194          44.000  
E12  22733986.424   119468037.081       -1860.186          41.000    22733985.249    91540529.560       -1425.247          47.000  
E10  21700481.265   114037004.815       -1159.242          49.000    21700482.062    87379205.510        -888.166          51.000  
G18                                                                  22676483.637                       -2447.906          32.000  
> 2024 04 16 08 41 30.4920000  0 28                     
G26  21241404.578   111624337.688       -4082.991          42.000    21241404.139    86980008.923       -3181.373          40.000  
G23  20102381.586   105638968.848       -3724.473          43.000    20102378.100    82316099.085       -2902.044          43.000  
G16  19089071.316   100313775.311       -2870.995          46.000                                                                  
R23  19870506.983   106293921.112        1600.446          43.000                                                                  
R13  19865806.717   106082350.406       -1016.157          39.000    19865806.709    82508481.191        -790.373          38.000  
R21  19527962.559   104498258.072       -2356.871          48.000    19527959.230    81276493.636       -1833.161          43.000  
R08  19624910.946   105090510.562        3626.990          49.000    19624906.592    81737107.195        2821.036          48.000  
G21  21411713.813   112519271.364        1994.867          42.000                                                                  
S33  37255856.804   195780923.379        -635.583          42.000  
S31  36302108.941   190768958.738        -635.988          43.000  
E36  24608108.115   129316445.940         940.989          43.000    24608113.066    99086684.335         721.108          44.000  
G10  17773022.155    93398032.025       -1882.422          51.000    17773019.682    72777682.908       -1466.789          49.000  
E11  20718782.615   108877962.814        -235.592          43.000    20718780.743    83426030.624        -180.431          48.000  
R12  19716500.605   105322019.948       -3624.979          47.000    19716500.505    81917248.675       -2819.461          47.000  
R22  17725908.941    94622224.768        -288.351          51.000    17725905.767    73595114.588        -224.400          50.000  
R07  17445266.126    93385876.010         918.609          53.000    17445259.236    72633525.603         714.447          48.000  
R06  19042424.469   101614138.545       -3049.686          39.000                                                                  
G27  17868528.284    93899787.645         340.323          48.000    17868525.648    73168674.140         265.040          45.000  
G08  19397513.991   101934695.360        2102.228          48.000    19397513.087    79429654.242        1638.333          43.000  
E04  23713622.762   124615955.223        1762.578          44.000    23713625.178    95484979.576        1350.431          51.000  
E25  22321138.055   117298323.600        -938.929          48.000    22321141.273    89877960.769        -719.410          52.000  
E14  25531297.766   134168037.059        -552.758          45.000    25531299.358   102804054.752        -423.543          48.000  
E19  24036782.053                        -446.282          30.000    24036784.673    96786258.365        -341.861          40.000  
E24  23053265.928   121145765.137       -3213.684          45.000    23053267.753    92825996.142       -2462.509          50.000  
G32  20509643.646   107778932.111        2064.464          48.000    20509644.008    83983613.187        1608.546          45.000  
E12  22744607.462   119523843.173       -1860.433          43.000    22744605.244    91583290.086       -1425.448          47.000  
E10  21707102.765   114071799.954       -1160.605          49.000    21707103.314    87405866.745        -889.258          52.000  
G18                                                                  22694415.954                       -2447.386          29.000  
> 2024 04 16 08 42 00.4920000  0 28                     
G26  21264713.110   111746827.853       -4083.406          41.000    21264714.489    87075455.865       -3181.722          40.000  
G23  20123662.020   105750799.969       -3731.312          42.000    20123659.743    82403240.213       -2907.529          42.000  
G16  19105501.635   100400115.738       -2885.373          47.000                                                                  
R23  19861527.590   106245888.398        1601.302          44.000                                                                  
R13  19871580.105   106113184.169       -1039.473          38.000    19871581.065    82532463.061        -808.362          38.000  
R21  19541190.259   104569038.504       -2362.018          48.000    19541185.691    81331545.085       -1837.048          43.000  
R08  19604610.934   104981803.088        3619.916          51.000    19604606.113    81652557.022        2815.423          48.000  
G21  21400325.036   112459421.466        1994.965          43.000                                                                  
S33  37259483.275   195799981.480        -635.291          42.000  
S31  36305737.893   190788030.030        -635.775          43.000  
E36  24602738.131   129288228.833         939.740          43.000    24602743.794    99065063.466         720.236          45.000  
G10  17783817.298    93454761.953       -1900.045          51.000    17783814.958    72821888.091       -1480.467          49.000  
E11  20720130.391   108885051.145        -237.374          42.000    20720129.574    83431461.980        -181.892          48.000  
R12  19736890.410   105430948.024       -3637.229          46.000    19736892.068    82001970.472       -2828.923          47.000  
R22  17727543.634    94630951.539        -293.581          51.000    17727539.841    73601902.084        -228.371          49.000  
R07  17440188.103    93358697.253         893.041          52.000    17440183.103    72612386.641         694.630          49.000  
R06  19059630.446   101705952.022       -3071.574          38.000                                                                  
G27  17866623.583    93889777.139         326.895          48.000    17866621.031    73160873.753         254.510          45.000  
G08  19385530.329   101871721.674        2095.909          48.000    19385529.867    79380583.893        1633.019          43.000  
E04  23703574.281   124563147.764        1757.823          45.000    23703576.552    95444516.786        1346.852          51.000  
E25  22326536.739   117326695.677        -952.783          47.000    22326540.196    89899700.412        -730.075          52.000  
E14  25534443.986   134184575.667        -549.818          44.000    25534446.199   102816727.174        -421.234          48.000  
E19  24039372.222   126327817.028        -459.459          34.000    24039369.826    96796666.179        -351.983          41.000  
E24  23071629.725   121242264.170       -3219.683          46.000    23071630.774    92899936.955       -2467.010          50.000  
G32  20497883.101   107717126.625        2055.635          48.000    20497883.419    83935453.163        1601.836          45.000  
E12  22755228.143   119579656.580       -1860.612          42.000    22755226.276    91626056.238       -1425.777          48.000  
E10  21713731.644   114106633.547       -1161.817          49.000    21713731.855    87432557.461        -890.316          52.000  
G18                                                                  22712343.706                       -2446.322          28.000  
> 2024 04 16 08 42 30.4920000  0 28                     
G26  21288023.087   111869324.359       -4083.362          40.000    21288025.226    87170907.751       -3181.604          40.000  
G23  20144981.118   105862833.584       -3737.844          42.000    20144978.921    82490539.184       -2912.621          43.000  
G16  19122013.955   100486886.192       -2899.657          48.000                                                                  
R23  19852543.985   106197833.128        1602.219          43.000                                                                  
R13  19877485.721   106144720.117       -1062.968          38.000    19877486.527    82556990.985        -826.466          39.000  
R21  19554445.549   104639970.448       -2366.890          47.000    19554442.432    81386714.377       -1841.098          45.000  
R08  19584350.877   104873313.486        3612.559          51.000    19584346.036    81568176.299        2809.740          47.000  
G21  21388935.814   112399568.316        1995.148          43.000                                                                  
S33  37263108.396   195819029.365        -635.012          42.000  
S31  36309365.278   190807092.089        -635.295          44.000  
E36  24597374.511   129260047.450         938.530          42.000    24597381.089    99043469.953         719.171          46.000  
G10  17794711.628    93512014.557       -1917.287          50.000    17794709.199    72866500.528       -1493.923          49.000  
E11  20721490.429   108892195.718        -238.750          42.000    20721489.020    83436936.428        -183.037          48.000  
R12  19757350.402   105540239.829       -3649.188          48.000    19757350.949    82086975.163       -2838.188          46.000  
R22  17729207.852    94639834.067        -298.885          52.000    17729203.821    73608810.773        -232.472          49.000  
R07  17435253.772    93332285.296         867.479          52.000    17435248.552    72591844.053         674.667          49.000  
R06  19076955.786   101798405.601       -3092.981          39.000                                                                  
G27  17864794.412    93880168.239         313.525          48.000    17864792.746    73153386.295         244.405          45.000  
G08  19373584.966   101808947.195        2089.106          48.000    19373584.265    79331668.754        1627.771          44.000  
E04  23693551.342   124510478.559        1753.258          45.000    23693553.876    95404159.939        1343.444          51.000  
E25  22332014.260   117355480.739        -966.559          47.000    22332017.866    89921756.491        -740.597          52.000  
E14  25537574.898   134201029.409        -547.288          44.000    25537576.990   102829334.590        -419.300          47.000  
E19  24042031.094   126341794.592        -472.769          36.000    24042029.602    96807376.301        -361.959          41.000  
E24  23090025.821   121338941.215       -3225.596          45.000    23090027.902    92974014.160       -2471.589          50.000  
G32  20486170.526   107655576.663        2047.239          48.000    20486169.339    83887492.223        1595.180          44.000  
E12  22765850.063   119635476.368       -1860.807          42.000    22765848.503    91668827.276       -1425.905          48.000  
E10  21720366.908   114141504.268       -1163.045          48.000    21720367.599    87459276.561        -891.197          52.000  
G18                                                                  22730256.972                3      -2446.288          20.000  
> 2024 04 16 08 43 00.4920000  0 28                     
G26  21311334.247   111991828.146       -4083.569          39.000    21311336.162    87266365.370       -3181.927          39.000  
G23  20166340.145   105975070.731       -3744.619          43.000    20166334.177    82577996.765       -2917.841          41.000  
G16  19138607.965   100574087.603       -2913.906          48.000                                                                  
R23  19843556.956   106149759.501        1602.727          45.000                                                                  
R13  19883524.563   106176961.089       -1086.464          40.000    19883524.557    82582067.350        -844.998          40.000  
R21  19567730.087   104711058.522       -2372.328          48.000    19567726.083    81442005.126       -1845.167          43.000  
R08  19564133.329   104765049.940        3605.048          50.000    19564128.849    81483971.415        2803.923          48.000  
G21  21377546.398   112339715.936        1994.934          43.000                                                                  
S33  37266731.941   195838072.137        -634.524          42.000  
S31  36312991.573   190826148.704        -635.271          44.000  
E36  24592020.522   129231905.070         937.408          43.000    24592025.643    99021906.331         718.195          46.000  
G10  17805706.558    93569791.474       -1934.676          50.000    17805703.833    72911521.527       -1507.502          49.000  
E11  20722861.349   108899400.035        -241.309          42.000    20722859.688    83442456.658        -184.833          48.000  
R12  19777879.020   105649894.536       -3661.256          49.000    19777879.127    82172262.112       -2847.628          46.000  
R22  17730902.333    94648877.273        -304.156          52.000    17730897.935    73615844.420        -236.604          50.000  
R07  17430464.018    93306646.514         841.685          52.000    17430459.551    72571902.824         654.635          49.000  
R06  19094401.805   101891499.675       -3113.521          37.000                                                                  
G27  17863043.680    93870966.726         299.902          48.000    17863041.910    73146216.305         233.505          45.000  
G08  19361678.407   101746378.097        2082.069          48.000    19361677.992    79282913.662        1622.302          44.000  
E04  23683556.319   124457953.440        1748.396          46.000    23683558.544    95363913.485        1339.587          51.000  
E25  22337571.678   117384682.177        -980.296          48.000    22337574.886    89944131.628        -751.261          52.000  
E14  25540691.384   134217402.807        -544.475          44.000    25540693.240   102841880.436        -417.157          48.000  
E19  24044767.085   126356171.376        -486.317          36.000    24044765.327    96818392.306        -372.241          41.000  
E24  23108457.701   121435798.121       -3231.501          45.000    23108459.250    93048229.163       -2476.159          50.000  
G32  20474506.202   107594289.335        2038.488          46.000    20474506.225    83839735.976        1588.464          44.000  
E12  22776473.717   119691306.255       -1861.354          41.000    22776472.864    91711606.019       -1426.144          48.000  
E10  21727011.069   114176415.797       -1164.480          48.000    21727011.075    87486026.983        -892.354          52.000  
G18                                                                  22748173.454                3      -2444.421          26.000  
> 2024 04 16 08 43 30.4920000  0 28                     
G26  21334646.413   112114335.797       -4083.801          39.000    21334647.527    87361825.978       -3182.092          38.000  
G23  20187737.379   106087508.252       -3751.540          45.000    20187731.236    82665610.380       -2923.345          41.000  
G16  19155283.024   100661716.645       -2928.429          47.000                                                                  
R23  19834565.974   106101667.717        1603.241          43.000                                                                  
R13  19889693.893   106209904.463       -1109.804          39.000    19889694.389    82607690.003        -863.403          40.000  
R21  19581042.559   104782302.866       -2377.607          47.000    19581039.795    81497417.425       -1849.320          44.000  
R08  19543958.622   104657016.733        3596.925          50.000    19543954.087    81399945.653        2797.567          47.000  
G21  21366156.447   112279863.532        1994.751          43.000                                                                  
S33  37270354.583   195857108.804        -634.607          42.000  
S31  36316616.703   190845198.669        -635.164          44.000  
E36  24586673.300   129203800.615         935.928          44.000    24586677.744    99000371.737         717.139          46.000  
G10  17816800.500    93628089.975       -1952.151          51.000    17816798.333    72956948.980       -1521.126          49.000  
E11  20724243.793   108906662.993        -243.307          43.000    20724241.840    83448021.843        -186.427          47.000  
R12  19798473.575   105759907.101       -3673.216          49.000    19798473.615    82257827.371       -2856.876          47.000  
R22  17732626.614    94658081.437        -309.774          52.000    17732622.111    73623003.230        -240.970          49.000  
R07  17425819.486    93281782.735         815.623          52.000    17425814.686    72552564.369         634.326          50.000  
R06  19111968.278   101985230.499       -3135.155          38.000                                                                  
G27  17861371.270    93862173.922         285.958          48.000    17861369.178    73139364.742         222.959          46.000  
G08  19349811.412   101684016.165        2075.207          48.000    19349811.186    79234319.990        1616.878          45.000  
E04  23673588.860   124405573.883        1743.280          45.000    23673590.467    95323778.583        1335.807          50.000  
E25  22343207.303   117414299.014        -994.381          47.000    22343210.689    89966825.054        -761.936          52.000  
E14  25543792.543   134233696.070        -542.031          45.000    25543793.989   102854364.887        -415.457          48.000  
E19  24047576.331   126370946.892        -499.501          35.000    24047576.961    96829713.872        -382.652          41.000  
E24  23126922.410   121532832.350       -3237.658          44.000    23126924.144    93122580.040       -2480.801          50.000  
G32  20462894.052   107533267.350        2029.517          45.000    20462894.345    83792186.511        1581.360          43.000  
E12  22787099.482   119747145.624       -1861.563          41.000    22787098.807    91754392.053       -1426.544          48.000  
E10  21733661.874   114211367.242       -1165.884          48.000    21733662.081    87512808.026        -893.463          52.000  
G18                                                                  22766067.609                3      -2435.241          24.000  
> 2024 04 16 08 44 00.4920000  0 28                     
G26  21357960.981   112236849.956       -4083.911          39.000    21357961.823    87457291.591       -3181.769          38.000  
G23  20209171.767   106200148.927       -3758.094          44.000    20209166.785    82753382.363       -2928.433          44.000  
G16  19172040.344   100749776.601       -2942.638          47.000                                                                  
R23  19825572.885   106053562.560        1603.706          42.000                                                                  
R13  19895994.970   106243554.552       -1133.308          40.000    19895995.801    82633862.298        -881.404          40.000  
R21  19594387.066   104853709.903       -2382.888          47.000    19594383.809    81552956.191       -1853.394          43.000  
R08  19523827.291   104549223.089        3589.073          49.000    19523824.317    81316106.214        2791.648          47.000  
G21  21354766.797   112220016.849        1995.068          42.000                                                                  
S33  37273976.560   195876143.708        -634.318          42.000  
S31  36320241.651   190864247.748        -634.951          44.000  
E36  24581333.363   129175739.035         934.719          44.000    24581337.831    98978870.017         716.236          47.000  
G10  17827993.845    93686913.399       -1969.554          50.000    17827991.961    73002785.447       -1534.764          49.000  
E11  20725638.811   108913989.604        -245.429          43.000    20725636.033    83453635.777        -187.934          48.000  
R12  19819134.910   105870278.304       -3685.167          49.000    19819135.203    82343671.635       -2866.116          47.000  
R22  17734382.345    94667453.020        -315.156          51.000    17734377.652    73630292.231        -245.168          50.000  
R07  17421321.018    93257701.609         789.669          52.000    17421315.854    72533834.626         614.237          50.000  
R06  19129653.102   102079600.308       -3156.380          35.000                                                                  
G27  17859777.575    93853797.106         272.264          49.000    17859775.273    73132837.361         212.231          45.000  
G08  19337985.593   101621869.259        2068.006          48.000    19337984.853    79185893.823        1611.430          45.000  
E04  23663650.078   124353347.383        1738.323          45.000    23663651.463    95283760.964        1332.033          49.000  
E25  22348922.586   117444336.300       -1008.166          47.000    22348926.566    89989840.629        -772.479          52.000  
E14  25546879.110   134249915.484        -539.304          45.000    25546880.514   102866792.759        -413.311          48.000  
E19  24050464.451   126386127.148        -512.202          34.000    24050466.455    96841345.551        -392.970          42.000  
E24  23145421.689   121630047.388       -3243.452          44.000    23145423.731    93197069.467       -2485.210          50.000  
G32  20451333.818   107472519.392        2020.353          46.000    20451333.371    83744850.548        1574.307          42.000  
E12  22797728.218   119802999.981       -1861.975          41.000    22797727.342    91797189.559       -1426.761          48.000  
E10  21740320.950   114246363.698       -1167.275          48.000    21740321.563    87539623.524        -894.349          52.000  
G18                                                                  22783980.076                3      -2442.283          24.000  
> 2024 04 16 08 44 30.4920000  0 28                     
G26  21381276.756   112359373.358       -4084.210          40.000    21381277.160    87552764.501       -3182.391          38.000  
G23  20230644.911   106312995.764       -3764.963          43.000    20230639.823    82841315.011       -2933.804          43.000  
G16  19188880.925   100838270.596       -2957.053          48.000                                                                  
R23  19816580.222   106005450.741        1603.757          42.000                                                                  
R13  19902430.522   106277915.679       -1157.141          41.000    19902430.630    82660587.669        -900.211          39.000  
R21  19607762.324   104925286.333       -2388.718          47.000    19607760.237    81608626.741       -1857.734          43.000  
R08  19503743.745   104441679.661        3580.592          48.000    19503739.909    81232461.416        2784.732          46.000  
G21  21343380.127   112160181.782        1994.208          43.000                                                                  
S33  37277599.850   195895183.533        -635.094          42.000  
S31  36323867.533   190883301.731        -635.059          44.000  
E36  24576001.623   129147725.508         932.937          43.000    24576006.761    98957405.146         714.870          47.000  
G10  17839287.723    93746265.205       -1987.060          49.000    17839285.498    73049033.631       -1548.394          48.000  
E11  20727045.768   108921385.168        -247.603          43.000    20727043.491    83459302.568        -189.837          48.000  
R12  19839864.571   105981009.626       -3696.905          50.000    19839865.037    82429795.939       -2875.264          48.000  
R22  17736169.084    94676998.813        -321.104          50.000    17736166.507    73637716.733        -249.718          50.000  
R07  17416969.801    93234411.187         763.084          52.000    17416965.342    72515719.914         593.610          50.000  
R06  19147457.818   102174611.634       -3177.502          33.000                                                                  
G27  17858264.020    93845843.960         258.038          49.000    17858261.898    73126640.116         201.106          46.000  
G08  19326201.587   101559945.555        2060.385          48.000    19326200.814    79137641.634        1605.509          45.000  
E04  23653742.141   124301281.639        1732.834          46.000    23653743.229    95243866.518        1327.822          48.000  
E25  22354719.969   117474799.275       -1022.555          47.000    22354723.077    90013182.391        -783.406          52.000  
E14  25549953.025   134266067.484        -537.366          45.000    25549953.759   102879168.968        -411.624          48.000  
E19  24053433.520   126401718.232        -526.562          36.000    24053433.118    96853291.953        -403.442          41.000  
E24  23163956.239   121727447.014       -3249.565          44.000    23163957.937    93271700.328       -2489.979          49.000  
G32  20439828.070   107412054.474        2010.806          46.000    20439827.558    83697735.095        1566.802          42.000  
E12  22808360.882   119858874.833       -1862.793          41.000    22808359.918    91840002.781       -1427.308          48.000  
E10  21746989.757   114281410.690       -1169.006          48.000    21746990.811    87566477.746        -895.755          52.000  
G18                                                                  22801857.369                3      -2444.776          22.000  
