     3.00           OBSERVATION DATA    M: Mixed            RINEX VERSION / TYPE
CONVBIN 2.4.3                           20240416 051442 UTC PGM / RUN BY / DATE 
format: u-blox UBX                                          COMMENT             
log: /home/regis/git/gnsspwv/obsdata/VERT00CHL/2024-04-16/VECOMMENT             
{self.marker}                                               MARKER NAME         
                                                            MARKER NUMBER       
GEODETIC                                                    MARKER TYPE         
{self.observer}     {self.institution}                      OBSERVER / AGENCY   
UNKNOWN             UBLOX-ZED-F9P                           REC # / TYPE / VERS 
UNKNOWN             TWIVSP6037L                             ANT # / TYPE        
  1713381.0000 -5047934.0000 -3490983.0000                  APPROX POSITION XYZ 
        0.0000        0.0000        0.0000                  ANTENNA: DELTA H/E/N
G    8 C1C L1C D1C S1C C2L L2L D2L S2L                      SYS / # / OBS TYPES 
R    8 C1C L1C D1C S1C C2C L2C D2C S2C                      SYS / # / OBS TYPES 
E    8 C1C L1C D1C S1C C7Q L7Q D7Q S7Q                      SYS / # / OBS TYPES 
S    4 C1C L1C D1C S1C                                      SYS / # / OBS TYPES 
  2024    04    16    05    00   00.0070000     GPS         TIME OF FIRST OBS   
  2024    04    16    05    14   30.0080000     GPS         TIME OF LAST OBS    
                                                            END OF HEADER       
> 2024 04 16 05 00 00.0070000  0 22                     
G25  24285950.515   127623561.4261      -3235.623          45.000    24285951.913    99446945.8721      -2521.157          42.000  
G18  22469380.634   118077429.0231       -412.214          48.000    22469378.170    92008355.1251       -321.223          49.000  
G26  23905783.576   125625752.3551       1927.118          49.000    23905781.482    97890204.1721       1501.566          43.000  
G23  25620803.012   134638374.2801       2734.229          44.000    25620803.772   104913014.4781       2130.820          42.000  
R11  22994049.591   122873326.9361       2344.635          52.000    22994045.408    95568201.6981       1823.566          49.000  
R09  23858777.632   127404535.4181      -4519.720          49.000    23858778.853    99092505.7991      -3515.203          50.000  
R10  21465848.345   114425080.3821      -1759.809          50.000                                                                  
R21  22640132.438   121152076.6441        701.519          52.000    22640130.832    94229455.0141        545.704          49.000  
R20  22352420.972   119528527.5491      -2799.019          39.000    22352421.187    92966697.0601      -2176.960          42.000  
G29  24085990.063   126572818.9781      -2214.059          49.000    24085986.809    98628220.2921      -1725.227          43.000  
S33  41922835.315   220306036.0741       -661.550          43.000  
S31  40968753.666   215292323.7861       -661.625          44.000  
G28  24535299.904   128933876.0041      -3049.985          44.000    24535298.058   100467930.8001      -2376.463          44.000  
E26  29853288.160   156880095.5151      -3434.047          34.000    29853286.489   120207325.2811      -2631.876          36.000  
E33  26166143.627   137504090.3541      -2157.006          47.000    26166144.835   105360329.0031      -1652.716          55.000  
E31  25474300.922   133868492.6711       -840.174          47.000    25474304.265   102574633.4901       -643.795          51.000  
G31  24158313.813   126952714.6361      -1040.204          47.000    24158310.837    98924331.0751       -810.594          42.000  
E14  27084628.944   142330855.5111      -3646.096          45.000    27084631.488   109058683.0961      -2793.732          53.000  
G05  25917810.831   136199024.7661      -1829.211          42.000    25917807.527   106129365.5431      -1425.659          38.000  
E24  27367387.498   143816620.2321       1395.698          47.000    27367388.168   110197170.1311       1069.584          47.000  
E12  26299761.835   138206269.8431        642.922          45.000    26299760.257   105898387.4411        492.491          47.000  
E10  27722049.485   145680496.9471       1592.267          43.000    27722053.817   111625502.2201       1220.022          49.000  
> 2024 04 16 05 00 30.0070000  0 22                     
G25  24304456.385   127720803.977       -3247.413          46.000    24304457.393    99522719.155       -2530.340          43.000  
G18  22471786.637   118090069.207        -430.556          48.000    22471782.995    92018204.618        -335.506          49.000  
G26  23894808.726   125568081.468        1917.548          48.000    23894807.101    97845265.826        1494.192          44.000  
G23  25605202.120   134556391.104        2731.336          44.000    25605203.896   104849131.594        2128.364          44.000  
R11  22980933.366   122803240.097        2327.808          52.000    22980930.155    95513689.741        1810.547          49.000  
R09  23884203.448   127540304.930       -4531.655          50.000    23884203.702    99198104.019       -3524.569          48.000  
R10  21475825.470   114478266.279       -1785.876          48.000                                                                  
R21  22636243.630   121131267.450         685.773          52.000    22636241.855    94213270.161         533.367          49.000  
R20  22368153.833   119612657.138       -2809.469          41.000    22368154.026    93032131.198       -2185.296          44.000  
G29  24098640.762   126639297.118       -2217.756          50.000    24098637.426    98680021.446       -1728.169          43.000  
S33  41926613.510   220325891.613        -662.035          43.000  
S31  40972531.034   215312172.394        -661.973          44.000  
G28  24552744.289   129025545.057       -3061.439          44.000    24552742.087   100539361.191       -2385.638          44.000  
E26  29872896.679   156983141.033       -3435.607          33.000    29872895.357   120286282.235       -2632.037          35.000  
E33  26178483.202   137568935.997       -2166.167          46.000    26178484.577   105410015.923       -1659.775          54.000  
E31  25479127.052   133893854.714        -850.710          47.000    25479130.562   102594066.722        -651.894          51.000  
G31  24164306.745   126984211.789       -1059.526          46.000    24164305.378    98948874.315        -825.682          43.000  
E14  27105423.966   142440133.027       -3638.981          45.000    27105426.202   109142415.253       -2788.383          54.000  
G05  25928302.590   136254161.632       -1846.850          42.000    25928299.849   106172329.301       -1438.440          37.000  
E24  27359432.545   143774816.379        1391.063          48.000    27359433.109   110165138.621        1065.934          48.000  
E12  26296123.926   138187157.838         631.158          44.000    26296123.612   105883743.237         483.702          47.000  
E10  27712983.351   145632857.313        1583.450          43.000    27712988.051   111588999.229        1213.395          49.000  
> 2024 04 16 05 01 00.0070000  0 22                     
G25  24323027.272   127818397.752       -3258.574          46.000    24323029.765    99598766.172       -2539.244          44.000  
G18  22474297.132   118103260.297        -448.559          48.000    22474293.708    92028483.406        -349.556          49.000  
G26  23883888.028   125510693.258        1908.494          48.000    23883887.071    97800547.751        1487.033          44.000  
G23  25589618.262   134474497.296        2728.650          45.000    25589619.622   104785318.435        2126.099          43.000  
R11  22967911.730   122733657.664        2311.304          52.000    22967908.900    95459570.116        1797.650          49.000  
R09  23909696.218   127676432.463       -4543.339          50.000    23909696.436    99303980.731       -3533.704          48.000  
R10  21485948.680   114532229.210       -1811.365          48.000                                                                  
R21  22632444.208   121110932.769         670.215          52.000    22632442.102    94197454.403         521.271          50.000  
R20  22383944.489   119697094.168       -2819.361          41.000    22383945.309    93097804.439       -2192.966          43.000  
G29  24111312.774   126705888.252       -2221.274          49.000    24111309.459    98731910.647       -1730.906          43.000  
S33  41930393.852   220345757.614        -661.971          42.000  
S31  40976310.122   215332032.754        -661.958          44.000  
G28  24570253.704   129117564.093       -3073.026          42.000    24570253.245   100611064.261       -2394.479          43.000  
E26  29892509.461   157086206.906       -3435.332          32.000    29892508.287   120365254.897       -2633.053          34.000  
E33  26190875.035   137634056.607       -2175.002          46.000    26190876.530   105459913.575       -1666.558          55.000  
E31  25484013.377   133919534.084        -860.977          46.000    25484017.440   102613743.034        -659.728          50.000  
G31  24170410.523   127016283.848       -1078.253          47.000    24170408.691    98973865.486        -840.448          44.000  
E14  27126179.271   142549198.838       -3631.676          46.000    27126180.802   109225985.134       -2782.708          53.000  
G05  25938893.633   136309817.442       -1863.641          42.000    25938891.807   106215697.465       -1452.051          37.000  
E24  27351504.336   143733155.127        1386.641          47.000    27351505.268   110133216.379        1062.509          48.000  
E12  26292552.872   138168391.016         620.095          45.000    26292552.754   105869363.476         475.236          48.000  
E10  27703966.886   145585478.198        1575.191          43.000    27703971.905   111552695.855        1206.923          49.000  
> 2024 04 16 05 01 30.0070000  0 23                     
G25  24341664.025   127916337.501       -3270.070          45.000    24341666.668    99675082.861       -2548.146          43.000  
G18  22476910.657   118116997.236        -466.952          47.000    22476908.145    92039187.586        -363.769          48.000  
G26  23873020.470   125453585.843        1898.914          46.000    23873020.298    97756048.485        1479.662          44.000  
G23  25574051.816   134392691.418        2725.347          45.000    25574051.867   104721573.724        2123.620          42.000  
R11  22954984.112   122664578.997        2294.165          51.000    22954981.859    95405842.245        1784.460          49.000  
R09  23935254.600   127812910.557       -4555.033          51.000    23935253.919    99410130.178       -3542.756          49.000  
R10  21496217.898   114586964.659       -1837.344          48.000                                                                  
R21  22628731.376   121091067.203         654.485          52.000    22628729.547    94182003.510         508.934          49.000  
R20  22399790.485   119781831.448       -2829.430          40.000    22399791.573    93163711.170       -2200.739          44.000  
G29  24124005.503   126772587.641       -2225.120          50.000    24124001.553    98783884.210       -1733.956          43.000  
S33  41934175.814   220365631.085        -662.480          43.000  
S31  40980090.795   215351900.052        -662.333          44.000  
G28  24587829.534   129209925.717       -3084.200          42.000    24587829.468   100683034.296       -2403.476          44.000  
E26  29912125.872   157189287.436       -3436.350          33.000    29912124.003   120444238.662       -2633.102          34.000  
E33  26203317.714   137699445.941       -2184.126          46.000    26203319.699   105510017.058       -1673.502          54.000  
E31  25488960.034   133945527.346        -871.554          48.000    25488963.934   102633659.968        -667.927          52.000  
G31  24176622.377   127048925.376       -1097.458          48.000    24176619.801    98999300.393        -855.112          44.000  
E14  27146892.662   142658047.666       -3624.635          47.000    27146894.066   109309388.772       -2777.392          53.000  
G05  25949583.404   136365986.862       -1880.865          42.000    25949579.631   106259465.885       -1464.899          36.000  
E24  27343602.673   143691633.532        1381.761          47.000    27343603.956   110101401.142        1058.708          48.000  
E12  26289046.877   138149965.025         608.601          44.000    26289046.617   105855244.881         466.300          48.000  
E10  27694999.543   145538355.889        1566.545          44.000    27695004.313   111516589.238        1200.243          48.000  
R04                                                                  26419057.797                3        510.642          17.000  
> 2024 04 16 05 02 00.0070000  0 23                     
G25  24360365.438   128014614.013       -3281.569          44.000    24360367.170    99751661.916       -2557.173          41.000  
G18  22479626.197   118131271.435        -484.948          49.000    22479624.433    92050310.493        -377.755          50.000  
G26  23862205.466   125396753.806        1889.643          46.000    23862205.517    97711763.794        1472.382          44.000  
G23  25558500.329   134310968.964        2722.299          45.000    25558500.435   104657894.092        2121.281          43.000  
R11  22942150.376   122596000.308        2277.478          52.000    22942148.004    95352503.297        1771.399          49.000  
R09  23960875.022   127949727.269       -4566.478          50.000    23960875.610    99516542.969       -3551.580          49.000  
R10  21506629.420   114642463.586       -1862.875          48.000                                                                  
R21  22625105.278   121071662.009         639.104          52.000    22625102.980    94166910.574         497.100          49.000  
R20  22415690.971   119866858.250       -2839.221          41.000    22415692.273    93229843.083       -2208.186          44.000  
G29  24136716.218   126839386.973       -2228.475          50.000    24136713.219    98835935.649       -1736.498          43.000  
S33  41937957.330   220385503.519        -662.521          43.000  
S31  40983871.331   215371766.349        -662.321          44.000  
G28  24605468.287   129302619.166       -3095.391          43.000    24605467.659   100755262.909       -2412.208          42.000  
E26  29931744.346                       -3436.646          31.000    29931740.369   120523226.611       -2632.953          33.000  
E33  26215810.714   137765094.829       -2192.773          45.000    26215812.301   105560319.468       -1680.090          54.000  
E31  25493964.904   133971826.891        -881.871          48.000    25493968.466   102653811.391        -675.719          53.000  
G31  24182939.906   127082127.661       -1116.233          47.000    24182937.750    99025172.267        -869.736          43.000  
E14  27167562.348   142766670.778       -3617.221          46.000    27167564.271   109392619.459       -2771.564          53.000  
G05  25960368.009   136422660.798       -1897.687          41.000    25960363.476   106303627.411       -1478.381          33.000  
E24  27335726.749   143650245.225        1377.136          47.000    27335727.916   110069688.028        1055.221          48.000  
E12  26285603.572   138131872.283         597.354          44.000    26285603.613   105841381.670         457.657          49.000  
E10  27686079.758   145491483.303        1558.071          44.000    27686084.480   111480673.958        1193.880          48.000  
R04                                                                  26415533.387                3        493.196          17.000  
> 2024 04 16 05 02 30.0070000  0 23                     
G25  24379130.615   128113222.713       -3292.660          44.000    24379131.373    99828499.694       -2565.836          41.000  
G18  22482444.364   118146078.375        -502.713          48.000    22482442.527    92061848.369        -391.727          50.000  
G26  23851442.438   125340196.380        1880.400          46.000    23851443.193    97667693.094        1465.233          45.000  
G23  25542965.216   134229329.545        2719.548          45.000    25542965.057   104594279.039        2119.250          43.000  
R11  22929410.834   122527922.476        2260.418          52.000    22929407.898    95299553.888        1758.319          49.000  
R09  23986558.986   128086876.162       -4577.585          49.000    23986559.784    99623214.161       -3560.263          48.000  
R10  21517183.428   114698722.302       -1888.197          48.000                                                                  
R21  22621564.732   121052713.430         623.754          52.000    22621562.177    94152172.804         485.081          49.000  
R20  22431643.988   119952166.766       -2848.511          40.000    22431644.968    93296194.124       -2215.679          43.000  
G29  24149446.277   126906282.846       -2231.878          50.000    24149442.536    98888062.321       -1739.027          43.000  
S33  41941738.266   220405371.805        -662.569          43.000  
S31  40987651.118   215391629.724        -662.510          44.000  
G28  24623169.412   129395638.237       -3106.433          43.000    24623167.977   100827745.235       -2420.439          41.000  
E26  29951364.307                       -3436.511          30.000    29951357.325   120602215.178       -2633.729          32.000  
E33  26228351.131   137830998.296       -2201.430          45.000    26228353.135   105610816.914       -1686.776          54.000  
E31  25499028.081   133998430.728        -892.212          48.000    25499030.802   102674196.104        -683.696          52.000  
G31  24189364.959   127115886.418       -1134.892          48.000    24189361.526    99051477.739        -884.328          43.000  
E14  27188188.866   142875064.062       -3609.515          46.000    27188190.643   109475674.063       -2765.717          53.000  
G05  25971247.955   136479835.423       -1914.374          42.000    25971244.085   106348179.085       -1491.638          37.000  
E24  27327875.926   143608988.409        1372.815          47.000    27327877.405   110038075.671        1051.807          48.000  
E12  26282223.647   138114109.435         586.275          45.000    26282223.283   105827771.215         449.241          48.000  
E10  27677207.773   145444857.815        1549.681          45.000    27677211.972   111444948.043        1187.393          48.000  
E11                                                                  29027860.443                1       1596.639          29.000  
> 2024 04 16 05 03 00.0070000  0 24                     
G25  24397958.663   128212166.586       -3304.012          45.000    24397959.715    99905598.814       -2574.608          42.000  
G18  22485364.687   118161421.207        -520.664          48.000    22485361.788    92073803.822        -405.728          49.000  
G26  23840733.732   125283919.685        1870.957          47.000    23840734.495    97623841.145        1457.738          45.000  
G23  25527446.493   134147780.281        2716.446          45.000    25527446.733   104530734.304        2116.647          44.000  
R11  22916766.005   122460353.024        2243.488          52.000    22916762.387    95246999.887        1744.885          48.000  
R09  24012304.660   128224358.174       -4588.574          49.000    24012305.990    99730144.478       -3568.968          48.000  
R10  21527880.655   114755743.465       -1913.710          48.000                                                                  
R21  22618109.258   121034224.149         608.402          52.000    22618107.356    94137792.294         473.178          50.000  
R20  22447650.467   120037758.828       -2858.018          41.000    22447650.334    93362765.785       -2222.998          43.000  
G29  24162195.714   126973278.578       -2235.159          50.000    24162191.223    98940266.788       -1741.678          43.000  
S33  41945519.151   220425240.451        -662.758          42.000  
S31  40991430.773   215411491.576        -662.402          44.000  
G28  24640933.161   129488983.557       -3117.320          44.000    24640931.962   100900481.806       -2429.070          42.000  
E26  29970986.117   157498549.919       -3436.498          29.000    29970974.922   120681206.085       -2632.907          31.000  
E33  26240940.783   137897158.402       -2209.827          45.000    26240942.784   105661511.048       -1693.224          54.000  
E31  25504148.612   134025343.135        -902.475          48.000    25504152.127   102694817.354        -691.528          53.000  
G31  24195895.338   127150204.083       -1153.586          47.000    24195891.707    99078218.738        -898.841          43.000  
E14  27208771.783   142983230.262       -3601.985          46.000    27208773.848   109558554.676       -2759.899          53.000  
G05  25982224.279   136537513.921       -1931.281          41.000    25982222.194   106393123.422       -1505.005          37.000  
E24  27320050.977   143567868.201        1368.200          47.000    27320052.378   110006568.013        1048.249          49.000  
E12  26278906.845   138096680.142         575.232          45.000    26278906.495   105814416.329         440.709          48.000  
E10  27668381.987   145398483.812        1541.372          44.000    27668387.085   111409414.803        1180.967          48.000  
E11                                                                  29015978.540                        1593.262          31.000  
R04                                                                  26408627.242                3        466.086          20.000  
> 2024 04 16 05 03 30.0070000  0 23                     
G25  24416850.666   128311442.348       -3314.597          45.000    24416851.599    99982956.469       -2582.829          42.000  
G18  22488384.966   118177297.537        -538.019          48.000    22488382.786    92086175.126        -419.251          50.000  
G26  23830078.349   125227924.457        1861.978          47.000    23830078.822    97580208.518        1450.819          45.000  
G23  25511945.350   134066322.697        2713.764          46.000    25511946.024   104467261.077        2114.612          45.000  
R11  22904216.735   122393294.085        2226.758          52.000    22904213.338    95194842.985        1731.946          49.000  
R09  24038112.631   128362167.753       -4598.943          50.000    24038113.698    99837329.497       -3576.906          49.000  
R10  21538719.799   114813523.824       -1938.429          47.000                                                                  
R21  22614738.788   121016191.868         593.492          52.000    22614737.765    94123767.230         461.645          50.000  
R20  22463708.401   120123629.712       -2866.971          41.000    22463708.936    93429554.114       -2229.823          42.000  
G29  24174963.619   127040371.866       -2237.915          50.000    24174958.387    98992547.273       -1743.930          42.000  
S33  41949299.249   220445106.148        -662.202          42.000  
S31  40995209.937   215431351.262        -661.842          44.000  
G28  24658757.767   129582650.459       -3127.585          44.000    24658756.558   100973468.939       -2437.241          42.000  
E11  29004111.961                1       2075.317          27.000    29004120.543                        1589.963          32.000  
E26  29990599.895                       -3435.659          27.000    29990592.161                       -2632.936          30.000  
E33  26253579.694   137963571.784       -2218.009          46.000    26253580.839   105712399.237       -1699.500          54.000  
E31  25509328.032   134052562.808        -912.393          46.000    25509331.953   102715673.941        -699.205          51.000  
G31  24202531.496   127185078.077       -1171.656          47.000    24202528.380    99105393.240        -913.029          42.000  
E14  27229311.110   143091166.774       -3594.038          46.000    27229313.534   109641259.291       -2753.935          53.000  
G05  25993295.049   136595692.917       -1947.552          43.000    25993292.630   106438457.709       -1517.352          37.000  
E24  27312251.928   143526884.321        1363.744          47.000    27312253.666   109975164.788        1044.968          50.000  
E12  26275652.699   138079582.852         564.410          44.000    26275653.030   105801315.810         432.534          48.000  
E10  27659604.913   145352360.247        1533.207          44.000    27659610.234   111374073.450        1174.874          49.000  
> 2024 04 16 05 04 00.0070000  0 25                     
G25  24435804.234   128411043.907       -3325.399          44.000    24435805.643   100060568.095       -2591.226          43.000  
G18  22491506.263   118193701.041        -555.354          49.000    22491504.035    92098957.163        -432.783          51.000  
G26  23819476.261   125172207.915        1852.651          48.000    23819476.620    97536793.020        1443.560          45.000  
G23  25496461.679   133984954.547        2710.716          46.000    25496461.654   104403857.447        2112.414          44.000  
R05  26650820.513                1       2234.980          30.000    26650832.026                3       1739.101          28.000  
R11  22891762.453   122326744.511        2209.943          51.000    22891760.541    95143082.245        1718.774          50.000  
R09  24063980.507   128500295.999       -4609.452          50.000    24063980.449    99944762.375       -3585.205          47.000  
R10  21549699.774   114872058.248       -1963.549          46.000                                                                  
R21  22611454.145   120998610.224         578.605          52.000    22611451.597    94110092.641         450.233          49.000  
R20  22479817.772   120209770.740       -2875.749          42.000    22479817.405    93496552.704       -2236.678          43.000  
G29  24187748.180   127107557.461       -2240.838          50.000    24187743.052    99044899.709       -1746.233          41.000  
S33  41953078.403   220464964.364        -661.688          42.000  
S31  40998987.794   215451204.342        -661.648          44.000  
G28  24676641.978   129676630.648       -3137.738          44.000    24676640.153   101046700.188       -2444.854          42.000  
E11  28992278.238                        2071.288          29.000    28992284.938   116739922.0481       1586.571          31.000  
E33  26266265.154   138030231.572       -2225.961          46.000    26266266.007   105763476.236       -1705.567          54.000  
E31  25514565.759   134080085.479        -922.371          47.000    25514569.359   102736762.740        -706.729          51.000  
G31  24209272.259   127220501.956       -1189.805          47.000    24209268.929    99132996.203        -927.036          41.000  
E14  27249806.095   143198867.476       -3586.082          46.000    27249808.408   109723783.199       -2747.648          53.000  
G05  26004460.265   136654365.872       -1963.739          43.000    26004456.894   106484176.886       -1530.341          37.000  
E24  27304478.554   143486032.960        1359.704          47.000    27304480.185   109943863.109        1041.852          51.000  
E12  26272461.226   138062812.411         553.743          44.000    26272461.864   105788465.760         424.307          48.000  
E10  27650874.659   145306482.528        1525.401          45.000    27650879.903   111338920.509        1168.686          49.000  
E26                                                                  30010207.410                       -2632.385          28.000  
R04                                                                  26402225.018                3        432.680          18.000  
> 2024 04 16 05 04 30.0070000  0 25                     
G25  24454818.532   128510968.383       -3336.257          44.000    24454820.527   100138431.187       -2599.708          42.000  
G18  22494728.704   118210629.167        -572.969          49.000    22494726.196    92112147.797        -446.498          50.000  
G26  23808927.021   125116771.182        1843.262          48.000    23808927.097    97493595.576        1436.399          45.000  
G23  25480995.132   133903677.725        2707.788          45.000    25480995.338   104340524.967        2109.855          44.000  
R05  26638290.339                        2231.566          27.000    26638290.050                        1735.455          30.000  
R11  22879404.071   122260706.537        2192.633          51.000    22879403.038    95091719.396        1705.408          50.000  
R09  24089906.990   128638738.627       -4619.879          51.000    24089906.502   100052439.817       -3593.200          48.000  
R10  21560821.035   114931343.911       -1988.587          47.000                                                                  
R21  22608251.557   120981477.228         563.689          51.000    22608250.256    94096767.035         438.458          49.000  
R20  22495976.298   120296177.621       -2884.780          41.000    22495975.721    93563758.009       -2243.585          40.000  
G29  24200550.290   127174833.463       -2244.007          49.000    24200545.731    99097322.549       -1748.643          42.000  
S33  41956855.529   220484813.422        -661.217          42.000  
S31  41002764.062   215471047.996        -661.384          44.000  
G28  24694584.878   129770919.890       -3148.390          44.000    24694582.258   101120172.246       -2452.733          41.000  
E11  28980465.162                        2066.632          30.000    28980471.401                        1583.885          31.000  
G16  27007705.513                        2614.428          27.000                                                                  
E33  26278995.471   138097134.915       -2234.045          45.000    26278997.470   105814739.833       -1711.823          54.000  
E31  25519860.242   134107910.448        -932.400          47.000    25519864.456   102758083.185        -714.494          53.000  
G31  24216117.780   127256473.044       -1208.106          48.000    24216113.528    99161025.589        -941.413          41.000  
E14  27270256.010   143306330.180       -3578.173          46.000    27270258.086   109806124.738       -2741.738          53.000  
G05  26015718.613   136713531.184       -1980.347          43.000    26015714.015   106530279.781       -1543.378          37.000  
E24  27296730.171   143445314.276        1355.015          47.000    27296731.769   109912663.083        1038.271          51.000  
E12  26269332.132   138046367.372         542.833          44.000    26269332.692   105775865.036         415.958          49.000  
E10  27642191.520   145260850.079        1517.119          45.000    27642196.125   111303955.464        1162.295          49.000  
E26                                                                  30029822.334                       -2633.392          27.000  
> 2024 04 16 05 05 00.0070000  0 25                     
G25  24473895.591   128611219.637       -3347.322          43.000    24473897.900   100216548.993       -2608.323          41.000  
G18  22498050.954   118228086.336        -590.828          48.000    22498048.184    92125750.783        -460.310          50.000  
G26  23798432.540   125061621.506        1833.422          48.000    23798432.191    97450621.807        1428.511          45.000  
G23  25465547.795   133822500.146        2704.186          45.000    25465547.940   104277269.790        2107.134          44.000  
R05  26625782.605   142329889.8941       2226.071          29.000    26625783.371                        1731.431          30.000  
R11  22867144.028   122195189.174        2175.152          52.000    22867142.785    95040761.462        1691.754          51.000  
R09  24115891.468   128777496.990       -4630.562          50.000    24115892.051   100160362.802       -3601.576          48.000  
R10  21572084.526   114991384.154       -2014.096          46.000                                                                  
R21  22605134.766   120964797.037         548.356          52.000    22605133.518    94083793.639         426.493          50.000  
R20  22512184.742   120382852.459       -2893.708          42.000    22512184.076    93631171.779       -2250.562          43.000  
G29  24213369.987   127242204.946       -2247.460          48.000    24213366.690    99149819.794       -1751.172          42.000  
S33  41960631.988   220504659.689        -661.380          43.000  
S31  41006539.528   215490887.858        -661.455          44.000  
G28  24712586.891   129865519.893       -3158.742          44.000    24712584.431   101193886.467       -2461.180          42.000  
E11  28968675.409                        2062.159          31.000    28968682.695                        1580.441          31.000  
G16  26992805.975                3       2616.266          25.000                                                                  
E33  26291774.381   138164284.966       -2242.436          46.000    26291775.807   105866192.494       -1718.298          54.000  
E31  25525213.592   134136043.000        -942.948          47.000    25525217.967   102779639.218        -722.493          52.000  
G31  24223067.675   127292994.687       -1226.627          48.000    24223063.893    99189483.939        -955.633          42.000  
E14  27290661.287   143413558.820       -3570.472          46.000    27290662.925   109888286.921       -2735.749          53.000  
G05  26027071.470   136773192.853       -1997.015          43.000    26027067.002   106576769.450       -1556.641          38.000  
E24  27289007.893   143404734.490        1350.233          47.000    27289009.754   109881569.477        1034.593          51.000  
E12  26266265.356   138030252.564         531.591          44.000    26266266.131   105763517.366         407.273          48.000  
E10  27633555.811   145215468.262        1508.402          45.000    27633560.341   111269182.454        1155.810          49.000  
E26                                                                  30049435.049                       -2632.348          26.000  
> 2024 04 16 05 05 30.0070000  0 24                     
G25  24493034.928   128711796.001       -3357.845          44.000    24493036.434   100294920.125       -2616.647          41.000  
G18  22501473.062   118246071.401        -608.173          49.000    22501469.776    92139765.257        -473.859          50.000  
G26  23787992.699   125006761.002        1823.963          48.000    23787992.580    97407873.380        1421.193          45.000  
G23  25450119.176   133741424.752        2700.716          44.000    25450119.652   104214094.241        2104.534          45.000  
R05  26613302.814                        2221.859          28.000    26613298.626                3       1721.156          22.000  
R11  22854981.924   122130195.636        2158.002          52.000    22854979.812    94990210.935        1678.345          52.000  
R09  24141936.180   128916567.615       -4640.737          51.000    24141936.182   100268528.619       -3609.398          49.000  
R10  21583489.846   115052178.025       -2038.931          47.000                                                                  
R21  22602101.635   120948568.080         533.581          52.000    22602100.459    94071171.180         414.984          49.000  
R20  22528442.869   120469791.548       -2902.136          41.000    22528442.225    93698790.994       -2257.189          43.000  
G29  24226208.698   127309670.841       -2250.278          49.000    24226204.685    99202390.641       -1753.552          42.000  
S33  41964407.451   220524500.883        -661.181          42.000  
S31  41010313.886   215510723.237        -660.811          44.000  
G28  24730647.468   129960427.261       -3168.506          44.000    24730644.234   101267840.200       -2468.986          41.000  
E11  28956911.345   152169608.6541       2058.226          32.000    28956918.137   116597523.211        1577.534          31.000  
E33  26304598.433   138231679.658       -2250.276          45.000    26304600.502   105917832.582       -1724.296          54.000  
E31  25530625.251   134164483.682        -953.085          46.000    25530629.906   102801431.422        -730.200          52.000  
G31  24230121.952   127330065.944       -1244.599          47.000    24230118.406    99218370.590        -969.739          42.000  
E14  27311021.123   143520552.247       -3562.362          45.000    27311023.122   109970268.900       -2729.670          53.000  
G05  26038518.858   136833348.717       -2013.281          44.000    26038513.943   106623644.148       -1568.842          39.000  
E24  27281312.616   143364294.719        1345.799          47.000    27281314.312   109850583.153        1031.216          51.000  
E12  26263261.125   138014467.623         520.861          43.000    26263262.484   105751422.459         399.174          49.000  
E10  27624966.942   145170337.330        1500.353          45.000    27624972.321   111234601.700        1149.612          50.000  
E26                                                                  30069046.986                3      -2632.640          26.000  
> 2024 04 16 05 06 00.0070000  0 25                     
G25  24512236.257   128812695.993       -3368.565          45.000    24512236.276   100373543.459       -2624.771          40.000  
G18  22504995.210   118264582.668        -625.636          50.000    22504992.071    92154189.708        -487.451          50.000  
G26  23777608.428   124952191.917        1814.214          48.000    23777608.214    97365352.022        1413.689          45.000  
G23  25434710.599   133660454.714        2697.567          45.000    25434711.619   104151000.923        2101.910          45.000  
R05  26600850.173                        2217.146          32.000    26600848.763                        1723.329          28.000  
R11  22842918.125   122065729.901        2140.167          52.000    22842915.666    94940070.905        1664.606          51.000  
R09  24168036.932   129055946.426       -4650.857          51.000    24168037.347   100376934.177       -3617.323          49.000  
R10  21595036.373   115113724.953       -2063.790          48.000                                                                  
R21  22599153.247   120932789.446         518.719          52.000    22599151.411    94058898.945         403.368          49.000  
R20  22544749.683   120556992.283       -2911.180          42.000    22544749.407    93766613.791       -2263.817          43.000  
G29  24239064.612   127377230.501       -2253.358          48.000    24239060.903    99255034.503       -1755.792          42.000  
S33  41968182.488   220544337.691        -661.044          43.000  
S31  41014087.743   215530554.773        -660.736          43.000  
G28  24748764.989   130055638.800       -3178.691          43.000    24748761.273   101342030.902       -2477.020          40.000  
E11  28945174.344   152107915.395        2054.385          35.000    28945177.411   116550252.066        1573.486          31.000  
R04  26390791.965                3        486.570          18.000                                                                  
E33  26317468.819   138299317.142       -2258.394          45.000    26317471.421   105969658.701       -1730.466          54.000  
E31  25536096.263   134193232.835        -963.238          47.000    25536100.660   102823459.981        -738.091          52.000  
G31  24237280.758   127367685.187       -1262.993          48.000    24237277.101    99247684.247        -984.152          42.000  
E14  27331336.599   143627309.426       -3554.389          45.000    27331338.283   110052069.851       -2723.538          53.000  
G05  26050059.630   136893997.755       -2029.645          42.000    26050055.777   106670903.211       -1581.738          39.000  
E24  27273643.588   143323996.229        1340.962          46.000    27273645.764   109819705.072        1027.613          51.000  
E12  26260320.232   137999012.304         509.922          44.000    26260321.271   105739580.110         390.677          49.000  
E10  27616427.140   145125457.735        1491.970          45.000    27616432.003   111200213.532        1143.209          50.000  
E26                                                                  30088657.350                3      -2632.251          25.000  
> 2024 04 16 05 06 30.0070000  0 24                     
G25  24531495.812   128913902.293       -3378.723          45.000    24531495.670   100452405.436       -2632.565          40.000  
G18  22508614.207   118283603.166        -642.425          48.000    22508611.179    92169010.904        -500.592          50.000  
G26  23767276.978   124897900.625        1805.066          48.000    23767276.684    97323047.128        1406.623          45.000  
G23  25419319.996   133579576.929        2694.381          45.000    25419320.549   104087979.461        2099.513          44.000  
R05  26588424.971                        2211.437          26.000                                                                  
R11  22830949.719   122001779.604        2122.943          50.000    22830947.989    94890331.801        1651.318          51.000  
R09  24194191.572   129195614.074       -4660.407          50.000    24194192.918   100485564.380       -3624.734          49.000  
R10  21606720.814   115176006.701       -2088.332          48.000                                                                  
R21  22596285.882   120917443.789         504.302          53.000    22596283.295    94046963.470         392.322          49.000  
R20  22561102.184   120644434.258       -2918.669          43.000    22561101.347    93834624.229       -2270.081          43.000  
G29  24251935.237   127444867.766       -2255.768          48.000    24251931.785    99307738.860       -1757.763          43.000  
S33  41971953.309   220564153.865        -660.015          43.000  
S31  41017857.381   215550364.808        -659.896          44.000  
G28  24766937.672   130151135.350       -3187.962          43.000    24766934.368   101416443.735       -2483.911          41.000  
E11  28933453.691   152046334.715        2050.401          33.000    28933457.137                        1570.374          30.000  
E33  26330382.648   138367179.724       -2265.945          45.000    26330385.464   106021657.257       -1736.166          54.000  
E31  25541623.638   134222275.025        -973.047          47.000    25541627.351   102845713.066        -745.537          51.000  
G31  24244540.545   127405835.127       -1280.428          48.000    24244537.686    99277411.432        -998.010          44.000  
E14  27351602.687   143733813.437       -3545.916          45.000    27351605.520   110133676.814       -2717.066          53.000  
G05  26061691.660   136955123.184       -2045.374          44.000    26061688.170   106718533.507       -1593.933          40.000  
E24  27265999.274   143283824.439        1336.971          46.000    27266001.344   109788924.097        1024.384          51.000  
E12  26257438.817   137983870.519         499.418          44.000    26257439.663   105727977.980         382.699          49.000  
E10  27607931.297   145080814.040        1484.167          45.000    27607936.546   111166006.102        1137.252          50.000  
E26                                                                  30108262.434                3      -2632.644          25.000  
> 2024 04 16 05 07 00.0070000  0 25                     
G25  24550812.480   129015413.623       -3389.176          45.000    24550812.729   100531505.101       -2640.557          41.000  
G18  22512329.831   118303131.924        -659.804          48.000    22512328.022    92184228.108        -514.113          50.000  
G26  23756998.543   124843889.508        1795.453          48.000    23756998.522    97280960.581        1398.982          45.000  
G23  25403947.323   133498794.405        2690.888          45.000    25403948.114   104025032.151        2096.703          44.000  
R05  26576026.101                1       2206.585          27.000    26576041.739                3       1721.340          21.000  
R11  22819078.872   121938348.369        2105.341          50.000    22819077.306    94840996.377        1637.457          50.000  
R09  24220400.701   129335566.655       -4670.101          51.000    24220400.902   100594416.194       -3632.192          49.000  
R10  21618542.296   115239022.363       -2113.066          47.000                                                                  
R21  22593498.834   120902530.269         489.623          51.000    22593496.554    94035364.117         380.865          49.000  
R20  22577498.577   120732114.583       -2926.811          42.000    22577498.014    93902820.016       -2276.323          43.000  
G29  24264821.129   127512582.326       -2258.610          49.000    24264817.022    99360503.470       -1759.993          42.000  
S33  41975719.767   220583948.439        -659.847          43.000  
S31  41021623.470   215570154.699        -659.746          44.000  
G28  24785164.359   130246913.863       -3197.567          44.000    24785162.078   101491076.240       -2491.838          42.000  
E11  28921755.328   151984867.409        2047.742          31.000    28921760.519                        1568.635          31.000  
E33  26343340.009   138435265.814       -2273.523          45.000    26343341.725   106073827.119       -1742.057          54.000  
E31  25547206.223   134251610.794        -983.077          48.000    25547209.746   102868191.071        -753.227          52.000  
G31  24251900.765   127444514.465       -1298.428          47.000    24251898.617    99307551.108       -1011.694          44.000  
E14  27371821.459   143840063.378       -3537.908          44.000    27371824.218   110215089.086       -2710.715          53.000  
G05  26073414.439   137016723.308       -2061.523          44.000    26073409.850   106766533.640       -1606.439          40.000  
E24  27258379.055   143243780.677        1332.342          46.000    27258381.110   109758241.214        1020.875          51.000  
E12  26254617.953   137969042.096         488.729          44.000    26254617.864   105716615.960         374.462          48.000  
E10  27599481.850   145036406.743        1476.000          46.000    27599485.880   111131979.806        1130.937          50.000  
E26                                                                  30127862.849                3      -2632.600          22.000  
R04                                                                  26385538.650                3        342.414          26.000  
> 2024 04 16 05 07 30.0070000  0 24                     
G25  24570187.068   129117229.017       -3399.035          44.000    24570188.123   100610841.722       -2648.755          41.000  
G18  22516143.039   118323168.257        -676.465          49.000    22516140.767    92199840.803        -527.205          50.000  
G26  23746774.426   124790161.380        1786.004          47.000    23746774.474    97239094.511        1391.650          45.000  
G23  25388593.485   133418111.067        2687.660          45.000    25388594.224   103962162.243        2094.268          45.000  
R05  26563652.037                3       2199.773          22.000    26563672.240                1       1712.516          27.000  
R11  22807306.976   121875440.461        2088.062          51.000    22807304.713    94792068.042        1624.017          51.000  
R09  24246662.905   129475801.680       -4679.416          51.000    24246662.872   100703487.733       -3639.451          48.000  
R10  21630500.822   115302770.620       -2137.360          47.000                                                                  
R21  22590791.857   120888048.271         475.347          51.000    22590789.685    94024100.347         369.688          49.000  
R20  22593939.660   120820031.564       -2934.651          42.000    22593939.030    93971199.884       -2282.570          43.000  
G29  24277721.177   127580374.077       -2261.310          49.000    24277718.298    99413328.228       -1762.063          43.000  
S33  41979483.041   220603723.261        -658.992          43.000  
S31  41025385.413   215589924.239        -658.679          44.000  
G28  24803443.224   130342971.560       -3206.741          43.000    24803441.471   101565926.314       -2498.784          42.000  
E11  28910083.158   151923515.059        2043.340          32.000    28910086.139   116408959.009        1565.624          32.000  
E33  26356338.411   138503574.090       -2280.872          46.000    26356340.206   106126167.251       -1747.652          54.000  
E31  25552845.330   134281241.138        -992.834          48.000    25552848.256   102890894.796        -760.697          52.000  
G31  24259361.321   127483721.944       -1316.003          47.000    24259359.645    99338102.342       -1025.443          44.000  
E14  27391992.013   143946058.782       -3528.912          45.000    27391994.417   110296306.340       -2704.081          53.000  
G05  26085225.829   137078797.761       -2077.278          44.000    26085220.829   106814903.391       -1618.948          39.000  
E24  27250783.642   143203866.818        1328.082          46.000    27250785.780   109727657.865        1017.634          51.000  
E12  26251855.768   137954527.340         478.501          45.000    26251855.470   105705494.298         366.653          48.000  
E10  27591076.684   144992236.825        1468.222          46.000    27591080.664   111098135.408        1124.927          50.000  
E26                                                                  30147458.533                3      -2629.014          19.000  
> 2024 04 16 05 08 00.0070000  0 24                     
G25  24589619.452   129219351.374       -3409.426          45.000    24589622.358   100690417.508       -2656.775          42.000  
G18  22520054.159   118343715.574        -693.668          50.000    22520051.352    92215851.753        -540.469          50.000  
G26  23736605.504   124736722.888        1776.286          47.000    23736605.620    97197454.133        1384.100          45.000  
G23  25373260.621   133337534.004        2683.726          45.000    25373260.563   103899375.070        2091.292          43.000  
R05  26551321.788                        2196.178          28.000    26551312.310                        1708.583          31.000  
R11  22795634.264   121813063.924        2070.087          51.000    22795631.828    94743552.923        1610.004          50.000  
R09  24272977.357   129616319.760       -4688.769          51.000    24272977.066   100812779.474       -3646.948          48.000  
R10  21642597.711   115367254.783       -2162.067          47.000                                                                  
R21  22588167.101   120874001.126         460.702          52.000    22588164.615    94013174.822         358.328          48.000  
R20  22610425.352   120908185.893       -2942.444          42.000    22610424.297    94039764.341       -2288.556          43.000  
G29  24290637.735   127648247.100       -2264.024          50.000    24290633.781    99466216.302       -1764.275          42.000  
S33  41983242.995   220623481.826        -658.439          43.000  
S31  41029144.367   215609676.645        -658.479          43.000  
G28  24821776.027   130439309.602       -3216.169          43.000    24821774.311   101640994.839       -2506.113          42.000  
E11  28898428.359   151862282.692        2038.573          32.000    28898434.236   116362040.887        1562.591          33.000  
E33  26369380.291   138572106.977       -2288.372          46.000    26369381.409   106178679.470       -1753.400          53.000  
E31  25558540.590   134311171.010       -1002.876          49.000    25558543.746   102913828.102        -768.449          53.000  
G31  24266923.641   127523460.337       -1333.626          47.000    24266921.382    99369067.254       -1039.123          44.000  
E14  27412114.569   144051803.107       -3520.634          45.000    27412117.101   110377331.203       -2697.823          53.000  
G05  26097128.777   137141349.201       -2093.280          44.000    26097124.311   106863644.817       -1631.178          39.000  
E24  27243213.984   143164088.456        1323.479          46.000    27243215.891   109697178.354        1014.108          51.000  
E12  26249153.947   137940330.419         467.765          45.000    26249153.833   105694616.163         358.505          47.000  
E10  27582716.304   144948309.038        1460.061          45.000    27582721.520   111064476.535        1118.653          50.000  
E26                                                                  30167042.596                3      -2627.718          21.000  
> 2024 04 16 05 08 30.0070000  0 24                     
G25  24609111.514   129321781.475       -3419.706          46.000    24609113.597   100770233.141       -2664.709          42.000  
G18  22524061.555   118364774.566        -710.530          49.000    22524058.982    92232261.388        -553.700          50.000  
G26  23726492.022   124683578.554        1766.515          46.000    23726493.110    97156042.971        1376.499          44.000  
G23  25357948.183   133257068.704        2680.185          45.000    25357948.637   103836675.093        2088.381          44.000  
R05  26539007.503                3       2190.369          19.000    26539006.223                        1703.999          31.000  
R11  22784061.495   121751225.182        2052.251          50.000    22784059.867    94695456.140        1596.165          51.000  
R09  24299344.724   129757119.431       -4698.123          51.000    24299343.815   100922290.251       -3654.153          47.000  
R10  21654833.050   115432475.615       -2186.514          48.000                                                                  
R21  22585623.746   120860389.804         446.360          51.000    22585621.076    94002588.286         347.043          48.000  
R20  22626954.306   120996576.731       -2950.454          41.000    22626954.007    94108512.759       -2294.839          42.000  
G29  24303569.374   127716203.094       -2266.686          50.000    24303565.332    99519169.027       -1766.366          42.000  
S33  41987000.101   220643225.431        -657.759          43.000  
S31  41032900.106   215629415.570        -657.786          43.000  
G28  24840161.075   130535926.988       -3225.357          43.000    24840160.044   101716281.061       -2513.064          43.000  
E11  28886795.993                        2033.980          30.000    28886804.542   116315217.128        1558.866          33.000  
E33  26382463.702   138640864.908       -2295.675          46.000    26382465.557   106231364.114       -1759.120          53.000  
E31  25564292.834   134341403.094       -1012.846          48.000    25564296.652   102936993.001        -776.076          53.000  
G31  24274586.545   127563730.660       -1351.341          47.000    24274584.269    99400446.707       -1052.746          43.000  
E14  27432188.525   144157297.624       -3512.274          44.000    27432191.832   110458164.644       -2691.308          53.000  
G05  26109123.766   137204378.007       -2109.121          45.000    26109118.175   106912758.252       -1643.766          39.000  
E24  27235670.768   143124449.202        1318.884          46.000    27235672.757   109666805.421        1010.523          51.000  
E12  26246513.123   137926453.253         457.211          44.000    26246512.846   105683983.043         350.277          47.000  
E10  27574404.294   144904626.066        1451.853          46.000    27574408.491   111031005.235        1112.483          49.000  
E26                                                                  30186630.351                3      -2629.870          22.000  
> 2024 04 16 05 09 00.0070000  0 25                     
G25  24628663.219   129424524.774       -3430.175          44.000    24628665.503   100850292.764       -2672.787          43.000  
G18  22528165.752   118386351.143        -728.127          48.000    22528164.143    92249074.421        -567.311          50.000  
G26  23716437.171   124630737.640        1755.881          46.000    23716438.097    97114868.224        1368.297          45.000  
G23  25342659.123   133176725.017        2675.827          47.000    25342659.509   103774069.889        2085.174          45.000  
R05  26526733.508   141800617.4941       2184.293          33.000    26526729.477                        1698.433          31.000  
R11  22772592.243   121689934.201        2033.462          51.000    22772589.943    94647785.377        1581.583          51.000  
R09  24325764.874   129898204.330       -4707.847          51.000    24325765.193   101032022.887       -3661.582          49.000  
R10  21667207.301   115498438.811       -2211.428          48.000                                                                  
R21  22583163.218   120847220.479         431.315          52.000    22583159.941    93992345.553         335.552          48.000  
R20  22643528.382   121085208.402       -2958.472          41.000    22643528.288    94177448.560       -2300.921          43.000  
G29  24316517.957   127784249.016       -2269.997          49.000    24316513.884    99572191.806       -1768.846          42.000  
S33  41990755.780   220662961.770        -658.013          43.000  
S31  41036655.150   215649146.853        -657.816          43.000  
G28  24858601.035   130632827.450       -3234.895          44.000    24858599.597   101791787.844       -2520.751          43.000  
E11  28875196.513                        2030.498          29.000    28875200.576   116268493.607        1555.385          34.000  
E33  26395592.305   138709853.133       -2303.640          46.000    26395593.369   106284225.224       -1765.159          52.000  
E31  25570105.459   134371944.471       -1023.490          48.000    25570108.396   102960394.810        -784.168          53.000  
G31  24282352.015   127604538.209       -1369.448          47.000    24282349.972    99432244.776       -1067.221          43.000  
E14  27452217.269   144262548.349       -3504.535          43.000    27452220.356   110538811.278       -2685.280          52.000  
G05  26121210.225   137267891.166       -2125.551          44.000    26121205.173   106962249.029       -1656.475          41.000  
E24  27228155.483   143084957.235        1313.654          46.000    27228157.769   109636545.348        1006.585          51.000  
E12  26243934.873   137912902.640         445.859          45.000    26243934.315   105673600.131         341.743          48.000  
E10  27566139.251   144861195.259        1443.102          45.000    27566143.741   110997727.147        1105.819          49.000  
E26                                                                  30206212.309                3      -2626.895          25.000  
R04                                                                  26376592.910                3        428.140          11.000  
> 2024 04 16 05 09 30.0080000  0 25                     
G25  24648276.138   129527587.514       -3440.635          43.000    24648278.096   100930601.274       -2681.034          42.000  
G18  22532370.955   118408448.928        -745.419          48.000    22532368.454    92266293.505        -580.894          50.000  
G26  23706441.013   124578205.018        1745.464          47.000    23706441.483    97073933.717        1360.055          45.000  
G23  25327393.469   133096507.518        2671.502          47.000    25327394.832   103711562.957        2081.683          45.000  
R05  26514486.285   141735177.209        2177.956          38.000    26514486.594   110238522.4951       1693.918          37.000  
R11  22761226.994   121629197.447        2015.048          51.000    22761224.059    94600545.721        1567.284          51.000  
R09  24352239.839   130039579.958       -4717.192          50.000    24352240.533   101141981.615       -3668.932          48.000  
R10  21679721.663   115565149.463       -2236.156          47.000                                                                  
R21  22580784.178   120834496.069         416.595          51.000    22580781.800    93982448.822         324.079          49.000  
R20  22660149.271   121174084.399       -2966.621          42.000    22660148.750    94246574.396       -2307.156          42.000  
G29  24329484.532   127852390.965       -2273.035          49.000    24329480.241    99625289.423       -1771.298          41.000  
S33  41994511.136   220682695.656        -657.828          42.000  
S31  41040409.264   215668875.103        -657.678          43.000  
G28  24877095.032   130730015.331       -3244.279          43.000    24877094.746   101867518.579       -2528.123          44.000  
E11  28863614.809   151679350.067        2025.662          29.000    28863621.719   116221872.538        1552.166          33.000  
G16  26858093.099                2       2626.323          30.000                                                                  
E33  26408764.710   138779076.426       -2311.413          46.000    26408766.128   106337266.458       -1771.057          52.000  
E31  25575976.653   134402801.019       -1033.955          48.000    25575980.474   102984038.094        -792.233          53.000  
G31  24290220.559   127645887.047       -1387.406          48.000    24290218.858    99464464.605       -1081.166          44.000  
E14  27472200.691   144367562.166       -3496.573          44.000    27472203.709   110619276.414       -2679.088          53.000  
G05  26133388.566   137331893.002       -2141.467          44.000    26133383.309   107012120.632       -1668.738          39.000  
E24  27220669.083   143045616.959        1308.533          45.000    27220671.340   109606401.499        1002.687          51.000  
E12  26241419.497   137899682.134         434.999          45.000    26241418.729   105663470.165         333.383          48.000  
E10  27557922.616   144818019.912        1434.650          45.000    27557927.281   110964644.800        1099.198          49.000  
E26                                                                  30225790.715                3      -2627.477          25.000  
> 2024 04 16 05 10 00.0080000  0 26                     
G25  24667946.682   129630956.756       -3450.759          46.000    24667948.364   101011148.733       -2689.074          42.000  
G18  22536674.389   118431060.479        -762.208          49.000    22536671.815    92283912.965        -594.003          50.000  
G26  23696503.189   124525981.685        1735.547          47.000    23696503.047    97033240.224        1352.319          44.000  
G23  25312153.618   133016420.067        2667.496          45.000    25312155.055   103649157.363        2078.669          46.000  
R05  26502277.907   141669924.159        2171.923          38.000    26502278.539   110187770.135        1689.136          38.000  
R11  22749964.899   121569017.761        1996.600          51.000    22749962.491    94553739.336        1553.002          51.000  
R09  24378766.129   130181228.095       -4726.176          51.000    24378766.666   101252152.300       -3675.997          48.000  
R10  21692374.798   115632596.392       -2260.368          47.000                                                                  
R21  22578488.693   120822211.003         402.225          51.000    22578485.651    93972893.848         312.883          48.000  
R20  22676812.856   121263191.597       -2974.105          42.000    22676811.901    94315880.013       -2313.033          41.000  
G29  24342467.706   127920618.887       -2275.675          49.000    24342463.241    99678454.056       -1773.287          41.000  
S33  41998264.565   220702420.764        -657.340          43.000  
S31  41044161.715   215688595.076        -657.464          44.000  
G28  24895641.714   130827476.115       -3253.057          44.000    24895640.476   101943461.976       -2535.157          43.000  
E11  28852063.760                        2021.828          29.000    28852069.337   116175354.176        1548.897          33.000  
G16  26843092.878                1       2627.102          29.000                                                                  
E33  26421979.221   138848523.617       -2318.669          46.000    26421981.654   106390479.266       -1776.634          52.000  
E31  25581907.978   134433966.400       -1043.945          48.000    25581911.248   103007917.971        -799.976          52.000  
G31  24298190.793   127687768.061       -1404.924          48.000    24298188.228    99497099.107       -1094.758          44.000  
E14  27492136.863   144472326.387       -3487.900          44.000    27492139.540   110699550.308       -2672.554          52.000  
G05  26145658.333   137396372.956       -2157.300          43.000    26145653.541   107062364.862       -1681.232          40.000  
E24  27213210.978   143006427.504        1303.903          45.000    27213213.932   109576373.226         999.060          51.000  
E12  26238965.380   137886787.577         424.591          45.000    26238964.936   105653589.962         325.262          48.000  
E10  27549754.474   144775098.527        1426.485          44.000    27549759.881   110931757.035        1092.938          49.000  
E26                                                                  30245364.203                3      -2627.889          25.000  
R04                                                                  26372725.479                3        248.669          26.000  
> 2024 04 16 05 10 30.0080000  0 26                     
G25  24687675.258   129734633.519       -3461.466          45.000    24687677.753   101091935.659       -2696.986          43.000  
G18  22541075.473   118454184.777        -779.715          50.000    22541072.458    92301931.973        -607.602          51.000  
G26  23686624.271   124474067.632        1724.903          46.000    23686624.271    96992787.749        1344.037          45.000  
G23  25296937.865   132936462.274        2662.604          46.000    25296939.451   103586852.788        2074.714          45.000  
R05  26490108.189   141604859.969        2164.906          39.000    26490107.006   110137164.648        1684.042          39.000  
R11  22738806.866   121509396.036        1977.526          50.000    22738805.452    94507366.884        1538.013          51.000  
R09  24405343.812   130323149.685       -4735.615          50.000    24405344.586   101362535.658       -3683.330          49.000  
R10  21705165.022   115700779.926       -2285.364          47.000                                                                  
R21  22576274.764   120810363.277         387.253          52.000    22576272.007    93963679.037         301.076          48.000  
R20  22693519.136   121352528.598       -2982.151          42.000    22693518.702    94385364.343       -2319.280          43.000  
G29  24355467.685   127988934.206       -2278.959          48.000    24355462.876    99731686.747       -1775.608          40.000  
S33  42002016.086   220722135.937        -657.514          42.000  
S31  41047912.575   215708305.763        -657.065          43.000  
G28  24914238.998   130925209.209       -3262.736          43.000    24914238.963   102019617.596       -2542.484          43.000  
E11  28840528.713                1       2016.440          27.000    28840540.426   116128936.886        1545.030          32.000  
G16  26828091.521                        2627.289          30.000                                                                  
E33  26435237.935   138918194.631       -2326.355          46.000    26435239.568   106443863.567       -1782.594          52.000  
E31  25587896.925   134465441.788       -1054.736          48.000    25587900.859   103032035.554        -808.222          54.000  
G31  24306261.452   127730180.495       -1422.979          48.000    24306259.106    99530147.713       -1109.054          44.000  
E14  27512025.864   144576843.083       -3480.293          45.000    27512028.532   110779634.529       -2666.700          52.000  
G05  26158019.626   137461331.295       -2173.602          43.000    26158014.785   107112981.801       -1694.153          39.000  
E24  27205781.721   142967388.326        1298.266          45.000    27205785.143   109546460.110         994.758          51.000  
E12  26236572.397   137874217.575         413.294          44.000    26236572.687   105643958.423         316.592          48.000  
E10  27541635.794   144732429.451        1417.658          45.000    27541639.819   110899062.613        1086.249          49.000  
E26                                                                  30264932.917                3      -2624.840          25.000  
R04                                                                  26370986.159                3        231.230          22.000  
> 2024 04 16 05 11 00.0080000  0 26                     
G25  24707464.782   129838622.183       -3471.528          45.000    24707465.806   101172965.744       -2705.338          42.000  
G18  22545574.459   118477825.918        -796.857          50.000    22545570.877    92320353.711        -620.968          51.000  
G26  23676805.695   124422470.757        1714.370          47.000    23676805.182    96952582.390        1335.832          45.000  
G23  25281748.765   132856642.811        2658.075          46.000    25281750.436   103524655.972        2071.184          46.000  
R05  26477973.886   141539994.617        2158.617          40.000    26477972.747   110086713.834        1678.575          39.000  
R11  22727755.881   121450341.849        1958.720          52.000    22727754.365    94461435.846        1523.317          52.000  
R09  24431972.078   130465346.452       -4744.730          50.000    24431974.005   101473132.982       -3690.330          50.000  
R10  21718097.182   115769704.361       -2310.198          48.000                                                                  
R21  22574143.269   120798957.316         372.669          52.000    22574140.803    93954807.793         289.780          49.000  
R20  22710269.494   121442098.473       -2989.791          42.000    22710269.322    94455029.855       -2325.465          43.000  
G29  24368486.112   128057342.315       -2282.073          48.000    24368481.369    99784991.758       -1778.168          40.000  
S33  42005767.250   220741847.460        -657.255          42.000  
S31  41051662.535   215728012.046        -657.043          43.000  
G28  24932889.698   131023216.962       -3271.720          44.000    24932889.008   102095987.218       -2549.428          42.000  
E11  28829039.277                        2011.831          29.000    28829039.361   116082625.718        1541.808          34.000  
G16  26813087.581                        2627.812          30.000                                                                  
E33  26448539.690   138988093.192       -2333.964          47.000    26448540.696   106497422.189       -1788.349          52.000  
E31  25593946.491   134497232.696       -1065.219          48.000    25593950.315   103056394.739        -816.193          54.000  
G31  24314434.214   127773128.163       -1440.719          48.000    24314431.659    99563613.375       -1122.524          42.000  
E14  27531868.678   144681116.897       -3471.970          44.000    27531871.087   110859532.660       -2660.356          52.000  
G05  26170472.858   137526772.608       -2189.655          42.000    26170467.660   107163975.022       -1706.317          40.000  
E24  27198383.375   142928506.297        1293.383          45.000    27198386.118   109516667.411         990.892          51.000  
E12  26234243.750   137861977.561         402.229          44.000    26234243.391   105634579.755         308.197          47.000  
E10  27533565.606   144690018.662        1409.006          45.000    27533569.227   110866566.095        1079.668          49.000  
E26                                                                  30284498.224                3      -2621.316          22.000  
R04                                                                  26369349.720                3        217.959          26.000  
> 2024 04 16 05 11 30.0080000  0 26                     
G25  24727312.329   129942922.097       -3481.577          45.000    24727313.461   101254238.335       -2712.966          41.000  
G18  22550170.589   118501983.545        -813.647          48.000    22550168.032    92339177.832        -634.002          51.000  
G26  23667048.314   124371194.314        1703.945          47.000    23667047.532    96912626.744        1327.823          45.000  
G23  25266586.809   132776965.778        2653.561          46.000    25266588.068   103462570.079        2067.718          45.000  
R05  26465878.766   141475332.930        2151.996          42.000    26465876.415   110036421.431        1673.882          38.000  
R11  22716812.237   121391859.532        1939.829          51.000    22716809.951    94415949.606        1508.737          50.000  
R09  24458652.799   130607815.997       -4753.203          50.000    24458654.412   101583942.476       -3696.995          49.000  
R10  21731165.313   115839368.483       -2334.358          47.000                                                                  
R21  22572094.015   120787993.030         358.251          52.000    22572091.846    93946280.117         278.718          49.000  
R20  22727063.238   121531899.074       -2996.998          44.000    22727062.790    94524874.758       -2330.925          43.000  
G29  24381521.458   128125843.647       -2284.816          48.000    24381516.476    99838369.414       -1780.121          39.000  
S33  42009517.867   220761556.716        -656.794          42.000  
S31  41055412.271   215747716.452        -656.399          43.000  
G28  24951592.672   131121497.174       -3280.330          45.000    24951590.535   102172569.130       -2555.897          42.000  
E11  28817566.065                        2008.438          31.000    28817564.810   116036421.900        1538.533          35.000  
G16  26798080.021   140824897.5711       2628.546          28.000                                                                  
E33  26461883.541   139058218.520       -2340.987          47.000    26461885.171   106551154.571       -1793.869          52.000  
E31  25600055.830   134529340.767       -1075.390          47.000    25600060.109   103080996.967        -824.020          53.000  
G31  24322709.303   127816610.868       -1458.153          48.000    24322705.926    99597495.979       -1136.278          43.000  
E14  27551665.603   144785148.035       -3463.521          45.000    27551667.344   110939244.843       -2653.874          52.000  
G05  26183017.068   137592696.224       -2205.414          40.000    26183012.981   107215344.086       -1718.298          40.000  
E24  27191014.622   142889783.788        1288.231          46.000    27191017.317   109486996.925         987.108          51.000  
E12  26231977.521   137850068.229         391.500          44.000    26231977.030   105625454.463         300.020          48.000  
E10  27525544.337   144647867.532        1400.858          46.000    27525548.191   110834268.543        1073.414          50.000  
E26                                                                  30304058.759                3      -2620.022          16.000  
R04                                                                  26367838.262                3        203.169          25.000  
> 2024 04 16 05 12 00.0080000  0 25                     
G25  24747217.766   130047524.632       -3492.031          46.000    24747218.120   101335746.733       -2721.007          42.000  
G18  22554863.996   118526649.462        -830.720          49.000    22554862.175    92358398.083        -647.247          52.000  
G26  23657351.388   124320233.538        1693.217          47.000    23657350.307    96872917.055        1319.614          44.000  
G23  25251451.324   132697427.234        2648.769          46.000    25251451.777   103400592.120        2063.823          44.000  
R05  26453819.183   141410871.866        2145.216          42.000    26453816.821   109986285.053        1668.272          35.000  
R11  22705974.436   121333945.421        1920.872          52.000    22705971.733    94370905.345        1493.925          51.000  
R09  24485381.704   130750547.430       -4762.104          50.000    24485383.383   101694955.675       -3703.910          49.000  
R10  21744372.173   115909764.549       -2358.663          48.000                                                                  
R21  22570126.226   120777461.751         343.724          52.000    22570123.658    93938089.207         267.507          49.000  
R20  22743897.302   121621919.757       -3004.438          43.000    22743896.415    94594890.858       -2337.013          43.000  
G29  24394572.860   128194430.757       -2287.695          49.000    24394568.518    99891813.915       -1782.544          40.000  
S33  42013266.335   220781255.541        -656.458          42.000  
S31  41059159.540   215767410.482        -656.367          44.000  
G28  24970344.248   131220039.431       -3289.276          42.000    24970341.774   102249355.229       -2563.017          41.000  
E11  28806113.029                        2003.258          30.000    28806116.137   115990320.607        1534.997          36.000  
G16  26783073.108   140745996.5261       2628.880          29.000                                                                  
E33  26475269.839   139128561.848       -2348.534          47.000    26475271.150   106605054.008       -1799.480          52.000  
E31  25606224.696   134561759.421       -1085.806          47.000    25606229.121   103105837.280        -832.011          53.000  
G31  24331083.301   127860619.396       -1475.869          48.000    24331080.614    99631788.308       -1150.166          43.000  
E14  27571414.768   144888928.475       -3455.493          46.000    27571416.132   111018764.926       -2647.571          52.000  
G05  26195651.306   137659092.231       -2221.228          41.000    26195647.674   107267081.289       -1730.927          40.000  
E24  27183676.078   142851215.003        1282.936          46.000    27183677.897   109457444.232         982.984          51.000  
E12  26229771.934   137838482.118         380.783          43.000    26229771.821   105616576.846         291.678          47.000  
E10  27517572.278   144605969.353        1392.218          47.000    27517575.058   110802164.822        1066.802          50.000  
R04                                                                  26366438.627                         186.493          24.000  
> 2024 04 16 05 12 30.0080000  0 23                     
G25  24767181.041   130152433.390       -3502.585          46.000    24767182.200   101417493.765       -2729.384          42.000  
G18  22559654.992   118551827.177        -848.012          49.000    22559653.110    92378017.110        -660.811          51.000  
G26  23647714.945   124269595.789        1682.205          47.000    23647714.364    96833459.091        1311.002          44.000  
G23  25236343.291   132618035.354        2643.595          45.000    25236343.430   103338728.463        2060.029          43.000  
R05  26441799.664   141346621.166        2137.804          41.000    26441795.352   109936312.352        1662.635          36.000  
R11  22695244.278   121276608.334        1901.348          52.000    22695242.356    94326309.807        1478.726          51.000  
R09  24512159.648   130893542.342       -4771.160          50.000    24512162.272   101806173.741       -3710.865          50.000  
R10  21757715.324   115980894.382       -2383.449          49.000                                                                  
R21  22568240.281   120767367.730         328.886          53.000    22568237.253    93930238.342         255.821          50.000  
R20  22760773.405   121712163.235       -3011.944          43.000    22760771.918    94665080.274       -2342.651          42.000  
G29  24407642.264   128263108.264       -2291.066          49.000    24407638.114    99945328.814       -1785.347          40.000  
S33  42017013.888   220800949.483        -656.797          43.000  
S31  41062906.276   215787098.933        -656.573          43.000  
G28  24989146.022   131318845.633       -3298.249          43.000    24989143.690   102326346.991       -2569.830          41.000  
E11  28794689.845                        1998.259          31.000    28794693.320   115944326.287        1530.398          34.000  
E33  26488697.328   139199126.327       -2356.126          47.000    26488699.200   106659122.913       -1805.267          53.000  
E31  25612454.298   134594493.931       -1096.754          47.000    25612458.391   103130919.529        -840.291          53.000  
G31  24339558.483   127905157.239       -1493.558          47.000    24339556.231    99666493.069       -1163.951          44.000  
E14  27591116.123   144992462.423       -3447.245          46.000    27591118.083   111098096.121       -2641.412          52.000  
G05  26208377.007   137725966.223       -2237.500          40.000    26208372.903   107319190.931       -1743.396          39.000  
E24  27176366.869   142812806.382        1277.162          46.000    27176368.939   109428014.259         978.640          51.000  
E12  26227629.381   137827224.017         369.495          43.000    26227629.316   105607950.523         283.307          47.000  
E10  27509648.573   144564329.565        1383.427          46.000    27509651.370   110770259.083        1059.993          50.000  
> 2024 04 16 05 13 00.0080000  0 23                     
G25  24787203.534   130257650.196       -3512.396          46.000    24787204.119   101499480.819       -2736.911          41.000  
G18  22564543.882   118577518.926        -864.986          49.000    22564542.009    92398036.706        -673.976          51.000  
G26  23638141.309   124219286.924        1671.380          47.000    23638141.384    96794257.403        1302.358          45.000  
G23  25221264.266   132538796.603        2638.618          46.000    25221263.708   103276984.202        2056.120          43.000  
R05  26429819.634   141282588.407        2130.645          43.000    26429818.983   109886509.117        1657.286          40.000  
R11  22684623.137   121219855.534        1881.875          51.000    22684622.133    94282168.708        1463.823          51.000  
R09  24538987.696   131036800.852       -4779.612          50.000    24538990.671   101917596.896       -3717.470          50.000  
R10  21771196.982   116052759.665       -2407.828          48.000                                                                  
R21  22566436.451   120757713.010         314.451          52.000    22566433.286    93922729.201         244.572          50.000  
R20  22777690.720   121802630.548       -3019.146          43.000    22777690.050    94735443.767       -2348.403          42.000  
G29  24420729.267   128331879.707       -2294.001          49.000    24420724.294    99998916.954       -1787.387          39.000  
S33  42020760.905   220820641.006        -656.301          43.000  
S31  41066652.877   215806785.991        -656.204          44.000  
G28  25007997.979   131417915.976       -3306.589          42.000    25007996.703   102403544.592       -2576.471          42.000  
E11  28783291.427   151257230.8341       1993.938          32.000    28783297.723   115898442.085        1527.481          33.000  
E33  26502167.615   139269913.666       -2363.315          47.000    26502169.460   106713362.586       -1810.795          53.000  
E31  25618744.413   134627548.046       -1107.094          47.000    25618748.407   103156246.576        -848.376          51.000  
G31  24348135.159   127950226.062       -1511.125          48.000    24348132.994    99701611.589       -1177.547          44.000  
E14  27610771.296   145095752.616       -3439.112          45.000    27610773.476   111177240.535       -2635.101          51.000  
G05  26221194.148   137793319.365       -2253.217          42.000    26221189.748   107371673.934       -1755.408          39.000  
E24  27169088.458   142774562.728        1272.045          45.000    27169091.359   109398710.706         974.616          51.000  
E12  26225549.894   137816297.070         358.750          43.000    26225549.751   105599577.964         274.719          47.000  
E10  27501773.387   144522952.017        1374.796          46.000    27501777.713   110738554.285        1053.483          51.000  
> 2024 04 16 05 13 30.0080000  0 24                     
G25  24807283.483   130363171.881       -3522.581          46.000    24807284.801   101581705.430       -2745.207          42.000  
G18  22569530.461   118603721.690        -882.151          49.000    22569528.199    92418454.462        -687.394          51.000  
G26  23628630.385   124169307.608        1660.387          47.000    23628631.088    96755312.502        1293.842          46.000  
G23  25206214.533   132459712.655        2633.354          45.000    25206214.311   103215360.517        2052.021          42.000  
R05  26417882.503   141218775.895        2123.135          45.000    26417882.269   109836877.129        1651.525          40.000  
R11  22674111.985   121163689.098        1862.334          51.000    22674111.026    94238483.738        1448.399          51.000  
R09  24565864.129   131180317.570       -4788.263          50.000    24565866.015   102029220.848       -3724.145          48.000  
R10  21784815.937   116125358.426       -2432.370          47.000                                                                  
R21  22564711.979   120748494.588         299.871          51.000    22564710.463    93915559.399         233.264          49.000  
R20  22794649.801   121893316.144       -3026.427          43.000    22794649.523    94805977.055       -2354.109          43.000  
G29  24433832.791   128400742.925       -2297.070          49.000    24433828.319   100052576.595       -1789.714          39.000  
S33  42024507.492   220840328.932        -656.477          43.000  
S31  41070398.242   215826469.115        -656.180          43.000  
G28  25026899.814   131517245.644       -3315.542          44.000    25026897.819   102480944.251       -2583.434          42.000  
E11  28771926.057   151197490.895        1989.288          32.000    28771928.810                        1523.969          30.000  
E33  26515680.130   139340920.515       -2370.757          47.000    26515681.657   106767770.459       -1816.603          53.000  
E31  25625095.826   134660921.086       -1117.970          48.000    25625099.159   103181818.147        -856.575          53.000  
G31  24356812.029   127995822.812       -1528.906          48.000    24356809.730    99737141.475       -1191.151          44.000  
E14  27630379.478   145198796.630       -3430.953          45.000    27630382.069   111256196.326       -2628.836          51.000  
G05  26234102.498   137861148.809       -2269.019          42.000    26234097.205   107424528.097       -1768.164          38.000  
E24  27161842.018   142736483.813        1266.341          45.000    27161845.186   109369533.380         970.297          51.000  
E12  26223534.150   137805699.421         347.558          44.000    26223533.159   105591457.702         266.403          47.000  
E10  27493948.579   144481835.461        1366.065          45.000    27493953.620   110707049.468        1046.649          51.000  
R04                                                                  26362909.747                1        138.153          25.000  
> 2024 04 16 05 14 00.0080000  0 24                     
G25  24827420.580   130468996.943       -3532.571          45.000    24827423.124   101664166.378       -2752.620          42.000  
G18  22574614.153   118630434.051        -898.931          49.000    22574611.341    92439269.280        -700.450          51.000  
G26  23619182.864   124119660.191        1649.288          47.000    23619183.432    96716626.218        1284.944          46.000  
G23  25191194.505   132380786.670        2627.976          44.000    25191195.284   103153860.006        2047.792          43.000  
R05  26405987.301   141155187.851        2115.771          43.000    26405986.219   109787419.774        1645.772          40.000  
R11  22663711.198   121108112.077        1842.646          50.000    22663710.007    94195257.150        1433.198          50.000  
R09  24592788.381   131324088.623       -4796.706          51.000    24592789.808   102141042.589       -3730.669          49.000  
R10  21798572.520   116198688.204       -2456.615          48.000                                                                  
R21  22563071.763   120739711.577         285.501          52.000    22563068.324    93908728.253         221.986          49.000  
R20  22811648.180   121984216.914       -3033.783          43.000    22811648.434    94876677.622       -2359.374          43.000  
G29  24446954.205   128469697.606       -2300.187          49.000    24446948.418   100106307.550       -1791.987          38.000  
S33  42028253.571   220860013.539        -656.408          43.000  
S31  41074142.998   215846148.421        -656.135          43.000  
G28  25045850.890   131616831.394       -3323.768          43.000    25045848.933   102558543.443       -2589.834          43.000  
E11  28760589.606   151137894.818        1984.258          32.000    28760586.933                        1520.589          29.000  
E33  26529233.690   139412145.001       -2377.971          47.000    26529235.270   106822345.045       -1822.032          52.000  
E31  25631507.158   134694613.009       -1128.492          47.000    25631510.721   103207633.979        -864.693          53.000  
G31  24365588.646   128041945.591       -1546.234          48.000    24365586.772    99773081.287       -1204.922          44.000  
E14  27649942.173   145301593.691       -3422.565          46.000    27649943.650   111334962.900       -2622.457          51.000  
G05  26247100.930   137929453.210       -2284.747          44.000    26247095.898   107477752.359       -1780.322          38.000  
E24  27154627.984   142698571.046        1260.911          46.000    27154630.690   109340483.359         966.017          51.000  
E12  26221580.069   137795430.707         336.620          44.000    26221579.567   105583589.504         257.994          48.000  
E10  27486174.435   144440980.295        1357.382          46.000    27486179.128   110675744.907        1040.050          51.000  
R04                                                                  26361990.978                1        122.467          27.000  
> 2024 04 16 05 14 30.0080000  0 24                     
G25  24847615.632   130575123.099       -3542.503          46.000    24847617.569   101746862.017       -2760.471          42.000  
G18  22579793.694   118657653.817        -915.782          49.000    22579790.857    92460479.585        -713.621          51.000  
G26  23609798.984   124070345.974        1638.193          48.000    23609798.594    96678199.559        1276.471          45.000  
G23  25176206.688   132302020.636        2622.911          45.000    25176206.771   103092484.122        2043.685          43.000  
R05  26394135.021   141091827.812        2108.079          47.000    26394133.134   109738139.765        1639.522          43.000  
R11  22653421.932   121053127.323        1822.939          50.000    22653420.316    94152491.220        1417.875          51.000  
R09  24619759.300   131468109.778       -4804.815          51.000    24619760.146   102253058.861       -3737.088          48.000  
R10  21812465.485   116272745.567       -2480.699          47.000                                                                  
R21  22561510.564   120731361.269         271.262          52.000    22561507.107    93902233.673         210.954          48.000  
R20  22828686.201   122075328.976       -3040.503          43.000    22828687.150    94947542.568       -2364.862          44.000  
G29  24460093.427   128538742.405       -2302.939          49.000    24460088.438   100160108.663       -1794.548          38.000  
S33  42031998.231   220879692.630        -655.894          43.000  
S31  41077887.159   215865822.621        -655.608          43.000  
G28  25064849.161   131716668.964       -3331.830          44.000    25064847.761   102636338.868       -2596.417          43.000  
E11  28749276.307   151078442.325        1979.057          33.000    28749272.989                        1517.200          28.000  
E33  26542828.710   139483584.508       -2384.882          47.000    26542829.800   106877084.429       -1827.365          53.000  
E31  25637978.311   134728623.371       -1139.028          46.000    25637982.586   103233693.838        -872.740          52.000  
G31  24374465.258   128088591.643       -1563.687          48.000    24374462.628    99809428.838       -1218.415          43.000  
E14  27669456.377   145404141.976       -3414.067          45.000    27669457.985   111413538.861       -2616.050          52.000  
G05  26260189.576   137998229.833       -2300.458          42.000    26260183.232   107531344.567       -1792.151          36.000  
E24  27147445.069   142660824.771        1255.470          45.000    27147447.989   109311560.886         962.033          51.000  
E12  26219688.498   137785489.577         325.981          44.000    26219688.428   105575972.288         249.737          49.000  
E10  27478450.694   144400385.828        1348.864          47.000    27478454.235   110644640.104        1033.447          51.000  
R04                                                                  26361165.897                3        106.337          23.000  
