     3.00           OBSERVATION DATA    M: Mixed            RINEX VERSION / TYPE
CONVBIN 2.4.3                           20240416 152942 UTC PGM / RUN BY / DATE 
format: u-blox UBX                                          COMMENT             
log: /home/regis/git/gnsspwv/obsdata/VERT00CHL/2024-04-16/VECOMMENT             
{self.marker}                                               MARKER NAME         
                                                            MARKER NUMBER       
GEODETIC                                                    MARKER TYPE         
{self.observer}     {self.institution}                      OBSERVER / AGENCY   
UNKNOWN             UBLOX-ZED-F9P                           REC # / TYPE / VERS 
UNKNOWN             TWIVSP6037L                             ANT # / TYPE        
  1713381.0000 -5047934.0000 -3490983.0000                  APPROX POSITION XYZ 
        0.0000        0.0000        0.0000                  ANTENNA: DELTA H/E/N
G    8 C1C L1C D1C S1C C2L L2L D2L S2L                      SYS / # / OBS TYPES 
R    8 C1C L1C D1C S1C C2C L2C D2C S2C                      SYS / # / OBS TYPES 
E    8 C1C L1C D1C S1C C7Q L7Q D7Q S7Q                      SYS / # / OBS TYPES 
S    4 C1C L1C D1C S1C                                      SYS / # / OBS TYPES 
  2024    04    16    15    15   00.4950000     GPS         TIME OF FIRST OBS   
  2024    04    16    15    29   30.4950000     GPS         TIME OF LAST OBS    
                                                            END OF HEADER       
> 2024 04 16 15 15 00.4950000  0 26                     
G03  20084754.939   105546064.2301      -2188.212          48.000    20084759.266    82243690.1771      -1705.138          45.000  
G04  19608992.236   103045926.5141      -2595.395          47.000    19608994.420    80295523.7801      -2022.289          49.000  
G06  20032959.952   105273938.1811       1020.587          46.000    20032963.671    82031669.5441        795.175          46.000  
G07  20876499.890   109706823.1961       2914.884          47.000    20876504.008    85485887.0311       2271.132          41.000  
G09  19214809.369   100974506.3311       -395.435          49.000    19214810.719    78681446.5451       -308.197          45.000  
R02  19078728.255   101807725.0241      -1837.725          52.000    19078731.331    79183796.0621      -1429.308          49.000  
R18  19229008.043   102645767.1931        -59.912          51.000    19229012.736    79835621.1501        -46.527          49.000  
R12  19841311.807   105988767.9591        641.145          50.000    19841316.539    82435752.4381        498.584          47.000  
R11  21931644.264   117196020.4771      -3089.162          39.000    21931650.874    91152470.4901      -2402.719          36.000  
R01  21794646.662   116504790.1471      -3127.912          39.000    21794658.574    90614897.0361      -2432.915          38.000  
G19  22736540.655   119481242.3341      -2666.494          46.000                                                                  
S31  37304010.312   196033876.3141       -775.843          45.000  
S33  38255491.596   201033936.7931       -775.496          42.000  
E03  23646563.317   124263553.8411        541.972          47.000    23646570.868    95214976.5391        415.310          49.000  
R17  19244589.861   102981628.2701      -3738.855          52.000    19244590.593    80096812.1761      -2908.008          49.000  
R03  19609760.338   104972608.8841        521.429          50.000    19609760.497    81645386.3111        405.469          48.000  
R13  20822427.632   111190749.6461       2939.072          38.000    20822438.425    86481656.8531       2286.364          41.000  
R19  21952604.045                3       2594.606          24.000                                                                  
E05  20690202.964   108727739.2791      -1407.506          47.000    20690208.375    83310883.9591      -1078.512          51.000  
E09  25091014.143   131854112.2891      -2861.909          40.000    25091025.652   101031092.9641      -2192.623          43.000  
E15  24584216.339   129190912.6581       1398.035          41.000    24584226.218    98990500.1651       1071.490          47.000  
E34  22144650.992   116370911.8331      -1170.695          50.000    22144656.748    89167343.4771       -896.844          52.000  
E36  23960884.830   125915247.8151      -3536.645          45.000    23960897.879    96480530.8311      -2709.925          50.000  
G16  23897647.307   125582984.4491        664.265          39.000                                                                  
E18  27972981.423   146998938.2291       -957.030          44.000                                                                  
E24  26368590.433   138567916.1521       1333.533          39.000    26368607.920   106175500.6101       1021.903          45.000  
> 2024 04 16 15 15 30.4950000  0 26                     
G03  20097277.215   105611869.453       -2198.610          48.000    20097282.160    82294966.821       -1713.111          46.000  
G04  19623827.757   103123887.602       -2602.009          48.000    19623829.981    80356272.576       -2027.609          48.000  
G06  20027185.922   105243596.347        1002.263          46.000    20027190.555    82008026.572         780.940          46.000  
G07  20859886.014   109619514.910        2905.559          47.000    20859889.887    85417854.687        2264.153          41.000  
G09  19217095.802   100986519.150        -405.518          49.000    19217096.616    78690807.164        -315.900          45.000  
R02  19089073.369   101862926.846       -1842.431          52.000    19089076.257    79226730.737       -1433.008          49.000  
R18  19229423.777   102647987.189         -88.074          51.000    19229428.942    79837347.765         -68.481          49.000  
R12  19837778.499   105969892.138         617.318          50.000    19837783.431    82421071.339         480.273          47.000  
R11  21949046.443   117289009.459       -3109.978          36.000    21949053.928    91224795.089       -2418.566          35.000  
R01  21812204.273   116598637.658       -3128.967          40.000    21812213.909    90687889.152       -2433.082          35.000  
G19  22751786.853   119561358.798       -2674.564          45.000                                                                  
S31  37308442.231   196057167.960        -776.725          45.000  
S33  38259922.032   201057216.252        -776.433          42.000  
E03  23643486.287   124247385.867         535.775          47.000    23643494.213    95202588.149         410.492          50.000  
R17  19265603.968   103094085.565       -3758.185          52.000    19265606.381    80184278.768       -2923.120          49.000  
R03  19606852.974   104957048.524         515.914          50.000    19606854.221    81633283.859         401.343          48.000  
R13  20805936.849   111102688.597        2931.192          39.000    20805947.058    86413165.237        2279.837          40.000  
R19  21938070.332                1       2580.451          25.000    21938111.620                3       2008.157          26.000  
E05  20698254.148   108770046.687       -1412.990          48.000    20698259.303    83343301.294       -1082.591          51.000  
E09  25107349.096   131939957.516       -2861.397          39.000    25107362.488   101096870.278       -2192.526          45.000  
E15  24576261.157   129149110.850        1388.292          41.000    24576271.125    98958470.266        1063.955          46.000  
E34  22151376.610   116406255.581       -1185.668          50.000    22151382.721    89194424.999        -908.546          53.000  
E36  23981098.563   126021464.826       -3544.532          46.000    23981109.988    96561917.638       -2715.964          49.000  
G16  23893879.336   125563187.795         655.566          39.000                                                                  
E18  27978430.975   147027574.164        -952.056          44.000                                                                  
E24  26360987.676   138527959.927        1330.165          41.000    26361004.960   106144884.994        1019.094          46.000  
> 2024 04 16 15 16 00.4950000  0 26                     
G03  20109857.262   105677979.634       -2208.963          48.000    20109862.371    82346481.138       -1721.262          46.000  
G04  19638701.222   103202047.368       -2608.744          47.000    19638703.115    80417176.205       -2032.925          48.000  
G06  20021518.464   105213810.088         983.385          47.000    20021522.569    81984816.521         766.438          46.000  
G07  20843325.184   109532485.975        2896.153          46.000    20843328.294    85350040.087        2256.605          41.000  
G09  19219438.310   100998829.249        -415.533          49.000    19219438.906    78700399.474        -323.755          45.000  
R02  19099443.768   101918264.949       -1846.888          52.000    19099446.572    79269771.414       -1436.500          49.000  
R18  19229998.148   102651049.023        -116.180          52.000    19230002.359    79839729.196         -90.424          48.000  
R12  19834377.006   105951728.839         593.334          48.000    19834383.498    82406944.389         461.478          48.000  
R11  21966566.365   117382632.879       -3131.355          35.000    21966574.150    91297613.132       -2435.682          35.000  
R01  21829763.000   116692499.822       -3129.068          39.000    21829772.219    90760892.805       -2433.900          35.000  
G19  22767077.299   119641709.299       -2682.345          45.000                                                                  
S31  37312878.288   196080481.635        -777.502          44.000  
S33  38264355.802   201080516.317        -777.240          43.000  
E03  23640444.710   124231402.693         529.556          46.000    23640452.976    95190341.351         405.759          50.000  
R17  19286727.643   103207119.741       -3777.588          52.000    19286729.484    80272194.078       -2938.177          48.000  
R03  19603977.566   104941652.713         510.279          52.000    19603978.777    81621309.376         396.956          49.000  
R13  20789491.788   111014869.670        2923.103          40.000    20789500.544    86344861.913        2273.438          40.000  
R19  21923644.398                        2565.044          28.000    21923693.029                3       1997.228          22.000  
E05  20706335.474   108812511.644       -1418.219          48.000    20706340.260    83375839.355       -1086.703          51.000  
E09  25123684.111   132025799.125       -2861.409          38.000    25123696.702   101162644.832       -2192.548          43.000  
E15  24568363.505   129107603.304        1378.719          42.000    24568372.784    98926665.861        1056.148          47.000  
E34  22158188.325   116442053.612       -1201.034          49.000    22158195.049    89221854.604        -920.235          53.000  
E36  24001356.699   126127912.966       -3552.274          47.000    24001366.791    96643481.538       -2721.721          49.000  
G16  23890160.747   125543648.959         647.061          38.000                                                                  
E18  27983852.194   147056059.582        -947.217          44.000                                                                  
E24  26353405.679   138488115.642        1326.196          42.000    26353422.292   106114355.114        1016.054          45.000  
> 2024 04 16 15 16 30.4950000  0 26                     
G03  20122496.088   105744395.916       -2219.548          48.000    20122500.798    82398233.958       -1729.603          45.000  
G04  19653611.461   103280404.896       -2615.719          47.000    19653614.642    80478233.955       -2038.307          49.000  
G06  20015956.212   105184582.118         964.338          48.000    20015960.483    81962041.540         751.349          46.000  
G07  20826817.152   109445739.879        2886.288          45.000    20826821.118    85282445.865        2248.853          41.000  
G09  19221836.854   101011436.431        -425.684          49.000    19221838.486    78710223.253        -331.842          46.000  
R02  19109839.235   101973739.437       -1851.917          52.000    19109841.985    79312918.154       -1440.394          48.000  
R18  19230729.319   102654954.164        -144.788          51.000    19230733.339    79842766.508        -112.567          48.000  
R12  19831111.281   105934281.725         569.059          49.000    19831117.451    82393374.492         442.363          48.000  
R11  21984204.934   117476888.607       -3152.895          34.000    21984211.802                       -2452.082          30.000  
R01  21847325.570   116786378.105       -3130.124          42.000    21847334.429    90833908.828       -2434.402          36.000  
G19  22782411.380   119722291.866       -2690.592          43.000                                                                  
S31  37317318.611   196103816.344        -778.699          44.000  
S33  38268793.849   201103838.368        -778.331          43.000  
E03  23637438.497   124215604.560         522.872          46.000    23637447.202    95178236.341         400.657          50.000  
R17  19307957.601   103320727.273       -3796.881          52.000    19307959.001    80360555.287       -2953.247          47.000  
R03  19601131.522   104926422.189         504.270          50.000    19601133.192    81609463.476         392.200          49.000  
R13  20773091.870   110927297.729        2914.432          39.000    20773100.283    86276750.693        2266.479          39.000  
R19  21909303.640                1       2547.571          31.000    21909359.905                3       1981.685          15.000  
E05  20714446.339   108855133.897       -1423.980          48.000    20714451.152    83408497.928       -1091.094          51.000  
E09  25140017.657   132111637.386       -2862.218          36.000    25140031.610   101228416.810       -2192.796          43.000  
E15  24560520.379   129066392.495        1368.018          40.000    24560530.302    98895088.811        1048.237          46.000  
E34  22165087.613   116478306.551       -1216.604          49.000    22165094.103    89249632.769        -932.209          53.000  
E36  24021656.341   126234591.232       -3560.268          46.000    24021667.473    96725221.816       -2728.173          50.000  
G16  23886491.769   125524370.632         637.910          35.000                                                                  
E18  27989244.167   147084394.402        -942.620          43.000                                                                  
E24  26345845.824   138448386.002        1321.808          43.000    26345861.589   106083913.071        1012.905          45.000  
> 2024 04 16 15 17 00.4950000  0 26                     
G03  20135196.430   105811138.203       -2230.381          48.000    20135201.214    82450240.800       -1737.894          44.000  
G04  19668562.530   103358978.063       -2622.692          46.000    19668566.306    80539459.744       -2043.797          48.000  
G06  20010504.539   105155933.872         945.026          47.000    20010508.793    81939718.280         736.387          46.000  
G07  20810368.450   109359299.011        2876.130          45.000    20810372.296    85215089.529        2241.246          42.000  
G09  19224295.458   101024359.136        -436.133          49.000    19224297.710    78720292.903        -339.771          46.000  
R02  19120263.849   102029369.713       -1857.051          52.000    19120267.290    79356186.037       -1444.416          49.000  
R18  19231621.832   102659722.933        -173.505          50.000    19231626.932    79846475.524        -134.955          47.000  
R12  19827983.687   105917572.890         544.500          49.000    19827988.705    82380378.766         423.512          47.000  
R11  22001965.958   117571793.488       -3174.409          32.000    22001968.880                       -2468.760          27.000  
R01  21864893.946   116880292.194       -3131.076          39.000    21864906.679    90906952.757       -2435.757          35.000  
G19  22797793.849   119803122.800       -2698.318          41.000                                                                  
S31  37321767.068   196127191.821        -779.818          44.000  
S33  38273239.514   201127202.033        -779.388          42.000  
E03  23634471.384   124200010.317         516.414          47.000    23634479.717    95166287.572         395.613          50.000  
R17  19329297.823   103434923.595       -3816.388          53.000    19329299.468    80449374.482       -2968.402          47.000  
R03  19598321.109   104911375.538         498.372          50.000    19598322.279    81597760.598         387.610          48.000  
R13  20756742.197   110839997.529        2905.383          39.000    20756751.561    86208850.778        2259.590          40.000  
R19  21895060.124                1       2531.100          29.000    21895066.054                3       1965.525          20.000  
E05  20722589.814   108897931.824       -1429.533          48.000    20722595.592    83441291.088       -1095.370          52.000  
E09  25156357.454   132197491.114       -2862.015          38.000    25156369.213   101294200.583       -2193.204          42.000  
E15  24552738.332   129025499.486        1357.833          40.000    24552748.423    98863755.281        1040.336          46.000  
E34  22172075.779   116515033.685       -1232.071          49.000    22172082.650    89277774.303        -944.166          53.000  
E36  24042003.266   126341517.341       -3568.332          46.000    24042015.246    96807151.970       -2734.267          50.000  
G16  23882875.433   125505374.683         628.607          39.000                                                                  
E18  27994610.463   147112597.203        -937.943          43.000                                                                  
E24  26338310.003   138408792.370        1317.596          41.000    26338327.521   106053575.256        1009.435          46.000  
> 2024 04 16 15 17 30.4950000  0 26                     
G03  20147962.155   105878217.776       -2241.953          47.000    20147966.578    82502510.438       -1747.040          46.000  
G04  19683557.006   103437776.180       -2630.732          45.000    19683560.989    80600860.719       -2049.785          48.000  
G06  20005165.564   105127878.301         924.983          48.000    20005170.308    81917856.805         720.960          47.000  
G07  20793979.823   109273177.152        2865.300          46.000    20793982.795    85147981.730        2232.734          41.000  
G09  19226817.036   101037607.336        -447.290          48.000    19226818.828    78730616.178        -348.468          46.000  
R02  19130720.522   102085166.551       -1862.856          51.000    19130724.529    79399583.519       -1448.811          50.000  
R18  19232679.866   102665367.089        -202.985          51.000    19232684.705    79850865.415        -157.867          49.000  
R12  19824995.583   105901616.315         519.144          46.000    19825002.054    82367968.183         403.800          48.000  
R11  22019846.901                       -3197.678          31.000    22019855.213    91519063.368       -2486.747          34.000  
R01  21882472.079   116974253.491       -3133.112          39.000    21882487.221    90980033.435       -2436.730          37.000  
G19  22813224.777   119884210.259       -2707.594          42.000                                                                  
S31  37326225.227   196150619.846        -781.925          44.000  
S33  38277695.329   201150616.891        -781.767          43.000  
E03  23631543.472   124184630.421         508.851          45.000    23631552.560    95154503.015         389.937          50.000  
R17  19350749.602   103549715.634       -3836.438          53.000    19350751.260    80538656.983       -2983.887          47.000  
R03  19595546.598   104896523.495         491.708          50.000    19595548.493    81586209.069         382.318          49.000  
R13  20740447.946   110752984.225        2895.289          41.000    20740456.989    86141174.091        2251.896          40.000  
R19  21880911.924                3       2511.918          25.000    21880949.084                2       1953.740          27.000  
E05  20730769.567   108940915.329       -1435.985          48.000    20730775.150    83474226.464       -1100.320          52.000  
E09  25172700.892   132283370.504       -2863.030          39.000    25172711.634   101360004.061       -2193.967          43.000  
E15  24545018.908   128984936.954        1346.400          40.000    24545029.418    98832674.931        1031.662          46.000  
E34  22179157.651   116552245.912       -1248.677          48.000    22179164.263    89306287.487        -956.737          53.000  
E36  24062399.294   126448700.516       -3577.178          45.000    24062411.788    96889279.057       -2740.973          50.000  
G16  23879318.308   125486674.424         618.062          40.000                                                                  
E18  27999954.784   147140678.169        -934.163          45.000                                                                  
E24  26330804.835   138369347.669        1312.150          43.000    26330820.711   106023351.559        1005.481          45.000  
> 2024 04 16 15 18 00.4950000  0 26                     
G03  20160788.381   105945624.099       -2252.466          47.000    20160793.705    82555034.709       -1755.099          45.000  
G04  19698593.690   103516786.763       -2637.244          46.000    19698595.781    80662427.294       -2054.813          47.000  
G06  19999938.018   105100406.498         906.053          48.000    19999942.653    81896450.266         705.994          46.000  
G07  20777650.448   109187366.748        2855.101          46.000    20777653.062    85081116.656        2224.860          42.000  
G09  19229397.494   101051169.165        -457.385          49.000    19229399.746    78741183.876        -356.317          46.000  
R02  19141205.927   102141117.974       -1867.669          52.000    19141210.223    79443101.209       -1452.630          50.000  
R18  19233899.507   102671876.205        -231.433          50.000    19233904.669    79855928.043        -179.895          49.000  
R12  19822148.036   105886403.545         494.598          47.000    19822153.623    82356136.086         384.596          47.000  
R11  22037852.406                3      -3216.876          25.000    22037859.573    91593889.862       -2502.180          32.000  
R01  21900055.195   117068251.380       -3133.726          40.000    21900070.157    91053142.597       -2437.629          36.000  
G19  22828701.709   119965540.629       -2715.176          42.000                                                                  
S31  37330691.091   196174088.486        -782.876          44.000  
S33  38282159.430   201174073.247        -782.634          43.000  
E03  23628655.635   124169453.500         502.332          45.000    23628664.080    95142874.000         384.926          49.000  
R17  19372309.683   103665087.817       -3855.359          53.000    19372310.158    80628390.707       -2998.688          47.000  
R03  19592806.475   104881854.432         485.893          50.000    19592808.413    81574799.841         377.951          49.000  
R13  20724206.224   110666251.294        2886.339          40.000    20724214.047    86073715.422        2244.946          40.000  
R19  21866878.896                3       2490.539          23.000    21866895.856                1       1940.126          29.000  
E05  20738981.531   108984072.665       -1441.481          48.000    20738987.665    83507295.024       -1104.509          52.000  
E09  25189046.049   132369264.339       -2863.141          39.000    25189055.806   101425818.652       -2194.091          40.000  
E15  24537362.006   128944695.587        1336.016          39.000    24537371.577    98801840.724        1023.633          46.000  
E34  22186328.565   116589932.173       -1264.211          49.000    22186335.643    89335163.942        -968.616          53.000  
E36  24082841.662   126556128.182       -3584.936          44.000    24082854.406    96971593.497       -2746.991          49.000  
G16  23875815.666   125468261.290         609.217          38.000                                                                  
E18  28005272.951   147168625.639        -929.310          44.000                                                                  
E24  26323326.180   138330043.100        1307.953          43.000    26323341.526   105993235.246        1001.970          46.000  
> 2024 04 16 15 18 30.4950000  0 26                     
G03  20173676.477   106013347.705       -2262.650          47.000    20173681.062    82607806.216       -1763.156          45.000  
G04  19713667.495   103595998.221       -2643.617          45.000    19713669.938    80724150.433       -2059.876          48.000  
G06  19994819.848   105073510.515         886.881          47.000    19994825.121    81875492.387         691.158          47.000  
G07  20761378.561   109101860.798        2845.194          47.000    20761381.917    85014488.809        2217.055          42.000  
G09  19232035.680   101065033.694        -467.139          48.000    19232038.454    78751987.406        -363.898          46.000  
R02  19151717.342   102197213.603       -1872.107          52.000    19151721.828    79486731.069       -1456.061          49.000  
R18  19235280.445   102679240.514        -259.686          51.000    19235284.706    79861655.849        -201.917          50.000  
R12  19819438.452   105871927.022         470.415          48.000    19819443.058    82344876.657         365.978          47.000  
R11  22055979.328                1      -3238.552          25.000    22055984.166                       -2518.690          26.000  
R01  21917644.933   117162276.348       -3134.771          40.000    21917658.287    91126272.759       -2438.446          33.000  
G19  22844222.040   120047101.251       -2722.527          41.000                                                                  
S31  37335163.203   196197587.582        -783.785          44.000  
S33  38286628.510   201197559.717        -783.628          42.000  
E03  23625804.401   124154469.060         496.449          45.000    23625812.432    95131392.493         380.389          49.000  
R17  19393976.111   103781025.802       -3873.859          53.000    19393977.250    80718564.511       -3012.872          48.000  
R03  19590098.108   104867357.390         480.551          50.000    19590100.404    81563524.431         373.747          48.000  
R13  20708015.330   110579793.283        2877.123          41.000    20708022.986    86006470.578        2238.022          39.000  
R19  21852925.845                        2478.159          26.000    21852938.199                3       1926.514          22.000  
E05  20747224.796   109027392.819       -1446.577          48.000    20747231.105    83540488.328       -1108.362          51.000  
E09  25205392.517   132455162.051       -2863.202          40.000    25205403.217   101491636.210       -2193.829          43.000  
E15  24529764.128   128904767.215        1325.761          39.000    24529773.586    98771246.307        1015.924          46.000  
E34  22193588.774   116628082.418       -1279.316          48.000    22193595.466    89364395.902        -980.177          53.000  
E36  24103329.809   126663788.599       -3592.269          45.000    24103341.716    97054086.277       -2752.554          49.000  
G16  23872364.709   125450127.749         599.769          39.000                                                                  
E18  28010563.733   147196428.911        -924.186          43.000                                                                  
E24  26315871.561   138290870.608        1303.739          43.000    26315887.523   105963220.124         998.826          46.000  
> 2024 04 16 15 19 00.4950000  0 26                     
G03  20186624.058   106081381.462       -2273.298          48.000    20186627.878    82660819.373       -1771.214          45.000  
G04  19728778.125   103675401.618       -2650.189          47.000    19728780.323    80786023.149       -2065.034          48.000  
G06  19989810.263   105047184.811         867.692          47.000    19989815.047    81854978.909         676.189          47.000  
G07  20745164.949   109016654.309        2834.901          48.000    20745167.346    84948094.331        2209.002          41.000  
G09  19234729.756   101079192.464        -477.155          48.000    19234733.206    78763020.243        -371.826          47.000  
R02  19162255.807   102253445.290       -1877.022          50.000    19162259.730    79530466.801       -1459.969          49.000  
R18  19236816.986   102687453.048        -288.147          49.000    19236821.861    79868043.381        -224.036          48.000  
R12  19816864.827   105858181.742         445.781          48.000    19816869.808    82334185.978         346.652          46.000  
R11  22074220.131                       -3258.452          30.000    22074227.196                1      -2534.410          26.000  
R01  21935239.409   117256320.512       -3135.568          43.000    21935250.157                       -2439.022          29.000  
G19  22859784.762   120128881.801       -2730.084          41.000                                                                  
S31  37339639.718   196221110.678        -784.731          44.000  
S33  38291102.318   201221069.998        -783.984          43.000  
E03  23622987.249   124139669.149         490.105          46.000    23622995.582    95120052.387         375.470          49.000  
R17  19415745.410   103897517.391       -3892.530          53.000    19415747.578    80809168.872       -3027.472          49.000  
R03  19587421.044   104853024.014         474.792          51.000    19587422.262    81552376.318         369.262          48.000  
R13  20691874.454   110493607.123        2868.156          39.000    20691882.745    85939437.181        2230.548          39.000  
R19  21839085.677                        2461.199          30.000    21839080.090                3       1914.820          25.000  
E05  20755497.739   109070867.366       -1451.904          47.000    20755504.180    83573799.938       -1112.520          51.000  
E09  25221737.343   132541055.613       -2863.160          39.000    25221748.829   101557450.550       -2193.957          44.000  
E15  24522224.101   128865145.971        1315.552          39.000    24522233.893    98740887.279        1007.913          46.000  
E34  22200935.571   116666689.026       -1294.788          48.000    22200941.629    89393977.540        -991.930          52.000  
E36  24123858.853   126771672.622       -3599.963          44.000    24123870.753    97136750.409       -2758.358          48.000  
G16  23868966.459   125432268.720         590.424          39.000                                                                  
E18  28015825.837   147224079.722        -919.389          43.000                                                                  
E24  26308441.136   138251824.811        1299.128          42.000    26308457.713   105933302.044         995.445          47.000  
> 2024 04 16 15 19 30.4950000  0 27                     
G03  20199629.253   106149730.020       -2283.229          47.000    20199634.058    82714077.878       -1779.094          45.000  
G04  19743925.065   103754999.641       -2656.229          47.000    19743927.605    80848047.474       -2069.810          49.000  
G06  19984910.088   105021435.594         848.955          47.000    19984915.154    81834914.649         661.477          46.000  
G07  20729009.052   108931754.363        2825.152          48.000    20729011.493    84881938.641        2201.347          40.000  
G09  19237481.007   101093648.859        -486.633          48.000    19237483.715    78774284.947        -379.169          47.000  
R02  19172820.194   102309816.760       -1881.097          51.000    19172823.388    79574311.211       -1463.012          49.000  
R18  19238514.959   102696518.692        -316.156          49.000    19238519.915    79875094.428        -245.868          48.000  
R12  19814430.595   105845174.505         421.641          49.000    19814435.186    82324069.301         327.858          47.000  
R11  22092570.574                       -3278.842          30.000    22092569.603                3      -2554.817          19.000  
R01  21952837.791   117350388.576       -3135.792          41.000    21952849.817                       -2438.273          32.000  
G11  23138437.694                3       2418.322          25.000                                                                  
G19  22875389.228   120210883.725       -2736.926          41.000                                                                  
S31  37344121.046   196244660.592        -785.188          44.000  
S33  38295581.557   201244607.765        -784.902          42.000  
E03  23620207.691   124125057.571         484.270          47.000    23620215.363    95108856.557         370.917          49.000  
R17  19437617.784   104014562.687       -3910.498          52.000    19437620.745    80900203.902       -3041.455          49.000  
R03  19584773.976   104838858.057         469.815          50.000    19584775.167    81541358.422         365.299          48.000  
R13  20675786.525   110407701.811        2859.206          38.000    20675794.876    85872622.238        2223.638          39.000  
R19  21825334.000   116750787.1091       2443.084          32.000    21825370.270                3       1900.721          26.000  
E05  20763800.787   109114499.569       -1456.733          47.000    20763807.202    83607232.348       -1116.162          51.000  
E09  25238083.774   132626948.882       -2862.851          40.000    25238093.169   101623264.607       -2193.590          42.000  
E15  24514743.736   128825837.889        1305.462          40.000    24514753.898    98710768.153        1000.204          46.000  
E34  22208369.115   116705756.089       -1309.719          48.000    22208375.958    89423912.014       -1003.495          52.000  
E36  24144431.717   126879782.789       -3607.121          44.000    24144443.794    97219587.815       -2763.932          48.000  
G16  23865620.586   125414690.506         581.795          38.000                                                                  
E18  28021059.188   147251581.550        -914.153          41.000                                                                  
E24  26301035.899   138212911.965        1294.984          42.000    26301051.827   105903485.810         992.298          46.000  
> 2024 04 16 15 20 00.4950000  0 26                     
G03  20212693.865   106218384.060       -2293.404          47.000    20212698.564    82767574.404       -1787.010          44.000  
G04  19759106.468   103834780.967       -2662.308          46.000    19759109.118    80910214.655       -2074.501          47.000  
G06  19980118.624   104996255.023         830.070          48.000    19980122.867    81815293.454         646.757          46.000  
G07  20712909.856   108847154.292        2814.969          47.000    20712912.799    84816016.672        2193.554          41.000  
G09  19240287.171   101108392.097        -495.947          49.000    19240288.862    78785773.171        -386.548          47.000  
R02  19183408.541   102366317.964       -1885.291          52.000    19183411.208    79618256.526       -1466.383          49.000  
R18  19240371.205   102706427.707        -344.165          50.000    19240376.321    79882801.466        -267.780          48.000  
R12  19812132.877   105832897.965         397.267          49.000    19812136.943    82314520.955         308.962          47.000  
R11  22111038.090                3      -3298.802          26.000    22111049.994                3      -2567.535          24.000  
R01  21970437.094   117444471.450       -3136.489          40.000    21970450.269                1      -2439.693          28.000  
G19  22891033.714   120293094.476       -2744.067          39.000                                                                  
S31  37348605.432   196268228.936        -785.845          43.000  
S33  38300063.878   201268163.567        -785.309          42.000  
E03  23617461.263   124110624.027         478.285          47.000    23617468.674    95097797.141         366.582          50.000  
R17  19459591.170   104132147.421       -3928.235          51.000    19459595.037    80991658.495       -3055.298          50.000  
R03  19582158.214   104824849.032         464.479          51.000    19582157.927    81530462.572         361.384          47.000  
R13  20659750.289   110322071.828        2850.113          39.000    20659759.403    85806021.452        2216.505          40.000  
R19  21811676.852                3       2426.612          22.000    21811677.337                1       1887.136          28.000  
E05  20772132.237   109158278.787       -1461.621          48.000    20772138.080    83640777.412       -1119.875          51.000  
E09  25254426.433   132712831.469       -2862.524          40.000    25254436.129   101689070.619       -2193.360          41.000  
E15  24507321.958   128786834.880        1295.169          41.000    24507331.970    98680882.783         992.373          46.000  
E34  22215889.406   116745273.719       -1324.527          48.000    22215895.912    89454191.702       -1015.025          52.000  
E36  24165046.248   126988107.631       -3614.044          45.000    24165057.927    97302589.673       -2769.408          49.000  
G16  23862327.487   125397385.846         572.204          37.000                                                                  
E18  28026261.887   147278923.893        -908.729          40.000                                                                  
E24  26293654.985   138174124.322        1290.968          42.000    26293670.903   105873765.533         989.191          46.000  
> 2024 04 16 15 20 30.4950000  0 28                     
G03  20225816.233   106287344.220       -2303.745          47.000    20225821.212    82821309.443       -1795.147          45.000  
G04  19774323.168   103914744.340       -2668.507          46.000    19774325.793    80972523.686       -2079.321          49.000  
G06  19975435.426   104971645.296         810.779          48.000    19975439.350    81796117.078         631.910          45.000  
G07  20696867.195   108762857.350        2804.664          46.000    20696871.659    84750330.902        2185.784          41.000  
G09  19243147.074   101123421.460        -505.774          50.000    19243148.731    78797484.394        -394.128          46.000  
R02  19194021.552   102422948.537       -1889.795          50.000    19194024.665    79662302.432       -1469.928          49.000  
R18  19242386.248   102717180.889        -372.516          50.000    19242390.967    79891165.001        -289.691          49.000  
R12  19809970.561   105821354.857         372.473          48.000    19809976.769    82305543.032         289.714          48.000  
R11  22129618.017                1      -3320.059          26.000    22129634.893                3      -2582.101          27.000  
R01  21988039.001   117538569.444       -3136.792          37.000    21988049.617                3      -2439.717          22.000  
G11  23110936.072                1       2396.396          28.000                                                                  
G19  22906716.752   120375511.297       -2750.818          38.000                                                                  
S31  37353094.120   196291815.778        -786.470          45.000  
S33  38304550.013   201291736.817        -785.954          42.000  
E03  23614748.445   124096368.284         472.193          46.000    23614755.998    95086873.982         361.797          50.000  
R17  19481664.505   104250267.294       -3946.228          50.000    19481668.775    81083529.302       -3069.232          48.000  
R03  19579570.748   104810996.775         459.251          50.000    19579570.011    81519688.637         357.170          47.000  
R13  20643767.027   110236722.135        2840.113          38.000    20643776.325    85739638.587        2209.008          41.000  
R19  21798115.693                3       2409.163          24.000    21798126.352                3       1876.285          22.000  
E05  20780490.800   109202204.331       -1466.489          48.000    20780496.539    83674434.625       -1123.702          51.000  
E09  25270765.886   132798703.130       -2862.259          40.000    25270779.060   101754868.189       -2193.090          44.000  
E15  24499958.246   128748138.875        1284.702          41.000    24499967.944    98651232.657         984.490          46.000  
E34  22223494.572   116785242.000       -1339.688          48.000    22223501.523    89484816.706       -1026.550          52.000  
E36  24185699.920   127096645.677       -3621.574          45.000    24185712.116    97385754.934       -2774.847          48.000  
G16  23859087.430   125380357.393         563.103          37.000                                                                  
E18  28031435.502   147306106.240        -903.678          40.000                                                                  
E24  26286297.393   138135464.209        1286.624          42.000    26286313.803   105844142.953         985.749          46.000  
E31                                                                  26651520.705                3       -129.048          25.000  
> 2024 04 16 15 21 00.4950000  0 28                     
G03  20238999.123   106356614.967       -2314.166          48.000    20239003.687    82875286.495       -1803.139          44.000  
G04  19789574.303   103994892.271       -2674.661          45.000    19789577.463    81034976.522       -2084.131          48.000  
G06  19970862.413   104947612.402         791.223          47.000    19970866.335    81777390.163         616.755          46.000  
G07  20680885.435   108678870.693        2794.598          47.000    20680889.201    84684886.885        2177.382          41.000  
G09  19246062.014   101138740.155        -515.387          49.000    19246063.636    78809421.038        -401.447          46.000  
R02  19204658.290   102479712.207       -1894.342          52.000    19204663.577    79706451.885       -1473.218          50.000  
R18  19244560.186   102728782.651        -400.958          50.000    19244564.457    79900188.582        -311.792          48.000  
R12  19807948.622   105810551.861         347.648          48.000    19807954.159    82297140.709         270.464          48.000  
R11  22148338.323                3      -3332.936          18.000    22148329.894                1      -2597.587          30.000  
R01  22005646.263   117632687.609       -3137.667          39.000    22005657.428                1      -2440.231          30.000  
G11  23097282.021   121377036.2093       2387.897          32.000    23097297.587                        1860.795          27.000  
G19  22922439.748   120458135.559       -2757.226          37.000                                                                  
S31  37357586.220   196315423.638        -787.356          43.000  
S33  38309040.103   201315332.537        -786.939          43.000  
E03  23612068.922   124082293.884         466.132          46.000    23612078.028    95076089.783         357.207          50.000  
R17  19503838.537   104368922.142       -3963.989          51.000    19503841.885    81175816.234       -3083.176          48.000  
R03  19577012.006   104797304.711         453.774          50.000    19577012.159    81509039.269         353.039          47.000  
R13  20627837.860   110151661.353        2830.288          39.000    20627846.612    85673480.505        2201.505          40.000  
R19  21784662.881                3       2392.641          20.000    21784659.073                1       1859.304          27.000  
E05  20788878.216   109246279.295       -1471.665          48.000    20788883.395    83708206.305       -1127.550          50.000  
E09  25287108.167   132884567.638       -2862.128          42.000    25287117.784   101820660.239       -2192.883          43.000  
E15  24492654.973   128709755.678        1274.321          42.000    24492663.987    98621822.189         976.395          46.000  
E34  22231187.269   116825664.835       -1354.982          48.000    22231194.091    89515790.001       -1038.265          52.000  
E36  24206396.290   127205399.310       -3628.719          46.000    24206407.871    97469085.358       -2780.373          49.000  
G16  23855899.511   125363611.664         553.013          36.000                                                                  
E18  28036578.039   147333131.908        -898.152          38.000                                                                  
E24  26278965.007   138096937.639        1281.922          41.000    26278982.536   105814622.718         982.360          47.000  
E31                                                                  26652525.037                        -139.592          27.000  
> 2024 04 16 15 21 30.4950000  0 29                     
G03  20252240.363   106426197.421       -2324.282          48.000    20252244.606    82929506.422       -1811.101          44.000  
G04  19804861.680   104075224.093       -2680.455          46.000    19804864.185    81097572.658       -2088.811          48.000  
G06  19966398.869   104924158.917         772.231          47.000    19966403.092    81759114.782         601.738          46.000  
G07  20664963.626   108595197.939        2784.082          47.000    20664966.586    84619687.492        2169.766          41.000  
G09  19249031.824   101154347.943        -524.976          50.000    19249033.840    78821582.959        -408.923          46.000  
R02  19215320.472   102536609.487       -1898.517          51.000    19215325.592    79750705.287       -1476.611          49.000  
R18  19246892.707   102741233.882        -428.943          50.000    19246896.545    79909872.861        -333.569          48.000  
R12  19806066.319   105800492.016         323.270          50.000    19806070.558    82289316.524         251.329          48.000  
R11  22167124.347                3      -3363.998          17.000    22167131.795                       -2613.312          27.000  
R01  22023258.217   117726826.562       -3137.916          40.000    22023269.518                1      -2440.699          28.000  
G11  23083675.946                1       2378.881          27.000    23083726.667                3       1855.743          23.000  
G19  22938200.310                       -2764.904          31.000                                                                  
S31  37362083.031   196339054.831        -787.933          43.000  
S33  38313534.978   201338951.678        -787.313          42.000  
E03  23609425.622   124068401.168         460.254          46.000    23609434.115    95065444.786         352.708          50.000  
R17  19526110.433   104488108.184       -3981.539          50.000    19526115.154    81268516.306       -3096.689          49.000  
R03  19574484.252   104783772.918         448.563          49.000    19574484.209    81498514.605         348.932          48.000  
R13  20611963.532   110066894.865        2820.689          40.000    20611972.979    85607551.289        2193.934          41.000  
R19  21771310.495                3       2374.474          23.000    21771350.079                3       1852.876          18.000  
E05  20797293.282   109290503.511       -1476.410          48.000    20797299.206    83742092.349       -1131.201          51.000  
E09  25303445.534   132970425.049       -2861.472          42.000    25303455.140   101886446.911       -2192.703          42.000  
E15  24485409.690   128671687.687        1264.179          42.000    24485419.943    98592653.281         968.586          46.000  
E34  22238966.414   116866542.788       -1369.879          48.000    22238972.964    89547111.995       -1049.663          53.000  
E36  24227133.656   127314367.530       -3635.651          47.000    24227143.918    97552580.225       -2785.638          48.000  
G16  23852767.619   125347151.304         544.236          35.000                                                                  
E18  28041691.127   147360000.850        -892.632          38.000                                                                  
E24  26271660.129   138058547.442        1277.799          42.000    26271677.026   105785206.964         978.973          47.000  
E31                                                                  26653599.650   107323001.5701       -148.805          29.000  
G30                                                                  23475111.783                3       2393.482          25.000  
> 2024 04 16 15 22 00.4950000  0 28                     
G03  20265540.028   106496088.156       -2334.856          47.000    20265544.158    82983966.616       -1819.509          44.000  
G04  19820182.914   104155734.503       -2686.633          46.000    19820184.868    81160307.969       -2093.483          48.000  
G06  19962045.634   104901283.004         752.747          47.000    19962049.663    81741289.435         586.772          46.000  
G07  20649100.292   108511838.237        2773.365          48.000    20649103.370    84554732.059        2161.040          41.000  
G09  19252056.060   101170240.129        -534.509          50.000    19252057.952    78833966.479        -416.486          46.000  
R02  19226008.685   102593635.858       -1903.162          52.000    19226011.689    79795059.128       -1480.231          49.000  
R18  19249383.460   102754531.255        -457.458          49.000    19249388.045    79920215.259        -355.786          48.000  
R12  19804322.559   105791173.862         298.191          51.000    19804326.091    82282069.116         231.965          48.000  
R11  22186046.289                1      -3380.255          28.000    22186052.497                3      -2627.368          20.000  
R01  22040871.961   117820983.145       -3138.920          35.000    22040881.241    91638673.7971      -2441.975          32.000  
G19  22954002.480   120623993.646       -2771.177          34.000                                                                  
S31  37366583.720   196362705.354        -788.802          44.000  
S33  38318032.784   201362588.914        -788.240          44.000  
E03  23606815.435   124054685.810         454.109          46.000    23606824.070    95054935.691         347.891          49.000  
R17  19548480.934   104607817.390       -3999.075          49.000    19548485.686    81361623.234       -3110.366          48.000  
R03  19571986.046   104770397.140         443.165          50.000    19571985.859    81488111.246         344.640          49.000  
R13  20596145.099   109982423.126        2810.583          39.000    20596154.454    85541851.339        2186.058          41.000  
R19  21758042.787                3       2353.033          22.000    21758069.443                1       1831.342          28.000  
E05  20805736.157   109334872.312       -1481.309          47.000    20805742.572    83776089.198       -1135.116          51.000  
E09  25319780.709   133056271.285       -2861.429          42.000    25319790.777   101952225.088       -2192.549          41.000  
E15  24478224.221   128633932.868        1253.115          41.000    24478235.761    98563724.310         960.158          47.000  
G30  23457540.072                3       3071.271          24.000    23457553.027                        2394.094          26.000  
E34  22246830.805   116907871.878       -1385.248          48.000    22246837.841    89578779.685       -1061.415          53.000  
E36  24247908.982   127423544.853       -3642.837          47.000    24247920.458    97636235.350       -2791.177          49.000  
G16  23849690.702   125330975.037         534.364          39.000                                                                  
E18  28046773.409   147386708.581        -887.618          36.000                                                                  
E24  26264380.984   138020291.908        1272.787          43.000    26264397.140   105755894.406         975.250          47.000  
E31                                                                  26654757.747                3       -157.894          25.000  
> 2024 04 16 15 22 30.4950000  0 29                     
G03  20278899.951   106566294.046       -2345.071          47.000    20278903.792    83038672.353       -1827.217          43.000  
G04  19835537.418   104236428.435       -2692.292          44.000    19835540.215    81223186.305       -2098.037          48.000  
G06  19957803.721   104878992.942         733.635          46.000    19957808.317    81723920.612         571.671          47.000  
G07  20633299.390   108428800.989        2762.875          47.000    20633301.777    84490027.866        2152.943          41.000  
G09  19255135.544   101186422.179        -543.903          50.000    19255137.534    78846575.862        -423.926          46.000  
R02  19236720.313   102650797.888       -1907.294          51.000    19236723.763    79839518.399       -1483.581          48.000  
R18  19252033.909   102768681.439        -485.547          49.000    19252039.823    79931220.908        -377.588          49.000  
R12  19802717.054   105782606.283         273.510          49.000    19802721.572    82275405.526         212.712          47.000  
R11  22205067.885                1      -3399.823          28.000    22205094.723                3      -2644.769          27.000  
R01  22058491.659   117915163.721       -3138.979          35.000    22058501.068                       -2441.449          32.000  
G19  22969840.783   120707224.466       -2777.113          35.000                                                                  
S31  37371088.707   196386380.177        -789.316          43.000  
S33  38322535.860   201386252.105        -788.757          42.000  
E03  23604241.086   124041153.801         448.359          47.000    23604249.309    95044567.076         343.605          50.000  
R17  19570949.824   104728051.718       -4016.145          50.000    19570952.761    81455138.612       -3123.768          47.000  
R03  19569517.760   104757183.426         438.255          51.000    19569516.777    81477833.963         340.722          47.000  
R13  20580383.371   109898257.542        2800.623          41.000    20580391.904    85476389.445        2178.547          40.000  
R19  21744890.328                3       2336.338          25.000    21744910.342                        1817.359          29.000  
E05  20814207.947   109379391.163       -1486.154          47.000    20814213.866    83810200.994       -1138.656          50.000  
E09  25336116.917   133142112.311       -2861.162          42.000    25336126.502   102017999.167       -2192.121          41.000  
E15  24471099.849   128596499.298        1242.744          41.000    24471112.186    98535041.496         952.373          46.000  
G30  23440029.221                        3070.352          27.000    23440035.737                        2392.416          29.000  
E34  22254782.708   116949658.322       -1400.154          48.000    22254789.461    89610797.829       -1072.855          52.000  
E36  24268725.488   127532936.048       -3649.593          47.000    24268737.254    97720054.295       -2796.382          49.000  
G16  23846668.540   125315091.296         524.954          38.000                                                                  
E18  28051827.719   147413260.794        -882.290          37.000                                                                  
E24  26257128.940   137982179.450        1268.242          44.000    26257144.853   105726691.435         971.816          47.000  
E31                                                                  26655964.982                        -167.964          26.000  
G11                                                                  23056632.435                3       1833.212          22.000  
> 2024 04 16 15 23 00.4950000  0 28                     
G03  20292316.505   106636800.413       -2355.227          47.000    20292321.728    83093612.246       -1835.315          44.000  
G04  19850925.136   104317289.364       -2698.113          46.000    19850927.336    81286194.767       -2102.415          48.000  
G06  19953670.285   104857275.513         714.280          46.000    19953676.029    81706997.980         556.655          47.000  
G07  20617555.931   108346074.036        2752.333          47.000    20617559.010    84425565.458        2144.465          41.000  
G09  19258267.236   101202878.124        -553.064          50.000    19258268.805    78859398.678        -430.920          46.000  
R02  19247455.165   102708079.779       -1911.346          52.000    19247458.952    79884070.940       -1486.633          49.000  
R18  19254841.515   102783669.176        -513.592          48.000    19254846.407    79942878.031        -399.377          48.000  
R12  19801250.749   105774776.266         248.699          49.000    19801256.223    82269315.563         193.365          47.000  
R11  22224215.811                       -3419.189          28.000    22224209.894                1      -2658.875          27.000  
R01  22076111.675   118009353.897       -3139.652          36.000    22076122.902    91785183.812       -2441.253          32.000  
G19  22985714.074   120790639.879       -2783.454          32.000                                                                  
S31  37375596.026   196410066.134        -789.861          44.000  
S33  38327040.740   201409925.835        -789.498          42.000  
E03  23601697.602   124027789.573         442.741          47.000    23601706.138    95034327.033         339.153          50.000  
R17  19593513.713   104848791.450       -4033.041          52.000    19593516.404    81549047.056       -3136.724          48.000  
R03  19567074.704   104744115.579         433.265          49.000    19567075.942    81467670.145         337.058          49.000  
R13  20564676.982   109814387.174        2790.513          39.000    20564685.656    85411157.206        2170.583          39.000  
R19  21731847.868                1       2318.938          28.000    21731861.447                        1803.119          31.000  
E05  20822705.596   109424044.133       -1490.442          47.000    20822711.216    83844415.582       -1142.174          50.000  
E09  25352446.903   133227932.604       -2860.386          41.000    25352457.532   102083757.349       -2191.753          41.000  
E15  24464035.270   128559373.645        1232.488          41.000    24464047.687    98506594.643         944.368          47.000  
G30  23422486.256   123085981.2251       3070.081          32.000    23422509.407    95911216.6811       2391.597          33.000  
E34  22262818.470   116991886.852       -1414.981          48.000    22262825.257    89643154.728       -1084.240          52.000  
E36  24289578.340   127642524.322       -3656.248          45.000    24289591.157    97804024.271       -2801.504          48.000  
G16  23843698.082   125299487.475         515.634          37.000                                                                  
E18  28056847.797   147439641.691        -876.651          36.000                                                                  
E24  26249900.440   137944197.044        1264.076          43.000    26249916.350   105697588.148         968.382          45.000  
E31                                                                  26657254.154                3       -175.342          17.000  
> 2024 04 16 15 23 30.4950000  0 27                     
G03  20305790.193   106707604.666       -2364.963          47.000    20305794.890    83148784.264       -1842.873          44.000  
G04  19866343.772   104398312.912       -2703.328          46.000    19866346.236    81349329.942       -2106.472          48.000  
G06  19949646.482   104836129.598         695.508          46.000    19949651.513    81690520.696         541.926          47.000  
G07  20601872.404   108263657.309        2742.255          46.000    20601875.538    84361344.810        2136.663          42.000  
G09  19261449.748   101219604.085        -561.829          51.000    19261451.798    78872431.897        -437.891          46.000  
R02  19258211.336   102765478.010       -1915.094          52.000    19258215.208    79928713.930       -1489.459          49.000  
R18  19257805.498   102799491.680        -541.113          49.000    19257809.989    79955184.401        -421.002          48.000  
R12  19799923.927   105767683.416         224.337          51.000    19799928.263    82263798.933         174.380          47.000  
R11  22243463.980                3      -3434.148          20.000    22243476.758                       -2673.431          25.000  
R01  22093732.907                       -3139.641          30.000    22093745.292    91858448.108       -2441.570          35.000  
G19  23001622.175                       -2789.449          28.000                                                                  
S31  37380104.587   196433759.797        -789.578          44.000  
S33  38331546.814   201433606.576        -789.226          42.000  
E03  23599185.259   124014589.768         437.389          46.000    23599194.045    95024212.935         335.120          50.000  
R17  19616171.128   104970029.238       -4049.380          52.000    19616173.293    81643342.894       -3149.611          48.000  
R03  19564659.784   104731190.606         428.680          48.000    19564662.237    81457617.439         333.401          50.000  
R13  20549026.193   109730814.229        2780.766          39.000    20549035.023    85346156.298        2162.679          40.000  
R19  21718892.225                        2300.828          31.000    21718905.203                1       1789.420          28.000  
E05  20831227.499   109468827.459       -1494.798          48.000    20831233.119    83878730.038       -1145.337          50.000  
E09  25368773.887   133313728.846       -2859.367          42.000    25368783.502   102149497.091       -2190.870          41.000  
E15  24457030.217   128522554.740        1222.155          42.000    24457041.285    98478382.780         936.736          46.000  
G30  23404971.078   122993924.178        3067.734          36.000    23404989.288    95839484.322        2390.223          34.000  
E34  22270937.219   117034554.327       -1429.429          47.000    22270944.436    89675847.945       -1095.252          52.000  
E36  24310469.535   127752305.031       -3662.409          45.000    24310482.034    97888141.696       -2806.337          48.000  
G16  23840781.005   125284163.185         506.370          36.000                                                                  
E18  28061834.338   147465847.680        -870.863          36.000                                                                  
E24  26242697.445   137906343.935        1259.669          44.000    26242712.340   105668583.939         965.309          44.000  
> 2024 04 16 15 24 00.4950000  0 28                     
G03  20319324.106   106778725.042       -2376.063          47.000    20319329.279    83204202.626       -1851.724          45.000  
G04  19881795.882   104479515.597       -2709.982          45.000    19881798.335    81412604.680       -2111.700          47.000  
G06  19945735.176   104815574.943         675.031          47.000    19945740.022    81674504.135         525.984          47.000  
G07  20586251.676   108181571.781        2730.229          46.000    20586255.747    84297382.250        2127.437          42.000  
G09  19264686.965   101236617.074        -572.162          50.000    19264689.593    78885688.802        -445.911          46.000  
R02  19268993.382   102823010.762       -1920.380          52.000    19268996.794    79973461.550       -1493.689          50.000  
R18  19260930.013   102816167.193        -570.337          50.000    19260934.273    79968154.240        -443.640          48.000  
R12  19798738.308   105761347.781         198.235          51.000    19798742.908    82258871.272         154.221          47.000  
R11  22262825.302                3      -3463.270          24.000                                                                  
R01  22111360.619   118197774.383       -3141.595          34.000    22111373.632    91931732.532       -2443.051          36.000  
G11  23016428.380                3       2332.292          25.000    23016425.486                        1817.404          27.000  
G19  23017566.604                       -2796.791          28.000                                                                  
S31  37384618.466   196457478.797        -791.298          45.000  
S33  38336058.042   201457312.189        -791.057          43.000  
E03  23596707.675   124001571.742         430.606          46.000    23596716.536    95014238.138         329.928          50.000  
R17  19638923.048   105091778.509       -4067.102          52.000    19638924.967    81738036.529       -3163.142          46.000  
R03  19562276.107   104718426.096         422.418          50.000    19562277.512    81447689.542         328.546          49.000  
R13  20533434.758   109647560.959        2769.312          38.000    20533443.516    85281404.008        2154.172          39.000  
R19  21706040.168                        2281.318          31.000    21706031.274                3       1775.033          21.000  
E05  20839778.024   109513758.087       -1500.391          48.000    20839783.217    83913157.372       -1149.699          50.000  
E09  25385099.496   133399518.464       -2859.723          41.000    25385108.959   102215231.835       -2191.265          40.000  
E15  24450086.843   128486062.078        1210.545          43.000    24450096.170    98450420.947         927.813          46.000  
G30  23387463.291   122901923.440        3065.650          38.000    23387480.871    95767795.793        2388.780          36.000  
E34  22279144.369   117077678.447       -1445.450          48.000    22279151.393    89708891.051       -1107.448          53.000  
E36  24331399.332   127862294.409       -3670.087          46.000    24331412.662    97972418.998       -2812.087          49.000  
G16  23837922.631   125269138.565         495.553          37.000                                                                  
E18  28066790.925   147491895.834        -866.111          34.000                                                                  
E24  26235522.151   137868639.955        1253.931          43.000    26235537.773   105639693.998         961.110          43.000  
> 2024 04 16 15 24 30.4950000  0 28                     
G03  20332921.513   106850181.981       -2387.358          46.000    20332927.892    83259883.177       -1860.225          45.000  
G04  19897286.346   104560915.874       -2716.514          46.000    19897288.006    81476033.421       -2116.706          47.000  
G06  19941940.453   104795633.301         654.600          47.000    19941945.398    81658965.234         510.137          47.000  
G07  20570699.257   108099840.232        2718.508          48.000    20570703.086    84233695.470        2118.594          43.000  
G09  19267982.556   101253936.166        -582.263          50.000    19267985.313    78899184.174        -453.589          46.000  
R02  19279804.597   102880697.943       -1925.342          52.000    19279807.525    80018329.284       -1497.528          49.000  
R18  19264218.456   102833716.013        -599.377          51.000    19264222.027    79981803.308        -466.168          49.000  
R12  19797697.974   105755792.119         172.242          51.000    19797702.734    82254550.210         134.026          47.000  
R01  22128996.135                       -3144.746          31.000    22129008.849    92005052.642       -2443.906          33.000  
G19  23033551.765                1      -2803.087          29.000                                                                  
S31  37389140.524   196481242.298        -792.691          44.000  
S33  38340578.159   201481064.162        -792.383          43.000  
E03  23594268.348   123988754.989         424.053          45.000    23594277.572    95004417.591         325.003          50.000  
R17  19661773.621   105214055.332       -4084.531          52.000    19661775.641    81833140.523       -3176.820          47.000  
R03  19559925.370   104705841.744         416.688          50.000    19559926.014    81437901.781         324.060          48.000  
R13  20517908.443   109564652.511        2757.887          39.000    20517916.790    85216919.961        2145.099          39.000  
R19  21693299.086   116044481.9141       2261.473          33.000    21693284.386                3       1759.553          24.000  
E05  20848359.427   109558855.097       -1505.899          48.000    20848364.699    83947712.189       -1153.834          50.000  
E09  25401424.551   133485321.053       -2860.104          39.000    25401437.486   102280976.494       -2191.513          41.000  
E15  24443208.879   128449917.393        1199.189          43.000    24443218.037    98422725.738         918.913          46.000  
G30  23369971.702   122810001.330        3062.927          39.000    23369988.099    95696168.671        2386.865          38.000  
E34  22287441.578   117121278.859       -1461.228          48.000    22287448.272    89742299.108       -1119.575          53.000  
E36  24352374.027   127972510.639       -3677.510          47.000    24352386.487    98056870.126       -2817.794          49.000  
G16  23835124.521   125254435.791         485.127          36.000                                                                  
E18  28071722.063   147517805.535        -861.151          32.000                                                                  
E24  26228379.559   137831107.210        1248.196          43.000    26228395.305   105610935.242         956.643          43.000  
G11                                                                  23003149.321                        1809.504          26.000  
R11                                                                  22282290.107                3      -2710.269          22.000  
> 2024 04 16 15 25 00.4950000  0 28                     
G03  20346584.009   106921978.304       -2398.845          46.000    20346590.482    83315828.269       -1869.229          45.000  
G04  19912813.950   104642514.871       -2723.076          46.000    19912816.389    81539616.999       -2121.890          48.000  
G06  19938263.684   104776309.024         633.920          47.000    19938268.088    81643907.373         494.011          47.000  
G07  20555214.648   108018468.389        2706.643          48.000    20555218.353    84170289.021        2109.032          42.000  
G09  19271336.539   101271562.942        -592.566          49.000    19271339.284    78912919.319        -461.737          46.000  
R02  19290643.466   102938541.981       -1930.627          52.000    19290647.552    80063319.025       -1501.623          49.000  
R18  19267669.711   102852140.771        -628.625          50.000    19267674.111    79996133.659        -488.818          49.000  
R12  19796804.578   105751021.158         146.115          51.000    19796810.127    82250839.561         113.527          47.000  
R01  22146638.906   118386362.410       -3144.464          34.000    22146651.589    92078411.466       -2446.298          32.000  
G11  22989921.210                1       2311.503          30.000    22989914.626                1       1801.431          29.000  
G19  23049578.451                       -2810.554          27.000                                                                  
S31  37393671.910   196505054.456        -794.489          44.000  
S33  38345106.763   201504863.331        -794.042          42.000  
E03  23591868.789   123976141.590         417.250          46.000    23591877.051    94994752.889         319.720          50.000  
R17  19684721.443   105336857.913       -4101.967          51.000    19684724.985    81928653.423       -3190.434          48.000  
R03  19557608.881   104693439.755         410.477          50.000    19557609.541    81428255.855         319.186          49.000  
R13  20502447.765   109482095.986        2746.021          39.000    20502456.288    85152709.575        2135.976          38.000  
R19  21680668.623                        2242.546          30.000    21680676.775    90204241.5051       1744.368          34.000  
E05  20856973.554   109604120.158       -1511.399          48.000    20856978.442    83982395.783       -1158.065          50.000  
E09  25417755.649   133571138.772       -2860.572          40.000    25417768.853   102346732.737       -2191.821          42.000  
E15  24436396.303   128414124.851        1187.372          43.000    24436406.714    98395300.347         909.776          45.000  
G30  23352495.432   122718162.758        3060.313          39.000    23352510.634    95624606.720        2384.804          37.000  
E34  22295828.905   117165357.848       -1477.078          47.000    22295835.831    89776073.859       -1131.787          52.000  
E36  24373390.781   128082954.567       -3685.058          47.000    24373403.480    98141495.732       -2823.542          49.000  
G16  23832385.983   125240059.398         473.635          34.000                                                                  
E18  28076626.656   147543578.447        -857.318          31.000                                                                  
E24  26221270.202   137793750.211        1242.548          43.000    26221286.924   105582311.146         952.027          45.000  
R11                                                                  22301893.025                3      -2722.278          23.000  
> 2024 04 16 15 25 30.4950000  0 27                     
G03  20360312.513   106994122.914       -2410.629          46.000    20360319.078    83372044.704       -1878.398          45.000  
G04  19928380.779   104724319.732       -2730.197          47.000    19928383.588    81603361.007       -2127.424          48.000  
G06  19934705.644   104757612.335         612.745          46.000    19934710.127    81629338.565         477.451          47.000  
G07  20539800.738   107937467.565        2693.806          48.000    20539803.937    84107171.652        2099.016          43.000  
G09  19274751.212   101289505.025        -603.217          49.000    19274753.947    78926900.161        -469.971          46.000  
R02  19301513.868   102996551.081       -1936.340          50.000    19301517.886    80108437.139       -1506.097          48.000  
R18  19271285.227   102871449.954        -658.325          49.000    19271291.289    80011151.881        -512.024          49.000  
R12  19796059.395   105747045.550         119.242          50.000    19796065.108    82247747.439          92.657          45.000  
R11  22321570.571                3      -3512.345          18.000                                                                  
R01  22164296.667   118480739.789       -3146.938          32.000    22164309.407                       -2447.989          30.000  
G11  22976753.500                1       2300.072          31.000    22976751.584                        1793.309          29.000  
S31  37398214.513   196528922.800        -796.405          45.000  
S33  38349646.358   201528719.112        -796.072          42.000  
E03  23589509.306   123963739.641         409.885          47.000    23589517.062    94985250.183         314.124          50.000  
R17  19707769.249   105460190.341       -4119.859          51.000    19707772.991    82024578.440       -3204.370          49.000  
R03  19555327.917   104681228.525         403.844          51.000    19555328.825    81418758.274         314.153          49.000  
R13  20487055.636   109399904.654        2733.928          39.000    20487063.794    85088783.186        2126.463          39.000  
R19  21668149.250                        2222.245          27.000    21668158.621                        1728.195          29.000  
E05  20865620.475   109649560.949       -1517.644          48.000    20865625.928    84017214.043       -1162.970          50.000  
E09  25434089.329   133656979.714       -2861.792          39.000    25434104.225   102412506.751       -2192.612          43.000  
E15  24429654.199   128378694.715        1174.783          43.000    24429664.612    98368152.640         900.407          45.000  
G30  23335036.130   122626418.575        3056.616          41.000    23335051.823    95553118.277        2381.922          37.000  
E34  22304309.698   117209923.706       -1493.629          48.000    22304316.138    89810221.682       -1144.491          52.000  
E36  24394452.933   128193633.048       -3693.250          46.000    24394465.212    98226301.047       -2829.739          49.000  
G16  23829715.576   125226020.679         462.104          36.000                                                                  
E18  28081501.591                        -852.365          28.000                                                                  
E24  26214197.870   137756579.636        1236.007          43.000    26214213.800   105553829.886         947.069          46.000  
> 2024 04 16 15 26 00.4950000  0 28                     
G03  20374108.231   107066615.288       -2421.983          47.000    20374113.762    83428532.144       -1887.214          45.000  
G04  19943986.073   104806328.212       -2736.644          46.000    19943988.986    81667263.651       -2132.538          47.000  
G06  19931267.448   104739544.167         591.915          46.000    19931272.238    81615259.501         461.187          47.000  
G07  20524457.951   107856839.965        2681.492          49.000    20524460.741    84044345.106        2089.766          43.000  
G09  19278224.466   101307760.631        -613.507          49.000    19278227.772    78941125.302        -478.082          46.000  
R02  19312415.877   103054724.147       -1941.577          52.000    19312420.178    80153682.773       -1510.223          48.000  
R18  19275069.684   102891642.639        -687.616          51.000    19275073.983    80026857.271        -534.747          49.000  
R12  19795465.023   105743866.711          92.844          52.000    19795468.963    82245275.035          72.263          46.000  
R11  22341411.173                3      -3534.090          15.000    22341390.855                3      -2750.157          20.000  
R01  22181963.914   118575175.312       -3148.232          35.000    22181975.778                       -2448.827          32.000  
G11  22963652.370                1       2289.552          28.000    22963649.903    94032304.2761       1784.346          29.000  
G19  23081756.784                3      -2824.796          27.000                                                                  
S31  37402766.510   196552845.550        -798.163          45.000  
S33  38354196.416   201552630.548        -797.782          43.000  
E03  23587188.252   123951547.771         403.093          45.000    23587197.039    94975908.437         308.901          50.000  
R17  19730916.228   105584047.303       -4136.992          52.000    19730918.653    82120911.408       -3217.798          48.000  
R03  19553081.473   104669206.428         397.775          50.000    19553082.415    81409407.793         309.359          49.000  
R13  20471732.666   109318082.277        2721.508          38.000    20471741.557    85025143.807        2116.649          39.000  
R19  21655739.078                3       2201.925          25.000    21655753.149    90100542.761        1712.813          30.000  
E05  20874300.480   109695175.731       -1523.240          48.000    20874306.100    84052165.605       -1167.084          50.000  
E09  25450430.109   133742842.741       -2862.199          39.000    25450443.721   102478297.707       -2193.150          43.000  
E15  24422981.650   128343627.795        1163.073          44.000    24422991.347    98341283.237         891.172          45.000  
G30  23317596.058   122534769.901        3053.501          42.000    23317611.310    95481704.082        2379.560          37.000  
E34  22312882.906   117254975.274       -1509.681          48.000    22312889.008    89844741.659       -1156.718          52.000  
E36  24415557.713   128304543.443       -3700.584          45.000    24415570.519    98311284.055       -2835.405          49.000  
G16  23827110.006   125212320.601         451.257          38.000                                                                  
E18  28086360.874                        -848.038          28.000                                                                  
E24  26207158.778   137719596.589        1229.903          42.000    26207175.745   105525492.331         942.334          46.000  
> 2024 04 16 15 26 30.4950000  0 26                     
G03  20387967.431   107139448.593       -2433.227          46.000    20387973.339    83485285.240       -1896.005          44.000  
G04  19959629.672   104888531.717       -2743.212          46.000    19959631.912    81731318.273       -2137.577          48.000  
G06  19927947.424   104722099.054         571.290          46.000    19927952.533    81601665.906         445.135          47.000  
G07  20509184.715   107776581.119        2669.227          48.000    20509187.548    83981805.937        2079.782          43.000  
G09  19281757.086   101326321.692        -623.737          50.000    19281759.772    78955588.478        -485.944          46.000  
R02  19323345.872   103113053.866       -1946.820          51.000    19323351.200    80199050.280       -1514.185          50.000  
R18  19279016.007   102912711.383        -716.736          51.000    19279020.587    80043244.060        -557.422          48.000  
R12  19795017.496   105741479.376          66.536          49.000    19795021.530    82243418.211          51.659          45.000  
R01  22199636.971   118669662.280       -3150.415          35.000    22199653.203    92298754.908       -2450.324          35.000  
S31  37407328.126   196576818.557        -799.554          44.000  
S33  38358755.967   201576590.152        -798.965          42.000  
E03  23584906.947   123939558.309         396.643          46.000    23584915.065    94966721.791         303.799          50.000  
R17  19754157.621   105708416.876       -4153.975          50.000    19754160.547    82217643.075       -3230.727          49.000  
R03  19550869.777   104657365.355         391.890          50.000    19550870.567    81400198.142         304.779          48.000  
R13  20456479.152   109236626.183        2709.313          39.000    20456487.426    84961789.284        2107.041          38.000  
R19  21643436.890                        2182.495          26.000    21643455.912                        1697.258          29.000  
E05  20883012.228   109740956.480       -1528.566          48.000    20883018.301    84087244.346       -1171.211          51.000  
E09  25466773.567   133828720.231       -2862.786          40.000    25466785.942   102544099.765       -2193.487          44.000  
E15  24416376.378   128308918.595        1151.227          44.000    24416386.443    98314687.949         882.007          45.000  
G30  23300173.255   122443212.286        3050.443          42.000    23300188.142    95410360.806        2376.795          38.000  
E34  22321547.842   117300505.079       -1525.356          49.000    22321553.150    89879628.083       -1168.772          52.000  
E36  24436706.606   128415676.942       -3707.992          46.000    24436718.872    98396438.009       -2841.115          48.000  
G16  23824566.055   125198954.400         440.264          36.000                                                                  
E24  26200156.878   137682796.022        1223.841          43.000    26200173.115   105497294.568         937.665          46.000  
G11                                                                  22950607.614                        1775.065          30.000  
R11                                                                  22361335.491                3      -2769.604          22.000  
> 2024 04 16 15 27 00.4950000  0 27                     
G03  20401888.854   107212602.237       -2443.171          47.000    20401893.801    83542287.960       -1904.017          43.000  
G04  19975305.331   104970907.841       -2748.282          45.000    19975307.607    81795507.367       -2141.499          47.000  
G06  19924742.854   104705257.660         551.746          46.000    19924747.336    81588542.776         430.032          47.000  
G07  20493978.573   107696673.180        2658.154          48.000    20493981.525    83919540.191        2071.344          43.000  
G09  19285344.237   101345166.295        -632.288          50.000    19285345.617    78970272.618        -492.792          46.000  
R02  19334302.647   103171518.562       -1950.549          51.000    19334308.571    80244522.751       -1517.175          51.000  
R18  19283122.359   102934634.754        -744.586          51.000    19283127.153    80060295.547        -579.187          48.000  
R12  19794714.445   105739864.478          41.371          50.000    19794718.800    82242162.172          32.180          44.000  
R11  22381339.055                3      -3580.918          21.000    22381373.026                3      -2788.394          14.000  
R01  22217318.140   118764179.659       -3150.818          36.000    22217335.336    92372268.144       -2450.531          34.000  
S31  37411894.505   196600817.929        -799.821          43.000  
S33  38363320.315   201600577.549        -799.609          43.000  
E03  23582661.039   123927749.834         391.119          47.000    23582667.607    94957673.799         299.661          50.000  
R17  19777490.583   105833273.346       -4169.548          50.000    19777492.379    82314753.433       -3242.996          48.000  
R03  19548687.571   104645684.337         387.082          51.000    19548688.870    81391112.967         301.119          49.000  
R13  20441290.451   109155519.553        2698.188          40.000    20441297.732    84898706.560        2098.535          39.000  
R19  21631255.047                1       2163.416          29.000    21631272.836                1       1683.226          30.000  
E05  20891752.393   109786881.369       -1532.723          49.000    20891757.509    84122433.516       -1174.452          51.000  
E09  25483113.619   133914590.921       -2861.806          38.000    25483127.353   102609896.604       -2192.759          44.000  
E15  24409835.913   128274547.849        1140.672          44.000    24409845.517    98288351.971         873.885          45.000  
G30  23282763.618   122351727.312        3048.404          42.000    23282779.147    95339074.153        2375.519          38.000  
E34  22330299.440   117346491.848       -1540.027          49.000    22330304.239    89914864.644       -1180.007          52.000  
E36  24457893.147   128527010.793       -3713.948          45.000    24457905.280    98481745.476       -2845.728          48.000  
G16  23822082.056   125185903.414         430.783          36.000                                                                  
E18  28095983.996                3       -837.636          26.000                                                                  
E24  26193185.155   137646159.084        1218.996          43.000    26193201.672   105469222.173         934.104          47.000  
G11                                                                  22937631.403    93925744.909        1768.284          33.000  
> 2024 04 16 15 27 30.4950000  0 27                     
G03  20415869.648   107286067.613       -2453.810          48.000    20415874.150    83599533.565       -1911.994          43.000  
G04  19991012.194   105053446.402       -2753.661          46.000    19991014.212    81859823.066       -2145.800          48.000  
G06  19921651.429   104689012.762         531.783          46.000    19921655.919    81575884.471         414.406          47.000  
G07  20478838.454   107617110.036        2646.567          47.000    20478840.809    83857543.144        2062.125          43.000  
G09  19288981.418   101364284.654        -641.711          50.000    19288984.272    78985170.023        -499.890          46.000  
R02  19345282.584   103230108.794       -1954.755          52.000    19345288.016    80290092.875       -1520.410          51.000  
R18  19287388.464   102957403.394        -772.754          51.000    19287392.290    80078004.485        -601.086          48.000  
R12  19794556.346   105739014.564          15.895          51.000    19794559.482    82241501.177          12.402          45.000  
R11  22401503.167                3      -3600.034          21.000    22401535.507                3      -2804.588          19.000  
R01  22235004.542   118858718.978       -3151.477          33.000    22235019.981    92445798.502       -2451.270          34.000  
S31  37416465.059   196624835.327        -800.695          43.000  
S33  38367889.194   201624583.184        -800.261          43.000  
E03  23580445.355   123916112.916         385.291          46.000    23580453.722    94948757.286         295.302          50.000  
R17  19800912.041   105958603.153       -4185.231          50.000    19800913.053    82412231.952       -3255.192          48.000  
R03  19546532.970   104634153.251         382.208          51.000    19546533.207    81382144.359         297.369          47.000  
R13  20426165.700   109074758.055        2686.257          40.000    20426173.680    84835892.235        2089.558          39.000  
R19  21619184.366                3       2144.456          25.000    21619199.209                1       1667.819          30.000  
E05  20900517.281   109832940.629       -1537.276          49.000    20900522.127    84157725.666       -1177.911          51.000  
E09  25499451.009   134000445.533       -2861.574          38.000    25499464.617   102675681.074       -2192.310          42.000  
E15  24403358.460   128240508.353        1129.361          44.000    24403368.325    98262269.805         865.311          45.000  
G30  23265367.476   122260308.457        3046.302          43.000    23265381.857    95267839.068        2373.655          37.000  
E34  22339135.533   117392926.333       -1554.945          49.000    22339140.576    89950444.256       -1191.540          52.000  
E36  24479115.929   128638534.362       -3720.329          45.000    24479127.885    98567198.330       -2850.579          48.000  
G16  23819657.442   125173161.020         419.755          37.000                                                                  
E18  28100755.448                        -831.990          28.000                                                                  
E24  26186243.498   137609678.810        1213.604          43.000    26186259.416   105441269.871         929.808          47.000  
G11                                                                  22924702.059                        1760.289          28.000  
> 2024 04 16 15 28 00.4950000  0 26                     
G03  20429904.945   107359830.441       -2463.341          47.000    20429910.242    83657010.987       -1919.358          43.000  
G04  20006746.537   105136131.296       -2758.293          47.000    20006749.027    81924252.772       -2149.147          49.000  
G06  19918670.481   104673351.441         512.654          46.000    19918675.051    81563680.891         399.672          46.000  
G07  20463760.048   107537879.970        2635.728          46.000    20463763.673    83795805.620        2053.731          43.000  
G09  19292668.987   101383661.151        -649.872          50.000    19292671.114    79000268.609        -506.390          45.000  
R02  19356283.972   103288809.568       -1958.179          52.000    19356288.032    80335748.999       -1523.010          50.000  
R18  19291809.798   102981002.191        -800.098          52.000    19291813.926    80096359.075        -622.351          49.000  
R12  19794536.456   105738916.935          -8.945          50.000    19794541.897    82241425.287          -6.934          45.000  
R01  22252694.002   118953266.110       -3151.782          38.000    22252705.702    92519334.808       -2450.879          32.000  
G11  22911834.025   120402527.2471       2250.046          31.000    22911831.903                        1753.231          29.000  
S31  37421037.266   196648857.923        -800.352          45.000  
S33  38372457.569   201648593.296        -800.273          42.000  
E03  23578260.379   123904632.471         380.582          46.000    23578269.174    94939960.676         291.590          51.000  
R17  19824417.825   106084386.734       -4199.937          51.000    19824418.575    82510063.378       -3266.668          48.000  
R03  19544402.867   104622756.961         377.990          50.000    19544404.879    81373280.626         293.983          48.000  
R13  20411104.676   108994331.526        2675.444          41.000    20411112.591    84773338.493        2080.821          39.000  
R19  21607198.919                3       2124.630          25.000    21607219.850                3       1657.079          23.000  
E05  20909303.708   109879118.768       -1540.925          48.000    20909309.831    84193108.899       -1180.662          51.000  
E09  25515785.552   134086269.000       -2859.878          41.000    25515796.607   102741441.696       -2191.247          42.000  
E15  24396941.549   128206787.099        1119.113          44.000    24396950.455    98236431.489         857.606          45.000  
G30  23247981.175   122168943.485        3044.866          42.000    23247995.966    95196646.000        2372.733          38.000  
E34  22348053.386   117439793.576       -1569.109          48.000    22348059.182    89986355.449       -1202.190          52.000  
E36  24500371.245   128750231.307       -3725.726          46.000    24500383.209    98652784.039       -2854.675          48.000  
G16  23817289.555   125160714.548         410.514          36.000                                                                  
E24  26179328.510   137573342.713        1209.117          43.000    26179344.352   105413427.992         926.659          47.000  
R11                                                                  22421780.910                3      -2816.250          19.000  
> 2024 04 16 15 28 30.4950000  0 26                     
G03  20443999.830   107433893.257       -2473.651          47.000    20444004.112    83714722.147       -1927.592          43.000  
G04  20022508.595   105218963.503       -2763.456          46.000    20022511.836    81988797.288       -2153.300          48.000  
G06  19915801.901   104658277.615         492.668          45.000    19915806.619    81551935.071         383.906          46.000  
G07  20448747.219   107458988.196        2624.190          46.000    20448751.123    83734331.671        2044.837          43.000  
G09  19296405.634   101403297.258        -658.832          51.000    19296406.886    79015569.484        -513.336          45.000  
R02  19367305.968   103347623.210       -1962.207          52.000    19367310.223    80381492.866       -1526.135          50.000  
R18  19296386.833   103005433.115        -828.155          52.000    19296390.778    80115360.870        -644.067          49.000  
R12  19794659.856   105739575.692         -34.647          49.000    19794666.147    82241937.668         -26.846          47.000  
R01  22270385.432   119047823.493       -3151.685          34.000    22270394.489                       -2451.374          31.000  
G11  22899012.071                3       2240.607          28.000    22898989.332                3       1745.628          20.000  
S31  37425609.354   196672885.834        -800.944          45.000  
S33  38377027.975   201672608.882        -800.599          42.000  
E03  23576105.984   123893310.298         374.880          46.000    23576114.694    94931285.325         287.289          51.000  
R17  19848007.701   106210621.978       -4215.217          50.000    19848009.426    82608246.063       -3278.579          48.000  
R03  19542300.380   104611497.367         373.184          51.000    19542300.508    81364523.230         290.138          47.000  
R13  20396107.208   108914247.004        2664.133          41.000    20396115.323    84711050.738        2071.845          39.000  
R19  21595342.624                3       2106.912          25.000    21595354.004                3       1638.858          24.000  
E05  20918113.855   109925417.254       -1545.236          48.000    20918120.044    84228584.349       -1183.929          51.000  
E09  25532110.268   134172063.296       -2858.973          40.000    25532122.807   102807180.074       -2190.824          42.000  
E15  24390586.754   128173388.011        1108.091          44.000    24390594.979    98210840.057         849.139          45.000  
G30  23230605.948   122077637.130        3042.669          41.000    23230620.314    95125498.693        2370.932          38.000  
E34  22357053.968   117487095.481       -1583.770          48.000    22357060.548    90022599.727       -1213.529          52.000  
E36  24521659.907   128862102.192       -3731.888          46.000    24521672.014    98738503.016       -2859.419          48.000  
G16  23814978.952   125148568.947         399.991          37.000                                                                  
E24  26172442.575   137537155.100        1203.931          43.000    26172458.226   105385699.907         922.478          47.000  
R11                                                                  22442096.664                3      -2827.768          21.000  
> 2024 04 16 15 29 00.4950000  0 26                     
G03  20458149.333   107508255.741       -2483.498          46.000    20458155.464    83772666.810       -1935.159          42.000  
G04  20038298.635   105301941.028       -2768.265          46.000    20038301.779    82053455.022       -2157.144          48.000  
G06  19913045.855   104643792.244         473.138          46.000    19913050.774    81540647.810         368.595          46.000  
G07  20433799.153   107380437.160        2612.709          46.000    20433803.410    83673123.233        2035.964          43.000  
G09  19300191.145   101423191.317        -667.371          51.000    19300193.257    79031071.370        -519.952          46.000  
R02  19378348.063   103406548.669       -1966.022          52.000    19378352.206    80427323.760       -1529.156          49.000  
R18  19301119.182   103030695.043        -855.890          52.000    19301123.582    80135009.022        -665.668          49.000  
R12  19794926.119   105740992.354         -59.728          51.000    19794931.488    82243039.546         -46.630          47.000  
R01  22288076.544                       -3152.509          29.000    22288090.181                1      -2452.167          28.000  
S31  37430182.205   196696919.195        -801.205          44.000  
S33  38381599.129   201696630.672        -800.627          43.000  
E03  23573979.980   123882145.220         369.738          45.000    23573989.786    94922730.368         283.211          51.000  
R17  19871680.914   106337303.612       -4229.950          50.000    19871683.143    82706775.968       -3289.954          48.000  
R03  19540222.739   104600373.321         368.641          51.000    19540223.367    81355871.253         286.716          48.000  
R13  20381173.537   108834508.186        2652.334          40.000    20381181.960    84649031.920        2062.478          37.000  
E05  20926946.915   109971834.591       -1549.236          49.000    20926952.675    84264150.861       -1187.026          51.000  
E09  25548431.342   134257827.489       -2858.324          39.000    25548443.385   102872895.252       -2190.040          43.000  
E15  24384292.966   128140312.132        1097.071          45.000    24384300.877    98185496.280         840.672          45.000  
G30  23213241.812   121986390.897        3040.560          41.000    23213256.705    95054398.139        2369.477          38.000  
E34  22366137.681   117534831.052       -1598.367          48.000    22366144.469    90059176.317       -1224.810          52.000  
E36  24542979.770   128974144.613       -3737.472          44.000    24542993.400    98824353.437       -2863.831          49.000  
G16  23812724.517   125136725.155         389.035          33.000                                                                  
E24  26165585.324   137501117.357        1198.964          44.000    26165600.266   105358086.681         918.505          47.000  
G11                                                                  22886255.936                3       1739.144          21.000  
R11                                                                  22462561.431                3      -2839.032          21.000  
R19                                                                  21583590.201                3       1623.018          25.000  
> 2024 04 16 15 29 30.4950000  0 25                     
G03  20472357.312   107582914.418       -2493.174          46.000    20472363.059    83830842.266       -1942.706          43.000  
G04  20054115.964   105385058.696       -2772.733          47.000    20054118.443    82118221.929       -2160.551          49.000  
G06  19910401.636   104629893.104         453.761          47.000    19910405.517    81529817.358         353.540          46.000  
G07  20418916.494   107302226.043        2601.493          47.000    20418920.219    83612179.641        2027.062          44.000  
G09  19304025.518   101443338.716        -675.635          50.000    19304026.529    79046770.664        -526.532          45.000  
R02  19389409.866   103465582.199       -1969.427          50.000    19389415.010    80473238.657       -1531.787          48.000  
R18  19306005.472   103056783.751        -883.258          50.000    19306010.783    80155300.227        -686.993          49.000  
R12  19795333.685   105743164.663         -84.799          52.000    19795337.919    82244729.173         -66.108          46.000  
R01  22305773.053                1      -3150.452          31.000    22305779.462                       -2452.026          28.000  
S31  37434756.624   196720955.217        -801.057          45.000  
S33  38386170.725   201720653.738        -800.728          43.000  
E03  23571885.159   123871133.022         364.752          45.000    23571893.889    94914292.528         279.510          51.000  
R17  19895436.279   106464423.183       -4244.452          49.000    19895438.477    82805646.521       -3301.165          48.000  
R03  19538169.257   104589380.993         364.423          51.000    19538169.952    81347321.700         283.444          48.000  
R13  20366306.282   108755115.630        2641.134          39.000    20366313.783    84587282.427        2053.708          38.000  
R19  21571948.505                3       2059.796          20.000    21571939.543                        1607.998          31.000  
E05  20935802.499   110018366.176       -1552.785          49.000    20935807.009    84299804.922       -1189.752          50.000  
E09  25564746.734   134343557.499       -2857.256          39.000    25564758.589   102938584.296       -2189.087          44.000  
E15  24378059.847   128107557.332        1086.677          45.000    24378068.031    98160398.534         832.642          45.000  
G30  23195888.295   121895203.492        3038.732          40.000    23195903.539    94983343.396        2367.824          37.000  
E34  22375303.146   117582996.094       -1612.495          48.000    22375310.367    90096081.961       -1235.534          52.000  
E36  24564333.419   129086353.107       -3742.852          45.000    24564345.839    98910331.066       -2867.811          49.000  
G16  23810526.403   125125181.899         380.231          32.000                                                                  
E24  26158755.000   137465227.781        1194.145          43.000    26158770.883   105330587.023         914.817          47.000  
G11                                                                  22873545.301                3       1729.474          25.000  
