     3.00           OBSERVATION DATA    M: Mixed            RINEX VERSION / TYPE
CONVBIN 2.4.3                           20240416 162942 UTC PGM / RUN BY / DATE 
format: u-blox UBX                                          COMMENT             
log: /home/regis/git/gnsspwv/obsdata/VERT00CHL/2024-04-16/VECOMMENT             
{self.marker}                                               MARKER NAME         
                                                            MARKER NUMBER       
GEODETIC                                                    MARKER TYPE         
{self.observer}     {self.institution}                      OBSERVER / AGENCY   
UNKNOWN             UBLOX-ZED-F9P                           REC # / TYPE / VERS 
UNKNOWN             TWIVSP6037L                             ANT # / TYPE        
  1713381.0000 -5047934.0000 -3490983.0000                  APPROX POSITION XYZ 
        0.0000        0.0000        0.0000                  ANTENNA: DELTA H/E/N
G    8 C1C L1C D1C S1C C2L L2L D2L S2L                      SYS / # / OBS TYPES 
R    8 C1C L1C D1C S1C C2C L2C D2C S2C                      SYS / # / OBS TYPES 
E    8 C1C L1C D1C S1C C7Q L7Q D7Q S7Q                      SYS / # / OBS TYPES 
S    4 C1C L1C D1C S1C                                      SYS / # / OBS TYPES 
  2024    04    16    16    15   00.4970000     GPS         TIME OF FIRST OBS   
  2024    04    16    16    29   30.4970000     GPS         TIME OF LAST OBS    
                                                            END OF HEADER       
> 2024 04 16 16 15 00.4970000  0 28                     
G03  21999091.393   115605893.1871      -3393.905          47.000    21999100.421    90082498.7861      -2644.555          43.000  
G04  21572845.776   113366002.6761      -3047.569          46.000    21572850.500    88337130.1021      -2374.590          44.000  
G06  20157191.306   105926782.9791      -1436.351          48.000    20157196.073    82540380.9171      -1119.348          47.000  
G07  19397692.376   101935697.9361       1202.740          48.000    19397692.014    79430480.1871        937.106          44.000  
G09  19829098.417   104202617.8901      -1325.330          48.000    19829099.785    81196858.7621      -1032.782          45.000  
R02  20478869.907   109279124.3511      -2320.492          47.000    20478877.358    84994875.5031      -1804.851          46.000  
R18  20359038.539   108677911.6561      -3139.150          51.000    20359044.786    84527280.6771      -2441.643          48.000  
R12  20440910.297   109191721.4241      -2450.492          51.000    20440915.398    84926940.9061      -1905.914          48.000  
R04  21986119.984                1       1501.506          26.000                                                                  
R14  22198142.452   118328488.6221       3553.087          41.000    22198159.009    92033417.3821       2763.484          42.000  
G11  22009048.197   115658328.0501        981.430          44.000    22009050.048    90123524.5251        765.196          40.000  
S31  37848976.508   198897695.6981       -811.566          44.000  
S33  38800196.055   203896373.5551       -811.163          42.000  
E03  23486159.736   123420659.9541        -26.761          45.000    23486166.350    94569130.8661        -20.644          51.000  
R17  22283816.779   119244978.3841      -4925.066          39.000    22283828.954    92746039.6411      -3830.610          42.000  
R03  19445466.319   104093157.4071        -20.201          51.000    19445467.053    80961375.0141        -15.677          50.000  
R13  19388253.330   103532435.0601        981.408          39.000    19388257.985    80525214.1971        763.032          43.000  
R19  21030599.665   112499647.1141        -69.749          39.000    21030603.805    87499699.2051        -54.370          44.000  
E05  21810480.863   114614825.7541      -1802.678          46.000    21810486.798    87821765.2401      -1381.289          52.000  
E09  27013257.324   141955603.0421      -2733.178          37.000    27013274.438   108771072.4161      -2094.271          36.000  
G16  23893146.060   125559320.4181       -786.626          40.000                                                                  
E15  24098955.448   126640886.6251        -86.296          45.000    24098963.687    97036592.7201        -66.157          49.000  
G30  21719278.611   114135706.8921       2519.490          46.000    21719286.820    88937016.3771       1963.134          41.000  
E34  23529808.291   123649930.9201      -2801.535          49.000    23529815.528    94744765.7381      -2146.585          51.000  
E36  26591488.916   139738990.6141      -3994.233          38.000    26591510.395   107072705.4411      -3060.558          44.000  
E24  25700159.435   135055361.5781        468.924          41.000    25700169.606   103484085.2501        359.168          47.000  
E25  26069206.818   136994701.0991       1817.744          42.000    26069225.422   104970055.9511       1392.687          47.000  
E31                                                                  27187880.828                3      -1209.475          22.000  
> 2024 04 16 16 15 30.4970000  0 28                     
G03  22018493.819   115707853.238       -3403.551          47.000    22018503.154    90161947.959       -2652.114          42.000  
G04  21590249.129   113457455.659       -3049.730          45.000    21590252.927    88408392.044       -2376.237          43.000  
G06  20165452.603   105970191.962       -1457.660          49.000    20165456.727    82574206.053       -1136.070          47.000  
G07  19390880.606   101899900.670        1183.555          48.000    19390880.045    79402586.298         922.029          45.000  
G09  19836683.065   104242473.513       -1331.830          49.000    19836683.564    81227915.092       -1037.775          44.000  
R02  20491929.208   109348815.342       -2325.739          44.000    20491937.461    85049079.515       -1808.792          46.000  
R18  20376738.422   108772393.970       -3159.778          50.000    20376744.952    84600766.791       -2457.772          48.000  
R12  20454741.726   109265611.442       -2475.725          50.000    20454747.563    84984410.916       -1925.543          47.000  
R04  21977641.613                3       1502.216          27.000                                                                  
R14  22178151.151   118221924.104        3550.705          41.000    22178167.321    91950534.503        2761.920          42.000  
G11  22003493.102   115629141.250         963.953          43.000    22003496.709    90100781.673         751.118          41.000  
S31  37853610.499   198922047.440        -811.953          44.000  
S33  38804827.786   203920714.751        -811.655          42.000  
E03  23486325.525   123421528.604         -31.147          45.000    23486331.184    94569796.492         -23.813          50.000  
R17  22311429.941   119392744.836       -4926.249          40.000    22311444.320    92860968.393       -3831.515          42.000  
R03  19445594.338   104093839.831         -25.373          52.000    19445594.047    80961905.811         -19.771          49.000  
R13  19382808.447   103503361.427         956.542          39.000    19382813.213    80502601.467         744.033          43.000  
R19  21031065.613   112502139.140         -96.667          40.000    21031068.566    87501637.413         -75.129          43.000  
E05  21820777.361   114668940.983       -1805.285          46.000    21820784.742    87863230.120       -1383.148          52.000  
E09  27028857.736   142037583.485       -2732.327          37.000    27028874.560   108833888.391       -2093.984          35.000  
G16  23897682.055   125583158.238        -802.424          38.000                                                                  
E15  24099490.975   126643699.757        -101.457          46.000    24099498.824    97038748.255         -77.682          49.000  
G30  21704921.323   114060262.859        2509.655          46.000    21704930.275    88878229.070        1955.719          41.000  
E34  23545834.111   123734149.493       -2813.190          48.000    23545841.802    94809296.773       -2155.590          51.000  
E36  26614291.501   139858823.826       -3995.051          36.000    26614314.093   107164525.054       -3060.769          42.000  
E24  25697514.098   135041462.989         457.587          41.000    25697525.007   103473435.875         350.511          47.000  
E25  26058831.504   136940180.812        1816.747          41.000    26058849.985   104928280.981        1392.075          47.000  
E31                                                                  27196934.506                3      -1220.903          24.000  
> 2024 04 16 16 16 00.4970000  0 28                     
G03  22037950.962   115810103.925       -3413.219          45.000    22037960.264    90241623.564       -2659.744          41.000  
G04  21607664.299   113548970.252       -3051.642          46.000    21607667.847    88479701.993       -2377.787          43.000  
G06  20173831.810   106014227.816       -1478.240          48.000    20173835.698    82608519.693       -1151.918          46.000  
G07  19384176.782   101864673.300        1164.641          49.000    19384176.950    79375136.489         907.493          45.000  
G09  19844302.691   104282517.312       -1338.037          49.000    19844303.496    81259118.051       -1042.712          44.000  
R02  20505016.757   109418650.959       -2330.450          45.000    20505023.158    85103395.997       -1812.639          45.000  
R18  20394552.484   108867488.712       -3180.224          50.000    20394559.415    84674729.195       -2473.387          49.000  
R12  20468714.862   109340251.021       -2500.557          49.000    20468720.474    85042463.873       -1944.957          47.000  
R04  21969213.479                1       1501.716          29.000    21969206.286                1       1167.901          29.000  
R14  22158169.897   118115414.729        3549.260          42.000    22158185.570    91867694.523        2760.189          41.000  
G11  21998038.255   115600473.624         946.645          44.000    21998041.507    90078443.296         737.823          41.000  
S31  37858247.125   198946411.371        -812.663          43.000  
S33  38809461.913   203945068.542        -812.362          41.000  
E03  23486511.990   123422510.710         -34.853          45.000    23486518.175    94570549.047         -26.593          50.000  
R17  22339049.199   119540535.994       -4926.762          44.000    22339064.141    92975916.346       -3831.991          42.000  
R03  19445749.354   104094668.615         -30.108          52.000    19445748.658    80962550.429         -23.283          49.000  
R13  19377500.012   103475016.995         932.264          37.000    19377505.286    80480555.884         725.285          43.000  
R19  21031680.898   112505425.636        -123.072          38.000    21031682.438    87504193.613         -95.646          42.000  
E05  21831087.979   114723122.134       -1807.377          45.000    21831095.378    87904745.529       -1384.732          52.000  
E09  27044451.524   142119532.290       -2731.006          35.000    27044469.322   108896680.098       -2092.492          35.000  
G16  23902304.421   125607450.877        -817.418          38.000                                                                  
E15  24100110.362   126646958.060        -115.957          46.000    24100119.238    97041244.887         -88.899          49.000  
G30  21690618.990   113985107.053        2500.176          45.000    21690627.408    88819666.354        1948.284          41.000  
E34  23561925.536   123818711.881       -2824.539          48.000    23561934.173    94874091.243       -2164.287          52.000  
E36  26637095.605   139978663.772       -3994.956          34.000    26637119.730   107256349.924       -3060.906          41.000  
E24  25694933.283   135027894.409         446.688          43.000    25694943.376   103463039.351         342.188          48.000  
E25  26048461.579   136885679.878        1816.155          43.000    26048478.824   104886520.895        1391.654          47.000  
E31                                                                  27206063.806                3      -1231.864          18.000  
> 2024 04 16 16 16 30.4970000  0 28                     
G03  22057466.503   115912655.000       -3423.447          46.000    22057475.557    90321533.257       -2667.663          43.000  
G04  21625092.506   113640556.317       -3054.000          45.000    21625096.519    88551067.616       -2379.912          44.000  
G06  20182331.921   106058900.029       -1499.932          47.000    20182336.127    82643329.192       -1168.792          46.000  
G07  19377584.350   101830027.725        1145.047          49.000    19377584.279    79348140.019         892.183          46.000  
G09  19851960.796   104322759.101       -1344.806          50.000    19851961.570    81290475.301       -1047.839          44.000  
R02  20518135.162   109488642.597       -2335.861          47.000    20518140.920    85157833.897       -1816.830          46.000  
R18  20412482.959   108963202.373       -3200.854          49.000    20412489.565    84749172.994       -2489.552          48.000  
R12  20482830.351   109415648.509       -2525.977          51.000    20482835.462    85101106.348       -1964.622          47.000  
R04  21960796.757                        1501.445          31.000    21960797.056    91465940.1441       1167.081          36.000  
R14  22138200.097   118008974.876        3546.481          42.000    22138217.070    91784908.550        2758.635          41.000  
G11  21992684.887   115572337.281         928.983          44.000    21992686.839    90056518.924         723.863          41.000  
S31  37862888.065   198970800.023        -813.468          44.000  
S33  38814100.831   203969445.883        -813.093          42.000  
E03  23486721.237   123423616.064         -38.884          45.000    23486728.390    94571396.074         -29.699          50.000  
R17  22366675.591   119688358.049       -4927.926          45.000    22366688.439    93090888.370       -3832.688          41.000  
R03  19445933.977   104095654.879         -35.666          52.000    19445933.407    80963317.533         -27.713          50.000  
R13  19372331.221   103447415.176         907.348          39.000    19372336.544    80459087.944         706.007          43.000  
R19  21032446.398   112509517.861        -149.993          39.000    21032448.544    87507376.483        -116.817          44.000  
E05  21841411.964   114777379.203       -1809.829          45.000    21841419.970    87946319.125       -1386.772          52.000  
E09  27060042.541   142201460.196       -2731.015          33.000    27060059.216   108959455.773       -2092.309          36.000  
G16  23907015.214   125632208.876        -833.448          39.000                                                                  
E15  24100817.506   126650672.664        -131.489          46.000    24100826.075    97044091.144        -100.754          49.000  
G30  21676374.936   113910252.136        2490.023          45.000    21676382.307    88761338.090        1940.276          42.000  
E34  23578085.179   123903626.886       -2836.356          49.000    23578093.030    94939155.914       -2173.465          52.000  
E36  26659905.105   140098519.248       -3995.212          33.000    26659927.956   107348186.589       -3061.170          39.000  
E24  25692415.459   135014667.689         434.980          42.000    25692426.267   103452904.784         333.403          48.000  
E25  26038096.533   136831210.807        1815.135          43.000    26038113.370   104844785.212        1390.589          47.000  
E31                                                                  27215267.058                3      -1231.570          18.000  
> 2024 04 16 16 17 00.4970000  0 27                     
G03  22077037.363   116015502.388       -3433.093          44.000    22077047.598    90401673.889       -2675.280          43.000  
G04  21642533.670   113732210.076       -3056.141          44.000    21642539.172    88622485.998       -2381.439          44.000  
G06  20190952.911   106104204.248       -1520.525          47.000    20190956.932    82678631.149       -1184.910          44.000  
G07  19371102.004   101795962.260        1125.797          49.000    19371101.966    79321595.618         876.933          45.000  
G09  19859655.001   104363194.974       -1350.989          50.000    19859655.939    81321983.746       -1052.985          44.000  
R02  20531279.400   109558787.348       -2340.544          44.000    20531285.655    85212390.835       -1820.397          46.000  
R18  20430529.413   109059527.616       -3220.959          52.000    20430534.541    84824092.457       -2505.210          48.000  
R12  20497084.403   109491798.484       -2550.709          49.000    20497089.987    85160334.114       -1984.014          44.000  
R04  21952385.830   117554079.6191       1500.661          36.000    21952388.472    91430923.711        1166.900          38.000  
R14  22118244.469   117902605.989        3544.458          43.000    22118263.639    91702177.810        2756.537          41.000  
G11  21987430.655   115544730.670         911.495          44.000    21987434.319    90035007.371         710.144          43.000  
S31  37867532.486   198995208.058        -813.670          44.000  
S33  38818743.733   203993845.448        -813.383          41.000  
E03  23486955.281   123424841.043         -42.672          46.000    23486961.793    94572334.757         -32.743          51.000  
R17  22394305.627   119836203.750       -4928.467          44.000    22394317.256    93205878.712       -3833.414          41.000  
R03  19446147.396   104096795.555         -40.534          52.000    19446146.846    80964204.723         -31.481          50.000  
R13  19367301.236   103420555.225         883.084          40.000    19367306.190    80438197.004         686.631          43.000  
R19  21033360.945   112514413.116        -176.486          38.000    21033364.537    87511183.928        -137.226          45.000  
E05  21851751.013   114831708.576       -1812.065          45.000    21851758.493    87987948.114       -1388.547          52.000  
E09  27075628.027   142283363.796       -2729.764          35.000    27075645.552   109022212.861       -2091.510          36.000  
G16  23911814.950   125657430.305        -847.917          38.000                                                                  
E15  24101611.400   126654840.945        -146.465          46.000    24101619.193    97047285.017        -112.249          49.000  
G30  21662187.806   113835696.961        2480.337          46.000    21662195.694    88703243.412        1932.665          43.000  
E34  23594310.072   123988889.658       -2847.786          48.000    23594317.717    95004487.037       -2182.092          51.000  
E36  26682715.442   140218385.043       -3995.923          30.000    26682738.145   107440031.218       -3061.607          36.000  
E24  25689961.448   135001781.142         423.922          42.000    25689973.597   103443030.822         324.788          47.000  
E25  26027735.494   136776772.314        1813.927          41.000    26027753.689   104803072.940        1389.887          47.000  
> 2024 04 16 16 17 30.4970000  0 27                     
G03  22096663.294   116118636.769       -3442.584          46.000    22096672.777    90482038.081       -2682.509          41.000  
G04  21659985.561   113823922.087       -3057.830          44.000    21659990.592    88693949.817       -2382.749          44.000  
G06  20199692.693   106150130.680       -1541.197          47.000    20199696.915    82714417.958       -1200.802          46.000  
G07  19364728.324   101762469.883        1107.038          49.000    19364727.886    79295497.756         862.567          45.000  
G09  19867385.022   104403815.548       -1357.080          50.000    19867385.548    81353636.133       -1057.208          44.000  
R02  20544452.149   109629076.944       -2345.385          43.000    20544458.659    85267060.452       -1824.237          47.000  
R18  20448686.037   109156451.399       -3240.641          51.000    20448691.796    84899477.448       -2520.488          48.000  
R12  20511479.887   109568689.997       -2575.253          49.000    20511483.245    85220138.587       -2003.038          43.000  
R04  21943974.888   117509058.200        1500.883          44.000    21943978.625    91395907.268        1167.077          40.000  
R14  22098302.588   117796302.637        3542.345          44.000    22098320.174    91619498.041        2755.010          40.000  
G11  21982276.176   115517646.790         894.048          43.000    21982279.760    90013903.113         696.626          42.000  
S31  37872179.169   199019628.320        -814.364          44.000  
S33  38823389.449   204018255.883        -813.744          43.000  
E03  23487208.515   123426176.279         -46.239          45.000    23487215.871    94573357.911         -35.397          51.000  
R17  22421936.638   119984059.543       -4928.590          45.000    22421948.145    93320876.920       -3833.101          39.000  
R03  19446386.767   104098082.380         -45.202          52.000    19446387.254    80965205.596         -35.186          50.000  
R13  19362409.793   103394431.620         858.636          41.000    19362413.455    80417878.700         667.780          43.000  
R19  21034423.823   112520102.509        -202.584          36.000    21034428.251    87515609.048        -157.837          46.000  
E05  21862101.563   114886101.055       -1813.979          45.000    21862108.907    88029625.440       -1389.952          52.000  
E09  27091206.325   142365234.643       -2728.722          33.000    27091224.780   109084944.852       -2090.847          36.000  
G16  23916700.893   125683106.626        -863.660          37.000                                                                  
E15  24102488.831   126659454.724        -161.150          46.000    24102497.136    97050820.263        -123.490          49.000  
G30  21648055.481   113761434.980        2470.477          45.000    21648063.864    88645377.193        1924.830          42.000  
E34  23610598.572   124074489.845       -2858.795          47.000    23610606.805    95070076.713       -2190.602          51.000  
E36  26705522.274                       -3995.435          28.000    26705547.305   107531875.595       -3060.965          33.000  
E24  25687574.709   134989227.489         412.812          43.000    25687584.763   103433411.961         316.370          47.000  
E25  26017380.768   136722357.736        1813.391          42.000    26017397.993   104761378.969        1389.550          45.000  
> 2024 04 16 16 18 00.4970000  0 27                     
G03  22116344.291   116222057.720       -3452.196          45.000    22116353.341    90562625.596       -2689.911          42.000  
G04  21677449.241   113915692.228       -3060.095          45.000    21677455.029    88765458.922       -2384.525          44.000  
G06  20208550.594   106196678.512       -1561.998          47.000    20208555.235    82750688.966       -1217.249          46.000  
G07  19358463.747   101729552.154        1087.501          48.000    19358463.667    79269847.648         847.251          45.000  
G09  19875149.599   104444620.583       -1363.422          50.000    19875151.154    81385432.269       -1062.360          44.000  
R02  20557652.847   109699512.592       -2350.275          44.000    20557659.235    85321843.659       -1828.088          47.000  
R18  20466955.047   109253970.006       -3260.594          52.000    20466960.367    84975325.097       -2535.997          48.000  
R12  20526012.541   109646320.957       -2600.151          48.000    20526015.780    85280518.100       -2022.330          43.000  
R04  21935565.380   117464037.203        1500.536          46.000    21935568.010    91360891.110        1167.005          42.000  
R14  22078372.334   117690069.154        3539.958          43.000    22078388.610    91536872.676        2753.225          40.000  
G11  21977222.040   115491087.492         876.429          43.000    21977225.123    89993207.577         682.882          42.000  
S31  37876828.747   199044060.924        -814.733          43.000  
S33  38828036.298   204042677.236        -814.264          42.000  
E03  23487483.318   123427621.603         -50.018          45.000    23487490.735    94574465.427         -38.406          50.000  
R17  22449568.454   120131921.846       -4928.859          46.000    22449580.030    93435880.180       -3833.628          41.000  
R03  19446654.353   104099516.154         -50.401          52.000    19446654.533    80966320.756         -39.263          49.000  
R13  19357656.509   103369047.045         833.653          41.000    19357659.583    80398135.250         648.420          43.000  
R19  21035635.121   112526587.580        -229.633          37.000    21035640.245    87520652.975        -178.613          45.000  
E05  21872464.797   114940556.659       -1816.408          46.000    21872471.555    88071351.149       -1391.731          52.000  
E09  27106779.205   142447073.183       -2727.644          32.000    27106798.863   109147652.091       -2089.563          36.000  
G16  23921673.684   125709238.962        -878.755          37.000                                                                  
E15  24103452.233   126664515.023        -176.219          46.000    24103460.350    97054697.653        -135.021          49.000  
G30  21633979.660   113687468.687        2460.292          46.000    21633987.931    88587741.359        1917.319          42.000  
E34  23626951.795   124160426.141       -2870.250          47.000    23626960.138    95135923.920       -2199.278          51.000  
E36  26728328.151                       -3994.977          26.000    26728357.042                       -3062.141          31.000  
E24  25685249.856   134977008.587         401.578          43.000    25685259.161   103424049.571         307.635          46.000  
E25  26007031.296   136667969.434        1812.203          43.000    26007048.456   104719705.133        1388.669          46.000  
> 2024 04 16 16 18 30.4970000  0 27                     
G03  22136077.118   116325756.788       -3461.903          44.000    22136087.891    90643429.818       -2697.444          43.000  
G04  21694922.368   114007512.202       -3061.873          45.000    21694927.377    88837006.825       -2385.815          43.000  
G06  20217524.975   106243838.867       -1582.548          48.000    20217528.852    82787437.230       -1233.159          45.000  
G07  19352308.571   101697202.873        1068.416          49.000    19352307.510    79244640.478         832.466          45.000  
G09  19882947.848   104485601.717       -1369.330          49.000    19882949.723    81417365.620       -1066.974          45.000  
R02  20570876.932   109770086.941       -2355.660          40.000    20570884.934    85376734.749       -1831.937          47.000  
R18  20485332.081   109352071.675       -3280.113          51.000    20485339.675    85051626.245       -2551.143          49.000  
R12  20540681.330   109724681.309       -2624.590          47.000    20540685.847    85341465.054       -2041.306          44.000  
R04  21927156.534   117419008.297        1500.993          42.000    21927159.627    91325868.854        1167.163          39.000  
R14  22058456.340   117583902.058        3537.261          43.000    22058470.380    91454298.824        2751.356          39.000  
G11  21972267.875   115465046.985         858.931          44.000    21972269.727    89972916.294         669.229          42.000  
S31  37881478.605   199068497.383        -815.131          44.000  
S33  38832684.618   204067103.981        -814.963          42.000  
E03  23487778.992   123429168.777         -53.581          47.000    23487784.933    94575650.976         -41.054          50.000  
R17  22477199.307   120279778.379       -4928.745          46.000    22477211.402    93550878.959       -3833.363          43.000  
R03  19446948.336   104101089.817         -55.154          52.000    19446948.324    80967544.758         -43.029          50.000  
R13  19353039.517   103344396.618         809.126          40.000    19353043.807    80378962.808         629.168          44.000  
R19  21036995.392   112533860.308        -256.073          38.000    21036999.142    87526309.502        -199.034          45.000  
E05  21882837.735   114995067.240       -1818.292          45.000    21882844.682    88113118.978       -1393.300          52.000  
E09  27122349.906   142528871.934       -2726.628          32.000    27122365.037   109210328.831       -2089.013          36.000  
G16  23926731.642   125735820.706        -893.638          34.000                                                                  
E15  24104498.215   126670014.731        -191.011          46.000    24104506.673    97058911.723        -146.380          50.000  
G30  21619959.797   113613792.419        2450.576          46.000    21619966.974    88530331.579        1909.759          43.000  
E34  23643366.765   124246689.166       -2881.274          47.000    23643375.543    95202021.475       -2207.722          51.000  
E36  26751144.111                3      -3995.184          26.000    26751164.532                       -3061.195          29.000  
E24  25682983.657   134965118.043         390.551          41.000    25682996.597   103414938.836         299.208          46.000  
E25  25996685.324   136613601.680        1811.338          43.000    25996702.151   104678047.040        1387.993          46.000  
> 2024 04 16 16 19 00.4970000  0 27                     
G03  22155864.970   116429738.346       -3470.937          45.000    22155875.298    90724454.111       -2704.501          43.000  
G04  21712404.915   114099386.563       -3063.494          45.000    21712410.244    88908597.130       -2387.109          43.000  
G06  20226616.658   106291615.653       -1603.036          48.000    20226620.654    82824665.845       -1249.192          46.000  
G07  19346261.575   101665428.630        1049.270          48.000    19346260.603    79219881.414         817.861          44.000  
G09  19890780.685   104526763.453       -1375.226          49.000    19890783.256    81449439.680       -1071.698          46.000  
R02  20584128.803   109840805.923       -2359.830          41.000    20584137.530    85431738.310       -1835.427          48.000  
R18  20503818.918   109450757.234       -3299.367          51.000    20503826.931    85128381.492       -2566.202          49.000  
R12  20555487.130   109803774.082       -2648.932          47.000    20555490.996    85402981.533       -2060.338          44.000  
R04  21918747.489   117373976.510        1500.926          45.000    21918750.620    91290844.364        1167.337          40.000  
R14  22038552.389   117477810.369        3534.946          44.000    22038567.449    91371783.598        2749.442          40.000  
G11  21967412.582   115439531.844         841.469          45.000    21967415.326    89953034.419         655.698          43.000  
S31  37886130.889   199092943.280        -815.136          44.000  
S33  38837334.775   204091540.188        -814.804          43.000  
E03  23488093.949   123430822.380         -57.012          48.000    23488099.259    94576918.057         -43.694          50.000  
R17  22504829.273   120427630.356       -4928.443          48.000    22504842.631    93665874.201       -3833.136          44.000  
R03  19447269.181   104102808.969         -59.889          51.000    19447269.359    80968881.912         -46.563          49.000  
R13  19348562.884   103320487.979         784.423          42.000    19348566.501    80360367.283         610.205          43.000  
R19  21038503.482   112541926.017        -282.184          38.000    21038506.948    87532582.831        -219.512          45.000  
E05  21893221.668   115049637.478       -1820.249          46.000    21893228.842    88154932.507       -1394.679          52.000  
E09  27137908.914                       -2724.733          30.000    27137924.127   109272978.948       -2087.938          36.000  
G16  23931879.615   125762857.271        -908.943          36.000                                                                  
E15  24105629.276   126675959.457        -205.833          46.000    24105638.044    97063466.777        -157.699          50.000  
G30  21605996.040   113540413.370        2440.709          46.000    21606003.428    88473153.353        1901.824          43.000  
E34  23659845.890   124333282.329       -2892.001          48.000    23659853.811    95268371.994       -2216.024          51.000  
E24  25680783.706   134953562.513         379.436          40.000    25680797.880   103406084.778         290.603          46.000  
E25  25986344.515   136559261.606        1810.897          43.000    25986361.229   104636410.169        1387.406          46.000  
E36                                                                  26773972.632                       -3060.974          28.000  
> 2024 04 16 16 19 30.4970000  0 28                     
G03  22175706.242   116534002.401       -3480.271          45.000    22175716.330    90805698.590       -2711.937          44.000  
G04  21729898.915   114191315.549       -3065.248          45.000    21729904.166    88980229.986       -2388.348          41.000  
G06  20235825.731   106340008.490       -1623.311          48.000    20235829.269    82862374.529       -1265.049          45.000  
G07  19340324.376   101634231.786        1030.311          48.000    19340324.516    79195572.314         802.794          45.000  
G09  19898648.178   104568105.943       -1381.128          49.000    19898650.231    81481654.579       -1076.111          45.000  
R02  20597410.535   109911670.756       -2364.453          43.000    20597416.805    85486855.323       -1839.211          47.000  
R18  20522414.240   109550023.396       -3318.608          50.000    20522423.500    85205588.301       -2581.105          49.000  
R12  20570431.266   109883597.469       -2672.858          48.000    20570436.169    85465066.361       -2078.972          46.000  
R04  21910337.801   117328942.891        1501.205          43.000    21910340.893    91255818.479        1167.645          42.000  
R14  22018664.580   117371799.085        3532.436          44.000    22018679.811    91289330.937        2747.198          40.000  
G11  21962657.826   115414544.508         824.088          46.000    21962660.576    89933563.789         642.067          44.000  
S31  37890784.706   199117399.772        -815.405          44.000  
S33  38841985.930   204115985.745        -814.884          42.000  
G20  23369328.770                3       2515.535          27.000                                                                  
E03  23488428.503   123432582.667         -60.418          48.000    23488434.062    94578266.902         -46.402          49.000  
R17  22532457.484   120575474.045       -4928.052          48.000    22532471.000    93780862.958       -3832.671          43.000  
R03  19447618.182   104104675.302         -64.692          52.000    19447617.528    80970333.495         -50.312          50.000  
R13  19344224.916   103297324.594         759.754          41.000    19344228.469    80342351.402         590.944          43.000  
R19  21040160.303   112550785.930        -308.814          38.000    21040162.946    87539473.882        -239.961          45.000  
E05  21903618.100   115104267.810       -1821.956          47.000    21903625.085    88196792.082       -1396.053          52.000  
G16  23937110.680   125790349.924        -923.797          35.000                                                                  
E15  24106845.785   126682350.567        -220.536          46.000    24106854.758    97068363.871        -168.995          50.000  
G30  21592089.806   113467334.490        2431.111          46.000    21592097.033    88416209.014        1894.325          43.000  
E34  23676386.569   124420204.794       -2902.914          47.000    23676394.995    95334974.820       -2224.336          52.000  
E24  25678651.476   134942344.245         368.235          42.000    25678662.085   103397489.095         282.141          45.000  
E25  25976009.775   136504952.110        1809.783          43.000    25976025.705   104594796.715        1386.680          46.000  
E09                                                                  27153477.683   109335603.262       -2087.136          36.000  
E36                                                                  26796775.807                3      -3061.657          24.000  
> 2024 04 16 16 20 00.4970000  0 28                     
G03  22195601.281   116638549.865       -3489.518          46.000    22195611.405    90887163.900       -2719.251          43.000  
G04  21747403.471   114283300.434       -3067.024          44.000    21747406.729    89051906.312       -2389.884          39.000  
G06  20245151.743   106389017.815       -1643.851          47.000    20245155.639    82900563.608       -1281.069          44.000  
G07  19334498.275   101603615.249        1010.870          47.000    19334498.891    79171715.363         787.589          46.000  
G09  19906550.074   104609630.284       -1387.109          49.000    19906551.504    81514011.223       -1080.902          44.000  
R02  20610717.823   109982683.930       -2369.535          46.000    20610725.207    85542087.685       -1842.958          48.000  
R18  20541119.802   109649867.732       -3337.751          50.000    20541127.095    85283244.848       -2595.984          47.000  
R12  20585511.581   109964150.990       -2697.281          49.000    20585515.442    85527719.055       -2097.721          45.000  
R04  21901925.946   117283908.547        1501.254          40.000    21901931.578    91220791.960        1167.529          42.000  
R14  21998791.497   117265873.953        3529.121          38.000    21998807.275    91206945.323        2745.286          41.000  
G11  21958003.450   115390088.233         806.410          46.000    21958006.038    89914507.004         628.358          42.000  
S31  37895440.356   199141867.292        -815.838          44.000  
S33  38846640.628   204140444.114        -815.434          42.000  
G20  23354961.427                2       2514.172          30.000                                                                  
E03  23488783.186   123434450.797         -64.116          47.000    23488789.813    94579698.345         -49.070          50.000  
R17  22560083.332   120723307.508       -4927.532          45.000    22560098.494    93895843.736       -3832.433          46.000  
R03  19447995.119   104106690.914         -69.615          52.000    19447994.008    80971901.218         -54.206          49.000  
R13  19340027.053   103274910.842         734.828          41.000    19340031.545    80324918.567         571.387          43.000  
R19  21041965.582   112560442.194        -335.136          39.000    21041967.798    87546984.270        -260.481          44.000  
E05  21914025.105   115158959.582       -1824.147          46.000    21914032.230    88238698.758       -1397.715          52.000  
E09  27169002.388                1      -2722.871          29.000    27169024.719   109398203.174       -2086.190          37.000  
G16  23942425.871   125818300.982        -939.513          34.000                                                                  
E15  24108146.914   126689190.352        -235.493          46.000    24108156.184    97073604.736        -180.405          50.000  
G30  21578241.202   113394559.585        2420.813          46.000    21578248.149    88359501.566        1886.155          42.000  
E34  23692989.358   124507456.563       -2913.849          47.000    23692998.315    95401829.999       -2232.698          52.000  
E24  25676581.764   134931466.326         356.852          42.000    25676591.561   103389154.198         273.457          45.000  
E25  25965680.766   136450676.860        1808.399          43.000    25965697.114   104553209.505        1385.750          46.000  
E36                                                                  26819579.641                3      -3062.266          16.000  
> 2024 04 16 16 20 30.4970000  0 27                     
G03  22215547.475   116743370.232       -3498.420          45.000    22215557.003    90968841.842       -2726.014          42.000  
G04  21764916.447   114375330.758       -3068.127          43.000    21764919.334    89123618.198       -2390.877          41.000  
G06  20254593.306   106438632.599       -1663.782          48.000    20254596.591    82939224.414       -1296.474          45.000  
G07  19328780.455   101573570.384         991.986          48.000    19328781.503    79148303.893         773.051          46.000  
G09  19914484.010   104651326.072       -1392.554          49.000    19914485.999    81546501.424       -1085.083          45.000  
R02  20624052.533   110053835.966       -2373.955          45.000    20624058.091    85597428.101       -1846.328          47.000  
R18  20559929.887   109750276.047       -3356.100          51.000    20559936.765    85361340.034       -2610.352          47.000  
R12  20600724.895   110045422.435       -2720.880          50.000    20600730.433    85590930.043       -2116.176          48.000  
R04  21893514.742   117238863.577        1501.665          42.000    21893520.001    91185757.219        1168.364          43.000  
R14  21978934.323   117160029.396        3526.927          43.000    21978951.390    91124622.403        2742.847          41.000  
G11  21953448.614   115366154.829         789.216          45.000    21953451.438    89895857.612         615.094          43.000  
S31  37900097.129   199166337.352        -815.498          44.000  
S33  38851295.216   204164904.638        -815.110          42.000  
G20  23340618.940                        2512.607          28.000                                                                  
E03  23489156.973   123436416.456         -66.871          47.000    23489163.708    94581204.538         -51.276          50.000  
R17  22587704.696   120871116.140       -4926.239          46.000    22587720.479    94010805.146       -3831.612          44.000  
R03  19448397.917   104108846.338         -73.950          52.000    19448396.608    80973577.665         -57.469          50.000  
R13  19335968.513   103253239.349         709.953          40.000    19335972.797    80308063.047         552.322          43.000  
R19  21043915.783   112570884.391        -360.964          37.000    21043920.470    87555106.017        -280.718          45.000  
E05  21924442.977   115213702.595       -1825.520          48.000    21924449.506    88280644.650       -1398.617          52.000  
E09  27184538.647                1      -2720.587          27.000    27184563.933   109460771.166       -2085.073          37.000  
G16  23947833.122   125846701.369        -953.998          37.000                                                                  
E15  24109531.802   126696469.526        -249.834          45.000    24109541.281    97079182.272        -191.339          50.000  
G30  21564448.704   113322080.944        2411.191          48.000    21564455.155    88303024.935        1878.845          43.000  
E34  23709653.803   124595026.203       -2924.131          47.000    23709662.653    95468928.693       -2240.542          52.000  
E24  25674575.691   134920920.403         345.999          42.000    25674584.509   103381073.636         265.318          43.000  
E25  25955357.442   136396428.125        1807.986          44.000    25955374.311   104511642.588        1385.503          47.000  
> 2024 04 16 16 21 00.4970000  0 27                     
G03  22235543.566   116848451.023       -3507.559          44.000    22235552.452    91050722.751       -2733.250          41.000  
G04  21782436.360   114467394.409       -3069.746          44.000    21782438.683    89195355.999       -2392.258          39.000  
G06  20264147.747   106488839.877       -1683.939          48.000    20264151.669    82978346.916       -1312.192          46.000  
G07  19323170.501   101544087.055         972.936          48.000    19323171.341    79125329.936         758.079          46.000  
G09  19922449.603   104693181.089       -1398.419          49.000    19922451.004    81579115.687       -1089.514          45.000  
R02  20637411.365   110125115.661       -2378.746          47.000    20637417.620    85652867.859       -1850.156          49.000  
R18  20578842.013   109851232.433       -3374.829          49.000    20578849.186    85439861.482       -2624.908          47.000  
R12  20616070.130   110127397.206       -2744.762          49.000    20616075.842    85654688.161       -2134.637          48.000  
R04  21885099.349   117193795.852        1502.104          46.000    21885103.153    91150704.792        1168.018          41.000  
R14  21959093.217   117054256.887        3523.968          46.000    21959108.727    91042355.392        2741.021          40.000  
G11  21948991.731   115342734.156         771.710          45.000    21948994.413    89877607.790         601.344          43.000  
S31  37904751.868   199190797.401        -815.744          44.000  
S33  38855948.022   204189353.654        -815.388          42.000  
G20  23326278.016   122580449.4641       2511.342          29.000                                                                  
E03  23489547.301   123438467.460         -70.208          48.000    23489553.847    94582776.141         -53.807          50.000  
R17  22615319.411   121018883.997       -4925.366          48.000    22615334.800    94125734.815       -3830.835          44.000  
R03  19448824.274   104111130.342         -78.773          52.000    19448823.241    80975354.111         -61.243          50.000  
R13  19332046.864   103232300.700         684.958          40.000    19332051.730    80291777.517         532.907          43.000  
R19  21046013.225   112582101.102        -387.574          38.000    21046017.834    87563830.086        -301.324          46.000  
E05  21934867.643   115268484.790       -1827.135          48.000    21934874.477    88322620.602       -1400.049          52.000  
G16  23953318.364                        -968.937          31.000                                                                  
E15  24110999.400   126704176.925        -264.585          46.000    24111007.384    97085087.927        -202.745          49.000  
G30  21550710.532   113249888.985        2401.001          47.000    21550717.421    88246771.711        1871.036          43.000  
E34  23726375.011   124682900.253       -2934.682          46.000    23726384.416    95536260.679       -2248.644          52.000  
E24  25672628.679   134910696.104         335.066          41.000    25672638.432   103373239.657         256.622          43.000  
E25  25945036.328   136342196.284        1807.181          43.000    25945054.016   104470088.637        1384.588          47.000  
E09                                                                  27200092.731   109523298.488       -2083.683          36.000  
> 2024 04 16 16 21 30.4970000  0 26                     
G03  22255594.324   116953815.925       -3516.901          44.000    22255604.337    91132824.980       -2740.276          41.000  
G04  21799966.230   114559515.279       -3071.779          44.000    21799969.964    89267138.403       -2393.363          38.000  
G06  20273818.858   106539662.746       -1704.323          47.000    20273823.283    83017949.114       -1328.142          46.000  
G07  19317671.609   101515191.019         953.385          48.000    19317672.437    79102813.616         742.968          46.000  
G09  19930449.247   104735219.123       -1404.297          49.000    19930450.762    81611872.572       -1094.110          45.000  
R02  20650797.997   110196548.862       -2383.887          48.000    20650803.757    85708426.900       -1854.017          48.000  
R18  20597860.943   109952757.306       -3393.601          49.000    20597868.422    85518825.076       -2639.375          48.000  
R12  20631551.957   110210097.773       -2768.832          49.000    20631557.283    85719010.802       -2153.536          48.000  
R04  21876682.731   117148730.087        1502.217          44.000    21876686.032    91115653.906        1168.331          39.000  
R14  21939269.041   116948586.340        3520.504          47.000    21939284.318    90960167.708        2738.054          40.000  
G11  21944637.499   115319852.213         753.732          46.000    21944639.963    89859777.749         587.561          43.000  
S31  37909408.797   199215272.236        -816.208          44.000  
S33  38860603.570   204213819.570        -815.738          42.000  
G20  23311945.082   122505139.134        2509.263          32.000                                                                  
E03  23489958.889   123440627.754         -73.722          48.000    23489965.263    94584431.479         -56.538          50.000  
R17  22642930.612   121166631.489       -4924.480          48.000    22642946.145    94240648.486       -3830.213          44.000  
R03  19449279.353   104113568.702         -83.869          51.000    19449278.992    80977250.632         -65.261          50.000  
R13  19328268.275   103212122.435         659.817          41.000    19328272.606    80276083.402         513.268          44.000  
R19  21048259.947   112594117.235        -413.668          38.000    21048263.801    87573175.950        -321.713          45.000  
E05  21945304.772   115323330.275       -1829.214          47.000    21945311.158    88364645.035       -1401.611          53.000  
E15  24112551.873   126712337.453        -279.579          46.000    24112560.211    97091340.818        -214.126          49.000  
G30  21537031.953   113178010.215        2390.586          46.000    21537038.708    88190762.543        1862.855          43.000  
E34  23743159.253   124771101.529       -2945.435          47.000    23743168.410    95603843.366       -2256.929          52.000  
E24  25670748.312   134900819.375         323.354          41.000    25670758.937   103365671.948         247.863          42.000  
E25  25934723.723   136288007.794        1805.409          42.000    25934742.336   104428567.881        1383.634          47.000  
E09                                                                  27215616.631   109585804.146       -2082.958          36.000  
> 2024 04 16 16 22 00.4970000  0 27                     
G03  22275697.493   117059456.741       -3525.851          44.000    22275706.965    91215142.275       -2747.253          41.000  
G04  21817505.743   114651685.565       -3072.688          44.000    21817506.133    89338959.309       -2394.371          32.000  
G06  20283605.200   106591092.573       -1724.220          47.000    20283610.234    83058024.281       -1343.417          47.000  
G07  19312282.925   101486876.346         934.294          48.000    19312283.710    79080750.314         727.964          45.000  
G09  19938481.577   104777432.349       -1409.845          49.000    19938484.260    81644765.949       -1098.462          46.000  
R02  20664212.168   110268128.434       -2388.082          49.000    20664218.092    85764099.878       -1857.506          49.000  
R18  20616985.237   110054839.032       -3411.700          50.000    20616991.855    85598221.757       -2653.590          48.000  
R12  20647168.064   110293514.090       -2792.163          49.000    20647173.481    85783890.138       -2171.724          49.000  
R04  21868265.936   117103658.784        1502.456          42.000    21868268.663    91080598.667        1169.014          39.000  
R14  21919462.698   116843013.769        3517.655          47.000    21919478.710    90878056.225        2735.815          42.000  
G11  21940384.363   115297503.160         736.400          45.000    21940387.433    89842362.971         573.859          44.000  
S31  37914067.553   199239755.219        -815.939          43.000  
S33  38865260.166   204238292.156        -815.528          43.000  
G20  23297619.024                1       2507.962          28.000                                                                  
E03  23490389.652   123442889.495         -76.858          49.000    23490395.332    94586164.504         -58.914          50.000  
R17  22670535.704   121314347.406       -4923.072          47.000    22670551.933    94355537.667       -3829.122          44.000  
R03  19449762.325   104116154.250         -88.478          51.000    19449762.653    80979261.660         -68.775          50.000  
R13  19324630.862   103192699.662         634.982          41.000    19324635.238    80260976.889         493.862          43.000  
R19  21050654.270   112606925.141        -440.242          38.000    21050658.062    87583137.652        -342.224          45.000  
E05  21955751.109   115378231.339       -1830.706          46.000    21955758.874    88406712.068       -1402.718          53.000  
G16  23964553.849                1       -999.875          27.000                                                                  
E15  24114189.295   126720944.345        -294.151          45.000    24114197.954    97097935.711        -225.329          49.000  
G30  21523412.562   113106439.423        2380.806          47.000    21523418.695    88134993.360        1855.217          43.000  
E34  23760004.231   124859620.939       -2955.765          48.000    23760013.222    95671669.858       -2264.714          51.000  
E24  25668933.827   134891284.275         312.416          41.000    25668946.005   103358366.036         239.276          45.000  
E25  25924419.516   136233857.331        1804.498          42.000    25924437.798   104387076.313        1382.679          48.000  
E09                                                                  27231131.229   109648282.486       -2082.092          34.000  
> 2024 04 16 16 22 30.4970000  0 27                     
G03  22295852.776   117165374.716       -3535.314          44.000    22295863.334    91297675.505       -2754.860          42.000  
G04  21835054.767   114743906.796       -3075.018          43.000    21835053.025                       -2396.438          28.000  
G06  20293507.707   106643130.031       -1744.697          47.000    20293513.159    83098572.911       -1359.480          47.000  
G07  19307006.463   101459146.344         914.547          49.000    19307006.593    79059142.588         712.535          45.000  
G09  19946547.928   104819822.204       -1416.132          48.000    19946550.692    81677796.972       -1103.412          46.000  
R02  20677652.882   110339857.457       -2393.668          47.000    20677659.278    85819889.057       -1861.766          47.000  
R18  20636211.695   110157475.429       -3430.632          49.000    20636220.422    85678049.843       -2668.285          49.000  
R12  20662917.584   110377645.831       -2816.503          50.000    20662922.254    85849325.860       -2190.638          47.000  
R04  21859847.749   117058584.146        1502.462          40.000    21859849.868    91045540.783        1168.519          39.000  
R14  21899677.622   116737545.120        3513.810          49.000    21899692.561    90796025.576        2732.951          43.000  
G11  21936233.426   115275690.581         718.037          47.000    21936236.191    89825366.183         559.447          43.000  
S31  37918728.102   199264246.731        -816.701          44.000  
S33  38869918.974   204262773.341        -816.629          42.000  
G20  23283308.972   122354622.7701       2505.480          33.000                                                                  
E03  23490839.265   123445254.212         -80.761          49.000    23490845.532    94587976.452         -61.745          50.000  
R17  22698134.926   121462029.852       -4922.346          47.000    22698151.692    94470400.754       -3828.499          44.000  
R03  19450273.030   104118890.338         -93.822          51.000    19450272.813    80981389.741         -72.972          50.000  
R13  19321135.402   103174036.729         608.934          40.000    19321139.574    80246461.360         474.030          43.000  
R19  21053196.985   112620527.046        -466.871          38.000    21053200.051    87593716.902        -363.118          45.000  
E05  21966208.933   115433189.752       -1833.025          46.000    21966217.039    88448823.014       -1404.536          53.000  
G16  23970309.447   125964822.8253      -1015.595          28.000                                                                  
E15  24115912.720   126730000.099        -309.427          45.000    24115921.183    97104874.542        -237.082          49.000  
G30  21509851.297   113035180.706        2369.906          47.000    21509857.927    88079467.379        1846.603          42.000  
E34  23776909.873   124948458.859       -2966.669          48.000    23776918.461    95739740.380       -2273.063          51.000  
E24  25667185.019   134882094.231         300.527          41.000    25667196.915   103351324.478         230.191          44.000  
E25  25914123.121   136179749.096        1802.685          42.000    25914140.467   104345617.068        1381.236          47.000  
E09                                                                  27246643.100   109710735.228       -2081.505          36.000  
> 2024 04 16 16 23 00.4970000  0 26                     
G03  22316061.904   117271573.726       -3544.696          43.000    22316072.303    91380427.680       -2761.932          41.000  
G04  21852613.799   114836183.177       -3076.744          43.000    21852615.849                       -2398.364          30.000  
G06  20303526.217   106695778.320       -1765.048          47.000    20303531.199    83139597.523       -1375.320          47.000  
G07  19301842.580   101432006.855         894.876          48.000    19301841.633    79037995.001         697.274          45.000  
G09  19954649.234   104862392.755       -1421.857          49.000    19954651.392    81710968.800       -1108.069          46.000  
R02  20691123.537   110411740.774       -2398.575          46.000    20691130.695    85875798.237       -1865.672          48.000  
R18  20655542.603   110260666.881       -3448.857          49.000    20655550.723    85758309.630       -2682.390          48.000  
R12  20678803.167   110462495.197       -2840.188          51.000    20678806.607    85915319.806       -2209.032          47.000  
R04  21851430.313   117013510.421        1502.239          39.000    21851434.955    91010483.679        1168.840          42.000  
R14  21879913.722   116632189.681        3509.991          50.000    21879928.250    90714083.043        2729.997          46.000  
G11  21932186.332   115254420.536         700.039          46.000    21932188.429    89808792.177         545.311          43.000  
S31  37923391.705   199288752.914        -817.125          44.000  
S33  38874580.529   204287270.835        -816.623          42.000  
G20  23269011.044   122279483.105        2503.295          31.000                                                                  
E03  23491310.091   123447725.988         -84.126          49.000    23491315.785    94589870.431         -64.455          50.000  
R17  22725726.739   121609679.590       -4920.880          46.000    22725744.531    94585238.535       -3827.479          44.000  
R03  19450813.613   104121781.817         -98.829          52.000    19450813.704    80983638.674         -76.881          50.000  
R13  19317784.957   103156140.522         583.834          42.000    19317788.796    80232542.180         454.174          44.000  
R19  21055889.023   112634927.570        -493.417          38.000    21055892.021    87604917.319        -383.520          45.000  
E05  21976678.762   115488209.796       -1834.915          45.000    21976686.780    88490981.167       -1405.929          53.000  
E15  24117722.709   126739509.793        -324.510          46.000    24117731.024    97112161.178        -248.665          50.000  
G30  21496353.143   112964240.734        2359.368          47.000    21496358.834    88024189.735        1838.546          43.000  
E34  23793876.226   125037618.156       -2977.249          49.000    23793885.212    95808057.159       -2281.267          52.000  
E24  25665503.044   134873255.163         288.716          42.000    25665513.094   103344551.835         221.019          42.000  
E25  25903836.637   136125689.723        1801.039          43.000    25903852.665   104304195.248        1380.140          46.000  
E09                                                                  27262148.038   109773166.039       -2080.500          32.000  
> 2024 04 16 16 23 30.4970000  0 27                     
G03  22336322.225   117378040.621       -3553.379          44.000    22336332.251    91463388.617       -2768.768          41.000  
G04  21870180.958   114928501.919       -3077.741          42.000    21870191.013                3      -2393.802          21.000  
G06  20313658.479   106749023.795       -1784.904          47.000    20313664.008    83181087.452       -1390.905          47.000  
G07  19296788.039   101405446.745         875.557          49.000    19296787.461    79017298.912         682.303          45.000  
G09  19962782.057   104905131.237       -1427.551          50.000    19962784.608    81744271.508       -1112.341          46.000  
R02  20704621.024   110483767.084       -2403.438          46.000    20704628.616    85931818.624       -1869.322          48.000  
R18  20674974.539   110364396.714       -3466.750          49.000    20674982.580    85838988.224       -2696.349          47.000  
R12  20694817.683   110548047.024       -2863.508          51.000    20694822.000    85981860.066       -2227.251          47.000  
R04  21843010.216   116968425.273        1503.062          32.000    21843017.108    90975417.671        1168.791          43.000  
R14  21860168.149   116526939.308        3506.582          49.000    21860183.208    90632222.185        2727.253          46.000  
G11  21928240.076   115233682.228         682.367          46.000    21928242.016    89792632.533         531.689          43.000  
S31  37928055.474   199313260.892        -816.856          44.000  
S33  38879242.201   204311767.798        -816.290          42.000  
G20  23254719.392   122204395.824        2501.951          33.000                                                                  
E03  23491798.470   123450292.112         -87.113          49.000    23491804.520    94591836.689         -66.800          51.000  
R17  22753311.110   121757279.633       -4919.179          47.000    22753327.401    94700037.627       -3825.947          45.000  
R03  19451381.159   104124816.931        -103.566          53.000    19451381.027    80985999.358         -80.662          51.000  
R13  19314575.113   103139001.064         558.510          41.000    19314579.087    80219211.586         434.538          44.000  
R19  21058728.833   112650114.100        -519.452          39.000    21058730.353    87616729.063        -403.919          45.000  
E05  21987158.228   115543278.820       -1836.459          45.000    21987166.128    88533176.883       -1407.194          53.000  
G16  23982068.849                1      -1045.313          31.000                                                                  
E15  24119617.812   126749461.588        -339.174          46.000    24119624.807    97119786.569        -259.815          50.000  
G30  21482912.886   112893609.220        2349.091          47.000    21482917.456    87969152.436        1830.556          43.000  
E34  23810902.130   125127084.871       -2987.311          49.000    23810910.449    95876609.481       -2288.958          52.000  
E24  25663886.951   134864756.215         277.533          44.000    25663895.747   103338039.800         212.798          42.000  
E25  25893557.676   136071668.938        1800.122          44.000    25893573.013   104262803.040        1379.178          47.000  
E09                                                                  27277643.958                       -2079.688          29.000  
> 2024 04 16 16 24 00.4970000  0 27                     
G03  22356635.824   117484788.413       -3562.870          44.000    22356646.215    91546568.440       -2776.349          42.000  
G04  21887759.570   115020876.553       -3080.084          43.000    21887735.804                3      -2402.566          18.000  
G06  20323906.888   106802878.926       -1805.564          47.000    20323912.016    83223052.440       -1406.979          46.000  
G07  19291847.204   101379481.206         855.385          49.000    19291846.975    78997066.114         666.544          46.000  
G09  19970949.992   104948050.975       -1433.728          50.000    19970952.046    81777715.422       -1117.157          46.000  
R02  20718147.353   110555950.757       -2409.052          45.000    20718154.669    85987961.458       -1873.642          47.000  
R18  20694510.629   110468674.571       -3485.194          50.000    20694518.948    85920093.047       -2710.610          49.000  
R12  20710965.793   110634312.853       -2887.561          49.000    20710970.728    86048955.732       -2245.984          48.000  
R04  21834592.079   116923342.790        1502.855          34.000    21834598.362    90940353.677        1168.704          44.000  
R14  21840445.330   116421812.149        3502.061          49.000    21840460.728    90550457.149        2723.911          46.000  
G11  21924397.399   115213491.036         663.726          46.000    21924400.289    89776899.179         517.294          44.000  
S31  37932722.328   199337783.859        -817.628          44.000  
S33  38883907.095   204336281.589        -817.453          42.000  
G20  23240444.266   122129376.631        2498.679          32.000                                                                  
E03  23492306.657   123452965.970         -91.140          48.000    23492313.328    94593885.512         -69.829          51.000  
R17  22780885.960   121904839.939       -4918.097          45.000    22780903.865    94814805.780       -3825.097          44.000  
R03  19451977.212   104128010.876        -109.244          52.000    19451977.283    80988483.558         -84.995          50.000  
R13  19311510.060   103122634.546         532.598          41.000    19311514.512    80206482.149         414.218          45.000  
R19  21061717.087   112666100.835        -546.634          38.000    21061720.013    87629163.132        -424.868          46.000  
E05  21997648.872   115598410.398       -1838.943          45.000    21997657.357    88575420.531       -1409.035          52.000  
G16  23988078.886   126058163.7871      -1060.566          30.000                                                                  
E15  24121598.441   126759869.886        -354.719          47.000    24121605.185    97127761.733        -271.749          50.000  
G30  21469532.596   112823302.184        2337.991          46.000    21469538.478    87914367.997        1821.770          43.000  
E34  23827987.878   125216871.150       -2998.325          49.000    23827996.373    95945406.659       -2297.416          52.000  
E24  25662336.802   134856612.735         265.321          43.000    25662346.209   103331800.169         203.253          42.000  
E25  25883287.822   136017702.816        1797.737          44.000    25883303.384   104221452.673        1377.571          47.000  
E09                                                                  27293132.197                1      -2079.003          26.000  
> 2024 04 16 16 24 30.4970000  0 27                     
G03  22377001.983   117591808.578       -3571.932          44.000    22377012.145    91629960.515       -2783.582          42.000  
G04  21905346.489   115113298.820       -3081.693          42.000    21905356.669                       -2400.693          30.000  
G06  20334270.676   106857334.545       -1825.241          49.000    20334274.952    83265485.361       -1422.294          47.000  
G07  19287017.422   101354103.622         836.164          48.000    19287018.027    78977291.468         651.368          46.000  
G09  19979150.395   104991143.719       -1439.325          50.000    19979151.526    81811294.180       -1121.698          45.000  
R02  20731703.531   110628285.276       -2413.604          47.000    20731710.179    86044221.569       -1877.273          47.000  
R18  20714146.218   110573488.479       -3502.656          50.000    20714154.325    86001614.772       -2724.358          49.000  
R12  20727247.549   110721282.114       -2910.723          51.000    20727252.603    86116598.480       -2264.017          48.000  
R04  21826169.346   116878255.127        1502.997          35.000    21826177.496    90905285.704        1168.948          43.000  
R14  21820746.019   116316804.001        3498.173          49.000    21820760.736    90468784.643        2720.761          46.000  
G11  21920657.896   115193840.669         646.077          45.000    21920661.026    89761587.242         503.469          45.000  
S31  37937390.282   199362315.980        -817.708          45.000  
S33  38888573.434   204360803.639        -817.482          42.000  
G20  23226180.813   122054419.728        2497.671          31.000                                                                  
E03  23492834.715   123455739.409         -94.207          48.000    23492841.137    94596010.624         -72.194          51.000  
R17  22808451.434   122052348.995       -4916.083          43.000    22808470.780    94929534.056       -3823.462          41.000  
R03  19452602.989   104131356.773        -114.027          52.000    19452601.581    80991085.949         -88.716          49.000  
R13  19308589.114   103107035.929         507.013          41.000    19308592.998    80194350.004         394.570          44.000  
R19  21064853.546   112682879.636        -572.741          40.000    21064857.113    87642213.282        -445.379          46.000  
E05  22008151.664   115653596.574       -1840.540          45.000    22008158.894    88617706.010       -1410.258          52.000  
G16  23994179.938                       -1075.783          30.000                                                                  
E15  24123663.710   126770727.369        -369.402          46.000    24123671.122    97136081.105        -283.035          50.000  
G30  21456214.253   112753314.011        2327.699          46.000    21456219.708    87859831.993        1813.931          43.000  
E34  23845132.691   125306967.551       -3008.343          49.000    23845140.893    96014441.482       -2305.092          51.000  
E24  25660852.645   134848818.294         253.746          42.000    25660862.871   103325827.987         194.571          42.000  
E25  25873026.953   135963785.617        1796.404          44.000    25873042.805   104180139.815        1376.415          47.000  
E09                                                                  27308621.474                       -2077.845          27.000  
> 2024 04 16 16 25 00.4970000  0 26                     
G03  22397418.731   117699100.316       -3581.093          43.000    22397428.210    91713564.195       -2790.434          41.000  
G04  21922943.920   115205768.423       -3083.373          42.000    21922943.750                1      -2402.823          31.000  
G06  20344747.412   106912389.194       -1845.285          49.000    20344751.885    83308385.060       -1437.845          47.000  
G07  19282299.524   101329315.382         816.209          48.000    19282300.567    78957976.041         635.905          46.000  
G09  19987383.346   105034408.962       -1445.087          50.000    19987384.696    81845007.344       -1126.068          45.000  
R02  20745286.650   110700770.811       -2418.957          46.000    20745295.233    86100599.152       -1881.366          48.000  
R18  20733880.906   110678834.070       -3520.526          50.000    20733888.798    86083550.054       -2738.201          48.000  
R12  20743659.585   110808952.213       -2934.295          50.000    20743663.122    86184786.297       -2282.125          47.000  
R04  21817749.049   116833162.291        1502.968          43.000    21817754.188    90870213.654        1168.886          39.000  
R14  21801069.044   116211919.408        3493.879          49.000    21801084.293    90387208.227        2717.417          46.000  
G11  21917021.797   115174732.565         627.611          46.000    21917024.888    89746697.866         489.041          45.000  
S31  37942059.669   199386854.918        -818.062          44.000  
S33  38893241.446   204385333.116        -818.289          42.000  
E03  23493381.722   123458611.960         -97.526          49.000    23493387.595    94598211.677         -74.745          51.000  
R17  22836007.344   122199802.642       -4914.246          40.000    22836027.038    95044219.240       -3822.363          38.000  
R03  19453255.348   104134854.471        -119.323          51.000    19453254.675    80993806.400         -92.902          49.000  
R13  19305811.623   103092207.077         481.298          41.000    19305815.986    80182816.589         374.305          44.000  
R19  21068137.913   112700449.667        -599.122          39.000    21068141.266    87655878.861        -465.963          45.000  
E05  22018664.773   115708837.044       -1842.369          47.000    22018670.840    88660033.091       -1411.698          52.000  
G16  24000368.842                       -1091.517          27.000                                                                  
E15  24125815.566   126782034.530        -384.579          46.000    24125822.990    97144745.024        -294.623          50.000  
G30  21442957.482   112683646.729        2316.627          47.000    21442962.941    87805546.061        1805.199          44.000  
E34  23862335.997   125397372.351       -3018.690          48.000    23862344.355    96083712.604       -2312.979          51.000  
E24  25659437.046   134841374.250         242.456          43.000    25659446.018   103320124.298         185.756          42.000  
E25  25862775.961   135909919.486        1794.528          43.000    25862792.124   104138866.092        1375.085          48.000  
E09                                                                  27324097.902                3      -2077.624          21.000  
> 2024 04 16 16 25 30.4970000  0 26                     
G03  22417886.365   117806662.321       -3589.931          42.000    22417897.681    91797378.429       -2797.446          41.000  
G04  21940548.502   115298284.283       -3084.828          42.000    21940554.838    89842889.0291      -2403.374          35.000  
G06  20355336.576   106968040.822       -1865.014          47.000    20355341.765    83351749.949       -1453.215          47.000  
G07  19277695.552   101305117.132         796.769          48.000    19277695.871    78939120.334         620.979          46.000  
G09  19995648.723   105077845.681       -1450.653          50.000    19995650.662    81878854.123       -1130.157          45.000  
R02  20758898.970   110773407.717       -2423.616          47.000    20758907.946    86157094.444       -1885.095          49.000  
R18  20753715.180   110784706.439       -3537.842          51.000    20753722.925    86165895.038       -2751.652          48.000  
R12  20760202.544   110897319.947       -2957.264          50.000    20760207.396    86253516.739       -2300.065          49.000  
R04  21809329.909   116788063.430        1503.343          45.000    21809331.752    90835136.890        1169.465          40.000  
R14  21781417.729   116107161.866        3489.733          51.000    21781431.710    90305730.569        2714.329          45.000  
G11  21913488.636   115156167.546         609.770          47.000    21913491.557    89732231.658         475.038          44.000  
S31  37946730.992   199411401.916        -818.305          44.000  
S33  38897910.348   204409871.086        -818.228          42.000  
E03  23493946.664   123461582.602        -100.708          48.000    23493953.290    94600487.909         -77.153          52.000  
R17  22863551.648   122347196.275       -4911.780          33.000    22863570.828    95158857.747       -3820.636          33.000  
R03  19453937.757   104138505.069        -124.163          52.000    19453937.031    80996645.774         -96.612          49.000  
R13  19303179.641   103078149.878         455.810          42.000    19303182.759    80171883.330         354.424          43.000  
R19  21071569.378   112718810.885        -625.296          38.000    21071573.317    87670159.821        -486.302          46.000  
E05  22029187.059   115764130.980       -1844.014          47.000    22029192.925    88702401.143       -1413.019          52.000  
E09  27339553.825                3      -2710.309          26.000    27339568.940                3      -2081.923          19.000  
G16  24006648.291                       -1106.817          30.000                                                                  
E15  24128052.196   126793791.213        -399.540          46.000    24128060.184    97153753.377        -306.016          50.000  
G30  21429761.429   112614301.833        2306.171          47.000    21429767.271    87751511.297        1797.142          44.000  
E34  23879596.958   125488083.284       -3028.799          48.000    23879605.966    96153218.294       -2320.760          50.000  
E24  25658086.168   134834281.428         230.648          42.000    25658095.949   103314689.713         176.586          42.000  
E25  25852535.605   135856106.043        1792.858          44.000    25852551.015   104097632.709        1373.748          47.000  
> 2024 04 16 16 26 00.4970000  0 26                     
G03  22438407.912   117914498.727       -3598.805          43.000    22438418.479    91881406.503       -2804.281          42.000  
G04  21958163.772   115390851.141       -3086.127          42.000    21958171.072    89915018.905       -2404.879          37.000  
G06  20366041.074   107024293.067       -1884.751          47.000    20366045.342    83395582.824       -1468.817          46.000  
G07  19273203.550   101281514.914         777.031          49.000    19273204.441    78920729.080         605.630          46.000  
G09  20003947.739   105121458.465       -1456.403          49.000    20003950.573    81912838.116       -1134.802          46.000  
R02  20772541.199   110846201.497       -2428.824          47.000    20772549.190    86213711.755       -1889.099          49.000  
R18  20773647.524   110891106.426       -3555.247          50.000    20773654.659    86248650.382       -2765.161          47.000  
R12  20776875.801   110986387.732       -2980.360          50.000    20776879.751    86322791.626       -2317.980          47.000  
R04  21800908.679   116742964.055        1503.784          45.000    21800908.893    90800059.854        1169.334          41.000  
R14  21761790.718   116002541.079        3485.244          51.000    21761805.146    90224359.299        2710.713          46.000  
G11  21910060.853   115138152.175         591.664          46.000    21910062.811    89718193.765         461.032          44.000  
S31  37951404.458   199435961.898        -818.393          45.000  
S33  38902582.208   204434420.101        -818.348          42.000  
E03  23494531.591   123464656.026        -104.034          48.000    23494537.924    94602842.901         -79.652          52.000  
R17  22891084.870                       -4909.741          26.000    22891104.709    95273450.591       -3818.451          31.000  
R03  19454649.067   104142314.057        -129.204          52.000    19454648.428    80999608.348        -100.586          49.000  
R13  19300692.902   103064871.479         429.544          41.000    19300695.816    80161555.765         334.312          43.000  
R19  21075149.369   112737968.238        -651.878          38.000    21075155.368    87685059.988        -506.875          46.000  
E05  22039720.439   115819483.226       -1845.755          47.000    22039726.450    88744813.883       -1414.273          52.000  
G16  24013015.235   126189165.313       -1122.259          28.000                                                                  
E15  24130375.839   126806002.935        -414.334          45.000    24130384.036    97163110.409        -317.468          50.000  
G30  21416628.044   112545286.497        2295.362          47.000    21416634.024    87697733.370        1788.293          44.000  
E34  23896917.906   125579103.720       -3038.874          48.000    23896926.624    96222961.136       -2328.460          50.000  
E24  25656804.322   134827546.255         218.775          43.000    25656813.487   103309529.180         167.550          41.000  
E25  25842307.236   135802352.410        1791.033          45.000    25842322.004   104056445.160        1372.363          48.000  
E09                                                                  27355034.180                3      -2077.270          21.000  
> 2024 04 16 16 26 30.4970000  0 26                     
G03  22458979.070   118022597.397       -3607.407          45.000    22458989.586    91965638.922       -2811.190          42.000  
G04  21975786.038   115483457.392       -3087.509          41.000    21975794.185    89987179.528       -2405.586          37.000  
G06  20376858.222   107081133.047       -1904.339          48.000    20376861.422    83439873.659       -1483.748          46.000  
G07  19268823.959   101258498.770         757.491          48.000    19268824.454    78902794.504         590.280          46.000  
G09  20012278.390   105165235.584       -1461.841          49.000    20012280.389    81946950.168       -1138.995          45.000  
R02  20786211.309   110919141.917       -2433.695          49.000    20786218.263    86270443.146       -1892.752          48.000  
R18  20793674.746   110998018.208       -3572.022          49.000    20793684.079    86331803.794       -2778.414          48.000  
R12  20793677.032   111076141.399       -3003.135          49.000    20793682.747    86392599.977       -2335.659          48.000  
R04  21792483.601   116697852.564        1503.945          44.000    21792485.406    90764973.366        1169.758          41.000  
R14  21742188.399   115898049.834        3480.856          50.000    21742201.991    90143088.791        2707.345          46.000  
G11  21906735.094   115120676.472         573.626          45.000    21906737.592    89704576.385         447.138          44.000  
S31  37956077.959   199460522.244        -818.256          44.000  
S33  38907254.138   204458971.276        -818.036          42.000  
E03  23495133.527   123467820.408        -106.907          48.000    23495139.713    94605267.602         -81.908          51.000  
R17  22918595.753   122641860.9631      -4907.483          31.000    22918624.842                       -3816.571          29.000  
R03  19455388.548   104146270.554        -134.199          52.000    19455388.164    81002685.623        -104.384          49.000  
R13  19298349.896   103052362.797         404.352          41.000    19298353.076    80151826.901         314.344          43.000  
R19  21078879.087   112757909.244        -677.653          41.000    21078882.344    87700569.642        -527.089          45.000  
E05  22050262.141   115874882.227       -1847.300          47.000    22050268.245    88787262.434       -1415.416          52.000  
G16  24019466.425   126223064.007       -1137.429          29.000                                                                  
E15  24132784.335   126818658.796        -429.198          46.000    24132792.336    97172807.771        -328.894          50.000  
G30  21403555.629   112476591.436        2284.559          47.000    21403561.337    87644204.968        1780.287          44.000  
E34  23914294.349   125670420.598       -3048.677          47.000    23914303.648    96292931.132       -2336.063          50.000  
E24  25655589.129   134821158.777         207.252          43.000    25655598.412   103304635.012         158.697          42.000  
E25  25832087.806   135748649.385        1789.406          45.000    25832102.617   104015296.414        1371.032          49.000  
E09                                                                  27370500.932                       -2074.104          27.000  
> 2024 04 16 16 27 00.4970000  0 26                     
G03  22479600.373   118130960.645       -3616.527          45.000    22479610.155    92050077.498       -2817.911          41.000  
G04  21993417.124   115576105.722       -3088.956          40.000    21993424.065    90059373.018       -2406.910          38.000  
G06  20387786.721   107138562.344       -1924.092          48.000    20387789.719    83484623.762       -1499.237          45.000  
G07  19264556.334   101236072.795         737.772          48.000    19264556.454    78885319.792         574.864          46.000  
G09  20020640.696   105209179.669       -1467.389          49.000    20020641.899    81981192.325       -1143.402          45.000  
R02  20799908.263   110992233.083       -2438.782          47.000    20799914.530    86327291.758       -1896.851          47.000  
R18  20813798.451   111105440.509       -3589.000          49.000    20813808.606    86415354.300       -2791.492          48.000  
R12  20810608.747   111166581.314       -3025.839          52.000    20810612.342    86462942.107       -2353.539          46.000  
R04  21784058.270   116652732.429        1504.291          46.000    21784060.071    90729880.108        1170.267          40.000  
R14  21722611.126   115793695.227        3476.253          51.000    21722625.054    90061924.579        2703.676          46.000  
G11  21903513.294   115103744.984         555.410          46.000    21903515.456    89691383.051         432.848          45.000  
S31  37960752.342   199485088.444        -818.707          43.000  
S33  38911927.276   204483527.628        -818.353          42.000  
E03  23495752.666   123471078.523        -110.208          47.000    23495759.480    94607764.110         -84.367          51.000  
R17  22946065.290                3      -4907.657          21.000    22946128.460                       -3814.435          28.000  
R03  19456155.539   104150379.049        -139.376          52.000    19456155.476    81005881.110        -108.275          49.000  
R13  19296152.697   103040629.081         378.076          42.000    19296156.135    80142700.818         294.330          43.000  
R19  21082754.709   112778637.534        -703.873          41.000    21082757.112    87716691.638        -547.584          45.000  
E05  22060813.483   115930330.826       -1848.914          46.000    22060819.710    88829749.022       -1416.772          52.000  
G16  24026002.132   126257420.077       -1152.956          32.000                                                                  
E15  24135278.341   126831762.340        -444.089          46.000    24135285.556    97182848.146        -340.279          49.000  
G30  21390545.527   112408221.845        2273.733          47.000    21390551.426    87590930.213        1771.812          45.000  
E34  23931727.881   125762035.347       -3058.635          47.000    23931737.749    96363129.345       -2343.685          50.000  
E24  25654440.884   134815123.436         195.465          43.000    25654449.522   103300010.679         149.751          41.000  
E25  25821879.223   135695002.255        1787.498          46.000    25821893.772   103974190.482        1369.577          49.000  
E09                                                                  27385951.261                3      -2073.328          25.000  
> 2024 04 16 16 27 30.4970000  0 26                     
G03  22500272.862   118239593.182       -3625.232          45.000    22500283.486    92134725.897       -2825.000          40.000  
G04  22011056.029   115668801.457       -3090.615          38.000    22011063.931    90131603.303       -2408.098          37.000  
G06  20398826.937   107196584.980       -1943.816          48.000    20398831.280    83529836.150       -1514.728          46.000  
G07  19260402.827   101214243.744         717.794          49.000    19260402.561    78868310.235         559.274          46.000  
G09  20029035.146   105253295.863       -1473.114          49.000    20029037.419    82015568.581       -1147.943          45.000  
R02  20813633.832   111065480.976       -2444.096          47.000    20813641.605    86384262.261       -1900.913          48.000  
R18  20834019.224   111213374.668       -3606.131          49.000    20834028.150    86499302.889       -2804.679          47.000  
R12  20827667.944   111257710.442       -3048.940          50.000    20827673.822    86533820.234       -2371.285          47.000  
R04  21775630.037   116607609.059        1504.355          45.000    21775634.668    90694784.388        1169.961          42.000  
R14  21703061.896   115689487.314        3471.426          51.000    21703074.776    89980874.464        2699.848          45.000  
G11  21900395.943   115087364.638         537.126          46.000    21900398.822    89678619.190         418.399          45.000  
S31  37965428.928   199509664.156        -819.056          44.000  
S33  38916601.625   204508093.659        -818.856          43.000  
E03  23496391.490   123474435.494        -113.451          47.000    23496398.221    94610336.361         -86.811          51.000  
R17  22973601.191                       -4902.734          25.000    22973578.204                3      -3812.900          23.000  
R03  19456952.516   104154645.636        -144.705          51.000    19456952.366    81009199.597        -112.463          49.000  
R13  19294101.925   103029677.944         352.299          41.000    19294105.421    80134183.420         273.774          44.000  
R19  21086777.138   112800157.691        -730.267          41.000    21086781.340    87733429.492        -568.048          46.000  
E05  22071375.149   115985834.421       -1850.741          46.000    22071382.073    88872277.734       -1418.123          52.000  
E09  27401382.114                3      -2704.033          25.000    27401399.749                       -2072.611          29.000  
G16  24032633.466   126292240.305       -1168.155          34.000                                                                  
E15  24137857.719   126845319.527        -459.184          46.000    24137865.793    97193236.141        -351.859          50.000  
G30  21377597.818   112340185.375        2262.540          46.000    21377603.420    87537915.013        1762.875          43.000  
E34  23949219.224   125853951.787       -3068.657          48.000    23949229.107    96433558.735       -2351.340          50.000  
E24  25653360.143   134809447.172         183.565          43.000    25653370.026   103295661.490         140.410          43.000  
E25  25811681.311   135641418.686        1785.340          45.000    25811697.003   103933133.302        1367.873          49.000  
> 2024 04 16 16 28 00.4970000  0 27                     
G03  22520995.597   118348490.071       -3634.107          44.000    22521005.840    92219580.311       -2831.689          41.000  
G04  22028703.724   115761540.017       -3092.054          39.000    22028708.932    90203866.991       -2409.190          36.000  
G06  20409980.596   107255195.275       -1963.381          47.000    20409984.343    83575506.445       -1529.717          46.000  
G07  19256362.202   101193008.701         698.082          49.000    19256362.145    78851763.535         544.062          46.000  
G09  20037462.637   105297579.630       -1478.699          49.000    20037464.095    82050075.369       -1151.990          45.000  
R02  20827389.465   111138882.266       -2449.152          48.000    20827396.438    86441352.059       -1904.854          47.000  
R18  20854333.308   111321812.147       -3622.710          50.000    20854341.520    86583642.981       -2817.726          47.000  
R12  20844854.757   111349521.959       -3071.571          50.000    20844859.881    86605229.112       -2388.985          47.000  
R04  21767201.701   116562478.422        1504.603          45.000    21767207.315    90659682.948        1170.510          44.000  
R14  21683540.147   115585426.160        3466.360          51.000    21683553.175    89899938.468        2696.015          47.000  
G11  21897384.140   115071532.679         518.684          47.000    21897385.876    89666282.605         404.087          46.000  
S31  37970106.674   199534246.201        -819.182          44.000  
S33  38921277.300   204532666.247        -818.999          42.000  
G20  23126693.993                1       2480.283          32.000                                                                  
E03  23497048.770   123477886.830        -116.542          47.000    23497054.975    94612980.929         -89.185          51.000  
R17  23001100.144   123082967.7381      -4899.060          32.000    23001050.108                3      -3812.720          14.000  
R03  19457778.880   104159067.479        -149.819          52.000    19457778.668    81012638.796        -116.443          49.000  
R13  19292196.693   103019507.480         326.318          42.000    19292200.834    80126273.189         253.584          44.000  
R19  21090947.610   112822465.366        -756.502          41.000    21090950.796    87750779.857        -588.370          46.000  
E05  22081945.840   116041388.660       -1852.480          46.000    22081953.520    88914845.258       -1419.392          52.000  
G16  24039341.256                       -1183.878          29.000                                                                  
E15  24140523.589   126859326.640        -474.317          45.000    24140531.242    97203968.863        -363.295          50.000  
G30  21364714.281   112272479.935        2251.375          48.000    21364719.381    87485157.751        1754.391          44.000  
E34  23966766.629   125946164.074       -3078.429          47.000    23966776.470    96504214.799       -2358.803          50.000  
E24  25652348.652   134804127.217         171.598          43.000    25652357.629   103291585.327         131.335          42.000  
E25  25801495.867   135587896.738        1783.161          44.000    25801511.776   103892123.324        1366.428          49.000  
E09                                                                  27416841.722                1      -2071.426          29.000  
> 2024 04 16 16 28 30.4970000  0 26                     
G03  22541767.488   118457652.963       -3643.190          42.000    22541779.239    92304641.933       -2838.862          41.000  
G04  22046359.790   115854323.752       -3093.562          37.000    22046365.341    90276165.814       -2410.337          38.000  
G06  20421246.180   107314394.126       -1983.136          48.000    20421249.961    83621635.409       -1545.287          46.000  
G07  19252435.118   101172370.972         678.050          48.000    19252434.981    78835682.287         528.442          46.000  
G09  20045922.255   105342033.030       -1484.717          50.000    20045923.150    82084714.376       -1156.879          44.000  
R02  20841175.014   111212440.274       -2454.487          47.000    20841181.617    86498563.777       -1909.253          47.000  
R18  20874741.239   111430751.132       -3639.656          49.000    20874748.907    86668373.091       -2830.858          46.000  
R12  20862169.611   111442015.387       -3094.488          48.000    20862176.292    86677168.372       -2406.818          48.000  
R04  21758772.903   116517343.226        1504.581          46.000    21758776.607    90624578.044        1170.258          42.000  
R14  21664045.887   115481518.558        3461.002          49.000    21664059.711    89819121.935        2691.833          47.000  
G11  21894476.083   115056252.863         500.161          47.000    21894478.188    89654376.298         389.700          45.000  
S31  37974786.722   199558836.641        -819.981          44.000  
S33  38925955.008   204557247.185        -819.510          43.000  
E03  23497723.596   123481434.642        -119.972          47.000    23497730.231    94615699.428         -91.896          51.000  
R17  23028556.294                       -4896.875          26.000    23028599.173                3      -3812.246          18.000  
R03  19458633.591   104163647.394        -155.338          52.000    19458633.399    81016200.939        -120.766          49.000  
R13  19290439.540   103010122.092         299.684          42.000    19290442.789    80118973.544         233.085          44.000  
R19  21095265.797   112845562.641        -783.085          41.000    21095267.352    87768744.380        -609.200          45.000  
E05  22092527.207   116096995.862       -1854.449          46.000    22092535.403    88957453.332       -1420.948          52.000  
G16  24046136.787   126363263.077       -1199.172          31.000                                                                  
E15  24143275.194   126873786.547        -489.637          45.000    24143282.773    97215048.551        -375.214          50.000  
G30  21351893.428   112205110.047        2240.076          47.000    21351900.106    87432661.981        1745.591          45.000  
E34  23984371.256   126038672.989       -3088.544          48.000    23984380.515    96575098.157       -2366.595          51.000  
E24  25651405.018   134799167.414         159.249          44.000    25651414.060   103287785.038         122.007          44.000  
E25  25791323.954   135534441.114        1780.796          44.000    25791338.813   103851164.148        1364.370          48.000  
E09                                                                  27432273.563                       -2071.593          26.000  
> 2024 04 16 16 29 00.4970000  0 26                     
G03  22562592.129   118567081.431       -3652.027          42.000    22562603.568    92389910.513       -2845.672          42.000  
G04  22064025.379   115947152.580       -3094.997          37.000    22064029.545    90348499.949       -2411.731          36.000  
G06  20432622.206   107374180.355       -2002.731          47.000    20432626.861    83668222.015       -1560.500          46.000  
G07  19248621.099   101152332.063         657.983          48.000    19248620.672    78820067.653         512.613          45.000  
G09  20054414.139   105386656.091       -1490.283          50.000    20054414.839    82119485.587       -1161.206          45.000  
R02  20854990.785   111286156.486       -2459.883          50.000    20854995.888    86555898.552       -1913.271          46.000  
R18  20895242.876   111540187.675       -3656.167          49.000    20895250.028    86753490.202       -2843.583          46.000  
R12  20879611.516   111535188.292       -3117.012          49.000    20879619.046    86749636.106       -2424.376          47.000  
R04  21750344.155   116472204.004        1504.661          46.000    21750347.202    90589469.970        1170.324          44.000  
R14  21644583.270   115377769.025        3455.604          50.000    21644595.537    89738428.328        2687.715          46.000  
G11  21891672.974   115041526.984         481.569          47.000    21891675.814    89642901.620         375.324          46.000  
S31  37979467.388   199583436.721        -820.253          43.000  
S33  38930634.664   204581837.227        -819.542          42.000  
E03  23498416.995   123485078.924        -123.220          46.000    23498424.075    94618491.859         -94.350          52.000  
R17  23055999.666                3      -4894.849          24.000    23056218.346                       -3806.055          29.000  
R03  19459519.504   104168387.477        -160.669          51.000    19459518.635    81019887.708        -125.007          49.000  
R13  19288829.486   103001524.263         273.310          43.000    19288832.883    80112286.447         212.788          44.000  
R19  21099731.071   112869449.348        -809.273          42.000    21099733.506    87787322.890        -629.554          45.000  
E05  22103118.702   116152656.256       -1856.499          45.000    22103127.058    89000102.195       -1422.340          52.000  
G16  24053038.769                3      -1214.246          25.000                                                                  
E15  24146112.308   126888700.023        -504.650          45.000    24146121.001    97226475.770        -386.764          50.000  
G30  21339137.470   112138078.200        2228.756          47.000    21339143.423    87380429.620        1736.674          44.000  
E34  24002031.393   126131477.191       -3098.526          48.000    24002040.175    96646207.765       -2374.120          51.000  
E24  25650530.410   134794569.482         147.019          44.000    25650538.402   103284262.082         112.741          42.000  
E25  25781163.737   135481054.333        1778.247          43.000    25781179.586   103810257.702        1362.607          48.000  
E09                                                                  27447702.690                       -2069.939          28.000  
> 2024 04 16 16 29 30.4970000  0 26                     
G03  22583467.458   118676782.234       -3661.080          44.000    22583477.980    92475391.267       -2852.828          41.000  
G04  22081698.738   116040034.098       -3096.778          35.000    22081705.488    90420874.990       -2412.895          37.000  
G06  20444112.416   107434559.991       -2022.331          48.000    20444117.162    83715271.055       -1575.771          47.000  
G07  19244923.451   101132900.859         637.722          48.000    19244923.047    78804926.563         496.734          46.000  
G09  20062939.114   105431456.107       -1496.246          50.000    20062940.333    82154394.655       -1165.881          45.000  
R02  20868835.798   111360038.989       -2465.300          49.000    20868841.445    86613362.599       -1917.543          46.000  
R18  20915838.299   111650125.162       -3672.857          49.000    20915845.443    86838996.938       -2856.553          46.000  
R12  20897184.031   111629045.639       -3139.729          50.000    20897188.644    86822636.156       -2442.045          45.000  
R04  21741915.914   116427068.804        1504.617          47.000    21741919.749    90554365.029        1170.198          45.000  
R14  21625151.751   115274190.095        3449.775          49.000    21625163.546    89657867.409        2683.208          47.000  
G11  21888978.192   115027364.034         462.980          47.000    21888981.079    89631865.608         360.722          45.000  
S31  37984151.486   199608053.296        -820.561          43.000  
S33  38935317.228   204606444.887        -820.498          42.000  
E03  23499130.073   123488827.009        -126.502          46.000    23499137.413    94621363.837         -97.056          52.000  
R17  23083422.631                3      -4893.365          18.000    23083560.572                3      -3805.942          17.000  
R03  19460436.077   104173296.168        -166.368          51.000    19460436.848    81023705.618        -129.491          50.000  
R13  19287368.050   102993723.652         246.884          42.000    19287371.757    80106219.413         192.013          45.000  
R19  21104344.783   112894132.791        -836.047          42.000    21104347.587    87806521.061        -650.128          44.000  
E05  22113721.982   116208377.349       -1858.164          45.000    22113730.691    89042797.557       -1423.830          52.000  
G16  24060018.575                2      -1230.065          29.000                                                                  
E15  24149038.063   126904075.157        -520.026          45.000    24149046.909    97238256.737        -398.477          50.000  
G30  21326447.877   112071394.138        2217.123          47.000    21326453.425    87328468.234        1727.725          43.000  
E34  24019748.624   126224582.650       -3108.326          48.000    24019757.886    96717548.211       -2381.706          51.000  
E24  25649724.994   134790342.457         134.815          43.000    25649734.167   103281023.308         103.536          43.000  
E25  25771019.292   135427746.237        1775.550          43.000    25771035.776   103769411.562        1360.582          49.000  
E09                                                                  27463128.537                3      -2068.830          26.000  
