     3.00           OBSERVATION DATA    M: Mixed            RINEX VERSION / TYPE
CONVBIN 2.4.3                           20240416 022942 UTC PGM / RUN BY / DATE 
format: u-blox UBX                                          COMMENT             
log: /home/regis/git/gnsspwv/obsdata/VERT00CHL/2024-04-16/VECOMMENT             
{self.marker}                                               MARKER NAME         
                                                            MARKER NUMBER       
GEODETIC                                                    MARKER TYPE         
{self.observer}     {self.institution}                      OBSERVER / AGENCY   
UNKNOWN             UBLOX-ZED-F9P                           REC # / TYPE / VERS 
UNKNOWN             TWIVSP6037L                             ANT # / TYPE        
  1713381.0000 -5047934.0000 -3490983.0000                  APPROX POSITION XYZ 
        0.0000        0.0000        0.0000                  ANTENNA: DELTA H/E/N
G    8 C1C L1C D1C S1C C2L L2L D2L S2L                      SYS / # / OBS TYPES 
R    8 C1C L1C D1C S1C C2C L2C D2C S2C                      SYS / # / OBS TYPES 
E    8 C1C L1C D1C S1C C7Q L7Q D7Q S7Q                      SYS / # / OBS TYPES 
S    4 C1C L1C D1C S1C                                      SYS / # / OBS TYPES 
  2024    04    16    02    15   00.0030000     GPS         TIME OF FIRST OBS   
  2024    04    16    02    29   30.0030000     GPS         TIME OF LAST OBS    
                                                            END OF HEADER       
> 2024 04 16 02 15 00.0030000  0 24                     
G25  21724267.038   114161842.2811         91.766          48.000    21724266.957    88957299.2841         71.472          44.000  
G24  23404913.816   122993637.8501      -3892.435          39.000    23404914.687    95839218.2551      -3033.131          45.000  
G32  24535671.451   128935824.7061      -2341.748          50.000    24535675.908   100469493.7881      -1824.397          44.000  
E09  27554974.219   144802350.3961      -1388.356          47.000    27554984.757   110952510.5301      -1063.867          45.000  
R16  21459496.805   114632756.1851      -2124.487          51.000    21459496.739    89158801.6191      -1652.424          48.000  
R09  20860680.529   111394886.4331       1110.967          52.000    20860678.661    86640563.9871        864.079          51.000  
R10  23890894.244                3       2612.092          26.000                                                                  
R20  22621862.296   120969259.9111       3276.794          37.000    22621867.682    94087216.9041       2548.773          37.000  
G29  21881095.211   114985951.7671        544.067          49.000    21881094.162    89599477.0451        423.895          44.000  
S33  40622632.598   213473371.2273       -710.908          39.000  
S31  39669402.853   208464119.0041       -710.231          45.000  
G28  23954913.528   125883915.9451       2261.382          44.000    23954911.161    98091336.8951       1762.005          42.000  
G11  23553662.250   123775593.8231      -2050.520          42.000    23553660.620    96448619.6141      -1597.897          44.000  
R18  22281779.548   118941720.7051      -4093.685          49.000    22281778.582    92510255.4401      -3183.885          46.000  
R19  20272692.546   108445570.9361      -1036.769          43.000    20272690.013    84346279.1801       -806.261          46.000  
E04  27419219.798   144088986.2391      -3085.606          31.000    27419231.015   110405909.6981      -2364.257          39.000  
G12  22383139.494   117624190.0711      -1483.082          48.000    22383137.837    91655205.1521      -1155.840          47.000  
E33  25845834.225   135820766.9481       1803.551          41.000    25845840.531   104070484.6131       1383.056          41.000  
E31  25851306.319   135849640.2541        677.565          46.000    25851312.946   104092646.4451        519.181          50.000  
G20  25649344.800   134788308.6101       1151.359          39.000                                                                  
E13  28448121.949   149495885.1371      -2925.679          37.000    28448122.558   114548875.5721      -2241.718          45.000  
E14  20400714.504   107206576.2051      -1256.947          51.000    20400718.906    82145257.2121       -963.055          54.000  
E26  25260604.131   132745704.0051       -552.261          48.000    25260606.687   101714428.6041       -423.261          54.000  
E21  27862217.607   146416909.7901      -2328.487          42.000    27862222.590   112189579.0381      -1784.265          46.000  
> 2024 04 16 02 15 30.0030000  0 24                     
G25  21723757.553   114159164.976          86.566          49.000    21723758.930    88955212.693          67.383          47.000  
G24  23427164.149   123110594.2371      -3902.495          44.000    23427165.406    95930327.358       -3040.722          43.000  
G32  24549075.901   129006267.484       -2354.518          48.000    24549079.630   100524382.425       -1834.633          46.000  
E09  27562934.701   144844184.680       -1400.424          38.000    27562943.010   110984567.502       -1073.638          42.000  
R16  21471467.740   114696701.864       -2138.484          51.000    21471467.523    89208537.076       -1663.333          48.000  
R09  20854465.579   111361701.963        1101.245          52.000    20854464.592    86614753.777         856.533          51.000  
R10  23876183.243                        2614.342          29.000                                                                  
R20  22603510.690   120871131.262        3264.719          38.000    22603516.096    94010894.631        2539.326          42.000  
G29  21878028.903   114969838.475         530.145          49.000    21878027.704    89586921.655         413.013          44.000  
S33  40626691.332   213494698.2001       -710.796          41.000  
S31  39673456.926   208485426.160        -710.354          39.000  
G28  23942030.888   125816218.666        2251.950          43.000    23942028.683    98038585.777        1754.950          43.000  
G11  23565421.308   123837386.498       -2068.928          43.000    23565419.393    96496769.798       -1612.125          45.000  
R18  22304827.772   119064749.710       -4108.227          50.000    22304825.869    92605944.737       -3195.227          47.000  
R19  20278582.501   108477079.049       -1063.974          45.000    20278580.369    84370785.462        -827.581          50.000  
E04  27436847.194   144181619.173       -3090.105          37.000    27436856.855   110476859.3831      -2367.604          42.000  
G12  22391623.195   117668769.281       -1488.733          49.000    22391620.468    91689942.074       -1160.048          47.000  
E33  25835561.777   135766780.170        1795.654          49.000    25835566.796   104029119.739        1375.704          56.000  
E31  25847440.981   135829324.640         676.784          46.000    25847446.905   104077080.033         518.614          50.000  
G20  25642791.973   134753875.039        1144.496          39.000                                                                  
E13  28464849.224   149583794.115       -2934.542          35.000    28464850.830   114616234.480       -2248.747          44.000  
E14  20407975.579   107244737.593       -1287.121          48.000    20407980.553    82174497.983        -986.158          51.000  
E26  25263799.319   132762494.142        -567.144          48.000    25263801.824   101727293.783        -434.510          54.000  
E21  27875516.168   146486801.436       -2330.790          41.000    27875522.127   112243132.377       -1786.018          45.000  
> 2024 04 16 02 16 00.0030000  0 24                     
G25  21723279.481   114156651.022          81.262          48.000    21723281.126    88953253.654          63.361          45.000  
G24  23449472.630   123227821.653       -3912.396          46.000    23449472.658    96021670.1821      -3048.636          42.000  
G32  24562553.606   129077099.290       -2367.139          47.000    24562557.250   100579568.2001      -1844.582          45.000  
E09  27570967.712   144886400.717       -1413.485          45.000    27570975.356   111016915.575       -1082.775          43.000  
R16  21483517.129   114761073.224       -2152.565          51.000    21483517.561    89258603.596       -1674.171          49.000  
R09  20848306.848   111328818.342        1091.343          53.000    20848305.859    86589178.027         848.762          52.000  
R10  23861462.441                        2615.950          29.000                                                                  
R20  22585227.619   120773360.2561       3252.244          39.000    22585238.004    93934868.5923       2529.907          49.000  
G29  21875043.159   114954149.264         516.229          49.000    21875041.933    89574696.355         402.319          43.000  
S33  40630751.462   213516034.499        -711.165          48.000  
S31  39677512.949   208506743.728        -710.311          44.000  
G28  23929201.728   125748804.333        2242.836          43.000    23929200.564    97986055.155        1747.601          43.000  
G11  23577286.685   123899737.012       -2087.363          44.000    23577284.873    96545354.667       -1626.562          45.000  
R18  22327959.088   119188222.518       -4122.939          50.000    22327956.107    92701979.224       -3206.750          45.000  
R19  20284626.571   108509410.310       -1091.198          42.000    20284624.151    84395932.436        -848.846          46.000  
E04  27454498.155   144274379.957       -3093.889          37.000    27454507.281   110547936.948       -2370.342          41.000  
G12  22400139.274   117713521.568       -1494.388          50.000    22400137.079    91724813.896       -1164.438          47.000  
E33  25825338.416   135713050.250        1786.223          45.000    25825343.063   103987944.2381       1369.799          43.000  
E31  25843581.404   135809037.862         675.932          47.000    25843586.277   104061535.709         517.901          50.000  
G20  25636281.602   134719661.884        1137.038          38.000                                                                  
E13  28481631.744   149671988.502       -2944.453          35.000    28481633.860   114683812.124       -2256.009          44.000  
E14  20415410.054   107283810.097       -1317.327          50.000    20415415.475    82204436.851       -1009.247          53.000  
E26  25267079.403   132779736.374        -582.150          47.000    25267082.578   101740505.470        -446.082          54.000  
E21  27888830.807   146556772.455       -2333.513          41.000    27888837.538   112296746.496       -1787.991          46.000  
> 2024 04 16 02 16 30.0030000  0 24                     
G25  21722832.297   114154301.912          75.525          49.000    21722833.541    88951423.311          58.966          46.000  
G24  23471837.559   123345350.289       -3922.493          45.000    23471838.490    96113250.657       -3056.499          41.000  
G32  24576103.784   129148313.450       -2380.423          39.000    24576108.488   100635060.955       -1854.624          37.000  
E09  27579073.221   144929001.976       -1426.398          38.000    27579080.284   111049560.833       -1093.101          41.000  
R16  21495648.278   114825871.400       -2167.060          51.000    21495648.377    89309002.039       -1685.481          49.000  
R09  20842205.405   111296238.241        1081.028          50.000    20842204.520    86563838.032         840.932          50.000  
R10  23846739.075   127116558.6351       2616.797          33.000                                                                  
R20  22567019.118                1       3239.524          31.000    22567027.217                1       2520.408          30.000  
G29  21872137.886   114938885.636         501.855          51.000    21872137.936    89562802.842         391.077          46.000  
S33  40634813.409   213537380.654        -712.055          40.000  
S31  39681571.564   208528070.974        -711.077          44.000  
G28  23916427.484   125681676.268        2232.802          42.000    23916427.108    97933747.615        1739.698          43.000  
G11  23589257.305   123962644.747       -2106.182          44.000    23589255.669    96594373.760       -1641.152          44.000  
R18  22351171.706   119312135.726       -4137.618          50.000    22351169.830    92798356.221       -3218.163          47.000  
R19  20290823.820   108542561.044       -1118.598          43.000    20290821.031    84421715.861        -870.127          47.000  
E04  27472172.601   144367265.929       -3098.423          32.000    27472182.861   110619109.696       -2374.280          33.000  
G12  22408688.585   117758448.303       -1500.382          50.000    22408686.223    91759821.670       -1169.093          47.000  
E33  25815162.772   135659579.780        1778.014          43.000    25815168.347   103946980.0841       1362.511          45.000  
E31  25839727.027   135788780.831         674.799          48.000    25839731.182   104046014.185         517.071          50.000  
G20  25629812.344   134685672.300        1129.267          36.000                                                                  
E13  28498468.572   149760467.306       -2953.890          34.000    28498470.364   114751607.697       -2263.347          44.000  
E14  20423017.311   107323789.883       -1347.776          49.000    20423023.609    82235070.586       -1032.645          52.000  
E26  25270446.464   132797431.740        -597.270          47.000    25270449.193   101754064.605        -457.622          53.000  
E21  27902162.352   146626823.971       -2336.138          41.000    27902167.772   112350422.257       -1790.065          46.000  
> 2024 04 16 02 17 00.0030000  0 24                     
G25  21722415.393   114152110.902          70.929          49.000    21722415.837    88949716.462          55.176          45.000  
G24  23494258.399   123463169.038       -3931.132          43.000    23494260.455                       -3065.766          30.000  
G32  24589725.959   129219901.752       -2391.656          44.000    24589732.768   100690835.3061      -1863.702          42.000  
E09  27587249.601   144971979.221       -1438.083          45.000    27587255.608   111082493.124       -1102.121          44.000  
R16  21507857.819   114891089.383       -2180.271          52.000    21507857.347    89359727.049       -1695.738          49.000  
R09  20836160.312   111263956.484        1071.772          52.000    20836158.848    86538730.090         833.612          51.000  
R10  23832007.867   127038021.843        2618.926          32.000                                                                  
R20  22548877.772   120578972.0171       3227.727          37.000    22548887.347    93783663.5901       2510.951          35.000  
G29  21869312.441   114924039.731         488.519          47.000    21869312.618    89551235.060         380.664          43.000  
S33  40638876.062                        -710.519          31.000  
S31  39685629.460   208549398.881        -710.244          46.000  
G28  23903706.532   125614829.244        2224.169          41.000    23903706.886    97881659.053        1733.052          43.000  
G11  23601332.288   124026100.539       -2123.649          45.000    23601330.383    96643819.900       -1655.042          44.000  
R18  22374465.031   119436476.993       -4151.102          51.000    22374463.624    92895066.167       -3228.646          48.000  
R19  20297173.018   108576525.167       -1144.908          43.000    20297170.497    84448132.425        -890.360          45.000  
E04  27489871.661   144460268.564       -3101.681          35.000    27489880.056   110690371.757       -2376.337          44.000  
G12  22417269.399   117803542.039       -1505.222          50.000    22417267.014    91794959.607       -1173.025          46.000  
E33  25805035.695   135606368.661        1770.236          50.000    25805040.605   103906207.987        1356.280          54.000  
E31  25835875.707   135768545.914         674.750          47.000    25835880.580   104030509.601         516.993          50.000  
G20  25623384.976   134651901.556        1122.624          39.000                                                                  
E13  28515359.016   149849220.959       -2962.063          34.000    28515359.848   114819613.850       -2269.977          44.000  
E14  20430796.433   107364667.834       -1376.938          48.000    20430801.911    82266393.173       -1055.046          51.000  
E26  25273898.391   132815571.969        -611.530          48.000    25273900.777   101767964.542        -468.595          53.000  
E21  27915508.323   146696948.570       -2338.332          42.000    27915512.186   112404154.023       -1791.525          45.000  
> 2024 04 16 02 17 30.0030000  0 24                     
G25  21722027.730   114150072.337          65.503          47.000    21722027.751    88948127.996          51.080          45.000  
G24  23516732.894   123581271.940       -3941.482          48.000    23516734.516    96297103.1671      -3071.196          44.000  
G32  24603415.106   129291820.8693      -2404.419          38.000    24603423.115   100746905.448       -1873.846          33.000  
E09  27595496.768   145015321.328       -1450.722          42.000    27595502.947   111115655.1961      -1111.622          44.000  
R16  21520144.443   114956722.277       -2194.617          51.000    21520144.962    89410774.726       -1706.836          49.000  
R09  20830170.381   111231971.244        1061.385          52.000    20830168.608    86513853.025         825.444          51.000  
R10  23817264.982                        2620.454          28.000                                                                  
R20  22530803.597   120482328.7841       3215.274          46.000    22530817.197    93708528.5941       2500.397          37.000  
G29  21866565.218   114909605.201         474.359          46.000    21866566.122    89539987.752         369.739          42.000  
S33  40642937.625   213580075.8301       -711.559          33.000  
S31  39689687.240   208570724.018        -710.723          47.000  
G28  23891039.135   125548260.765        2214.343          41.000    23891039.519    97829787.559        1725.335          43.000  
G11  23613510.719   124090097.978       -2142.119          44.000    23613508.700    96693688.108       -1669.375          45.000  
R18  22397836.336   119561237.028       -4165.405          50.000    22397836.182    92992101.825       -3239.889          48.000  
R19  20303673.326   108611295.103       -1172.650          42.000    20303670.753    84475175.579        -912.001          43.000  
E04  27507579.954   144553381.734       -3105.415          30.000    27507597.491   110761719.155       -2379.490          44.000  
G12  22425882.122   117848798.563       -1511.228          50.000    22425878.955    91830224.357       -1177.531          46.000  
E33  25794957.119   135553405.542        1761.110          43.000    25794962.053   103865625.3121       1350.237          44.000  
E31  25832027.920   135748328.264         673.722          46.000    25832033.587   104015018.240         516.181          50.000  
G20  25617000.367   134618347.323        1114.824          40.000                                                                  
E13  28532298.883   149938242.664       -2972.363          33.000    28532299.904   114887825.336       -2276.971          44.000  
E14  20438743.947   107406434.031       -1406.763          51.000    20438749.022    82298396.561       -1077.973          57.000  
E26  25277433.659   132834151.513        -626.399          47.000    25277436.395   101782200.831        -480.053          52.000  
E21  27928865.089   146767141.511       -2340.890          41.000    27928870.185   112457938.183       -1793.618          46.000  
> 2024 04 16 02 18 00.0030000  0 24                     
G25  21721670.092   114148193.409          60.095          48.000    21721669.885    88946663.990          46.869          45.000  
G24  23539262.331   123699662.081       -3950.820          42.000    23539263.538    96389355.081       -3078.067          37.000  
G32  24617181.590   129364147.9211      -2416.852          48.000    24617184.419   100803251.8161      -1883.209          42.000  
E09  27603814.523   145059021.3981      -1463.182          50.000    27603821.261   111149154.624       -1121.061          53.000  
R16  21532509.699   115022776.370       -2208.723          51.000    21532509.687    89462150.037       -1717.829          48.000  
R09  20824237.302   111200289.106        1050.991          51.000    20824235.696    86489211.445         817.478          49.000  
R10  23802507.836                        2622.557          31.000                                                                  
R20  22512807.991   120386082.3431       3202.133          39.000    22512814.971    93633674.0981       2490.687          43.000  
G29  21863896.893   114895586.460         460.272          46.000    21863898.289    89529064.070         358.850          44.000  
S33  40646999.916   213601422.947        -711.602          47.000  
S31  39693745.992   208592051.689        -710.752          44.000  
G28  23878426.258   125481978.659        2204.742          42.000    23878425.915    97778139.197        1717.886          43.000  
G11  23625792.262   124154640.882       -2160.430          44.000    23625791.215    96743981.315       -1683.410          45.000  
R18  22421287.185   119686417.000       -4179.521          51.000    22421287.033    93089464.109       -3250.724          49.000  
R19  20310323.830   108646875.306       -1199.433          44.000    20310321.563    84502849.593        -932.987          49.000  
E04  27525330.463                1      -3109.148          30.000    27525336.635   110833153.022       -2382.507          41.000  
G12  22434526.038   117894223.211       -1516.909          50.000    22434522.920    91865620.176       -1181.870          46.000  
E33  25784927.199   135500705.4541       1752.151          46.000    25784933.288   103825240.5241       1340.340          37.000  
E31  25828184.692   135728133.271         672.814          47.000    25828190.624   103999544.250         515.524          51.000  
G20  25610657.953   134585017.720        1107.402          42.000                                                                  
E13  28549290.872   150027535.779       -2981.248          34.000    28549291.902   114956244.853       -2284.005          45.000  
E14  20446861.243   107449086.692       -1436.545          49.000    20446866.389    82331077.712       -1100.739          51.000  
E26  25281054.359   132853176.277        -641.510          48.000    25281056.871   101796778.251        -491.533          53.000  
E21  27942235.738   146837408.439       -2343.352          42.000    27942241.657   112511779.030       -1795.567          47.000  
> 2024 04 16 02 18 30.0030000  0 24                     
G25  21721341.776   114146473.290          55.011          48.000    21721342.355    88945324.101          42.773          45.000  
G24  23561845.037   123818334.566       -3960.200          42.000    23561847.064    96481827.093       -3086.115          37.000  
G32  24631012.651   129436837.742       -2428.265          41.000    24631015.147                1      -1892.212          29.000  
E09  27612202.758   145103103.201       -1475.396          41.000    27612210.559   111182930.328       -1130.257          47.000  
R16  21544954.006   115089249.536       -2222.511          51.000    21544953.615    89513851.279       -1728.694          49.000  
R09  20818360.709   111168910.762        1040.988          51.000    20818359.394    86464805.865         809.727          51.000  
R10  23787750.219                        2623.689          30.000                                                                  
R20  22494876.516   120290206.714        3189.325          42.000    22494885.557    93559105.558        2480.631          42.000  
G29  21861308.329   114881981.453         446.893          48.000    21861309.304    89518462.467         348.163          44.000  
S33  40651062.570   213622769.266        -711.084          38.000  
S31  39697803.738   208613366.1451       -710.826          48.000  
G28  23865868.107   125415983.400        2195.396          42.000    23865866.916    97726714.351        1710.502          42.000  
G11  23638177.492   124219725.698       -2178.363          45.000    23638177.323    96794696.818       -1697.422          46.000  
R18  22444815.120   119812010.490       -4193.141          50.000    22444814.398    93187148.040       -3261.302          49.000  
R19  20317126.057   108683261.035       -1226.158          42.000    20317124.211    84531149.587        -953.660          47.000  
E04  27543084.014                1      -3112.559          28.000    27543096.768   110904669.449       -2385.258          40.000  
G12  22443201.269   117939814.599       -1522.255          50.000    22443198.753    91901145.981       -1186.132          46.000  
E33  25774946.994   135448257.721        1744.145          51.000    25774951.539   103785039.318        1336.493          54.000  
E31  25824345.737   135707959.052         672.182          47.000    25824351.293   103984086.169         515.125          51.000  
G20  25604358.620   134551913.677        1099.703          42.000                                                                  
E13  28566332.427   150117096.450       -2989.318          32.000    28566334.587   115024869.415       -2290.672          44.000  
E14  20455145.653   107492623.772       -1465.707          49.000    20455151.469    82364437.176       -1123.132          52.000  
E26  25284758.872   132872643.695        -656.097          48.000    25284761.757   101811694.664        -502.804          53.000  
E21  27955620.998   146907747.569       -2345.682          42.000    27955626.178   112565675.239       -1797.344          45.000  
> 2024 04 16 02 19 00.0030000  0 24                     
G25  21721044.916   114144910.734          49.390          46.000    21721044.609    88944106.405          38.702          43.000  
G24  23584480.755   123937286.375       -3969.472          42.000    23584482.201    96574516.984       -3093.424          45.000  
G32  24644913.163   129509887.932       -2440.912          48.000    24644915.642   100916804.0171      -1901.856          44.000  
E09  27620660.465   145147565.6781      -1487.604          40.000    27620669.412   111216988.0821      -1139.988          46.000  
R16  21557474.882   115156142.243       -2236.733          50.000    21557477.360    89565878.780       -1739.656          49.000  
R09  20812542.314   111137838.976        1030.618          52.000    20812540.777    86440638.775         801.603          50.000  
R10  23772968.548                3       2621.972          24.000                                                                  
R20  22477015.447   120194698.8633       3176.545          39.000    22477022.895    93484829.1681       2470.763          40.000  
G29  21858798.406   114868789.562         432.794          48.000    21858799.374    89508182.717         337.195          45.000  
S33  40655124.449   213644114.543        -711.738          42.000  
S31  39701862.103   208634694.148        -710.894          38.000  
G28  23853365.202   125350277.125        2185.448          44.000    23853363.115    97675514.668        1702.953          42.000  
G11  23650665.137   124285350.488       -2196.378          45.000    23650664.768    96845833.100       -1711.489          46.000  
R18  22468418.670   119938012.725       -4206.870          50.000    22468418.303    93285149.827       -3271.990          48.000  
R19  20324078.452   108720450.601       -1252.914          43.000    20324076.687    84560074.550        -974.474          49.000  
E04  27560871.188                       -3116.818          30.000    27560876.770   110976266.424       -2388.012          43.000  
G12  22451908.526   117985572.954       -1528.068          49.000    22451906.056    91936801.949       -1190.565          46.000  
E33  25765017.331   135396065.575        1735.250          44.000    25765021.749   103745044.102        1329.172          43.000  
E31  25820510.906   135687805.297         671.513          47.000    25820516.094   103968643.775         514.505          50.000  
G20  25598101.410   134519037.148        1091.910          42.000                                                                  
E13  28583426.994   150206922.534       -2998.043          33.000    28583427.457   115093697.273       -2297.550          44.000  
E14  20463597.083   107537041.124       -1495.109          52.000    20463603.579    82398471.754       -1145.620          58.000  
E26  25288548.087   132892553.749        -670.963          49.000    25288550.646   101826950.306        -514.135          53.000  
E21  27969020.114   146978158.859       -2348.091          42.000    27969025.357   112619626.711       -1799.177          46.000  
> 2024 04 16 02 19 30.0030000  0 24                     
G25  21720778.127   114143507.001          44.464          49.000    21720777.478    88943012.372          34.772          46.000  
G24  23607169.966   124056513.270       -3978.400          46.000    23607171.502    96667423.6441      -3099.953          44.000  
G32  24658880.516   129583294.2241      -2452.362          44.000    24658881.777   100974001.369       -1910.889          38.000  
E09  27629188.635   145192359.5861      -1499.579          41.000    27629196.794   111251331.257       -1148.783          42.000  
R16  21570076.548   115223454.591       -2250.467          50.000    21570077.796    89618232.613       -1750.325          47.000  
R09  20806781.994   111107075.127        1020.530          52.000    20806780.219    86416711.169         793.931          51.000  
R10  23758197.779   126644516.8561       2626.284          32.000                                                                  
R20  22459232.513   120099594.1561       3163.828          39.000    22459239.185    93410831.904        2460.663          38.000  
G29  21856367.238   114856012.168         419.342          48.000    21856366.479    89498226.851         326.782          43.000  
S33  40659186.736   213665460.027        -711.092          44.000  
S31  39705920.109   208656020.688        -710.787          41.000  
G28  23840917.601   125284861.899        2175.978          44.000    23840915.009    97624541.798        1695.588          42.000  
G11  23663256.806   124351513.406       -2214.146          46.000    23663254.821    96897388.682       -1725.286          47.000  
R18  22492098.926   120064419.131       -4219.903          51.000    22492097.443    93383466.006       -3282.172          48.000  
R19  20331180.495   108758441.892       -1279.483          41.000    20331178.508    84589623.028        -995.206          46.000  
E04  27578674.194                1      -3119.951          28.000    27578677.272   111047941.453       -2390.303          46.000  
G12  22460647.348   118031498.508       -1533.439          49.000    22460644.922    91972588.468       -1194.731          44.000  
E33  25755135.940   135344137.055        1727.045          44.000    25755140.659   103705254.920        1323.263          49.000  
E31  25816679.955   135667671.810         671.217          48.000    25816684.770   103953216.904         514.259          50.000  
G20  25591888.585   134486390.641        1084.718          41.000                                                                  
E13  28600565.910                1      -3007.019          30.000    28600570.918   115162726.762       -2304.126          44.000  
E14  20472216.013   107582332.610       -1524.035          50.000    20472222.115    82433175.883       -1167.748          56.000  
E26  25292420.627   132912906.345        -685.437          48.000    25292423.285   101842545.302        -525.222          53.000  
E21  27982432.918   147048642.208       -2350.498          42.000    27982438.691   112673633.381       -1800.956          47.000  
> 2024 04 16 02 20 00.0030000  0 24                     
G25  21720539.841   114142256.801          39.294          47.000    21720539.760    88942038.166          30.560          43.000  
G24  23629909.144   124176008.355       -3987.457          49.000    23629910.745    96760536.882       -3107.202          46.000  
G32  24672916.109   129657047.301       -2463.989          41.000    24672916.091   101031471.138       -1919.800          34.000  
E09  27637784.497   145237536.696       -1511.643          43.000    27637792.265   111285948.997       -1158.347          47.000  
R16  21582755.970   115291180.082       -2264.425          51.000    21582755.201    89670907.784       -1761.159          47.000  
R09  20801078.542   111076615.718        1010.254          51.000    20801076.348    86393020.320         785.706          47.000  
R10  23743419.471   126565704.157        2628.130          35.000                                                                  
R20  22441517.259   120004872.868        3150.459          36.000    22441524.175    93337162.129        2450.735          40.000  
G29  21854012.271   114843639.887         405.774          46.000    21854011.924    89488586.482         316.040          41.000  
S33  40663247.109   213686796.985        -710.901          39.000  
S31  39709976.060   208677339.709        -710.481          44.000  
G28  23828523.704   125219733.646        2166.198          44.000    23828521.561    97573792.529        1688.053          41.000  
G11  23675948.691   124418206.225       -2231.889          46.000    23675944.848    96949357.118       -1738.936          45.000  
R18  22515852.606   120191218.527       -4233.119          51.000    22515851.732    93482087.805       -3292.337          49.000  
R19  20338430.619   108797226.951       -1305.812          43.000    20338428.635    84619788.900       -1015.973          46.000  
E04  27596492.699                       -3121.992          30.000    27596496.437   111119686.406       -2392.531          37.000  
G12  22469417.492   118077584.818       -1538.936          50.000    22469414.096    92008500.418       -1199.167          44.000  
E33  25745302.716   135292465.850        1718.618          42.000    25745308.398   103665662.851        1316.803          48.000  
E31  25812851.071   135647552.093         670.471          47.000    25812856.011   103937800.590         513.721          50.000  
G20  25585719.092   134453970.132        1076.929          40.000                                                                  
E13  28617755.699   150387329.5371      -3016.260          30.000    28617763.027   115231951.319       -2310.534          43.000  
E14  20480998.813   107628488.246       -1552.765          51.000    20481004.758    82468542.324       -1189.778          57.000  
E26  25296377.354   132933693.887        -700.049          49.000    25296379.035   101858473.387        -536.454          53.000  
E21  27995858.322   147119191.245       -2352.636          43.000    27995863.205   112727690.421       -1802.733          47.000  
> 2024 04 16 02 20 30.0030000  0 24                     
G25  21720330.221   114141155.146          34.485          47.000    21720330.358    88941179.439          26.917          44.000  
G24  23652697.301   124295763.2181      -3995.854          42.000    23652698.779    96853846.5451      -3113.638          39.000  
G32  24687016.103   129731140.445       -2475.403          47.000    24687016.954   101089206.1381      -1928.858          45.000  
E09  27646448.325   145283062.846       -1523.203          45.000    27646455.444   111320832.720       -1167.252          49.000  
R16  21595509.547   115359314.199       -2277.710          51.000    21595510.150    89723900.838       -1771.539          47.000  
R09  20795431.019   111046458.371        1000.468          51.000    20795428.240    86369564.672         778.146          50.000  
R10  23728622.615   126486840.259        2630.316          34.000                                                                  
R20  22423874.382   119910532.764        3137.950          34.000    22423882.354    93263787.826        2441.080          37.000  
G29  21851733.493   114831667.799         392.627          47.000    21851733.335    89479258.045         305.963          44.000  
S33  40667305.161   213708120.930        -710.401          43.000  
S31  39714029.848   208698645.733        -709.735          42.000  
G28  23816183.485   125154889.602        2156.924          44.000    23816182.334    97523264.766        1680.525          42.000  
G11  23688739.250   124485422.045       -2249.021          46.000    23688736.099    97001733.150       -1752.451          45.000  
R18  22539677.675   120318401.383       -4245.525          50.000    22539677.328    93581007.896       -3302.037          49.000  
R19  20345828.825   108836798.707       -1331.979          42.000    20345825.800    84650566.686       -1036.091          45.000  
E04  27614323.567   145114259.0301      -3125.457          32.000    27614332.003   111191498.657       -2394.674          46.000  
G12  22478216.207   118123826.406       -1543.772          50.000    22478213.766    92044533.118       -1202.893          46.000  
E33  25735517.592   135241045.470        1710.015          47.000    25735523.786   103626287.4861       1310.232          51.000  
E31  25809023.143   135627441.021         670.413          47.000    25809028.747   103922390.888         513.791          50.000  
G20  25579592.898   134421773.238        1069.773          41.000                                                                  
E13  28634996.382   150477913.8431      -3023.916          30.000    28635001.858   115301365.557       -2316.805          43.000  
E14  20489944.240   107675496.815       -1580.873          48.000    20489950.709    82504561.390       -1211.311          53.000  
E26  25300414.180   132954911.708        -714.198          48.000    25300416.396   101874731.372        -547.319          52.000  
E21  28009294.744   147189801.031       -2354.426          43.000    28009299.725   112781794.010       -1803.990          47.000  
> 2024 04 16 02 21 00.0030000  0 24                     
G25  21720148.429   114140201.186          29.431          46.000    21720149.226    88940435.739          22.913          43.000  
G24  23675532.910   124415772.730       -4004.550          39.000    23675537.146    96947373.6481      -3120.643          40.000  
G32  24701179.052   129805568.376       -2486.310          42.000    24701180.196   101147201.902       -1937.152          40.000  
E09  27655177.974   145328938.014       -1534.892          46.000    27655184.961   111355971.0701      -1176.106          50.000  
R16  21608341.127   115427855.261       -2291.486          51.000    21608342.450    89777210.360       -1782.288          48.000  
R09  20789839.940   111016602.863         990.220          52.000    20789836.732    86346343.679         770.101          50.000  
R10  23713814.198   126407924.697        2630.943          33.000                                                                  
R20  22406303.493   119816576.666        3125.404          42.000    22406309.094    93190712.235        2431.258          42.000  
G29  21849530.193   114820091.956         379.218          47.000    21849530.627    89470237.814         295.715          46.000  
S33  40671360.060   213729429.839        -709.895          42.000  
S31  39718080.290   208719926.3981       -709.416          46.000  
G28  23803897.947   125090330.506        2147.269          43.000    23803897.882    97472958.985        1673.003          42.000  
G11  23701628.808   124553157.487       -2266.383          46.000    23701624.904    97054514.102       -1766.054          45.000  
R18  22563573.224   120445961.491       -4258.110          50.000    22563575.279    93680221.368       -3311.958          51.000  
R19  20353372.979   108877153.455       -1357.970          42.000    20353370.691    84681953.434       -1056.307          46.000  
G12  22487045.304   118170222.329       -1548.939          50.000    22487042.665    92080686.009       -1207.039          46.000  
E33  25725781.407   135189878.632        1701.989          46.000    25725786.588   103587074.834        1304.014          48.000  
E31  25805197.649   135607336.968         670.031          47.000    25805202.855   103906986.569         513.421          50.000  
G20  25573507.707   134389800.786        1062.144          40.000                                                                  
E13  28652290.096                1      -3031.482          31.000    28652287.352   115370966.624       -2323.105          42.000  
E14  20499052.114   107723354.567       -1609.356          49.000    20499058.018    82541231.460       -1233.163          54.000  
E26  25304532.573   132976557.211        -728.608          48.000    25304535.406   101891316.962        -558.212          52.000  
E21  28022742.823   147260470.099       -2356.574          44.000    28022747.525   112835943.025       -1805.735          47.000  
E04                                                                  27632183.408   111263374.361       -2396.790          42.000  
> 2024 04 16 02 21 30.0030000  0 24                     
G25  21719995.140   114139397.426          24.542          48.000    21719996.091    88939809.535          18.988          44.000  
G24  23698418.198   124536035.384       -4012.891          47.000    23698421.715    97041073.191       -3126.856          49.000  
G32  24715405.308   129880328.230       -2497.174          44.000    24715407.614   101205455.748       -1946.185          41.000  
E09  27663973.290   145375162.036       -1546.391          42.000    27663980.864   111391390.384       -1184.993          48.000  
R16  21621248.914   115496804.271       -2304.974          51.000    21621249.697    89830837.266       -1792.713          48.000  
R09  20784305.167   110987051.979         980.013          52.000    20784302.704    86323359.300         762.225          51.000  
R10  23699001.245   126328960.027        2632.502          34.000                                                                  
R20  22388805.473   119723007.436        3112.860          40.000    22388810.030    93117937.564        2420.593          36.000  
G29  21847403.187   114808913.527         366.193          48.000    21847402.686    89461527.208         285.156          44.000  
S33  40675412.142   213750723.797        -709.725          44.000  
S31  39722128.751   208741202.062        -708.868          44.000  
G28  23791667.758   125026059.293        2137.627          44.000    23791668.033    97422877.523        1665.453          43.000  
G11  23714617.122   124621411.439       -2283.768          46.000    23714613.733    97107699.063       -1779.551          45.000  
R18  22587539.446   120573895.024       -4270.538          49.000    22587540.466    93779725.345       -3321.499          49.000  
R19  20361062.435   108918290.403       -1384.128          42.000    20361060.859    84713948.800       -1076.529          47.000  
G12  22495904.010   118216773.395       -1554.238          50.000    22495900.699    92116959.685       -1211.100          45.000  
E33  25716093.557   135138975.1081       1692.840          40.000    25716098.747   103548061.751        1296.338          41.000  
E31  25801373.582   135587240.550         669.812          47.000    25801378.296   103891588.099         513.257          50.000  
G20  25567465.735   134358055.949        1054.474          40.000                                                                  
E13  28669625.684                       -3039.341          30.000    28669618.714   115440753.475       -2329.385          41.000  
E14  20508320.455   107772057.920       -1637.477          48.000    20508325.557    82578549.777       -1254.540          52.000  
E26  25308733.270   132998630.780        -742.761          49.000    25308735.874   101908230.480        -569.111          52.000  
E21  28036202.251   147331199.150       -2358.634          44.000    28036206.791   112890138.014       -1807.282          47.000  
E04                                                                  27650049.277   111335312.167       -2398.662          40.000  
> 2024 04 16 02 22 00.0030000  0 24                     
G25  21719871.725   114138745.084          18.909          46.000    21719872.244    88939301.264          14.880          42.000  
G24  23721350.823   124656548.541       -4021.480          48.000    23721353.569    97134979.486       -3133.701          46.000  
G32  24729694.566   129955420.162       -2508.807          46.000    24729696.782   101263968.800       -1954.932          42.000  
E09  27672836.369   145421731.730       -1558.523          44.000    27672842.599   111427073.060       -1194.167          46.000  
R16  21634232.690   115566163.001       -2319.086          51.000    21634233.677    89884782.931       -1803.717          48.000  
R09  20778828.739   110957810.144         969.216          50.000    20778827.003    86300615.393         753.911          49.000  
R10  23684176.038   126249949.180        2633.508          36.000                                                                  
R20  22371378.470   119629830.521        3098.773          33.000    22371384.614    93045467.539        2409.832          35.000  
G29  21845352.276   114798133.640         352.490          48.000    21845350.667    89453127.270         274.707          42.000  
S33  40679461.978   213772003.534        -709.746          41.000  
S31  39726173.858   208762464.803        -708.706          41.000  
G28  23779493.238   124962079.745        2127.473          45.000    23779493.397    97373023.349        1657.759          44.000  
G11  23727702.339   124690183.503       -2301.337          46.000    23727700.675    97161287.784       -1793.350          45.000  
R18  22611575.144   120702198.896       -4283.199          49.000    22611575.383    93879517.349       -3331.400          49.000  
R19  20368898.626   108960208.324       -1410.739          42.000    20368897.354    84746551.478       -1097.219          48.000  
G12  22504792.136   118263480.690       -1559.837          51.000    22504788.630    92153354.805       -1215.646          45.000  
E33  25706453.182   135088323.748        1684.127          47.000    25706457.751   103509255.4761       1290.180          53.000  
E31  25797550.783   135567153.227         669.196          47.000    25797555.649   103876196.612         512.801          50.000  
G20  25561469.339   134326542.769        1046.027          41.000                                                                  
E14  20517749.167   107821603.245       -1665.784          50.000    20517753.344    82616513.198       -1276.411          52.000  
E26  25313016.619   133021133.650        -757.528          49.000    25313018.141   101925472.899        -580.442          52.000  
E21  28049671.038   147401989.811       -2360.985          42.000    28049677.941   112944380.213       -1809.009          47.000  
E13                                                                  28686996.066   115510725.623       -2335.658          40.000  
E04                                                                  27667930.716   111407308.340       -2400.984          44.000  
> 2024 04 16 02 22 30.0030000  0 24                     
G25  21719779.129   114138255.841          13.593          47.000    21719779.714    88938919.561          10.620          45.000  
G24  23744333.498   124777321.748       -4030.043          43.000    23744335.940    97229087.671       -3140.241          39.000  
G32  24744048.955   130030851.928       -2520.154          47.000    24744050.912   101322757.4331      -1963.391          42.000  
E09  27681766.287   145468659.694       -1570.363          41.000    27681773.159   111463023.4371      -1203.053          33.000  
R16  21647297.021   115635943.861       -2333.130          52.000    21647296.433    89939056.941       -1814.709          48.000  
R09  20773413.245   110928892.514         958.341          50.000    20773411.712    86278123.822         745.539          48.000  
R10  23669348.663   126170905.470        2635.145          36.000                                                                  
R20  22354027.207   119537020.1691       3085.277          44.000    22354034.810    92973314.323        2399.833          42.000  
G29  21843379.101   114787762.858         338.641          48.000    21843377.147    89445045.965         263.849          42.000  
S33  40683511.117   213793281.611        -709.391          40.000  
S31  39730219.250   208783724.836        -708.884          45.000  
G28  23767376.780   124898406.396        2117.188          45.000    23767376.823    97323407.775        1649.866          43.000  
G11  23740890.730   124759484.070       -2318.772          46.000    23740888.816    97215288.290       -1807.005          44.000  
R18  22635681.986   120830881.062       -4295.769          48.000    22635681.765    93979603.555       -3341.080          49.000  
R19  20376882.967   109002917.898       -1436.852          40.000    20376881.640    84779770.119       -1117.788          46.000  
G12  22513712.375   118310358.187       -1565.371          48.000    22513709.295    92189882.708       -1219.902          43.000  
E33  25696865.011   135037942.410        1674.023          42.000    25696869.208   103470647.445        1282.717          53.000  
E31  25793732.611   135547087.163         668.365          47.000    25793737.102   103860821.417         512.193          50.000  
G20  25555519.394   134295276.183        1038.047          41.000                                                                  
E13  28704424.563                1      -3056.472          28.000    28704421.212   115580890.840       -2342.169          39.000  
E14  20527338.040   107871998.165       -1694.150          49.000    20527342.774    82655127.512       -1298.088          54.000  
E26  25317382.424   133044077.769        -772.259          49.000    25317384.238   101943053.480        -591.719          52.000  
E21  28063157.644   147472854.355       -2363.302          43.000    28063163.071   112998679.008       -1811.026          47.000  
E04                                                                  27685829.242   111479375.264       -2403.627          45.000  
> 2024 04 16 02 23 00.0030000  0 24                     
G25  21719717.925   114137933.079           8.167          47.000    21719718.797    88938667.915           6.390          46.000  
G24  23767365.882   124898354.683       -4038.429          41.000    23767366.649    97323388.8651      -3146.633          36.000  
G32  24758467.573   130106621.562       -2531.622          41.000    24758470.603   101381798.177       -1973.151          32.000  
E09  27690764.557   145515946.910       -1582.163          39.000    27690771.241   111499255.257       -1212.004          38.000  
R16  21660439.388   115706147.901       -2347.107          52.000    21660438.263    89993660.095       -1825.592          48.000  
R09  20768059.266   110900302.049         947.635          51.000    20768058.359    86255886.817         736.970          49.000  
R10  23654513.618   126091832.624        2636.444          37.000                                                                  
R20  22336757.201   119444661.853        3072.009          39.000    22336762.315    92901480.590        2389.194          44.000  
G29  21841483.449   114777802.457         325.299          49.000    21841482.067    89437284.723         253.375          44.000  
S33  40687560.426   213814559.903        -709.174          39.000  
S31  39734264.084   208804984.933        -708.400          44.000  
G28  23755318.620   124835042.369        2107.016          44.000    23755318.635    97274033.245        1641.967          42.000  
G11  23754178.868   124829312.078       -2336.251          46.000    23754177.106    97269699.768       -1820.495          46.000  
R18  22659858.878   120959937.819       -4308.011          48.000    22659857.826    94079981.118       -3350.576          48.000  
R19  20385014.784   109046418.993       -1463.272          41.000    20385012.096    84813605.045       -1137.929          46.000  
E04  27703727.036                1      -3139.572          28.000    27703745.227   111551502.1281      -2405.509          36.000  
G12  22522665.681   118357406.379       -1571.101          49.000    22522662.235    92226543.680       -1224.142          43.000  
E33  25687328.604   134987828.173        1666.077          46.000    25687334.113   103432245.911        1276.184          48.000  
E31  25789918.086   135527043.170         668.000          47.000    25789922.972   103845463.137         511.780          50.000  
G20  25549617.093   134264259.309        1029.791          41.000                                                                  
E14  20537088.248   107923239.259       -1722.038          48.000    20537093.876    82694390.155       -1319.491          52.000  
E26  25321832.039   133067463.328        -786.755          48.000    25321834.112   101960972.258        -602.865          52.000  
E21  28076658.055   147543793.692       -2365.754          45.000    28076662.392   113053035.118       -1812.688          47.000  
E13                                                                  28721894.416   115651248.192       -2348.332          37.000  
> 2024 04 16 02 23 30.0030000  0 24                     
G25  21719687.236   114137773.014           2.521          47.000    21719688.217    88938543.104           1.788          45.000  
G24  23790446.003   125019641.183       -4047.336          42.000    23790448.200    97417897.809       -3153.580          41.000  
G32  24772949.177   130182722.890       -2542.249          47.000    24772952.577   101441097.887       -1981.165          45.000  
E09  27699829.276   145563586.722       -1593.787          46.000    27699836.841   111535766.5481      -1221.264          53.000  
R16  21673659.243   115776771.480       -2361.182          51.000    21673660.349    90048589.559       -1836.554          48.000  
R09  20762766.179   110872037.132         936.651          51.000    20762765.302    86233903.043         728.557          50.000  
R10  23639674.678   126012727.158        2637.211          39.000                                                                  
R20  22319562.477   119352712.676        3058.073          41.000    22319567.460    92829964.012        2378.550          44.000  
G29  21839665.426   114768247.346         311.719          49.000    21839664.924    89429839.264         242.810          46.000  
S33  40691608.038   213835832.233        -709.103          45.000  
S31  39738307.728   208826238.605        -708.447          44.000  
G28  23743319.153   124771986.224        2096.699          44.000    23743318.957    97224898.639        1633.836          42.000  
G11  23767565.038   124899661.773       -2353.682          45.000    23767563.163    97324517.801       -1834.069          44.000  
R18  22684104.004   121089361.017       -4320.215          47.000    22684103.335    94180643.704       -3360.220          48.000  
R19  20393292.982   109090703.664       -1489.220          40.000    20393289.885    84848049.129       -1158.333          45.000  
E04  27721643.243                1      -3142.167          26.000    27721676.120   111623699.766       -2407.425          40.000  
G12  22531650.739   118404621.401       -1576.713          49.000    22531647.151    92263334.517       -1228.586          43.000  
E33  25677843.349   134937985.989        1656.719          39.000    25677850.196                1       1270.006          48.000  
E31  25786107.260   135507017.454         667.314          48.000    25786112.164   103830118.845         511.261          50.000  
G20  25543762.077   134233490.932        1021.346          42.000                                                                  
E14  20546999.119   107975318.653       -1749.861          49.000    20547004.425    82734295.348       -1340.872          53.000  
E26  25326365.670   133091286.137        -801.427          48.000    25326367.454   101979226.011        -614.137          52.000  
E21  28090171.549   147614804.134       -2368.217          45.000    28090174.807   113107445.738       -1814.505          47.000  
E13                                                                  28739414.759   115721793.199       -2354.912          37.000  
> 2024 04 16 02 24 00.0030000  0 24                     
G25  21719688.762   114137780.905          -2.905          47.000    21719689.567    88938549.228          -2.094          45.000  
G24  23813574.365   125141182.450       -4055.265          45.000    23813576.239    97512605.590       -3159.901          43.000  
G32  24787494.215   130259155.475       -2553.076          46.000    24787498.422   101500655.054       -1989.270          45.000  
E09  27708962.831   145611582.984       -1605.608          43.000    27708969.338   111572540.3961      -1230.091          48.000  
R16  21686959.769   115847818.857       -2375.116          51.000    21686959.919    90103848.554       -1847.321          48.000  
R09  20757535.417   110844104.610         925.730          52.000    20757534.163    86212177.795         720.037          50.000  
R10  23624831.034   125933595.419        2638.274          40.000                                                                  
R20  22302446.918   119261181.123        3044.349          39.000    22302450.390    92758771.673        2367.805          43.000  
G29  21837924.857   114759101.208         298.169          49.000    21837924.611    89422712.481         232.440          45.000  
S33  40695655.850   213857102.643        -708.831          42.000  
S31  39742350.972   208847491.621        -708.259          44.000  
G28  23731379.579   124709244.610        2086.182          44.000    23731379.764    97176009.095        1625.669          43.000  
G11  23781052.466   124970535.658       -2370.999          45.000    23781050.330    97379744.304       -1847.435          44.000  
R18  22708417.649   121219150.406       -4332.049          46.000    22708418.110    94281591.088       -3369.511          49.000  
R19  20401717.827   109135775.119       -1515.252          40.000    20401715.472    84883105.272       -1178.679          45.000  
E04  27739614.963                       -3145.065          27.000    27739622.176   111695962.752       -2409.800          39.000  
G12  22540667.951   118452008.409       -1582.251          50.000    22540663.749    92300259.540       -1232.888          44.000  
E33  25668412.369   134888417.0831       1646.449          36.000    25668419.978   103356089.5691       1262.397          46.000  
E31  25782300.454   135487014.380         666.603          47.000    25782305.696   103814791.895         510.860          50.000  
G20  25537955.706   134202977.875        1012.827          40.000                                                                  
E14  20557069.653   108028235.801       -1777.618          49.000    20557074.160    82774842.446       -1362.094          53.000  
E26  25330982.742   133115550.040        -815.982          47.000    25330984.780   101997817.659        -625.119          51.000  
E21  28103697.631   147685890.131       -2370.523          43.000    28103702.152   113161914.242       -1816.436          47.000  
E13                                                                  28756981.076   115792527.583       -2361.253          35.000  
> 2024 04 16 02 24 30.0030000  0 24                     
G25  21719722.337   114137956.151          -8.685          48.000    21719722.761    88938685.835          -6.793          44.000  
G24  23836750.807   125262970.1711      -4063.726          39.000    23836752.826    97607505.724       -3166.593          38.000  
G32  24802101.853   130335916.554       -2564.124          46.000    24802106.683   101560474.4801      -1998.157          45.000  
E09  27718164.400   145659930.685       -1617.484          47.000    27718170.218   111609585.766       -1239.552          48.000  
R16  21700340.099   115919288.994       -2389.362          52.000    21700340.322    90159436.371       -1858.392          48.000  
R09  20752367.266   110816505.370         914.354          52.000    20752365.624    86190711.765         711.143          49.000  
R10  23609981.488   125854438.346        2638.744          37.000                                                                  
R20  22285409.376                1       3030.126          31.000    22285412.712                        2356.973          32.000  
G29  21836261.365   114750362.202         284.589          48.000    21836261.489    89415903.063         221.826          46.000  
S33  40699703.226   213878370.588        -709.098          43.000  
S31  39746394.223   208868741.476        -708.331          46.000  
G28  23719500.166   124646818.601        2075.591          44.000    23719500.714    97127365.471        1617.371          44.000  
G11  23794637.406   125041930.593       -2388.627          45.000    23794635.889    97435376.818       -1861.226          43.000  
R18  22732798.904   121349300.408       -4344.382          46.000    22732799.350    94382818.933       -3378.749          48.000  
R19  20410290.339   109181628.701       -1541.581          41.000    20410287.403    84918769.073       -1198.826          47.000  
G12  22549717.759   118499566.736       -1588.160          51.000    22549714.654    92337318.222       -1237.695          45.000  
E33  25659034.407   134839129.187        1635.224          35.000    25659040.922   103318313.608        1255.757          56.000  
E31  25778497.994   135467032.727         665.680          48.000    25778503.430   103799481.352         510.105          51.000  
G20  25532197.410   134172721.243        1004.240          39.000                                                                  
E14  20567297.557   108081984.903       -1805.426          50.000    20567301.981    82816026.992       -1383.390          53.000  
E26  25335682.686   133140253.406        -830.660          47.000    25335685.851   102016746.035        -636.531          51.000  
E21  28117238.422   147757050.547       -2373.214          43.000    28117243.408   113216439.778       -1818.550          46.000  
E13                                                                  28774594.445   115863448.815       -2367.175          34.000  
E04                                                                  27757585.252   111768285.514       -2412.093          37.000  
> 2024 04 16 02 25 00.0030000  0 24                     
G25  21719788.045   114138302.769         -14.392          47.000    21719788.319    88938955.992         -11.249          44.000  
G24  23859974.677   125385014.236       -4072.020          36.000    23859975.689    97702603.856       -3173.388          45.000  
G32  24816772.217   130413005.211       -2575.177          48.000    24816776.697   101620547.7231      -2006.665          46.000  
E09  27727433.531   145708633.864       -1629.170          44.000    27727437.651   111646904.085       -1248.307          45.000  
R16  21713799.328   115991185.704       -2403.650          52.000    21713799.183    90215355.925       -1869.482          47.000  
R09  20747262.911   110789245.562         903.013          52.000    20747261.196    86169509.744         702.254          50.000  
R10  23595126.837   125775260.029        2639.854          34.000                                                                  
R20  22268451.768   119079397.7251       3015.206          35.000    22268455.695                        2345.007          30.000  
G29  21834676.769   114742032.827         270.776          49.000    21834675.685    89409412.763         210.992          45.000  
S33  40703750.543   213899638.320        -709.000          42.000  
S31  39750437.319   208889990.880        -708.298          44.000  
G28  23707681.861   124584713.915        2064.807          45.000    23707682.303    97078972.220        1608.907          44.000  
G11  23808323.310   125113847.980       -2405.900          46.000    23808319.637    97491416.452       -1874.571          42.000  
R18  22757248.378   121479809.943       -4356.156          46.000    22757248.138    94484326.426       -3388.158          48.000  
R19  20419008.543   109228266.656       -1568.104          41.000    20419006.650    84955043.085       -1219.316          46.000  
E04  27775546.364                1      -3150.465          27.000    27775564.312   111840670.693       -2413.668          37.000  
G12  22558800.706   118547298.964       -1594.079          50.000    22558796.858    92374512.300       -1242.088          44.000  
E33  25649708.213   134790136.4541       1629.640          43.000    25649716.480   103280771.947        1248.906          50.000  
E31  25774700.796   135447075.894         664.715          48.000    25774706.026   103784189.824         509.348          51.000  
G20  25526488.970   134142727.422         994.981          37.000                                                                  
E14  20577682.665   108136564.751       -1833.163          49.000    20577687.991    82857848.054       -1404.627          53.000  
E26  25340468.800   133165399.703        -845.673          48.000    25340471.003   102036013.991        -647.896          51.000  
E21  28130793.746   147828288.891       -2375.996          43.000    28130799.943   113271024.998       -1820.595          46.000  
E13                                                                  28792254.166   115934557.908       -2373.639          32.000  
> 2024 04 16 02 25 30.0030000  0 24                     
G25  21719885.560   114138818.560         -20.203          47.000    21719886.049    88939357.984         -15.778          44.000  
G24  23883245.140   125507301.998       -4080.518          41.000    23883246.718    97797903.3441      -3179.560          40.000  
G32  24831503.108   130490415.643       -2585.712          42.000    24831507.626   101680866.539       -2015.619          35.000  
E09  27736766.542   145757689.746       -1641.278          42.000    27736771.524   111684494.031       -1257.513          41.000  
R16  21727336.837   116063505.934       -2417.896          52.000    21727336.632    90271604.921       -1880.499          47.000  
R09  20742221.122   110762324.456         891.549          52.000    20742219.762    86148571.173         693.386          50.000  
R10  23580268.166                        2640.647          31.000                                                                  
R20  22251573.916                1       3001.407          31.000    22251579.168    92547160.0811       2334.139          37.000  
G29  21833168.775   114734109.002         257.300          49.000    21833167.671    89403238.477         200.305          45.000  
S33  40707797.189   213920903.654        -708.837          44.000  
S31  39754479.959   208911237.817        -708.439          43.000  
G28  23695924.962   124522929.988        2053.882          45.000    23695925.199    97030828.928        1600.442          43.000  
G11  23822108.139   125186283.038       -2423.126          46.000    23822103.494    97547859.384       -1888.108          40.000  
R18  22781762.659   121610671.581       -4367.994          44.000    22781763.012    94586107.762       -3397.407          48.000  
R19  20427872.636   109275681.622       -1593.622          42.000    20427871.014    84991920.632       -1239.415          48.000  
E04  27793551.138   146056104.8561      -3153.505          32.000    27793558.071   111913113.710       -2415.642          37.000  
G12  22567916.108   118595203.523       -1599.893          51.000    22567913.053    92411840.770       -1246.766          46.000  
E33  25640438.680   134741406.651        1619.255          50.000    25640446.077   103243444.2221       1240.436          52.000  
E31  25770907.637   135427141.015         663.906          49.000    25770912.643   103768915.119         508.702          51.000  
G20  25520831.813   134112995.776         986.643          37.000                                                                  
E14  20588224.966   108191968.001       -1860.784          48.000    20588230.434    82900300.129       -1425.689          53.000  
E26  25345338.013   133190985.253        -860.362          48.000    25345339.870   102055618.596        -659.203          52.000  
E21  28144364.517   147899602.349       -2378.612          43.000    28144370.520   113325667.756       -1822.515          46.000  
E13                                                                  28809958.982   116005851.047       -2380.033          31.000  
> 2024 04 16 02 26 00.0030000  0 25                     
G25  21720015.634   114139502.741         -25.653          47.000    21720016.450    88939891.181         -20.001          43.000  
G24  23906561.993   125629830.317       -4088.076          48.000    23906562.818    97893379.963       -3185.641          45.000  
G32  24846294.504   130568145.469       -2595.782          40.000    24846299.478   101741449.1621      -2023.193          39.000  
E09  27746165.906   145807091.179       -1652.567          43.000    27746171.562   111722347.571       -1265.956          42.000  
R16  21740954.507   116136248.412       -2431.647          52.000    21740953.894    90328182.406       -1891.278          46.000  
R09  20737243.307   110735742.789         880.539          51.000    20737241.548    86127896.585         684.891          50.000  
R10  23565409.571                1       2641.555          29.000                                                                  
R20  22234777.029   118899362.6821       2986.707          36.000    22234782.538    92477295.262        2323.391          39.000  
G29  21831737.293   114726588.670         244.189          49.000    21831737.191    89397378.546         190.216          46.000  
S33  40711843.094   213942163.838        -708.447          38.000  
S31  39758521.937   208932480.758        -707.874          47.000  
G28  23684229.525   124461467.596        2043.527          45.000    23684228.783    96982936.203        1592.480          43.000  
G11  23835989.332   125259232.223       -2440.047          45.000    23835984.924    97604702.974       -1901.230          41.000  
R18  22806341.732   121741879.151       -4379.138          46.000    22806343.137    94688158.184       -3406.086          48.000  
R19  20436881.649   109323871.734       -1619.174          40.000    20436880.150    85029401.050       -1258.947          44.000  
G12  22577064.247   118643278.094       -1605.255          51.000    22577061.279    92449301.672       -1250.689          47.000  
E33  25631219.713   134692962.473        1610.146          46.000    25631227.018   103206324.642        1233.821          52.000  
E31  25767118.166   135407226.601         663.598          48.000    25767122.840   103753656.091         508.486          51.000  
G20  25515220.616                         977.822          31.000                                                                  
E14  20598924.471   108248188.402       -1887.384          49.000    20598928.474    82943378.377       -1446.207          53.000  
E26  25350289.825   133217008.101        -874.528          47.000    25350291.868   102075558.358        -670.110          52.000  
E21  28157949.111   147970989.499       -2380.760          44.000    28157954.206   113380367.012       -1824.166          45.000  
E13                                                                  28827709.531                       -2385.380          30.000  
E04                                                                  27811566.151   111985651.2911      -2417.456          44.000  
G18                                                                  25787959.630                3       2443.704          25.000  
> 2024 04 16 02 26 30.0030000  0 25                     
G25  21720178.076   114140355.038         -31.134          47.000    21720178.292    88940555.416         -24.579          43.000  
G24  23929923.393   125752595.346       -4096.255          44.000    23929924.830    97989033.8321      -3191.638          42.000  
G32  24861147.009   130646186.498       -2606.586          46.000    24861151.562   101802258.946       -2031.018          39.000  
E09  27755631.949   145856838.384       -1663.951          45.000    27755637.195   111760466.912       -1275.001          51.000  
R16  21754651.669   116209411.909       -2445.898          52.000    21754652.121    90385087.334       -1902.435          48.000  
R09  20732329.263   110709502.120         868.856          51.000    20732327.825    86107487.241         675.847          50.000  
R10  23550543.689                        2641.455          29.000                                                                  
R20  22218061.228   118809968.686        2972.538          38.000    22218066.410    92407765.705        2311.937          41.000  
G29  21830382.649   114719470.429         230.505          49.000    21830382.898    89391832.027         179.645          46.000  
S33  40715887.783   213963417.903        -708.490          46.000  
S31  39762562.423   208953717.764        -708.046          42.000  
G28  23672595.090   124400328.088        2032.528          45.000    23672593.955    96935295.066        1583.682          43.000  
G11  23849967.697   125332692.509       -2457.255          44.000    23849963.622    97661944.889       -1914.465          41.000  
R18  22830985.164   121873427.297       -4390.559          46.000    22830985.601    94790473.501       -3414.922          47.000  
R19  20446035.177   109372834.756       -1644.808          43.000    20446033.525    85067483.329       -1279.337          52.000  
G12  22586244.799   118691522.457       -1611.012          51.000    22586241.832    92486894.580       -1255.340          45.000  
E33  25622053.691   134644800.468        1600.697          46.000    25622061.192   103169422.062        1226.451          52.000  
E31  25763331.996   135387331.749         662.887          48.000    25763337.010   103738412.057         507.895          51.000  
G20  25509663.935   134054323.602         968.991          36.000                                                                  
E14  20609777.482   108305220.228       -1914.658          50.000    20609781.196    82987078.312       -1466.992          53.000  
E26  25355324.218   133243467.013        -889.249          48.000    25355326.612   102095832.456        -681.426          53.000  
E21  28171547.675   148042449.494       -2383.207          44.000    28171553.035   113435122.078       -1826.186          45.000  
E13                                                                  28845504.655                       -2391.413          31.000  
E04                                                                  27829583.782   112058202.993       -2419.246          43.000  
G18                                                                  25770078.358                3       2439.534          24.000  
> 2024 04 16 02 27 00.0030000  0 25                     
G25  21720373.207   114141378.222         -36.774          47.000    21720373.043    88941352.769         -28.894          43.000  
G24  23953329.230   125875598.520       -4104.094          41.000    23953331.469    98084889.0561      -3198.226          38.000  
G32  24876058.391   130724541.930       -2616.888          47.000    24876061.780   101863314.783       -2039.026          44.000  
E09  27765164.086   145906928.998       -1675.396          43.000    27765168.441   111798848.467       -1283.639          49.000  
R16  21768427.759   116282998.150       -2459.845          52.000    21768428.350    90442320.880       -1913.190          48.000  
R09  20727479.868   110683606.645         857.495          52.000    20727478.546    86087346.375         666.886          51.000  
R10  23535673.325   125458374.5061       2642.812          33.000                                                                  
R20  22201427.144   118721010.2831       2958.219          38.000    22201431.484    92338574.827        2300.594          37.000  
G29  21829104.354   114712755.284         217.218          48.000    21829104.896    89386599.648         169.153          46.000  
S33  40719931.484   213984667.349        -708.239          44.000  
S31  39766602.032   208974949.144        -707.802          43.000  
G28  23661022.555   124339515.752        2021.569          45.000    23661021.394    96887908.848        1575.304          43.000  
G11  23864043.438   125406663.939       -2474.306          43.000    23864040.570    97719585.058       -1928.089          40.000  
R18  22855692.658   122005313.692       -4401.665          48.000    22855692.360    94893051.896       -3423.619          47.000  
R19  20455332.929   109422569.541       -1670.609          43.000    20455330.496    85106165.907       -1299.277          49.000  
G12  22595458.920   118739939.731       -1616.679          53.000    22595455.082    92524622.348       -1259.727          48.000  
E33  25612943.476   134596921.867        1591.272          46.000    25612949.810   103132736.174        1219.262          51.000  
E31  25759549.894   135367458.483         662.217          47.000    25759555.025   103723184.562         507.460          51.000  
G20  25504160.255   134025388.405         960.161          39.000                                                                  
E14  20620784.716   108363060.722       -1941.346          51.000    20620787.857    83031397.827       -1487.458          53.000  
E26  25360441.843   133270363.792        -903.650          47.000    25360443.924   102116442.444        -692.561          52.000  
E21  28185160.278   148113984.427       -2385.707          43.000    28185165.169   113489934.549       -1827.952          44.000  
E13                                                                  28863345.437                       -2396.829          31.000  
E04                                                                  27847616.075   112130807.9161      -2421.341          36.000  
G18                                                                  25752197.830                3       2446.125          19.000  
> 2024 04 16 02 27 30.0030000  0 25                     
G25  21720600.177   114142572.965         -42.834          48.000    21720600.273    88942283.822         -33.594          43.000  
G24  23976780.482   125998835.923       -4111.956          48.000    23976782.575    98180919.106       -3204.236          47.000  
G32  24891028.457   130803204.122       -2627.279          47.000    24891032.003   101924608.543       -2047.530          43.000  
E09  27774760.173   145957362.807       -1687.001          43.000    27774765.517   111837492.880       -1292.714          49.000  
R16  21782282.360   116357008.286       -2474.298          51.000    21782282.056    90499884.380       -1924.426          47.000  
R09  20722695.715   110658058.992         845.565          52.000    20722694.186    86067476.018         657.726          50.000  
R10  23520801.639   125379098.981        2642.442          33.000                                                                  
R20  22184874.275   118632492.999        2942.925          34.000    22184877.769                        2289.719          26.000  
G29  21827902.650   114706442.030         203.522          47.000    21827903.069    89381680.324         158.459          45.000  
S33  40723974.506   214005912.288        -708.283          40.000  
S31  39770640.958   208996176.337        -707.767          45.000  
G28  23649513.215   124279032.889        2010.286          45.000    23649511.712    96840779.385        1566.453          43.000  
G11  23878217.113   125481144.468       -2491.219          43.000    23878215.389    97777621.891       -1941.393          42.000  
R18  22880462.319   122137533.713       -4412.935          50.000    22880461.312    94995889.786       -3432.388          47.000  
R19  20464774.230   109473072.495       -1696.658          41.000    20464771.829    85145445.575       -1319.353          47.000  
E04  27865650.078   146434978.6021      -3161.951          36.000    27865661.081   112203469.4201      -2422.757          42.000  
G12  22604705.784   118788528.514       -1622.777          50.000    22604701.714    92562483.278       -1264.426          43.000  
E33  25603886.523   134549330.058        1581.330          48.000    25603892.541   103096270.549        1211.588          54.000  
E31  25755771.974   135347606.848         661.188          47.000    25755777.103   103707973.648         506.550          50.000  
G20  25498705.508   133996724.754         950.937          38.000                                                                  
E14  20631943.419   108421705.307       -1968.372          50.000    20631947.284    83076333.514       -1508.252          53.000  
E26  25365643.032   133297697.723        -918.446          47.000    25365644.149   102137387.751        -703.810          50.000  
E21  28198787.537   148185594.380       -2388.296          44.000    28198791.844   113544804.465       -1830.052          43.000  
E13                                                                  28881229.199                       -2403.372          30.000  
G18                                                                  25734318.575                        2440.622          25.000  
> 2024 04 16 02 28 00.0030000  0 25                     
G25  21720861.914   114143946.271         -48.871          47.000    21720861.499    88943354.008         -38.068          44.000  
G24  24000276.279   126122308.795       -4119.817          46.000    24000278.842    98277131.745       -3210.272          46.000  
G32  24906057.726   130882180.579       -2637.706          46.000    24906061.407   101986148.306       -2055.331          39.000  
E09  27784424.689   146008144.954       -1698.460          42.000    27784428.880   111876404.249       -1301.555          48.000  
R16  21796216.640   116431448.446       -2488.538          52.000    21796217.265    90557782.628       -1935.632          47.000  
R09  20717978.273   110632867.858         833.655          52.000    20717976.795    86047882.972         648.413          51.000  
R10  23505928.924   125299815.974        2643.637          33.000                                                                  
R20  22168405.406   118544405.6611       2928.013          44.000    22168410.673    92201267.3951       2277.567          32.000  
G29  21826779.003   114700536.207         190.063          48.000    21826778.345    89377078.510         148.096          45.000  
S33  40728017.920   214027159.138        -708.400          45.000  
S31  39774680.014   209017404.542        -707.469          40.000  
G28  23638068.063   124218887.998        1999.025          46.000    23638066.611    96793913.268        1557.601          43.000  
G11  23892489.133   125556138.196       -2508.293          44.000    23892484.350    97836058.713       -1954.676          40.000  
R18  22905294.684   122270089.356       -4424.184          51.000    22905292.416    95098988.727       -3440.861          46.000  
R19  20474359.424   109524349.117       -1722.447          41.000    20474357.677    85185327.595       -1339.567          48.000  
E04  27883708.979                       -3163.708          31.000    27883719.279   112276181.411       -2424.958          36.000  
G12  22613986.064   118837297.125       -1628.581          50.000    22613981.851    92600484.735       -1269.019          43.000  
E33  25594884.305   134502031.525        1571.621          47.000    25594891.080   103060029.710        1204.166          51.000  
E31  25751998.765   135327783.072         660.299          46.000    25752004.320   103692784.084         505.941          50.000  
G20  25493302.694   133968341.682         941.221          35.000                                                                  
E14  20643254.841   108481155.302       -1995.073          49.000    20643259.941    83121886.331       -1528.691          53.000  
E26  25370927.929   133325472.913        -933.166          48.000    25370929.154   102158670.583        -715.025          52.000  
E21  28212429.450   148257285.600       -2391.258          43.000    28212433.984   113599736.694       -1832.267          43.000  
E13                                                                  28899156.025                       -2409.211          28.000  
G18                                                                  25716424.484                        2441.661          26.000  
> 2024 04 16 02 28 30.0030000  0 25                     
G25  21721157.654   114145499.637         -54.779          48.000    21721156.867    88944564.476         -42.621          44.000  
G24  24023816.702   126246017.671       -4127.542          41.000    24023818.632    98373528.073       -3216.271          38.000  
G32  24921145.413   130961465.337       -2647.863          45.000    24921150.046   102047927.448       -2063.352          44.000  
E09  27794152.971   146059274.528       -1710.018          42.000    27794158.293   111915581.951       -1310.313          50.000  
R16  21810232.179   116506318.500       -2502.936          51.000    21810233.529    90616015.037       -1946.796          48.000  
R09  20713327.783   110608036.497         821.682          52.000    20713326.478    86028569.742         639.084          50.000  
R10  23491051.959   125220528.501        2642.903          31.000                                                                  
R20  22152020.624   118456790.470        2912.197          37.000    22152026.395    92133121.679        2265.719          44.000  
G29  21825732.838   114695037.892         176.410          49.000    21825731.673    89372794.276         137.280          44.000  
S33  40732060.929   214048407.621        -708.555          44.000  
S31  39778719.329   209038634.909        -707.855          40.000  
G28  23626688.286   124159084.143        1987.632          46.000    23626686.660    96747312.893        1548.667          44.000  
G11  23906856.554   125631643.876       -2525.363          43.000    23906853.461    97894894.388       -1968.038          41.000  
R18  22930188.659   122402976.803       -4435.129          51.000    22930187.790    95202345.715       -3449.526          47.000  
R19  20484089.171   109576395.711       -1747.594          42.000    20484087.222    85225808.067       -1359.476          49.000  
E04  27901778.994   146624840.615       -3166.475          34.000    27901790.619   112348950.125       -2426.279          39.000  
G12  22623300.774   118886245.096       -1634.631          50.000    22623297.202    92638625.630       -1273.634          43.000  
E33  25585939.871   134455028.055        1561.732          47.000    25585946.044   103024014.691        1196.599          51.000  
E31  25748231.713   135307988.048         659.362          46.000    25748237.344   103677616.538         505.132          50.000  
G20  25487957.065   133940241.966         931.856          40.000                                                                  
E14  20654719.781   108541406.728       -2021.727          49.000    20654725.279    83168053.231       -1549.118          53.000  
E26  25376296.876   133353689.717        -948.062          49.000    25376298.422   102180291.383        -726.454          53.000  
E21  28226087.396   148329058.997       -2393.860          42.000    28226092.162   113654731.852       -1834.255          43.000  
E13                                                                  28917128.819                       -2415.338          27.000  
G18                                                                  25698535.641                3       2439.961          26.000  
> 2024 04 16 02 29 00.0030000  0 25                     
G25  21721487.177   114147232.563         -60.669          48.000    21721486.901    88945914.899         -47.382          44.000  
G18  25680622.592   134952582.5223       3134.147          40.000    25680633.667                        2443.892          29.000  
G24  24047402.002   126369956.901       -4135.201          43.000    24047403.777    98470105.016       -3221.995          40.000  
G32  24936292.040   131041056.762       -2658.078          47.000    24936296.652   102109946.224       -2071.253          45.000  
E09  27803949.204   146110746.833       -1721.516          44.000    27803953.252   111955021.290       -1318.984          49.000  
R16  21824327.965   116581617.517       -2517.127          52.000    21824329.958    90674581.119       -1957.812          49.000  
R09  20708745.525   110583565.690         809.573          52.000    20708743.440    86009536.948         629.709          50.000  
R10  23476174.111                        2644.037          30.000                                                                  
R20  22135720.855   118369630.280        2897.583          44.000    22135728.445    92065329.410        2253.878          50.000  
G29  21824763.542   114689944.831         163.055          48.000    21824762.019    89368825.767         126.971          44.000  
S33  40736104.804   214069655.648        -708.289          41.000  
S31  39782759.027   209059864.648        -707.776          42.000  
G28  23615373.122   124099622.402        1976.183          46.000    23615372.009    96700979.087        1540.132          45.000  
G11  23921321.746   125707658.176       -2542.234          42.000    23921318.551    97954126.375       -1981.294          40.000  
R18  22955143.661   122536190.418       -4445.885          51.000    22955143.103    95305956.450       -3457.870          48.000  
R19  20493962.727   109629209.611       -1773.139          45.000    20493959.831    85266885.306       -1379.129          50.000  
E04  27919861.142   146719853.5581      -3168.289          34.000    27919873.932   112421765.3291      -2427.891          40.000  
G12  22632648.975   118935372.771       -1640.659          50.000    22632646.311    92676907.017       -1278.713          44.000  
E33  25577051.848   134408319.904        1551.964          45.000    25577057.791   102988225.756        1189.105          50.000  
E31  25744471.002   135288220.542         658.415          47.000    25744475.502   103662470.087         504.517          50.000  
G20  25482664.335   133912426.813         922.360          39.000                                                                  
E14  20666337.407   108602453.402       -2048.171          49.000    20666342.204    83214829.408       -1569.345          53.000  
E26  25381750.382   133382346.166        -962.674          46.000    25381751.719   102202248.554        -737.523          48.000  
E21  28239761.369   148400913.400       -2396.471          42.000    28239765.640   113709789.100       -1836.159          44.000  
E13                                                                  28935145.857                       -2421.004          26.000  
> 2024 04 16 02 29 30.0030000  0 25                     
G25  21721851.112   114149146.067         -66.553          48.000    21721851.552    88947406.011         -52.148          44.000  
G18  25662732.143   134858573.6462       3134.678          40.000    25662741.981   105084626.1731       2443.007          38.000  
G24  24071029.997   126494124.817       -4142.618          44.000    24071031.951    98566858.447       -3228.098          47.000  
G32  24951495.451   131120950.130       -2668.223          43.000    24951500.822   102172200.176       -2079.132          41.000  
E09  27813809.432   146162562.544       -1732.807          46.000    27813813.758   111994724.062       -1327.694          50.000  
R16  21838505.229   116657345.942       -2531.415          52.000    21838506.044    90733481.261       -1968.945          49.000  
R09  20704231.232   110559458.107         797.490          52.000    20704229.045    85990786.655         620.364          50.000  
R10  23461300.483   125061941.027        2642.876          36.000                                                                  
R20  22119507.874   118282928.692        2882.510          44.000    22119515.290    91997894.148        2241.757          47.000  
G29  21823870.525   114685256.526         149.585          48.000    21823869.980    89365172.700         116.418          44.000  
S33  40740148.479   214090903.589        -708.638          40.000  
S31  39786798.600   209081094.867        -707.782          40.000  
G28  23604123.389   124040505.294        1964.677          47.000    23604122.302    96654913.842        1531.185          44.000  
G11  23935883.515   125784179.158       -2558.881          40.000    23935880.741    98013753.196       -1994.134          42.000  
R18  22980159.560   122669726.003       -4456.524          51.000    22980157.821    95409817.573       -3466.163          47.000  
R19  20503978.894   109682788.663       -1798.505          42.000    20503975.650    85308557.908       -1398.996          48.000  
E04  27937958.188   146814942.144       -3170.413          31.000    27937969.783   112494625.471       -2429.099          31.000  
G12  22642032.067   118984680.387       -1646.532          51.000    22642029.340    92715328.537       -1283.158          44.000  
E33  25568219.536   134361909.088        1542.166          47.000    25568225.700   102952664.683        1181.607          52.000  
E31  25740715.032   135268480.840         657.542          47.000    25740719.081   103647344.951         503.871          50.000  
G20  25477424.692   133884898.913         912.831          37.000                                                                  
E14  20678104.346   108664290.763       -2074.245          49.000    20678109.270    83262211.421       -1589.363          53.000  
E26  25387287.586   133411443.338        -977.188          45.000    25387289.104   102224543.640        -748.783          48.000  
E21  28253451.337   148472849.098       -2399.107          43.000    28253454.594   113764908.714       -1838.407          45.000  
E13                                                                  28953206.473                       -2427.165          25.000  
