     3.00           OBSERVATION DATA    M: Mixed            RINEX VERSION / TYPE
CONVBIN 2.4.3                           20240416 011442 UTC PGM / RUN BY / DATE 
format: u-blox UBX                                          COMMENT             
log: /home/regis/git/gnsspwv/obsdata/VERT00CHL/2024-04-16/VECOMMENT             
{self.marker}                                               MARKER NAME         
                                                            MARKER NUMBER       
GEODETIC                                                    MARKER TYPE         
{self.observer}     {self.institution}                      OBSERVER / AGENCY   
UNKNOWN             UBLOX-ZED-F9P                           REC # / TYPE / VERS 
UNKNOWN             TWIVSP6037L                             ANT # / TYPE        
  1713381.0000 -5047934.0000 -3490983.0000                  APPROX POSITION XYZ 
        0.0000        0.0000        0.0000                  ANTENNA: DELTA H/E/N
G    8 C1C L1C D1C S1C C2L L2L D2L S2L                      SYS / # / OBS TYPES 
R    8 C1C L1C D1C S1C C2C L2C D2C S2C                      SYS / # / OBS TYPES 
E    8 C1C L1C D1C S1C C7Q L7Q D7Q S7Q                      SYS / # / OBS TYPES 
S    4 C1C L1C D1C S1C                                      SYS / # / OBS TYPES 
  2024    04    16    01    00   00.0010000     GPS         TIME OF FIRST OBS   
  2024    04    16    01    14   30.0010000     GPS         TIME OF LAST OBS    
                                                            END OF HEADER       
> 2024 04 16 01 00 00.0010000  0 25                     
G25  22046936.755   115857454.7981        609.369          47.000    22046939.500    90278548.8691        474.846          45.000  
E19  26857565.930   141137112.5451      -3696.608          41.000    26857595.062   108143946.6021      -2832.335          42.000  
G24  20893376.502   109795408.0941      -1812.971          48.000    20893378.724    85554849.5421      -1412.721          47.000  
G32  23545104.722   123730328.5331        176.815          46.000    23545109.082    96413219.1151        137.827          43.000  
E09  27210031.992   142989720.2251        574.862          33.000    27210041.208   109563553.7911        440.429          40.000  
R16  20414137.956   109048656.6901       -533.200          51.000    20414137.880    84815617.5441       -414.687          51.000  
R17  22676474.033   121346397.3371      -4077.405          47.000    22676471.277    94380516.7131      -3171.452          49.000  
R09  22150890.276   118284506.5891       1714.521          48.000    22150890.861    91999149.9941       1333.527          48.000  
R06  23063225.920   123069806.4851      -3821.713          40.000                                                                  
R15  22644298.313   121004199.9361      -2818.086          47.000    22644299.206    94114365.3801      -2191.730          46.000  
G29  23187582.746   121851582.9061       2392.508          40.000    23187587.211    94949295.5801       1864.111          37.000  
S31  39047943.589   205198327.0541       -746.382          45.000  
S33  40000611.239   210204635.7441       -746.786          39.000  
G06  23518821.708   123592273.5141      -1353.481          40.000    23518823.627    96305677.6391      -1055.382          36.000  
G11  22997898.412   120854973.1431        671.266          47.000    22997898.664    94172797.0701        523.137          47.000  
R07  22793394.133   122014851.4911      -1247.139          47.000    22793394.710    94900402.5041       -970.058          44.000  
R18  20130712.939   107459156.0081       -666.764          52.000    20130712.455    83579366.5901       -518.602          47.000  
R19  21046940.592   112587179.1161       2615.729          42.000    21046944.128    87567959.7671       2034.406          49.000  
E04  25233879.349   132604858.3841      -1801.832          47.000    25233886.623   101606310.7301      -1380.716          50.000  
G12  21410273.910   112511745.9961       -813.178          50.000    21410270.414    87671482.9941       -633.479          45.000  
E33  27690285.552   145513337.0151       2242.222          43.000    27690314.576   111497315.3511       1718.139          46.000  
E31  26457281.491   139033997.1001        750.878          47.000    26457289.274   106532594.0941        575.286          48.000  
E13  26676791.178   140187502.9111      -1084.845          41.000    26676795.821   107416420.4921       -831.385          41.000  
E26  25649033.957   134786859.2751       1306.724          45.000    25649042.078   103278413.1171       1001.062          50.000  
E21  25959995.791   136420680.7601      -2164.300          43.000    25960000.693   104530134.4141      -1658.409          51.000  
> 2024 04 16 01 00 30.0010000  0 25                     
G25  22043465.657   115839215.167         606.477          47.000    22043468.662    90264336.187         472.674          46.000  
E19  26878671.498   141248019.947       -3697.581          40.000    26878700.664   108228926.682       -2832.998          42.000  
G24  20903771.663   109850034.228       -1829.067          49.000    20903773.744    85597415.297       -1425.103          47.000  
G32  23544147.080   123725291.993         158.642          46.000    23544150.037    96409294.379         123.696          42.000  
E09  27206785.255   142972653.876         562.759          34.000    27206793.144   109550476.864         431.232          40.000  
R16  20417151.231   109064752.216        -540.162          51.000    20417150.952    84828136.293        -420.080          51.000  
R17  22699377.113   121468958.908       -4093.569          44.000    22699374.894    94475842.430       -3183.863          49.000  
R09  22141258.005   118233066.642        1714.459          49.000    22141257.634    91959141.162        1333.535          48.000  
R06  23084734.571   123184618.6831      -3830.864          36.000                                                                  
R15  22660136.707   121088828.789       -2824.197          49.000    22660136.369    94180187.632       -2196.443          46.000  
G29  23173948.925   121779937.821        2383.656          41.000    23173950.857    94893445.1971       1857.699          32.000  
S31  39052201.219   205220700.9241       -745.967          43.000  
S33  40004873.266   210227024.8851       -746.403          43.000  
G06  23526603.103   123633160.960       -1372.216          42.000    23526605.513    96337537.984       -1069.378          38.000  
G11  22994106.679   120835052.728         656.173          46.000    22994108.594    94157274.867         511.500          47.000  
R07  22800447.637   122052612.200       -1270.413          47.000    22800449.229    94929771.712        -988.326          45.000  
R18  20134536.486   107479568.700        -694.281          52.000    20134537.160    83595243.188        -540.035          49.000  
R19  21032316.658   112508957.571        2598.731          40.000    21032320.632    87507121.233        2021.442          48.000  
E04  25244200.194   132659094.542       -1814.063          47.000    25244207.719   101647867.894       -1389.965          49.000  
G12  21414927.729   112536199.747        -817.503          50.000    21414923.917    87690537.875        -636.987          45.000  
E33  27677478.126   145446031.814        2244.686          43.000    27677508.006   111445742.722        1719.839          46.000  
E31  26452996.691   139011482.444         749.739          46.000    26453004.842   106515342.732         574.418          48.000  
E13  26683024.813   140220258.821       -1098.928          41.000    26683029.128   107441519.212        -842.135          41.000  
E26  25641599.755   134747787.492        1298.035          46.000    25641605.940   103248475.215         994.535          49.000  
E21  25972352.889   136485612.294       -2164.803          44.000    25972356.818   104579887.130       -1658.620          51.000  
> 2024 04 16 01 01 00.0010000  0 25                     
G25  22040012.288   115821065.558         603.347          46.000    22040014.963    90250193.666         470.177          46.000  
E19  26899783.489   141358962.392       -3698.760          40.000    26899812.724   108313933.654       -2834.020          42.000  
G24  20914258.978   109905145.037       -1845.230          49.000    20914261.205    85640358.695       -1437.782          47.000  
G32  23543294.031   123720810.068         140.002          46.000    23543296.345    96405801.848         109.103          42.000  
E09  27203607.857   142955956.355         550.533          36.000    27203614.603   109537682.607         421.562          39.000  
R16  20420204.926   109081062.893        -547.404          50.000    20420204.532    84840822.388        -425.879          50.000  
R17  22722371.671   121592008.876       -4109.891          43.000    22722369.149    94571547.967       -3196.563          49.000  
R09  22131626.830   118181635.713        1714.143          49.000    22131626.967    91919139.387        1333.071          49.000  
R06  23106300.079   123299644.132       -3840.027          44.000                                                                  
R15  22676008.888   121173647.176       -2830.672          47.000    22676008.597    94246157.376       -2201.451          45.000  
G29  23160368.478   121708575.493        2373.983          39.000    23160367.572                1       1850.816          25.000  
S31  39056458.600   205243081.3571       -745.589          41.000  
S33  40009134.634   210249423.6921       -746.390          48.000  
G06  23534490.894   123674608.207       -1390.914          42.000    23534492.300    96369834.575       -1083.834          36.000  
G11  22990402.516   120815590.131         641.025          47.000    22990404.257    94142109.410         499.506          46.000  
R07  22807633.236   122091078.608       -1293.903          48.000    22807635.935    94959689.805       -1006.437          45.000  
R18  20138515.594   107500813.042        -722.135          51.000    20138517.267    83611766.614        -561.794          48.000  
R19  21017790.245   112431254.551        2581.238          40.000    21017794.145    87446685.987        2007.648          47.000  
E04  25254593.042   132713706.531       -1826.754          47.000    25254600.708   101689713.032       -1399.686          50.000  
G12  21419606.365   112560789.762        -822.202          48.000    21419603.016    87709698.962        -640.694          45.000  
E33  27664659.383   145378666.043        2246.625          43.000    27664689.668   111394123.923        1721.332          47.000  
E31  26448718.275   138989002.000         748.669          46.000    26448727.014   106498117.573         573.721          48.000  
E13  26689340.405   140253441.089       -1113.086          41.000    26689343.452   107466944.670        -853.146          42.000  
E26  25634215.534   134708981.379        1288.922          46.000    25634221.262   103218740.879         987.626          49.000  
E21  25984709.920   136550556.380       -2165.296          42.000    25984715.343   104629649.432       -1658.955          51.000  
> 2024 04 16 01 01 30.0010000  0 25                     
G25  22036576.415   115803006.732         600.220          47.000    22036578.460    90236121.900         467.609          46.000  
E19  26920902.455   141469938.846       -3699.815          40.000    26920931.420   108398966.695       -2834.897          42.000  
G24  20924839.071   109960741.390       -1861.508          49.000    20924841.118    85683680.460       -1450.496          47.000  
G32  23542546.670   123716884.159         121.462          46.000    23542549.658    96402742.587          94.636          43.000  
E09  27200502.132   142939629.552         538.040          39.000    27200508.429   109525172.382         412.332          40.000  
R16  20423298.210   109097590.779        -554.684          49.000    20423298.648    84853677.387        -431.455          51.000  
R17  22745456.679   121715543.976       -4126.128          45.000    22745454.539    94667630.824       -3209.066          49.000  
R09  22121996.422   118130215.814        1713.562          48.000    22121997.382    91879146.151        1332.867          49.000  
R06  23127911.748   123414956.8301      -3848.601          35.000                                                                  
R15  22691915.570   121258656.652       -2836.876          46.000    22691917.624    94312275.677       -2206.500          46.000  
G29  23146842.751   121637495.186        2364.330          46.000    23146842.994    94782451.9071       1842.208          36.000  
S33  40013395.629   210271818.2283       -746.385          47.000  
S31  39060713.622   205265421.0331       -745.701          38.000  
G06  23542483.810   123716615.894       -1409.678          42.000    23542484.299    96402567.867       -1098.538          32.000  
G11  22986788.052   120796588.551         625.610          48.000    22986788.256    94127303.160         487.555          46.000  
R07  22814950.789   122130250.113       -1317.550          48.000    22814953.018    94990156.278       -1024.896          44.000  
R18  20142651.647   107522890.042        -749.947          52.000    20142653.564    83628937.649        -583.288          49.000  
R19  21003362.288   112354074.993        2563.556          40.000    21003366.904    87386657.819        1993.982          48.000  
E04  25265056.372   132768694.074       -1839.367          46.000    25265065.462   101731845.912       -1409.302          50.000  
G12  21424311.421   112585516.540        -826.637          49.000    21424308.175    87728966.601        -644.252          45.000  
E33  27651829.842   145311242.629        2248.040          43.000    27651860.126   111342461.192        1722.647          47.000  
E31  26444446.051   138966556.230         747.459          45.000    26444455.616   106480918.984         572.776          49.000  
E13  26695735.439   140287050.467       -1127.337          41.000    26695739.839   107492697.332        -863.909          44.000  
E26  25626880.296   134670443.690        1279.923          45.000    25626887.981   103189212.267         980.753          50.000  
E21  25997073.469   136615513.991       -2165.554          43.000    25997076.323   104679422.108       -1659.432          50.000  
> 2024 04 16 01 02 00.0010000  0 25                     
G25  22033155.745   115785036.920         597.714          46.000    22033158.968    90222119.510         465.871          45.000  
E19  26942027.664   141580945.817       -3700.421          40.000    26942056.328   108484023.155       -2835.318          42.000  
G24  20935511.214   110016821.717       -1877.327          49.000    20935513.146    85727379.304       -1462.838          47.000  
G32  23541905.202   123713513.182         103.377          46.000    23541908.967    96400115.769          80.568          43.000  
E09  27197465.201   142923672.850         525.882          39.000    27197472.692   109512945.741         402.946          41.000  
R16  20426433.216   109114335.847        -561.604          51.000    20426433.161    84866701.333        -436.799          50.000  
R17  22768631.473   121839558.817       -4141.719          44.000    22768628.891    94764086.811       -3221.227          49.000  
R09  22112368.903   118078806.126        1713.649          47.000    22112369.330    91839160.905        1332.825          47.000  
R06  23149576.264   123530566.8603      -3857.532          39.000                                                                  
R15  22707859.188   121343856.142       -2842.933          47.000    22707862.975    94378541.772       -2211.318          46.000  
G29  23133372.486   121566700.462        2355.420          47.000    23133376.360    94727318.439        1834.475          34.000  
S33  40017655.017   210294196.6071       -746.548          36.000  
S31  39064970.681   205287784.725        -744.916          40.000  
G06  23550585.517   123759182.349       -1427.898          43.000    23550584.074    96435736.613       -1112.680          34.000  
G11  22983259.880   120778048.653         610.472          48.000    22983259.855    94112856.647         475.646          46.000  
R07  22822400.821   122170123.571       -1340.581          50.000    22822401.272    95021168.772       -1042.684          43.000  
R18  20146944.009   107545798.101        -777.306          52.000    20146943.853    83646755.061        -604.533          48.000  
R19  20989032.486   112277421.625        2546.350          42.000    20989037.104    87327038.937        1980.481          48.000  
E04  25275590.893   132824054.486       -1851.504          46.000    25275600.756   101774264.500       -1418.639          50.000  
G12  21429042.856   112610378.179        -830.743          49.000    21429038.756    87748339.308        -647.530          44.000  
E33  27638988.354   145243761.757        2250.568          43.000    27639019.283   111290754.705        1724.379          47.000  
E31  26440181.338   138944143.170         746.793          45.000    26440190.505   106463745.441         572.220          49.000  
E13  26702210.693   140321085.279       -1141.283          39.000    26702215.571   107518775.986        -874.587          43.000  
E26  25619598.643   134632174.863        1271.265          45.000    25619605.318   103159889.658         974.045          50.000  
E21  26009435.520   136680483.731       -2165.590          41.000    26009439.660   104729204.076       -1659.377          51.000  
> 2024 04 16 01 02 30.0010000  0 25                     
G25  22029751.465   115767150.200         594.856          46.000    22029754.365    90208181.875         463.516          44.000  
E19  26963156.349   141691975.290       -3701.352          40.000    26963185.207   108569096.901       -2836.109          42.000  
G24  20946273.672   110073380.045       -1893.215          50.000    20946275.787    85771450.663       -1475.215          47.000  
G32  23541368.444   123710691.727          84.881          46.000    23541371.494    96397917.133          66.044          42.000  
E09  27194499.003   142908081.340         513.615          39.000    27194505.377   109500998.862         393.659          41.000  
R16  20429607.756   109131293.250        -568.871          50.000    20429607.815    84879890.398        -442.411          50.000  
R17  22791895.793   121964043.123       -4157.248          47.000    22791891.989    94860907.962       -3233.430          49.000  
R09  22102741.644   118027401.787        1713.390          48.000    22102742.870    91799179.798        1332.733          48.000  
R06  23171290.908   123646443.5391      -3866.155          42.000                                                                  
R15  22723837.507   121429240.078       -2849.373          46.000    22723840.853    94444951.374       -2216.022          45.000  
G29  23119955.984   121496193.6033       2345.083          37.000    23119959.742    94672353.656        1827.871          41.000  
S33  40021911.760                3       -745.281          46.000  
S31  39069224.002   205310166.1901       -744.923          48.000  
G06  23558789.913   123802301.281       -1446.589          41.000    23558790.744    96469335.913       -1127.258          33.000  
G11  22979817.690   120759966.762         594.871          47.000    22979818.972    94098767.056         463.611          47.000  
R07  22829980.292   122210691.116       -1363.818          50.000    22829979.177    95052721.167       -1060.856          41.000  
R18  20151389.033   107569531.115        -804.855          52.000    20151389.827    83665214.107        -625.997          49.000  
R19  20974801.166   112201292.506        2528.977          42.000    20974804.693    87267827.789        1966.880          48.000  
E04  25286195.942   132879780.787       -1863.524          47.000    25286205.126   101816963.422       -1427.906          50.000  
G12  21433798.307   112635368.320        -835.124          49.000    21433794.118    87767812.131        -650.625          44.000  
E33  27626135.042   145176219.491        2252.559          42.000    27626166.581   111239001.328        1725.866          46.000  
E31  26435919.811   138921756.484         745.882          43.000    26435930.261   106446592.126         571.429          49.000  
E13  26708767.116   140355539.460       -1155.328          39.000    26708771.692   107545176.004        -885.337          43.000  
E26  25612367.300   134594170.876        1262.207          46.000    25612373.547   103130769.996         967.290          50.000  
E21  26021800.588   136745459.860       -2165.923          41.000    26021804.467   104778990.952       -1659.731          51.000  
> 2024 04 16 01 03 00.0010000  0 25                     
G25  22026362.489   115749342.338         592.379          45.000    22026365.422    90194305.684         461.533          44.000  
E19  26984288.212   141803021.267       -3701.685          40.000    26984317.596   108654183.325       -2836.272          42.000  
G24  20957126.969   110130412.244       -1908.991          50.000    20957128.734    85815891.252       -1487.568          47.000  
G32  23540935.266   123708416.182          66.914          45.000    23540937.867    96396143.848          51.856          42.000  
E09  27191600.776   142892851.815         501.509          38.000    27191607.272   109489329.365         384.213          42.000  
R16  20432821.253   109148460.214        -575.740          51.000    20432821.031    84893242.464        -447.798          50.000  
R17  22815244.775   122088988.675       -4172.525          47.000    22815241.769    94958087.847       -3245.259          50.000  
R09  22093116.704   117975999.219        1713.361          49.000    22093116.552    91759200.073        1332.578          47.000  
R06  23193048.686   123762557.2663      -3874.873          45.000    23191968.291                3      -3151.000          14.000  
R15  22739849.732   121514804.722       -2855.179          46.000    22739852.138    94511501.585       -2220.624          43.000  
G29  23106590.296   121425959.2091       2336.351          46.000    23106595.569    94617628.182        1820.465          43.000  
S33  40026165.996   210338917.0401       -744.860          44.000  
S31  39073473.234   205332488.1363       -744.084          39.000  
G06  23567099.048   123845968.504       -1464.474          40.000    23567106.087                       -1141.323          30.000  
G11  22976463.487   120742341.053         579.861          47.000    22976465.802    94085032.914         451.911          47.000  
R07  22837686.364   122251946.730       -1386.646          49.000    22837687.675    95084808.668       -1078.438          44.000  
R18  20155990.060   107594084.921        -832.038          52.000    20155989.691    83684311.518        -647.320          49.000  
R19  20960667.442   112125687.720        2511.357          42.000    20960670.301    87209024.436        1953.264          47.000  
E04  25296869.364   132935867.684       -1875.577          47.000    25296878.573   101859938.642       -1437.171          50.000  
G12  21438577.510   112660482.888        -839.254          49.000    21438573.279    87787381.929        -654.175          44.000  
E33  27613269.462   145108613.631        2254.481          41.000    27613301.128   111187199.375        1727.691          45.000  
E31  26431664.534   138899391.761         745.251          44.000    26431674.295   106429455.634         570.868          49.000  
E13  26715403.597   140390408.798       -1169.142          40.000    26715407.487   107571894.133        -895.989          44.000  
E26  25605184.888   134556429.579        1253.715          47.000    25605191.645   103101851.610         960.571          50.000  
E21  26034165.417   136810438.471       -2165.823          41.000    26034168.913   104828779.721       -1659.651          50.000  
> 2024 04 16 01 03 30.0010000  0 25                     
G25  22022988.484   115731610.134         589.669          46.000    22022991.125    90180488.408         459.649          45.000  
E19  27005422.228   141914078.740       -3702.223          39.000    27005452.279   108739278.576       -2836.658          43.000  
G24  20968069.831   110187915.075       -1924.720          50.000    20968070.820    85860698.564       -1499.738          46.000  
G32  23540605.729   123706683.828          48.533          46.000    23540608.826    96394793.815          37.864          42.000  
E09  27188771.135   142877982.018         489.347          38.000    27188777.689   109477935.498         375.111          42.000  
R16  20436073.858   109165835.315        -582.728          51.000    20436073.501    84906756.432        -453.217          51.000  
R17  22838677.717   122214388.107       -4187.634          48.000    22838676.253    95055620.813       -3257.028          50.000  
R09  22083490.831   117924596.405        1713.352          48.000    22083490.011    91719220.165        1332.565          47.000  
R06  23214855.243   123878897.6441      -3882.831          41.000                                                                  
R15  22755896.758   121600547.911       -2861.273          48.000    22755896.226    94578190.635       -2225.454          43.000  
G29  23093277.684   121356005.352        2327.053          42.000    23093284.905    94563147.1201       1813.139          35.000  
S33  40030416.174   210361254.5081       -744.465          39.000  
S31  39077719.277   205354798.4122       -743.282          36.000  
G06  23575513.061   123890180.438       -1482.875          40.000    23575510.023                       -1155.889          26.000  
G11  22973196.530   120725170.526         564.615          47.000    22973197.728    94071653.469         439.973          47.000  
R07  22845521.315   122293885.493       -1409.354          50.000    22845523.038    95117427.494       -1096.157          45.000  
R18  20160742.045   107619456.088        -859.427          51.000    20160743.024    83704044.689        -668.468          50.000  
R19  20946632.428   112050608.134        2493.668          42.000    20946634.622    87150629.572        1939.654          47.000  
E04  25307610.417   132992310.798       -1887.343          47.000    25307619.967   101903186.767       -1446.144          50.000  
G12  21443379.330   112685718.234        -843.230          49.000    21443375.720    87807045.836        -657.220          45.000  
E33  27600392.729   145040943.121        2256.762          41.000    27600423.283   111135348.244        1729.086          45.000  
E31  26427412.965   138877045.457         744.371          45.000    26427421.935   106412333.240         570.479          49.000  
E13  26722118.942   140425689.890       -1182.820          41.000    26722120.909   107598927.787        -906.394          44.000  
E26  25598051.644   134518949.715        1244.930          45.000    25598059.101   103073133.519         953.874          50.000  
E21  26046529.772   136875416.483       -2166.050          41.000    26046534.423   104878568.037       -1659.632          51.000  
> 2024 04 16 01 04 00.0010000  0 25                     
G25  22019629.570   115713955.083         587.286          47.000    22019630.920    90166731.288         457.773          44.000  
E19  27026557.201   142025147.355       -3702.521          38.000    27026588.727   108824382.404       -2836.789          43.000  
G24  20979101.403   110245890.055       -1940.277          51.000    20979103.086    85905873.779       -1511.915          46.000  
G32  23540380.254   123705496.674          30.784          47.000    23540383.203    96393868.654          23.772          43.000  
E09  27186010.836   142863474.461         478.056          38.000    27186017.114   109466819.261         365.950          42.000  
R16  20439366.275   109183421.260        -589.598          52.000    20439365.487    84920434.416        -458.587          50.000  
R17  22862196.643   122340239.319       -4202.335          49.000    22862194.259    95153505.161       -3268.424          50.000  
R09  22073865.000   117873195.690        1713.434          49.000    22073864.496    91679241.884        1332.599          47.000  
R06  23236706.625   123995517.7081      -3890.300          39.000                                                                  
R15  22771976.179   121686471.467       -2866.900          49.000    22771977.492    94645019.825       -2229.746          44.000  
G29  23080020.322   121286334.251        2317.552          43.000    23080027.575    94508854.5711       1806.196          40.000  
S33  40034663.843   210383576.598        -743.364          44.000  
S31  39081963.454   205377100.596        -742.789          39.000  
G06  23584030.165   123934938.386       -1500.837          39.000    23584030.568    96572689.683       -1169.003          34.000  
G11  22970016.332   120708459.104         549.510          47.000    22970017.540    94058631.753         428.111          48.000  
R07  22853483.463   122336507.235       -1431.968          49.000    22853485.095    95150577.519       -1113.837          46.000  
R18  20165648.383   107645645.952        -886.455          51.000    20165649.155    83724414.620        -689.470          49.000  
R19  20932695.475   111976059.604        2475.764          41.000    20932697.489    87092647.734        1925.909          47.000  
E04  25318420.584   133049110.642       -1899.081          48.000    25318429.034   101946708.191       -1455.234          50.000  
G12  21448204.092   112711075.825        -847.052          48.000    21448201.787    87826805.000        -660.008          45.000  
E33  27587503.741   144973210.668        2258.998          41.000    27587534.083   111083449.266        1730.841          44.000  
E31  26423163.790   138854718.739         743.974          45.000    26423173.035   106395225.890         570.086          49.000  
E13  26728909.459   140461384.257       -1196.476          40.000    26728913.556   107626278.095        -916.934          45.000  
E26  25590969.351   134481734.797        1236.199          45.000    25590976.839   103044618.437         947.132          50.000  
E21  26058894.797   136940395.770       -2165.895          41.000    26058899.263   104928357.318       -1659.568          50.000  
> 2024 04 16 01 04 30.0010000  0 25                     
G25  22016285.753   115696381.288         584.291          48.000    22016286.311    90153037.479         455.208          43.000  
E19  27047695.611   142136229.169       -3703.113          39.000    27047727.600   108909496.383       -2837.383          43.000  
G24  20990224.640   110304341.306       -1956.488          51.000    20990226.038    85951420.126       -1524.670          46.000  
G32  23540258.498   123704859.382          11.756          47.000    23540260.916    96393371.922           9.188          42.000  
E09  27183321.920   142849334.404         464.888          38.000    27183326.119   109455984.535         356.432          43.000  
R16  20442699.328   109201223.695        -597.231          53.000    20442698.044    84934280.750        -464.541          50.000  
R17  22885799.828   122466542.260       -4217.759          50.000    22885796.893    95251740.825       -3280.517          49.000  
R09  22064240.099   117821802.329        1712.675          47.000    22064239.812    91639269.353        1331.945          48.000  
R06  23258601.242                3      -3898.855          26.000                                                                  
R15  22788089.557   121772580.370       -2873.650          48.000    22788090.572    94711993.295       -2235.005          42.000  
G29  23066816.954   121216940.3901       2307.496          43.000    23066820.986                1       1798.894          28.000  
S33  40038908.663   210405882.6131       -743.690          41.000  
S31  39086205.740                3       -755.713          28.000  
G06  23592652.102   123980246.319       -1519.731          38.000    23592651.741    96607994.703       -1184.555          36.000  
G11  22966924.544   120692213.078         533.417          47.000    22966926.255    94045972.688         415.774          48.000  
R07  22861572.716   122379814.279       -1455.308          48.000    22861576.155    95184260.536       -1131.774          46.000  
R18  20170709.644   107672658.689        -914.424          52.000    20170709.059    83745424.546        -711.230          49.000  
R19  20918859.837   111902050.930        2457.775          40.000    20918862.639    87035085.811        1911.510          48.000  
E04  25329298.851   133106270.165       -1911.407          48.000    25329306.602   101990505.173       -1464.574          50.000  
G12  21453053.948   112736559.511        -851.770          49.000    21453051.250    87846662.425        -663.853          45.000  
E33  27574604.699   144905421.344        2260.537          39.000    27574634.825   111031506.050        1731.871          41.000  
E31  26418918.991   138832415.492         742.751          44.000    26418928.627   106378136.510         569.171          49.000  
E13  26735780.695   140497495.927       -1210.813          39.000    26735785.443   107653948.106        -927.786          46.000  
E26  25583938.276   134444790.917        1226.885          44.000    25583946.630   103016311.032         939.890          50.000  
E21  26071259.879   137005380.632       -2166.366          41.000    26071265.402   104978150.925       -1660.065          50.000  
> 2024 04 16 01 05 00.0010000  0 25                     
G25  22012957.748   115678893.542         581.647          47.000    22012958.660    90139410.743         453.023          44.000  
E19  27068837.534   142247327.628       -3703.139          40.000    27068869.726   108994623.208       -2837.582          44.000  
G24  21001438.948   110363273.668       -1972.198          50.000    21001440.791    85997341.341       -1536.810          46.000  
G32  23540242.330   123704777.158          -6.227          46.000    23540244.716    96393307.742          -4.946          41.000  
E09  27180700.699   142835567.448         452.793          37.000    27180706.064   109445435.715         347.109          42.000  
R16  20446073.609   109219249.066        -604.408          52.000    20446073.015    84948300.472        -470.057          50.000  
R17  22909487.147   122593298.038       -4232.480          49.000    22909484.151    95350328.703       -3291.942          50.000  
R09  22054617.270   117770422.302        1712.606          45.000    22054617.576    91599307.165        1332.043          47.000  
R06  23280542.796   124229419.4081      -3906.627          36.000                                                                  
R15  22804239.310   121858880.054       -2879.675          48.000    22804241.663    94779115.121       -2239.662          44.000  
G29  23053669.100   121147848.345        2298.066          46.000    23053674.215    94400934.2581       1790.988          32.000  
S33  40043152.113   210428182.372        -743.083          37.000  
S31  39090443.529   205421664.7181       -742.297          40.000  
G06  23601378.573   124026108.526       -1537.945          38.000    23601377.976    96643731.514       -1198.041          37.000  
G11  22963922.408   120676439.509         518.134          46.000    22963923.965    94033681.772         403.745          47.000  
R07  22869792.098   122423809.385       -1477.778          50.000    22869794.905    95218478.737       -1149.294          46.000  
R18  20175923.496   107700499.010        -941.599          51.000    20175924.215    83767078.163        -732.315          48.000  
R19  20905126.815   111828590.858        2439.671          40.000    20905129.994    86977950.569        1897.447          48.000  
E04  25340245.036   133163793.062       -1923.277          48.000    25340253.393   102034580.529       -1473.630          50.000  
G12  21457928.193   112762173.689        -855.896          48.000    21457925.622    87866621.522        -666.750          46.000  
E33  27561696.943   144837583.964        2262.052          41.000    27561726.694   110979526.016        1733.489          46.000  
E31  26414680.369   138810140.193         742.177          44.000    26414689.518   106361068.539         568.747          49.000  
E13  26742731.339   140534029.465       -1224.545          38.000    26742737.376   107681941.394        -938.302          46.000  
E26  25576961.515   134408124.859        1217.759          44.000    25576968.968   102988216.461         933.142          50.000  
E21  26083630.892   137070376.207       -2166.440          42.000    26083634.060   105027952.683       -1660.029          51.000  
> 2024 04 16 01 05 30.0010000  0 24                     
G25  22009644.514   115661484.904         578.977          48.000    22009646.492    90125845.645         451.336          44.000  
E19  27089981.672   142358433.598       -3703.634          41.000    27090012.696   109079755.792       -2837.776          43.000  
G24  21012743.341   110422679.871       -1988.165          50.000    21012745.218    86043631.788       -1549.030          46.000  
G32  23540331.036   123705243.459         -24.565          47.000    23540334.747    96393670.960         -19.159          43.000  
E09  27178151.417   142822167.617         440.786          37.000    27178155.907   109435168.228         337.575          42.000  
R16  20449488.187   109237492.164        -611.632          51.000    20449487.706    84962489.526        -475.702          51.000  
R17  22933256.568   122720495.242       -4247.240          51.000    22933253.834    95449259.959       -3303.459          49.000  
R09  22044996.718   117719049.590        1712.336          46.000    22044997.814    91559350.675        1331.929          48.000  
R06  23302529.055   124346759.9341      -3913.460          34.000                                                                  
R15  22820423.429   121945364.095       -2885.819          47.000    22820426.606    94846380.358       -2244.689          45.000  
G29  23040576.211   121079045.346        2288.430          45.000    23040579.489    94347320.4591       1783.139          40.000  
S31  39094680.124   205443926.940        -742.108          43.000  
G06  23610210.867   124072517.964       -1556.051          38.000    23610210.065    96679894.823       -1212.545          38.000  
G11  22961010.010   120661133.689         502.327          48.000    22961012.268    94021755.346         391.471          48.000  
R07  22878138.051   122468483.760       -1500.460          50.000    22878139.786    95253225.276       -1166.926          45.000  
R18  20181292.370   107729159.416        -968.933          51.000    20181293.590    83789369.628        -753.657          49.000  
R19  20891496.235   111755676.605        2421.510          41.000    20891499.119    86921239.846        1883.245          48.000  
E04  25351259.133   133221672.888       -1935.202          48.000    25351267.234   102078930.192       -1482.852          54.000  
G12  21462824.898   112787911.350        -859.968          47.000    21462823.193    87886676.855        -670.115          46.000  
E33  27548778.351   144769806.5401       2264.187          40.000    27548809.602   110927501.122        1734.838          42.000  
E31  26410444.875   138787885.556         741.500          45.000    26410454.438   106344016.460         568.152          49.000  
E13  26749761.537   140570977.874       -1238.528          38.000    26749768.434   107710252.556        -948.924          46.000  
E26  25570036.807   134371731.612        1208.484          45.000    25570043.042   102960330.955         926.024          50.000  
E21  26095994.365   137135375.672       -2166.639          38.000    26096003.278   105077757.466       -1660.225          51.000  
> 2024 04 16 01 06 00.0010000  0 25                     
G25  22006348.647   115644164.292         575.730          47.000    22006350.622    90112349.105         448.614          45.000  
E19  27111128.343   142469553.953       -3704.320          41.000    27111158.566   109164899.450       -2838.563          43.000  
G24  21024139.958   110482568.822       -2004.620          49.000    21024142.317    86090298.415       -1561.859          46.000  
G32  23540526.692   123706267.513         -43.462          46.000    23540530.026    96394468.786         -33.870          42.000  
E09  27175674.167   142809144.787         427.362          36.000    27175677.944   109425189.591         327.580          43.000  
R16  20452945.927   109255963.033        -619.631          50.000    20452946.098    84976855.734        -481.960          51.000  
R17  22957109.507   122848138.977       -4262.387          51.000    22957106.872    95548538.470       -3315.130          49.000  
R09  22035380.350   117667694.063        1711.441          47.000    22035381.257    91519407.571        1331.094          49.000  
R06  23324553.913   124464277.4471      -3922.288          38.000                                                                  
R15  22836643.745   122032042.125       -2892.669          47.000    22836647.323    94913796.461       -2249.858          45.000  
G29  23027540.068   121010545.416        2278.212          50.000    23027543.085                3       1775.345          38.000  
S33  40051631.045   210472740.9123       -743.029          38.000  
S31  39098915.579   205466188.1501       -742.137          35.000  
G06  23619147.876   124119483.020       -1574.855          36.000    23619147.307    96716491.003       -1227.078          40.000  
G11  22958189.313   120646306.604         486.249          46.000    22958190.369    94010201.945         378.760          47.000  
R07  22886612.681   122513844.539       -1523.496          51.000    22886613.326    95288505.611       -1184.840          45.000  
R18  20186817.434   107758648.676        -996.974          52.000    20186817.925    83812305.759        -775.376          50.000  
R19  20877970.393   111683321.633        2402.292          42.000    20877973.837    86864964.096        1868.437          49.000  
E04  25362341.265   133279915.477       -1945.616          38.000    25362350.185   102123556.975       -1491.507          47.000  
G12  21467748.254   112813781.069        -864.684          47.000    21467745.923    87906835.065        -673.672          45.000  
E33  27535851.355   144701871.679        2264.987          42.000    27535882.930   110875446.013        1735.550          44.000  
E31  26406217.842   138765660.170         740.140          46.000    26406224.947   106326986.731         567.166          49.000  
E13  26756874.604   140608349.798       -1253.061          39.000    26756880.136   107738888.218        -959.992          47.000  
E26  25563165.050   134335621.954        1198.751          45.000    25563171.163   102932662.738         918.565          50.000  
E21  26108367.945   137200388.250       -2167.525          40.000    26108374.219   105127572.236       -1660.715          50.000  
> 2024 04 16 01 06 30.0010000  0 25                     
G25  22003070.097   115626934.325         572.881          47.000    22003071.504    90098923.202         446.685          44.000  
E19  27132276.034   142580689.734       -3704.621          40.000    27132307.251   109250055.017       -2838.678          42.000  
G24  21035629.323   110542943.007       -2020.532          50.000    21035631.751    86137343.157       -1574.316          47.000  
G32  23540829.061   123707852.327         -62.051          48.000    23540831.836    96395703.611         -48.417          43.000  
E09  27173266.041   142796502.545         415.231          34.000    27173272.532   109415502.553         318.131          43.000  
R16  20456447.702   109274666.150        -627.267          51.000    20456447.667    84991402.608        -487.868          51.000  
R17  22981045.996   122976227.636       -4276.921          51.000    22981043.109    95648163.041       -3326.533          48.000  
R09  22025766.964   117616359.963        1710.914          48.000    22025768.430    91479481.090        1330.716          49.000  
R06  23346627.129   124582062.122       -3930.837          31.000                                                                  
R15  22852901.066   122118917.567       -2899.054          47.000    22852905.342    94981366.104       -2254.559          44.000  
G29  23014560.901   120942338.5953       2268.252          49.000    23014565.047    94240795.9921       1769.440          32.000  
S33  40055869.656   210495014.5591       -742.838          38.000  
S31  39103149.511   205488436.0391       -741.513          44.000  
G06  23628189.241   124167006.019       -1593.380          32.000    23628191.013    96753522.024       -1241.292          41.000  
G11  22955459.623   120631963.157         470.006          47.000    22955460.355    93999025.380         366.258          47.000  
R07  22895215.505   122559892.483       -1546.221          51.000    22895215.512    95324320.393       -1202.563          46.000  
R18  20192497.296   107788969.082       -1024.456          51.000    20192498.460    83835888.371        -796.836          50.000  
R19  20864550.587   111611532.190        2383.790          42.000    20864552.781    86809128.204        1853.942          49.000  
E04  25373492.377   133338524.401       -1959.367          43.000    25373502.451   102168465.040       -1501.205          48.000  
G12  21472697.053   112839785.400        -868.961          48.000    21472694.458    87927098.199        -677.217          46.000  
E33  27522917.816   144633899.645        2266.584          42.000    27522949.674   110823362.614        1736.810          46.000  
E31  26401994.135   138743466.382         739.404          46.000    26402001.559   106309981.214         566.554          49.000  
E13  26764066.836   140646147.718       -1267.044          40.000    26764073.545   107767850.295        -970.765          48.000  
E26  25556349.010   134299800.498        1189.285          46.000    25556354.132   102905215.345         911.326          50.000  
E21  26120740.878   137265416.731       -2167.442          39.000    26120748.829   105177399.266       -1661.039          51.000  
> 2024 04 16 01 07 00.0010000  0 25                     
G25  21999807.125   115609791.256         570.159          47.000    21999809.152    90085565.038         444.290          44.000  
E19  27153426.332   142691835.112       -3704.769          39.000    27153458.175   109335217.887       -2838.640          42.000  
G24  21047209.805   110603798.550       -2036.432          50.000    21047211.285    86184762.988       -1586.737          46.000  
G32  23541237.184   123709994.483         -80.500          48.000    23541239.346    96397372.731         -62.801          43.000  
E09  27170931.649   142784238.003         403.096          33.000    27170938.681   109406104.931         308.618          43.000  
R16  20459991.847   109293599.025        -634.767          51.000    20459991.594    85006128.147        -493.740          50.000  
R17  23005064.505   123104753.819       -4291.307          52.000    23005061.527    95748127.947       -3337.656          49.000  
R09  22016157.099   117565044.062        1710.366          47.000    22016158.789    91439568.781        1330.322          50.000  
R06  23368743.285                       -3937.166          29.000                                                                  
R15  22869197.590   122205986.768       -2905.342          50.000    22869198.655    95049086.505       -2259.614          43.000  
G29  23001639.745   120874443.506        2258.333          44.000    23001644.235    94187893.976        1760.197          37.000  
S33  40060106.378   210517283.9241       -741.738          44.000  
S31  39107382.043   205510678.1693       -741.312          36.000  
G06  23637334.665   124215082.900       -1611.320          28.000    23637339.707    96790984.525       -1255.906          41.000  
G11  22952821.983   120618101.641         454.176          47.000    22952822.501    93988224.368         353.768          47.000  
R07  22903943.622   122606621.623       -1568.699          49.000    22903944.623    95360665.021       -1220.233          46.000  
R18  20198332.475   107820116.448       -1051.854          52.000    20198332.760    83860114.150        -818.094          50.000  
R19  20851236.029   111540309.371        2364.620          42.000    20851237.959    86753732.995        1839.373          48.000  
E04  25384714.236   133397493.659       -1971.580          50.000    25384722.233   102213757.4771      -1510.490          48.000  
G12  21477669.970   112865920.500        -873.317          47.000    21477668.514    87947463.215        -680.409          46.000  
E33  27509976.643   144565888.051        2268.022          43.000    27510008.459   110771248.914        1737.723          46.000  
E31  26397775.787   138721300.103         738.674          45.000    26397783.457   106292996.750         565.941          49.000  
E13  26771340.182   140684367.614       -1280.748          41.000    26771345.627   107797135.719        -981.423          47.000  
E26  25549585.870   134264265.419        1179.927          45.000    25549592.201   102877987.363         904.119          50.000  
E21  26133121.245   137330457.747       -2168.265          41.000    26133125.896   105227235.818       -1661.147          51.000  
> 2024 04 16 01 07 30.0010000  0 25                     
G25  21996562.786   115592739.205         566.682          47.000    21996564.767    90072277.792         441.483          45.000  
E19  27174579.277   142802992.446       -3705.502          40.000    27174611.319   109420389.947       -2839.292          43.000  
G24  21058882.112   110665139.473       -2053.003          49.000    21058883.639    86232561.023       -1599.609          46.000  
G32  23541751.854   123712698.465         -99.559          47.000    23541754.682    96399479.632         -77.621          43.000  
E09  27168671.663   142772356.196         389.580          36.000    27168678.041   109397000.611         298.473          43.000  
R16  20463580.022   109312767.583        -643.009          50.000    20463579.367    85021037.043        -500.131          50.000  
R17  23029164.783   123233717.540       -4306.230          51.000    23029161.381    95848433.122       -3349.334          48.000  
R09  22006551.667   117513752.129        1709.214          48.000    22006552.727    91399675.133        1329.409          48.000  
R06  23390901.650   124818324.0871      -3945.089          32.000                                                                  
R15  22885528.353   122293254.848       -2912.398          49.000    22885529.280    95116961.542       -2265.177          43.000  
G29  22988775.975   120806828.3631       2247.523          45.000    22988779.619    94135219.2001       1751.346          40.000  
S33  40064343.703   210539549.9683       -742.379          44.000  
S31  39111616.191   205532927.105        -741.638          38.000  
G11  22950277.017   120604728.468         437.427          47.000    22950277.984    93977803.894         340.752          47.000  
R07  22912800.371   122654034.449       -1591.809          50.000    22912803.091    95397541.431       -1238.202          47.000  
R18  20204322.466   107852094.557       -1079.953          52.000    20204323.804    83884986.050        -839.949          51.000  
R19  20838028.228   111469660.747        2345.138          41.000    20838029.889    86698784.408        1823.855          47.000  
E04  25396004.200   133456819.985       -1983.530          44.000    25396013.451   102259212.526       -1519.803          42.000  
G12  21482669.015   112892190.276        -878.047          48.000    21482667.275    87967933.192        -684.242          46.000  
E33  27497029.143   144497843.486        2268.467          44.000    27497060.924   110719110.130        1738.187          46.000  
E31  26393563.707   138699165.288         737.313          45.000    26393571.430   106276036.421         564.914          49.000  
E13  26778694.476   140723013.502       -1295.229          41.000    26778699.492   107826747.552        -992.495          46.000  
E26  25542877.787   134229022.719        1169.758          44.000    25542885.406   102850983.456         896.303          50.000  
E21  26145501.131   137395515.622       -2168.950          41.000    26145505.655   105277085.360       -1661.934          50.000  
G06                                                                  23646593.746    96828881.458       -1270.672          41.000  
> 2024 04 16 01 08 00.0010000  0 25                     
G25  21993335.500   115575779.159         563.769          48.000    21993337.010    90059062.197         439.382          45.000  
E19  27195734.003   142914160.578       -3705.628          39.000    27195766.488   109505570.364       -2839.346          43.000  
G24  21070647.339   110726966.331       -2068.909          49.000    21070649.600    86280737.728       -1612.323          46.000  
G32  23542373.125   123715965.356        -118.044          45.000    23542376.779    96402025.155         -91.945          44.000  
E09  27166486.143   142760858.866         376.965          38.000    27166490.859   109388190.862         289.022          44.000  
R16  20467212.799   109332174.142        -650.860          51.000    20467212.568    85036131.038        -506.226          50.000  
R17  23053345.958   123363115.454       -4320.328          51.000    23053341.812    95949076.058       -3360.272          47.000  
R09  21996950.739   117462485.988        1708.577          48.000    21996951.911    91359801.556        1328.863          48.000  
R06  23413102.814                1      -3951.963          25.000                                                                  
R15  22901896.158   122380723.309       -2918.868          48.000    22901898.440    95184992.452       -2270.322          45.000  
G29  22975973.751   120739555.971        2237.623          46.000    22975978.753    94082794.646        1743.829          41.000  
S33  40068579.563   210561818.046        -741.712          47.000  
S31  39115847.876   205555165.016        -741.282          46.000  
G06  23655956.499   124312885.5273      -1649.053          30.000    23655953.895    96867213.139       -1285.136          39.000  
G11  22947825.000   120591846.475         421.233          47.000    22947825.547    93967766.127         328.187          46.000  
R07  22921785.317   122702129.554       -1614.420          49.000    22921788.117    95434948.463       -1255.569          48.000  
R18  20210469.838   107884903.568       -1107.375          52.000    20210469.902    83910504.220        -861.343          51.000  
R19  20824929.101   111399591.689        2326.079          40.000    20824931.137    86644286.532        1809.092          48.000  
E04  25407363.756   133516510.939       -1995.840          41.000    25407372.638   102304961.7781      -1529.119          46.000  
G12  21487693.900   112918595.459        -882.358          48.000    21487691.230    87988508.666        -687.520          45.000  
E33  27484075.552   144429768.688        2269.836          44.000    27484107.378   110666948.311        1739.137          46.000  
E31  26389356.166   138677062.320         736.340          43.000    26389365.223   106259100.444         564.243          49.000  
E13  26786131.354   140762085.934       -1309.301          42.000    26786134.563   107856686.213       -1003.284          46.000  
E26  25536229.447   134194075.218        1160.204          46.000    25536235.081   102824205.719         888.897          50.000  
E21  26157884.314   137460591.478       -2169.363          41.000    26157889.480   105326948.661       -1662.286          51.000  
> 2024 04 16 01 08 30.0010000  0 25                     
G25  21990124.255   115558906.101         560.913          48.000    21990126.174    90045914.414         437.156          44.000  
E19  27216889.438   143025332.459       -3705.819          39.000    27216922.166   109590753.490       -2839.565          43.000  
G24  21082504.281   110789274.046       -2085.052          49.000    21082505.840    86329289.078       -1624.500          46.000  
G32  23543100.863   123719790.463        -136.877          45.000    23543104.545    96405005.647        -106.659          44.000  
E09  27164371.308   142749741.959         363.983          39.000    27164375.602   109379672.614         279.078          44.000  
R16  20470890.244   109351814.954        -658.705          52.000    20470889.742    85051407.223        -512.223          50.000  
R17  23077605.976   123492938.852       -4334.554          51.000    23077602.367    96050049.865       -3371.317          46.000  
R09  21987353.932   117411241.636        1707.775          48.000    21987355.340    91319944.906        1328.247          48.000  
R06  23435338.288   125055446.4343      -3958.479          35.000                                                                  
R15  22918301.612   122468387.521       -2925.453          49.000    22918304.752    95253175.569       -2275.342          46.000  
G29  22963229.632   120672586.056        2227.092          51.000    22963235.639    94030616.2041       1735.721          42.000  
S33  40072814.033   210584053.3333       -741.622          39.000  
S31  39120079.295   205577406.0731       -741.196          48.000  
G06  23665417.202   124362635.147       -1667.364          34.000    23665420.277    96905975.257       -1299.277          40.000  
G11  22945465.985   120579452.826         404.772          46.000    22945465.650    93958108.879         315.450          45.000  
R07  22930896.878   122750899.597       -1636.883          49.000    22930898.315    95472880.464       -1273.149          46.000  
R18  20216770.289   107918537.971       -1134.945          52.000    20216770.447    83936664.377        -882.772          51.000  
R19  20811937.630   111330100.811        2306.802          40.000    20811940.543    86590238.366        1794.098          48.000  
E04  25418790.354   133576651.0151      -2007.607          43.000    25418798.029   102350974.1151      -1538.555          47.000  
G12  21492743.966   112945130.511        -886.724          49.000    21492740.120    88009185.338        -691.098          44.000  
E33  27471115.002   144361660.714        2270.687          45.000    27471147.161   110614761.186        1739.824          46.000  
E31  26385154.904   138654986.025         735.423          43.000    26385164.170   106242184.927         563.459          49.000  
E13  26793647.458   140801579.702       -1323.769          43.000    26793649.337   107886947.720       -1014.150          45.000  
E26  25529634.355   134159419.907        1150.266          45.000    25529640.216   102797651.842         881.308          50.000  
E21  26170271.526   137525680.636       -2169.823          41.000    26170275.639   105376822.146       -1662.702          50.000  
> 2024 04 16 01 09 00.0010000  0 25                     
G25  21986930.085   115542121.885         557.904          48.000    21986932.442    90032835.863         434.649          45.000  
E19  27238045.992   143136508.681       -3706.063          39.000    27238078.440   109675940.123       -2839.740          42.000  
G24  21094453.125   110852064.155       -2101.172          49.000    21094454.606    86378216.367       -1637.341          46.000  
G32  23543935.077   123724175.788        -155.565          45.000    23543938.632    96408422.701        -121.274          43.000  
E09  27162328.103   142739008.079         351.498          40.000    27162333.359   109371447.854         269.288          45.000  
R16  20474610.831   109371693.417        -666.641          51.000    20474611.749    85066868.249        -518.453          51.000  
R17  23101945.040   123623185.028       -4348.745          50.000    23101942.348    96151352.513       -3382.167          46.000  
R09  21977761.880   117360022.113        1706.810          48.000    21977762.587    91280107.540        1327.675          47.000  
R06  23457615.753   125174328.8841      -3965.897          38.000                                                                  
R15  22934744.384   122556249.872       -2932.217          49.000    22934747.218    95321512.811       -2280.572          46.000  
G29  22950542.807   120605911.8071       2216.511          45.000    22950551.441                1       1726.044          29.000  
S33  40077047.766   210606304.4651       -742.108          38.000  
S31  39124309.122   205599631.3061       -740.829          43.000  
G06  23674991.366   124412933.525       -1685.689          37.000    23674991.040    96945168.871       -1313.671          39.000  
G11  22943200.953   120567551.388         388.370          47.000    22943201.379    93948835.180         302.674          46.000  
R07  22940133.702   122800344.313       -1659.483          48.000    22940135.377    95511337.171       -1290.728          46.000  
R18  20223225.641   107952999.118       -1162.574          52.000    20223226.256    83963467.537        -904.154          51.000  
R19  20799055.657   111261194.833        2287.034          40.000    20799058.494    86536645.096        1778.727          48.000  
E04  25430284.109   133637057.673       -2019.542          45.000    25430291.592   102397260.117       -1547.531          48.000  
G12  21497818.335   112971797.326        -891.194          49.000    21497815.131    88029964.677        -694.357          44.000  
E33  27458149.042   144293523.411        2271.674          44.000    27458181.323   110562551.669        1740.677          45.000  
E31  26380959.158   138632937.901         734.458          43.000    26380968.377   106225291.001         562.681          49.000  
E13  26801241.724   140841496.325       -1337.666          42.000    26801244.770   107917533.262       -1024.993          44.000  
E26  25523095.462   134125060.406        1140.403          45.000    25523102.138   102771324.648         873.732          51.000  
E21  26182658.725   137590785.103       -2170.312          41.000    26182664.715   105426707.385       -1663.075          50.000  
> 2024 04 16 01 09 30.0010000  0 24                     
G25  21983752.399   115525422.147         555.102          48.000    21983754.438    90019823.138         432.493          45.000  
E19  27259202.307   143247683.352       -3706.090          39.000    27259233.880   109761125.988       -2839.671          41.000  
G24  21106492.133   110915332.010       -2117.084          49.000    21106494.409    86427515.917       -1649.744          46.000  
G32  23544874.827   123729117.144        -174.232          44.000    23544878.713    96412273.006        -135.868          43.000  
E09  27160357.986   142728653.713         338.779          41.000    27160362.630   109363513.894         259.386          44.000  
R16  20478376.521   109391806.552        -674.536          52.000    20478376.436    85082511.796        -524.676          50.000  
R17  23126362.055   123753845.472       -4362.423          50.000    23126359.018    96252977.387       -3392.724          45.000  
R09  21968174.707   117308824.057        1705.986          50.000    21968174.781    91240286.913        1326.925          48.000  
R06  23479933.449   125293394.0511      -3972.648          40.000                                                                  
R15  22951222.851   122644306.493       -2938.617          49.000    22951225.944    95390001.148       -2285.449          46.000  
G29  22937917.260                3       2206.454          37.000    22937922.644    93926950.6351       1718.827          33.000  
S31  39128537.368   205621850.069        -740.546          42.000  
G06  23684666.442   124463780.719       -1704.323          37.000    23684666.823    96984790.133       -1327.962          38.000  
G11  22941030.559   120556139.838         372.052          47.000    22941030.950    93939943.186         289.912          47.000  
R07  22949494.498   122850457.122       -1681.720          47.000    22949497.309    95550313.498       -1308.129          46.000  
R18  20229835.145   107988281.747       -1189.986          52.000    20229836.321    83990909.615        -925.500          51.000  
R19  20786283.314   111192872.550        2267.609          39.000    20786286.662    86483505.872        1763.507          48.000  
E04  25441845.299   133697813.714       -2031.299          43.000    25441852.427   102443813.033       -1556.737          51.000  
G12  21502917.163   112998591.957        -895.383          49.000    21502913.921    88050843.633        -697.845          44.000  
E33  27445176.772   144225354.531        2272.663          45.000    27445209.457   110510318.129        1741.345          46.000  
E31  26376767.555   138610913.313         733.409          43.000    26376776.993   106208415.074         562.124          48.000  
E13  26808916.881   140881831.192       -1351.644          42.000    26808920.211   107948439.225       -1035.661          43.000  
E26  25516612.442   134090994.219        1130.485          45.000    25516619.209   102745222.207         866.198          50.000  
E21  26195049.959   137655900.802       -2170.765          42.000    26195055.166   105476601.190       -1663.411          50.000  
> 2024 04 16 01 10 00.0010000  0 25                     
G25  21980590.280   115508810.599         552.077          47.000    21980593.128    90006879.136         430.180          45.000  
E19  27280357.810   143358858.032       -3705.786          38.000    27280389.464   109846312.124       -2839.265          38.000  
G24  21118623.221   110979081.068       -2133.173          49.000    21118626.081    86477190.420       -1662.244          47.000  
G32  23545922.115   123734618.452        -193.010          46.000    23545925.619    96416559.614        -150.383          44.000  
E09  27158459.186   142718683.395         325.594          39.000    27158464.668   109355874.197         249.412          43.000  
R16  20482186.166   109412159.788        -682.546          50.000    20482186.917    85098342.101        -530.797          51.000  
R17  23150856.235   123884920.011       -4376.120          49.000    23150853.346    96354924.352       -3403.774          45.000  
R09  21958592.664   117257652.553        1705.091          50.000    21958592.602    91200486.953        1326.056          48.000  
R06  23502282.310   125412666.317       -3978.668          36.000                                                                  
R15  22967738.587   122732561.515       -2945.325          50.000    22967741.497    95458643.788       -2290.796          44.000  
G29  22925349.617   120473536.9231       2195.762          41.000    22925353.493    93875496.911        1711.346          35.000  
S33  40085509.719   210650776.2003       -741.346          45.000  
S31  39132764.482                3       -742.396          31.000  
G06  23694447.007   124515179.863       -1722.818          37.000    23694448.640    97024841.393       -1342.156          40.000  
G11  22938952.948   120545223.863         355.517          47.000    22938952.743    93931437.391         276.797          46.000  
R07  22958982.664   122901239.547       -1704.051          50.000    22958982.780    95589810.627       -1325.369          46.000  
R18  20236599.283   108024388.853       -1217.500          52.000    20236600.082    84018992.982        -946.828          51.000  
R19  20773622.682   111125142.486        2247.637          41.000    20773624.625    86430827.191        1748.311          48.000  
E04  25453474.940   133758926.4601      -2042.970          48.000    25453480.626   102490638.746       -1565.798          49.000  
G12  21508040.104   113025517.254        -899.745          48.000    21508038.552    88071824.405        -701.174          45.000  
E33  27432199.159   144157159.780        2273.436          43.000    27432232.441   110458064.928        1741.957          45.000  
E31  26372582.015   138588915.522         732.571          43.000    26372591.056   106191559.613         561.361          49.000  
E13  26816672.161   140922587.613       -1365.850          42.000    26816676.259   107979668.244       -1046.451          44.000  
E26  25510186.289   134057226.919        1120.288          44.000    25510192.613   102719348.765         858.499          50.000  
E21  26207446.342   137721031.693       -2171.437          43.000    26207449.474   105526506.656       -1663.811          50.000  
> 2024 04 16 01 10 30.0010000  0 26                     
G25  21977445.904   115492287.455         549.291          48.000    21977448.955    89994003.988         427.930          45.000  
E19  27301512.522   143470030.013       -3705.936          39.000    27301544.437   109931496.047       -2839.490          41.000  
G24  21130846.346   111043311.119       -2149.017          50.000    21130849.678    86527239.729       -1674.652          47.000  
G32  23547075.899   123740679.850        -211.437          45.000    23547079.200    96421282.695        -164.824          44.000  
E09  27156633.660   142709098.051         313.058          38.000    27156640.410   109348529.470         239.879          43.000  
R16  20486041.507   109432755.018        -690.639          52.000    20486042.233    85114360.603        -537.191          51.000  
R17  23175427.041   124016404.675       -4389.698          48.000    23175424.625    96457190.293       -3414.188          46.000  
R09  21949014.697   117206508.810        1704.183          49.000    21949015.206    91160708.551        1325.413          48.000  
R06  23524668.917   125532130.045       -3985.214          40.000                                                                  
R15  22984292.427   122821015.735       -2951.967          50.000    22984293.862    95527441.336       -2295.853          43.000  
G29  22912842.713   120407813.079        2185.488          46.000    22912846.423    93824269.987        1703.079          42.000  
S33  40089740.017   210673002.1122       -741.065          43.000  
S31  39136989.144   205666263.9853       -740.249          48.000  
G06  23704330.977   124567130.446       -1741.160          36.000    23704334.084    97065322.414       -1356.574          38.000  
G11  22936971.010   120534805.586         338.741          46.000    22936970.532    93923319.386         264.006          46.000  
R07  22968594.038   122952689.342       -1726.136          50.000    22968596.381    95629826.870       -1342.682          48.000  
R18  20243517.641   108061319.964       -1244.866          52.000    20243518.498    84047717.233        -968.205          51.000  
R19  20761072.001   111058007.793        2227.677          40.000    20761074.467    86378611.572        1732.677          49.000  
E04  25465173.888   133820383.7951      -2054.305          44.000    25465175.875   102537711.9401      -1574.670          49.000  
G12  21513188.935   113052573.232        -904.146          48.000    21513187.576    88092906.993        -704.721          45.000  
E33  27419217.360   144088941.313        2274.337          41.000    27419251.138   110405793.683        1742.503          46.000  
E31  26368401.354   138566944.497         731.881          43.000    26368410.070   106174724.689         560.817          49.000  
E13  26824507.698   140963765.444       -1379.729          42.000    26824512.563   108011220.086       -1057.114          44.000  
E26  25503818.423   134023760.432        1110.468          44.000    25503823.817   102693705.815         850.804          49.000  
E21  26219843.014   137786178.103       -2171.867          44.000    26219846.502   105576424.031       -1664.157          50.000  
E14  21017724.490   110448888.3081       2899.446          32.000                                                                  
> 2024 04 16 01 11 00.0010000  0 26                     
G25  21974319.597   115475855.995         546.399          48.000    21974321.810    89981200.276         426.046          44.000  
E19  27322667.564   143581200.526       -3705.391          38.000    27322699.430   110016678.439       -2839.095          40.000  
G24  21143161.626   111108025.102       -2164.874          50.000    21143164.458    86577666.120       -1686.975          47.000  
G32  23548335.366   123747304.838        -229.905          45.000    23548339.885    96426444.923        -179.286          43.000  
E09  27154884.924   142699901.771         300.430          39.000    27154890.167   109341482.845         230.305          42.000  
R16  20489943.892   109453596.686        -698.538          52.000    20489943.686    85130570.791        -543.270          50.000  
R17  23200074.563   124148298.546       -4402.922          48.000    23200072.285    96559774.495       -3424.485          45.000  
R09  21939442.290   117155397.099        1703.498          47.000    21939443.724    91120955.037        1324.948          49.000  
R06  23547095.106   125651795.7551      -3992.532          35.000                                                                  
R15  23000882.806   122909673.003       -2958.318          49.000    23000885.464    95596396.799       -2301.094          43.000  
G29  22900395.135   120342408.350        2176.321          33.000    22900401.589    93773300.290        1695.053          37.000  
S33  40093969.231   210695228.8793       -739.665          33.000  
S31  39141216.496   205688471.8551       -740.311          37.000  
G06  23714322.710   124619635.176       -1758.796          38.000    23714325.717    97106235.212       -1370.790          40.000  
G11  22935083.122   120524890.243         322.449          46.000    22935083.007    93915593.289         251.134          46.000  
R07  22978329.791   123004807.525       -1748.077          49.000    22978332.881    95670362.919       -1359.742          47.000  
R18  20250591.299   108099077.410       -1272.075          52.000    20250591.815    84077084.180        -989.440          52.000  
R19  20748634.551   110991476.375        2207.615          40.000    20748637.878    86326865.204        1717.286          49.000  
E04  25476931.079   133882204.430       -2066.409          42.000    25476937.680   102585083.355       -1584.694          38.000  
G12  21518363.062   113079762.941        -908.215          49.000    21518361.314    88114093.791        -707.645          45.000  
E33  27406231.263   144020704.570        2275.062          41.000    27406265.848   110353508.645        1743.208          46.000  
E31  26364226.356   138545003.183         731.092          44.000    26364234.982   106157912.578         560.274          49.000  
E13  26832424.529   141005367.529       -1393.543          43.000    26832428.631   108043097.052       -1067.675          43.000  
E26  25497507.771   133990599.883        1100.570          45.000    25497513.603   102668297.304         843.260          50.000  
E21  26232242.360   137851343.648       -2172.120          43.000    26232247.098   105626356.057       -1664.434          50.000  
E14  21001246.596   110362296.622        2871.372          43.000    21001264.704    84563404.542        2199.631          46.000  
> 2024 04 16 01 11 30.0010000  0 26                     
G25  21971209.820   115459512.166         543.323          48.000    21971211.114    89968464.879         423.304          44.000  
E19  27343821.696   143692364.175       -3705.554          37.000    27343853.294   110101855.584       -2839.167          39.000  
G24  21155568.138   111173218.638       -2181.018          50.000    21155570.610    86628466.189       -1699.554          48.000  
G32  23549703.996   123754489.366        -248.873          46.000    23549706.504    96432043.119        -193.849          42.000  
E09  27153207.629   142691091.157         287.371          39.000    27153214.301   109334731.799         220.095          43.000  
R16  20493891.152   109474682.380        -706.978          52.000    20493890.714    85146970.727        -549.874          50.000  
R17  23224797.247   124280593.518       -4416.570          47.000    23224794.959    96662670.667       -3434.923          45.000  
R09  21929875.759   117104314.457        1702.207          48.000    21929877.745    91081224.155        1323.925          49.000  
R06  23569552.092   125771642.8401      -3997.910          33.000                                                                  
R15  23017510.292   122998529.539       -2965.321          49.000    23017513.533    95665507.187       -2306.258          42.000  
G29  22888009.470   120277316.5141       2164.258          42.000    22888018.947                1       1686.055          30.000  
S33  40098196.499   210717442.3342       -740.227          31.000  
S31  39145440.791   205710672.326        -739.938          41.000  
G06  23724417.148   124672689.291       -1777.645          36.000    23724421.927    97147576.101       -1385.250          38.000  
G11  22933290.523   120515475.672         305.516          44.000    22933291.005    93908257.388         237.978          46.000  
R07  22988190.609   123057588.132       -1770.427          50.000    22988193.081    95711414.214       -1377.015          46.000  
R18  20257817.497   108137656.365       -1299.706          51.000    20257818.771    84107090.080       -1010.901          51.000  
R19  20736309.944   110925547.972        2187.604          40.000    20736312.617    86275587.831        1701.471          49.000  
E04  25488759.049   133944373.443       -2078.082          51.000    25488765.291   102632721.136       -1592.500          51.000  
G12  21523561.974   113107082.246        -912.911          49.000    21523559.324    88135381.594        -711.494          45.000  
E33  27393242.964   143952447.671        2275.472          42.000    27393276.414   110301208.434        1743.674          47.000  
E31  26360055.301   138523087.180         730.285          43.000    26360064.502   106141119.922         559.338          49.000  
E13  26840422.489   141047389.514       -1407.831          44.000    26840425.020   108075295.760       -1078.508          43.000  
E26  25491253.983   133957743.029        1090.263          44.000    25491261.037   102643121.514         835.311          50.000  
E21  26244645.716   137916524.523       -2173.029          42.000    26244650.633   105676299.803       -1664.996          50.000  
E14  20984933.651   110276589.140        2842.832          41.000    20984950.812    84497700.4401       2177.805          50.000  
> 2024 04 16 01 12 00.0010000  0 26                     
G25  21968116.569   115443254.943         540.381          48.000    21968117.342    89955796.918         421.124          44.000  
E19  27364974.036   143803519.455       -3705.052          39.000    27365004.807   110187026.999       -2838.913          39.000  
G24  21168064.676   111238890.195       -2196.967          50.000    21168067.839    86679638.752       -1712.018          48.000  
G32  23551177.819   123762232.356        -267.379          46.000    23551181.086    96438076.533        -208.309          43.000  
E09  27151604.631   142682665.962         274.614          40.000    27151612.145   109328276.028         210.347          44.000  
R16  20497884.699   109496012.243        -715.097          52.000    20497883.599    85163560.613        -555.999          50.000  
R17  23249594.360   124413284.221       -4429.501          49.000    23249591.172    96765874.645       -3445.220          46.000  
R09  21920315.667   117053261.470        1701.376          49.000    21920317.108    91041516.305        1323.322          50.000  
R06  23592046.577   125891677.2761      -4004.619          35.000                                                                  
R15  23034176.856   123087585.010       -2971.737          49.000    23034178.202    95734772.371       -2311.474          42.000  
G29  22875684.068   120212549.767        2153.871          49.000    22875687.494    93672116.7981       1678.524          38.000  
S33  40102423.411   210739651.5141       -739.951          42.000  
S31  39149663.711   205732872.5263       -739.601          47.000  
G06  23734618.927   124726291.022       -1795.765          39.000    23734622.297    97189343.736       -1399.188          39.000  
G11  22931594.474   120506562.710         288.669          45.000    22931595.268    93901312.362         224.993          46.000  
R07  22998173.488   123111026.889       -1792.106          50.000    22998175.736    95752977.367       -1393.844          46.000  
R18  20265197.833   108177054.727       -1326.861          51.000    20265199.234    84137733.296       -1032.018          51.000  
R19  20724098.562   110860225.387        2167.309          41.000    20724100.448    86224781.643        1685.668          48.000  
E04  25500653.697   134006885.270       -2089.200          48.000    25500660.164   102680594.0401      -1600.785          52.000  
G12  21528784.967   113134529.813        -916.892          49.000    21528781.528    88156769.317        -714.615          44.000  
E33  27380250.392   143884171.789        2276.309          44.000    27380282.880   110248894.027        1744.021          46.000  
E31  26355888.988   138501195.038         729.315          43.000    26355898.589   106124345.500         558.844          50.000  
E13  26848497.060   141089829.850       -1421.716          42.000    26848501.895   108107815.014       -1089.347          44.000  
E26  25485060.130   133925190.644        1079.911          44.000    25485066.228   102618178.976         827.592          50.000  
E21  26257053.534   137981719.800       -2173.298          44.000    26257057.210   105726254.612       -1665.268          51.000  
E14  20968785.134   110191707.6511       2813.881          43.000    20968803.748    84432682.7581       2155.732          46.000  
> 2024 04 16 01 12 30.0010000  0 26                     
G25  21965038.512   115427083.240         537.346          48.000    21965039.624    89943195.641         418.768          44.000  
E19  27386122.650   143914662.318       -3704.519          39.000    27386153.156   110272189.141       -2838.866          38.000  
G24  21180651.838   111305038.340       -2213.153          49.000    21180655.337    86731182.638       -1724.536          48.000  
G32  23552757.089   123770532.693        -286.143          46.000    23552760.922    96444544.239        -223.059          44.000  
E09  27150075.071   142674625.845         261.344          39.000    27150082.796   109322115.273         200.424          45.000  
R16  20501922.960   109517586.856        -723.421          51.000    20501921.956    85180340.856        -562.692          49.000  
R17  23274463.575   124546365.543       -4442.697          48.000    23274460.490    96869382.382       -3455.461          47.000  
R09  21910761.339   117002237.740        1700.076          51.000    21910762.470    91001831.244        1322.297          50.000  
R06  23614567.613   126011876.1371      -4009.833          35.000                                                                  
R15  23050879.835   123176838.374       -2978.668          49.000    23050881.198    95804191.457       -2316.716          44.000  
G29  22863418.245   120148099.876        2143.335          40.000    22863422.127                3       1673.342          23.000  
S33  40106660.737                3       -740.672          36.000  
S31  39153885.149   205755047.7161       -739.757          48.000  
G06  23744924.503   124780438.466       -1814.037          40.000    23744926.331    97231536.587       -1413.569          38.000  
G11  22929993.692   120498152.140         271.787          44.000    22929994.160    93894758.794         211.772          46.000  
R07  23008278.882   123165120.695       -1814.286          50.000    23008281.284    95795049.981       -1411.113          46.000  
R18  20272732.555   108217270.393       -1354.363          52.000    20272733.413    84169012.191       -1053.399          52.000  
R19  20712000.911   110795510.911        2146.708          41.000    20712001.999    86174448.430        1669.738          48.000  
E04  25512615.067   134069705.7701      -2101.303          47.000    25512621.360   102728753.3381      -1610.070          47.000  
G12  21534032.413   113162104.584        -921.570          49.000    21534028.701    88178256.159        -718.070          44.000  
E33  27367253.711   143815877.422        2276.618          42.000    27367285.564   110196565.679        1744.263          45.000  
E31  26351727.665   138479325.336         728.506          44.000    26351736.983   106107588.257         558.168          50.000  
E13  26856651.279   141132687.100       -1435.888          40.000    26856657.079   108140653.680       -1100.198          44.000  
E26  25478923.879   133892943.333        1069.653          45.000    25478929.483   102593470.212         819.700          50.000  
E21  26269461.123   138046928.690       -2173.974          43.000    26269465.989   105776219.849       -1665.887          51.000  
E14  20952809.278   110107732.5991       2784.480          41.000    20952822.251    84368337.995        2132.490          40.000  
> 2024 04 16 01 13 00.0010000  0 26                     
G25  21961976.719   115410993.385         534.780          47.000    21961977.801    89930658.136         416.621          44.000  
E19  27407269.832   144025785.746       -3704.009          39.000    27407299.211   110357335.917       -2838.012          39.000  
G24  21193329.344   111371658.890       -2228.943          49.000    21193332.886    86783094.621       -1736.676          48.000  
G32  23554442.113   123779386.752        -304.455          46.000    23554445.849    96451443.390        -237.362          44.000  
E09  27148618.515   142666967.746         248.718          40.000    27148625.338   109316247.263         190.615          44.000  
R16  20506006.483   109539403.803        -731.620          50.000    20506006.036    85197309.562        -569.052          50.000  
R17  23299404.630   124679829.583       -4455.418          48.000    23299401.410    96973187.817       -3465.285          47.000  
R09  21901211.309   116951240.779        1699.114          50.000    21901212.498    90962166.988        1321.601          50.000  
R06  23637122.600                       -4014.860          31.000                                                                  
R15  23067619.391   123266286.596       -2984.972          49.000    23067621.235    95873762.118       -2321.774          46.000  
G29  22851213.796   120083965.387        2132.323          47.000    22851215.037    93571912.5541       1661.606          38.000  
S33  40110871.342   210784047.4321       -739.741          42.000  
S31  39158108.275   205777248.6783       -739.134          33.000  
G06  23755332.390   124835127.275       -1832.258          42.000    23755332.565    97274151.258       -1427.490          38.000  
G11  22928487.570   120490242.141         255.013          43.000    22928487.964    93888595.259         198.761          45.000  
R07  23018504.665   123219863.110       -1835.854          50.000    23018508.641    95837627.085       -1427.794          48.000  
R18  20280417.496   108258298.644       -1381.432          51.000    20280419.213    84200923.081       -1074.420          52.000  
R19  20700017.218   110731405.137        2126.383          41.000    20700017.712    86124588.639        1653.912          47.000  
E04  25524639.185   134132885.1341      -2112.442          48.000    25524646.025   102777174.649       -1618.299          57.000  
G12  21539303.554   113189802.822        -925.585          49.000    21539300.493    88199839.219        -721.393          45.000  
E33  27354253.506   143747562.673        2277.308          43.000    27354284.340   110144221.735        1744.806          47.000  
E31  26347569.230   138457474.123         727.777          43.000    26347578.271   106090845.197         557.754          49.000  
E13  26864886.194   141175957.182       -1449.056          38.000    26864890.693   108173808.653       -1110.520          42.000  
E26  25472844.451   133860999.206        1059.546          45.000    25472850.317   102568993.775         811.804          49.000  
E21  26281872.795   138112147.758       -2174.626          44.000    26281876.753   105826192.854       -1666.005          50.000  
E14  20936990.794   110024630.677        2755.407          47.000    20937006.551                1       2110.797          45.000  
> 2024 04 16 01 13 30.0010000  0 25                     
G25  21958930.888   115394989.047         531.806          48.000    21958932.638    89918187.280         414.338          45.000  
E19  27428412.119   144136892.211       -3703.380          40.000    27428442.322   110442469.528       -2838.068          40.000  
G24  21206097.430   111438755.008       -2244.635          49.000    21206100.164    86835377.241       -1749.200          47.000  
G32  23556233.454   123788798.046        -323.197          46.000    23556237.105    96458776.751        -251.932          44.000  
E09  27147235.013   142659696.036         235.626          41.000    27147241.678   109310675.316         180.609          45.000  
R16  20510137.451   109561468.374        -739.826          51.000    20510137.188    85214470.886        -575.454          51.000  
R17  23324416.380   124813675.640       -4468.006          47.000    23324413.705    97077290.443       -3475.041          48.000  
R09  21891667.312   116900275.245        1698.074          50.000    21891667.848    90922527.215        1320.676          50.000  
R06  23659710.121   126252766.429       -4020.778          34.000                                                                  
R15  23084395.476   123355933.590       -2991.856          49.000    23084398.458    95943487.395       -2326.987          46.000  
G29  22839070.437   120020124.6911       2121.451          41.000    22839075.236    93522190.2081       1653.232          34.000  
S33  40115092.397   210806229.797        -739.526          45.000  
G06  23765842.691   124890360.255       -1850.324          42.000    23765843.272    97317189.994       -1441.803          38.000  
G11  22927078.884   120482838.213         238.116          44.000    22927078.724    93882826.077         185.676          44.000  
R07  23028852.764   123275255.639       -1857.344          50.000    23028856.562    95880709.837       -1444.793          47.000  
R18  20288256.577   108300141.917       -1408.511          51.000    20288257.436    84233467.893       -1095.509          51.000  
R19  20688147.444   110667915.328        2106.092          41.000    20688148.067    86075207.933        1637.816          47.000  
E04  25536730.453   134196419.820       -2124.388          45.000    25536736.503   102825857.781       -1627.524          49.000  
G12  21544598.280   113217627.561        -929.772          50.000    21544595.794    88221520.838        -724.558          45.000  
E33  27341250.223   143679233.678        2277.698          43.000    27341280.377   110091867.201        1745.167          46.000  
E31  26343415.439   138435644.627         727.156          44.000    26343423.928   106074118.790         557.085          49.000  
E13  26873199.484   141219643.134       -1463.019          39.000    26873203.145   108207282.351       -1121.279          41.000  
E26  25466824.121   133829363.665        1049.140          45.000    25466829.464   102544753.758         803.789          48.000  
E21  26294285.684   138177380.802       -2174.770          44.000    26294289.797   105876176.607       -1666.536          50.000  
E14  20921344.380   109942397.9321       2726.324          43.000    20921361.055    84241653.4611       2089.098          46.000  
> 2024 04 16 01 14 00.0010000  0 26                     
G25  21955903.000   115379073.030         529.171          48.000    21955904.490    89905785.213         412.158          45.000  
E19  27449551.959   144247983.069       -3702.771          40.000    27449582.284   110527591.225       -2836.851          39.000  
G24  21218956.087   111506328.999       -2260.516          49.000    21218958.995    86888032.183       -1761.517          47.000  
G32  23558131.475   123798769.222        -341.849          45.000    23558134.565    96466546.376        -266.309          44.000  
E09  27145925.790   142652814.103         222.868          42.000    27145931.892   109305402.064         170.609          44.000  
R16  20514316.215   109583784.959        -748.177          52.000    20514314.971    85231828.217        -581.774          51.000  
R17  23349499.477   124947902.623       -4480.550          45.000    23349497.275    97181689.270       -3484.863          48.000  
R09  21882129.605   116849345.464        1697.008          49.000    21882129.974    90882915.239        1319.904          49.000  
R06  23682327.990                1      -4026.820          31.000                                                                  
R15  23101209.166   123445783.024       -2998.420          48.000    23101213.254    96013370.149       -2332.233          48.000  
G29  22826988.943   119956636.467        2110.981          40.000    22826993.965    93472716.6941       1644.381          42.000  
S33  40119312.317   210828414.8843       -739.342          43.000  
S31  39166538.160   205821547.700        -738.544          48.000  
G06  23776457.009   124946139.414       -1868.513          42.000    23776456.760    97360654.255       -1455.904          36.000  
G11  22925766.765   120475944.790         221.096          44.000    22925766.800    93877454.708         172.413          45.000  
R07  23039323.406   123331298.100       -1878.858          51.000    23039325.120    95924298.078       -1461.419          47.000  
R18  20296248.243   108342802.034       -1435.677          51.000    20296249.694    84266648.040       -1116.673          52.000  
R19  20676395.094   110605048.110        2085.213          41.000    20676395.423    86026311.415        1621.825          47.000  
E04  25548885.344   134260268.5101      -2135.328          44.000    25548891.216   102874807.0801      -1636.252          51.000  
G12  21549917.817   113245581.579        -934.050          49.000    21549914.719    88243303.203        -727.797          45.000  
E33  27328244.911   143610894.865        2277.953          42.000    27328274.704   110039505.120        1745.483          43.000  
E31  26339266.187   138413839.312         726.389          44.000    26339274.281   106057410.913         556.628          48.000  
E13  26881592.795   141263747.304       -1477.065          40.000    26881596.630   108241076.518       -1132.060          42.000  
E26  25460864.133   133798041.168        1038.747          46.000    25460868.870   102520753.597         795.941          48.000  
E21  26306700.217   138242630.903       -2175.301          43.000    26306706.375   105926173.408       -1666.860          50.000  
E14  20905864.255   109861059.7401       2696.312          39.000    20905881.410    84179326.3801       2065.802          46.000  
> 2024 04 16 01 14 30.0010000  0 26                     
G25  21952890.458   115363239.976         526.707          48.000    21952891.592    89893447.792         410.370          45.000  
E19  27470687.484   144359051.094       -3701.558          41.000    27470718.212   110612695.710       -2836.376          41.000  
G24  21231905.051   111574374.934       -2275.708          49.000    21231907.913    86941054.884       -1773.340          46.000  
G32  23560133.443   123809294.802        -359.924          44.000    23560137.957    96474748.006        -280.354          44.000  
E09  27144690.424   142646317.245         210.134          43.000    27144695.102   109300423.859         161.156          44.000  
R16  20518539.891   109606349.323        -755.957          51.000    20518539.332    85249378.236        -588.095          51.000  
R17  23374652.232   125082500.731       -4492.419          46.000    23374650.490    97286376.802       -3494.028          47.000  
R09  21872595.742   116798447.414        1696.315          47.000    21872598.204    90843327.933        1319.387          49.000  
R06  23704974.908                1      -4030.579          26.000                                                                  
R15  23118059.397   123535829.440       -3004.584          48.000    23118064.696    96083406.063       -2336.872          48.000  
G29  22814968.527   119893470.014        2100.458          44.000    22814970.780    93423494.841        1636.702          42.000  
S33  40123530.246   210850579.063        -738.654          33.000  
S31  39170753.382   205843694.716        -737.836          47.000  
G06  23787173.719   125002458.440       -1886.097          41.000    23787175.241    97404539.305       -1469.580          38.000  
G11  22924552.721   120469558.353         204.608          45.000    22924552.378    93872478.377         159.717          45.000  
R07  23049912.530   123387982.301       -1899.869          49.000    23049915.010    95968385.447       -1477.647          48.000  
R18  20304391.747   108386272.299       -1462.222          51.000    20304393.193    84300458.272       -1137.282          52.000  
R19  20664758.415   110542801.781        2064.557          41.000    20664759.534    85977897.858        1605.912          47.000  
E04  25561104.493   134324480.546       -2145.702          46.000    25561110.128   102924009.264       -1644.135          50.000  
G12  21555260.746   113273659.407        -937.695          49.000    21555257.247    88265182.063        -730.853          43.000  
E33  27315235.659   143542544.232        2278.729          46.000    27315265.212   109987263.4851       1746.052          51.000  
E31  26335120.295   138392052.398         726.210          45.000    26335128.263   106040717.157         556.440          48.000  
E13  26890064.900   141308263.823       -1490.558          40.000    26890069.169   108275186.581       -1141.948          44.000  
E14  20890551.041                        2666.367          28.000    20890567.603    84117672.034        2043.540          48.000  
E26  25454963.634   133767028.073        1028.972          47.000    25454967.640   102496990.518         788.323          49.000  
E21  26319120.538   138307892.875       -2175.373          43.000    26319125.622   105976179.288       -1666.737          50.000  
