     3.00           OBSERVATION DATA    M: Mixed            RINEX VERSION / TYPE
CONVBIN 2.4.3                           20240416 145942 UTC PGM / RUN BY / DATE 
format: u-blox UBX                                          COMMENT             
log: /home/regis/git/gnsspwv/obsdata/VERT00CHL/2024-04-16/VECOMMENT             
{self.marker}                                               MARKER NAME         
                                                            MARKER NUMBER       
GEODETIC                                                    MARKER TYPE         
{self.observer}     {self.institution}                      OBSERVER / AGENCY   
UNKNOWN             UBLOX-ZED-F9P                           REC # / TYPE / VERS 
UNKNOWN             TWIVSP6037L                             ANT # / TYPE        
  1713381.0000 -5047934.0000 -3490983.0000                  APPROX POSITION XYZ 
        0.0000        0.0000        0.0000                  ANTENNA: DELTA H/E/N
G    8 C1C L1C D1C S1C C2L L2L D2L S2L                      SYS / # / OBS TYPES 
R    8 C1C L1C D1C S1C C2C L2C D2C S2C                      SYS / # / OBS TYPES 
E    8 C1C L1C D1C S1C C7Q L7Q D7Q S7Q                      SYS / # / OBS TYPES 
S    4 C1C L1C D1C S1C                                      SYS / # / OBS TYPES 
  2024    04    16    14    45   00.4940000     GPS         TIME OF FIRST OBS   
  2024    04    16    14    59   30.4950000     GPS         TIME OF LAST OBS    
                                                            END OF HEADER       
> 2024 04 16 14 45 00.4940000  0 26                     
G02  22213078.357   116730478.5771      -4716.472          43.000                                                                  
G03  19439777.816   102156710.9771      -1608.787          50.000    19439780.583    79602641.7151      -1253.584          46.000  
G04  18804154.358    98816490.8911      -2087.776          47.000    18804154.724    76999864.0911      -1626.888          49.000  
G06  20560319.679   108045220.0681       1989.813          46.000    20560324.587    84191107.0121       1550.765          43.000  
G07  21953323.825   115365515.9521       3294.641          45.000    21953331.200    89895245.2051       2567.511          42.000  
G09  19191632.439   100852707.6631        257.615          49.000    19191633.385    78586538.2261        201.041          44.000  
R02  18513817.543    98793268.8211      -1512.979          52.000    18513819.686    76839222.7561      -1176.754          49.000  
R18  19486678.934   104021228.4201       1528.043          49.000    19486684.495    80905423.6221       1188.542          49.000  
R12  20278623.558   108324788.9331       1862.703          49.000    20278631.477    84252651.2271       1448.745          48.000  
R11  21125259.992   112886988.9591      -1681.497          47.000    21125265.791    87801010.0611      -1307.768          43.000  
R01  20748993.544   110915242.0131      -3102.942          43.000    20749001.729    86267432.9051      -2413.335          40.000  
R24  20751399.071   110967018.2591      -5086.081          50.000    20751406.673    86307697.3261      -3955.928          48.000  
G17  21847143.503   114807475.5241      -3428.388          40.000    21847153.714    89460404.0261      -2671.097          37.000  
G19  21926803.246   115226102.1021      -2028.412          45.000                                                                  
S31  37049673.058   194697337.4301       -727.071          44.000  
S33  38001302.979   199698181.6021       -726.457          42.000  
E03  23902531.340   125608657.5501        940.716          46.000    23902539.978    96245636.1121        720.678          48.000  
R17  18212774.424    97460217.6071      -2345.054          52.000    18212773.816    75802390.5201      -1823.969          49.000  
R03  19849633.311   106256647.4721        901.604          50.000    19849635.340    82644079.0211        701.304          48.000  
E05  20273266.139   106536724.8221      -1025.119          49.000    20273270.798    81632056.6521       -785.533          53.000  
E09  24118265.403   126742317.4531      -2822.262          45.000    24118273.524    97114274.6751      -2162.455          50.000  
E15  25155361.509   132192224.3721       1881.738          33.000    25155370.291                        1441.817          32.000  
E34  21902046.186   115096031.0351       -272.799          47.000    21902052.344    88190489.2101       -209.079          51.000  
E36  22844048.664   120046266.5951      -2973.695          48.000    22844056.851    91983530.9781      -2278.469          52.000  
G31  22748737.339   119545385.1821      -3405.936          39.000    22748743.164    93152266.2561      -2654.054          41.000  
E18  27603073.843   145055112.7281      -1206.624          44.000                                                                  
> 2024 04 16 14 45 30.4940000  0 28                     
G02  22240013.565   116872019.646       -4719.864          43.000                                                                  
G03  19448984.389   102205091.205       -1617.040          50.000    19448986.882    79640340.530       -1260.110          45.000  
G04  18816098.775    98879261.204       -2097.408          47.000    18816099.591    77048775.972       -1634.285          49.000  
G06  20548995.730   107985714.203        1976.871          45.000    20549001.574    84144738.894        1540.451          44.000  
G07  21934520.880   115266708.926        3291.638          45.000    21934529.006    89818252.978        2564.948          42.000  
G09  19190191.413   100845133.433         246.739          49.000    19190192.850    78580636.249         192.141          45.000  
R02  18522338.004    98838737.846       -1518.785          52.000    18522340.761    76874587.487       -1181.258          50.000  
R18  19478154.873   103975728.147        1504.622          49.000    19478160.547    80870034.586        1170.210          49.000  
R12  20268206.883   108269139.115        1846.802          50.000    20268213.606    84209368.182        1436.270          49.000  
R11  21134766.968   112937792.064       -1705.902          48.000    21134773.920    87840523.527       -1326.783          43.000  
R01  20766405.714   111008320.608       -3102.798          44.000    20766414.212    86339827.118       -2413.244          40.000  
R24  20779947.916   111119677.887       -5091.644          50.000    20779954.981    86426432.145       -3960.227          48.000  
G17  21866730.776   114910410.802       -3434.203          40.000    21866741.845    89540613.009       -2675.700          36.000  
G19  21938417.919   115287136.230       -2040.924          45.000                                                                  
S31  37053823.071   194719145.860        -727.213          44.000  
S33  38005450.693   199719976.443        -727.233          42.000  
E03  23897176.641   125580524.892         934.289          45.000    23897186.502    96224080.022         715.948          49.000  
R17  18225991.353    97530947.359       -2370.744          51.000    18225991.830    75857402.470       -1843.951          48.000  
R03  19844596.357   106229692.273         894.974          48.000    19844598.758    82623113.946         696.027          47.000  
R13  21849641.561   116675915.2401       3156.212          38.000                                                                  
E05  20279136.500   106567575.526       -1032.031          49.000    20279141.611    81655695.473        -790.712          53.000  
E09  24134377.593   126826989.734       -2823.231          45.000    24134386.062    97179153.285       -2163.082          50.000  
E15  25144636.783   132135838.311        1876.688          34.000    25144641.075   101247077.637        1437.604          32.000  
E34  21903642.065   115104416.678        -286.617          47.000    21903648.092    88196914.547        -219.709          51.000  
E36  22861052.774   120135622.864       -2983.831          48.000    22861060.459    92051998.616       -2286.298          51.000  
G31  22768208.542   119647710.799       -3416.226          41.000    22768214.854    93232000.324       -2661.892          40.000  
E18  27609948.990   145091244.109       -1202.637          44.000                                                                  
E24                                                                  26845147.031                3       1102.813          27.000  
> 2024 04 16 14 46 00.4940000  0 29                     
G02  22266967.460   117013662.579       -4723.330          44.000                                                                  
G03  19458238.613   102253724.326       -1625.527          50.000    19458241.418    79678236.374       -1266.501          45.000  
G04  18828098.223    98942319.261       -2106.849          47.000    18828098.907    77097912.055       -1641.638          48.000  
G06  20537746.653   107926599.893        1963.865          44.000    20537752.473    84098675.883        1530.179          43.000  
G07  21915735.653   115167988.990        3289.020          46.000    21915742.829    89741328.597        2563.000          42.000  
G09  19188812.445   100837890.311         235.843          47.000    19188814.430    78574992.265         183.855          45.000  
R02  18530890.799    98884379.705       -1524.341          51.000    18530894.158    76910086.710       -1185.515          49.000  
R18  19469764.175   103930934.350        1481.217          49.000    19469768.655    80835195.035        1152.095          49.000  
R12  20257879.196   108213970.578        1830.881          50.000    20257886.188    84166459.453        1423.866          48.000  
R11  21144411.040   112989324.063       -1729.967          48.000    21144417.730    87880603.863       -1345.340          43.000  
R01  20783818.555   111101394.432       -3102.536          45.000    20783826.467    86412217.639       -2413.054          39.000  
R24  20808527.673   111272504.184       -5096.964          50.000    20808535.113    86545296.562       -3964.388          48.000  
G17  21886353.372   115013522.755       -3440.332          40.000    21886364.006    89620959.673       -2680.438          34.000  
G19  21950103.477   115348543.761       -2052.985          45.000                                                                  
S31  37057974.034   194740961.047        -727.213          44.000  
S33  38009599.709   199741777.697        -726.827          42.000  
E03  23891860.072   125552582.508         928.130          47.000    23891869.395    96202669.742         711.119          50.000  
R17  18239353.126    97602449.281       -2396.373          51.000    18239354.219    75913014.956       -1863.771          49.000  
R03  19839598.068   106202932.046         888.696          50.000    19839599.187    82602300.524         691.249          47.000  
R13  21831901.877   116581207.167        3156.991          35.000                                                                  
E05  20285045.211   106598629.400       -1038.546          48.000    20285051.003    81679490.000        -795.809          53.000  
E09  24150495.297   126911686.905       -2823.668          45.000    24150503.898    97244050.964       -2163.605          50.000  
E15  25133935.812   132079624.583        1870.892          34.000    25133944.134   101204004.961        1433.270          33.000  
E34  21905317.069   115113217.901        -300.414          47.000    21905322.712    88203658.326        -230.146          50.000  
E36  22878114.435   120225283.453       -2993.758          48.000    22878122.484    92120699.433       -2293.950          51.000  
G16  24188070.328                3       1025.088          27.000                                                                  
G31  22787737.728   119750340.553       -3426.375          42.000    22787744.977    93311971.308       -2669.688          38.000  
E18  27616801.490   145127254.314       -1198.437          44.000                                                                  
E24                                                                  26836929.876                        1103.137          28.000  
> 2024 04 16 14 46 30.4940000  0 28                     
G02  22293938.883   117155396.372       -4726.677          44.000                                                                  
G03  19467540.043   102302603.145       -1633.930          49.000    19467542.237    79716323.686       -1273.064          45.000  
G04  18840151.189    99005655.236       -2116.188          47.000    18840151.226    77147264.694       -1649.056          49.000  
G06  20526571.552   107867871.914        1950.587          45.000    20526576.775    84052913.879        1519.961          44.000  
G07  21896965.198   115069350.970        3286.041          46.000    21896972.233    89664468.066        2560.632          43.000  
G09  19187495.727   100830969.691         225.028          47.000    19187497.478    78569599.605         175.221          45.000  
R02  18539475.190    98930185.181       -1529.960          51.000    18539478.116    76945713.152       -1189.951          50.000  
R18  19461503.771   103886841.973        1457.465          48.000    19461508.334    80800901.031        1133.784          49.000  
R12  20247640.569   108159279.566        1814.555          50.000    20247648.714    84123922.146        1411.328          49.000  
R11  21154190.048   113041576.300       -1754.229          49.000    21154196.503    87921244.398       -1364.265          43.000  
R01  20801227.828   111194454.888       -3102.224          45.000    20801235.403    86484597.723       -2412.785          37.000  
R24  20837135.538   111425484.774       -5102.271          50.000    20837144.045    86664280.984       -3968.467          48.000  
G17  21906007.258   115116799.930       -3445.733          41.000    21906017.249    89701435.084       -2685.370          35.000  
G19  21961859.159   115410314.826       -2065.393          46.000                                                                  
S31  37062125.669   194762776.823        -727.351          44.000  
S33  38013748.340   199763579.101        -726.753          41.000  
E03  23886577.436   125524822.267         921.672          47.000    23886586.586    96181399.008         706.388          50.000  
R17  18252857.441    97674712.564       -2421.872          52.000    18252857.755    75969219.630       -1883.650          49.000  
R03  19834633.644   106176357.240         882.397          50.000    19834636.062    82581631.324         686.217          50.000  
R13  21814157.387   116486462.108        3158.625          38.000                                                                  
E05  20290991.953   106629877.471       -1045.314          48.000    20290997.417    81703433.301        -800.926          53.000  
E09  24166615.741   126996400.163       -2824.366          45.000    24166624.567    97308960.931       -2164.176          50.000  
E15  25123271.723   132023576.990        1865.156          34.000    25123277.869                        1428.699          31.000  
E34  21907069.917   115122427.545        -314.170          48.000    21907075.441    88210715.044        -240.733          50.000  
E36  22895232.521   120315239.143       -3003.856          48.000    22895240.492    92189626.387       -2301.635          51.000  
G31  22807323.466   119853263.911       -3436.178          44.000    22807330.619    93392171.125       -2677.324          39.000  
E18  27623629.401   145163134.681       -1194.200          44.000                                                                  
E24                                                                  26828705.426                        1102.980          31.000  
> 2024 04 16 14 47 00.4940000  0 28                     
G02  22320927.774   117297222.479       -4729.325          44.000                                                                  
G03  19476889.254   102351732.505       -1642.174          50.000    19476892.274    79754606.230       -1279.534          46.000  
G04  18852256.913    99069271.432       -2125.403          47.000    18852257.276    77196835.707       -1656.264          49.000  
G06  20515470.484   107809537.128        1937.627          45.000    20515476.090    84007458.292        1509.855          45.000  
G07  21878211.864   114970802.285        3283.030          46.000    21878218.869    89587677.123        2558.250          42.000  
G09  19186240.190   100824375.070         214.001          47.000    19186242.132    78564460.976         166.858          45.000  
R02  18548090.535    98976157.695       -1535.625          51.000    18548093.530    76981469.517       -1194.246          49.000  
R18  19453376.320   103843458.323        1433.869          49.000    19453381.640    80767158.233        1115.412          49.000  
R12  20237493.056   108105074.593        1798.327          51.000    20237500.683    84081762.863        1398.690          48.000  
R11  21164102.778   113094551.856       -1778.347          48.000    21164109.928    87962447.612       -1382.866          43.000  
R01  20818634.031   111287506.419       -3101.947          43.000    20818642.837    86556970.889       -2412.752          36.000  
R24  20865773.266   111578619.717       -5107.392          50.000    20865781.731    86783385.456       -3972.380          48.000  
G17  21925692.444   115220243.254       -3451.611          41.000    21925700.290                       -2689.893          32.000  
G19  21973683.517   115472451.099       -2077.625          45.000                                                                  
S31  37066277.409   194784596.086        -727.637          44.000  
S33  38017898.115   199785386.400        -727.197          42.000  
E03  23881329.271   125497248.108         915.701          47.000    23881338.973    96160270.859         701.611          50.000  
R17  18266503.917    97747738.671       -2447.219          51.000    18266504.573    76026017.623       -1903.399          49.000  
R03  19829704.375   106149971.983         876.019          50.000    19829706.959    82561109.587         681.542          49.000  
R13  21796409.223   116391688.444        3159.322          38.000                                                                  
E05  20296975.383   106661322.848       -1051.799          48.000    20296981.442    81727527.816        -805.922          53.000  
E09  24182740.308   127081132.725       -2825.088          46.000    24182748.883    97373885.721       -2164.679          50.000  
E15  25112637.343   131967701.546        1859.224          33.000    25112645.417   101118246.134        1424.228          31.000  
E34  21908900.945   115132050.550        -328.036          48.000    21908906.436    88218088.486        -251.174          50.000  
E36  22912406.259   120405492.899       -3013.837          46.000    22912415.513    92258781.717       -2309.091          51.000  
G31  22826966.596   119956483.015       -3445.840          44.000    22826973.447    93472601.337       -2684.988          39.000  
E18  27630432.375   145198888.635       -1190.000          43.000                                                                  
E24                                                                  26820478.748   107994952.1061       1104.715          33.000  
> 2024 04 16 14 47 30.4940000  0 29                     
G02  22347935.385   117439146.900       -4732.858          43.000                                                                  
G03  19486288.422   102401121.530       -1650.796          50.000    19486289.830    79793091.116       -1286.215          45.000  
G04  18864417.146    99133174.427       -2135.018          47.000    18864417.862    77246630.189       -1663.600          48.000  
G06  20504446.409   107751606.735        1924.162          44.000    20504451.805    83962317.805        1499.412          45.000  
G07  21859477.083   114872353.809        3279.858          46.000    21859484.217    89510964.255        2555.737          42.000  
G09  19185048.893   100818114.177         202.985          47.000    19185050.867    78559582.398         158.185          45.000  
R02  18556738.113    99022304.251       -1541.096          51.000    18556741.330    77017361.244       -1198.690          49.000  
R18  19445384.697   103800794.909        1409.962          49.000    19445388.755    80733975.635        1096.686          49.000  
R12  20227438.278   108051368.106        1781.677          50.000    20227445.255    84039991.297        1385.692          48.000  
R11  21174153.530   113148258.490       -1802.557          48.000    21174160.804    88004219.421       -1401.970          44.000  
R01  20836041.086   111380557.095       -3101.729          43.000    20836050.421    86629343.382       -2412.267          34.000  
R24  20894440.186   111731913.316       -5112.469          50.000    20894447.936    86902613.333       -3976.276          47.000  
G17  21945410.024   115323857.462       -3456.439          40.000    21945414.732                       -2694.562          31.000  
G19  21985578.283   115534958.598       -2089.893          44.000                                                                  
S31  37070432.038   194806427.791        -727.880          44.000  
S33  38022049.899   199807203.511        -727.670          42.000  
E03  23876119.659   125469868.152         909.144          46.000    23876128.819    96139291.500         696.768          50.000  
R17  18280293.756    97821533.714       -2472.641          50.000    18280295.377    76083413.663       -1923.210          50.000  
R03  19824812.627   106123783.726         869.632          51.000    19824813.975    82540741.061         676.336          48.000  
R13  21778657.893   116296898.620        3159.729          39.000                                                                  
E05  20302998.133   106692972.880       -1058.582          48.000    20303004.275    81751779.112        -811.027          53.000  
E09  24198869.617   127165892.044       -2825.952          46.000    24198877.828    97438831.000       -2165.238          50.000  
E15  25102038.127   131912008.299        1853.578          32.000    25102045.605                        1420.354          29.000  
E34  21910812.646   115142096.031        -342.052          48.000    21910818.372    88225785.656        -262.038          51.000  
E36  22929639.450   120496051.789       -3023.717          46.000    22929647.882    92328170.850       -2316.900          50.000  
G16  24170599.298                3       1016.150          26.000                                                                  
G31  22846666.349   120060004.058       -3455.774          44.000    22846673.498    93553266.824       -2692.715          39.000  
E18  27637214.034   145234523.823       -1185.852          43.000                                                                  
E24                                                                  26812248.541   107961813.277        1104.511          34.000  
> 2024 04 16 14 48 00.4940000  0 28                     
G02  22374959.433   117581155.020       -4735.016          44.000                                                                  
G03  19495734.384   102450759.376       -1658.876          50.000    19495736.263    79831769.862       -1292.555          46.000  
G04  18876629.974    99197350.871       -2143.780          48.000    18876630.569    77296637.769       -1670.699          49.000  
G06  20493497.453   107694071.925        1911.066          43.000    20493502.738    83917485.580        1489.236          44.000  
G07  21840760.632   114773996.911        3276.892          47.000    21840767.336    89434322.725        2553.480          42.000  
G09  19183918.719   100812174.795         192.535          47.000    19183920.264    78554954.310         150.104          45.000  
R02  18565416.679    99068612.000       -1546.343          52.000    18565419.453    77053378.309       -1202.741          49.000  
R18  19437525.299   103758842.930        1386.475          49.000    19437529.468    80701346.390        1078.334          49.000  
R12  20217476.998   107998152.631        1765.638          51.000    20217482.344    83998601.610        1373.275          47.000  
R11  21184338.581   113202683.840       -1826.207          48.000    21184345.542    88046550.185       -1420.444          43.000  
R01  20853446.138   111473594.930       -3101.044          44.000    20853458.435    86701705.935       -2411.949          37.000  
R24  20923132.980   111885349.504       -5116.972          49.000    20923141.553    87021952.121       -3979.673          47.000  
G17  21965157.772   115427627.676       -3461.285          40.000    21965163.272    89943637.512       -2697.455          33.000  
G19  21997540.395   115597823.607       -2101.385          44.000                                                                  
S31  37074586.712   194828259.747        -727.862          44.000  
S33  38026202.123   199829023.179        -727.533          42.000  
E03  23870944.347   125442670.666         903.451          46.000    23870953.227    96118451.954         692.211          50.000  
R17  18294225.467    97896083.162       -2497.576          52.000    18294227.429    76141396.475       -1942.621          50.000  
R03  19819953.912   106097779.892         863.614          51.000    19819955.621    82520515.941         671.744          48.000  
R13  21760902.661   116202084.975        3160.688          40.000                                                                  
E05  20309057.485   106724815.005       -1064.620          48.000    20309063.500    81776177.606        -815.870          53.000  
E09  24215000.977   127250665.700       -2826.025          45.000    24215009.886    97503787.298       -2165.429          50.000  
E15  25091471.486   131856487.594        1847.792          31.000    25091480.208                        1415.635          28.000  
E34  21912803.300   115152553.250        -355.559          48.000    21912808.369    88233798.311        -272.416          51.000  
E36  22946928.673   120586903.043       -3033.327          47.000    22946936.303    92397784.004       -2324.328          50.000  
G31  22866421.231   120163813.108       -3465.192          45.000    22866427.844    93634156.767       -2699.857          40.000  
E18  27643971.036   145270028.002       -1181.475          43.000                                                                  
E24                                                                  26804014.319   107928657.550        1105.543          35.000  
> 2024 04 16 14 48 30.4940000  0 29                     
G02  22401998.751   117723246.826       -4738.369          43.000                                                                  
G03  19505228.413   102500649.312       -1667.545          50.000    19505230.240    79870645.054       -1299.308          46.000  
G04  18888894.498    99261801.420       -2153.400          47.000    18888895.097    77346858.907       -1677.936          49.000  
G06  20482625.616   107636937.934        1897.379          44.000    20482630.480    83872965.695        1478.365          45.000  
G07  21822062.276   114675736.927        3273.371          47.000    21822068.811    89357756.739        2550.598          43.000  
G09  19182849.958   100806558.775         181.378          47.000    19182851.811    78550578.198         141.284          45.000  
R02  18574125.637    99115082.174       -1552.108          51.000    18574128.006    77089521.744       -1207.129          49.000  
R18  19429800.465   103717608.000        1362.098          49.000    19429805.291    80669274.814        1059.396          49.000  
R12  20207607.886   107945434.905        1748.507          50.000    20207613.691    83957599.059        1359.886          47.000  
R11  21194658.075   113257829.276       -1850.558          48.000    21194665.859    88089441.009       -1439.332          44.000  
R01  20870849.904   111566622.393       -3101.026          45.000    20870862.169    86774060.377       -2411.762          35.000  
R24  20951852.433   112038926.643       -5122.012          49.000    20951862.092    87141400.544       -3983.711          47.000  
G17  21984935.116   115531553.099       -3467.487          40.000    21984940.445    90024617.946       -2701.654          32.000  
G19  22009571.253   115661046.056       -2113.660          44.000                                                                  
S31  37078742.124   194850095.001        -728.570          44.000  
S33  38030354.635   199850845.042        -727.856          42.000  
E03  23865803.200   125415657.900         896.958          46.000    23865812.805    96097753.957         687.253          50.000  
R17  18308298.507    97971386.941       -2523.073          51.000    18308299.010    76199965.962       -1962.330          49.000  
R03  19815131.672   106071962.514         857.029          52.000    19815132.671    82500435.856         666.519          47.000  
R13  21743143.334   116107254.020        3160.778          40.000    21743157.866    90305588.5721       2458.553          37.000  
E05  20315154.557   106756850.733       -1071.479          48.000    20315159.360    81800724.429        -821.008          53.000  
E09  24231136.894   127335455.345       -2826.819          46.000    24231144.600    97568755.811       -2166.083          49.000  
E15  25080940.546                        1841.362          31.000    25080947.996                        1410.782          27.000  
E34  21914872.501   115163425.401        -369.709          48.000    21914877.509    88242128.903        -283.255          51.000  
E36  22964273.226   120678047.886       -3043.516          47.000    22964280.463    92467622.089       -2331.822          49.000  
G16  24159027.750                3       1008.802          24.000                                                                  
G31  22886230.197   120267910.074       -3475.042          45.000    22886237.332    93715271.023       -2707.792          40.000  
E18  27650703.029   145305402.939       -1177.373          44.000                                                                  
E24  26795759.234   140812656.0251       1443.034          32.000    26795776.812   107895488.453        1105.630          38.000  
> 2024 04 16 14 49 00.4940000  0 28                     
G02  22429056.841   117865438.570       -4741.296          42.000                                                                  
G03  19514773.695   102550811.031       -1676.713          50.000    19514776.139    79909732.036       -1306.517          46.000  
G04  18901213.620    99326543.209       -2162.939          47.000    18901214.476    77397307.018       -1685.400          47.000  
G06  20471834.119   107580226.432        1883.296          45.000    20471838.936    83828774.996        1467.317          46.000  
G07  21803386.038   114577595.823        3269.310          47.000    21803392.976    89281283.385        2547.460          43.000  
G09  19181845.534   100801284.339         170.123          46.000    19181848.621    78546468.271         132.367          46.000  
R02  18582868.027    99161733.120       -1558.084          52.000    18582870.473    77125805.707       -1211.893          49.000  
R18  19422214.451   103677112.065        1337.409          49.000    19422218.792    80637778.047        1040.255          49.000  
R12  20197836.180   107893238.200        1731.219          49.000    20197842.543    83917001.782        1346.309          48.000  
R11  21205116.355   113313712.898       -1875.120          49.000    21205123.854    88132905.983       -1458.522          43.000  
R01  20888256.076   111659658.536       -3101.448          46.000    20888265.845    86846421.695       -2412.677          34.000  
R24  20980601.422   112192659.932       -5127.022          48.000    20980611.737    87260970.380       -3987.649          47.000  
G17  22004743.856   115635649.043       -3472.736          41.000    22004749.829    90105731.413       -2706.042          33.000  
G19  22021673.013   115724642.361       -2126.239          44.000                                                                  
S31  37082901.369   194871952.441        -729.162          44.000  
S33  38034511.621   199872688.509        -728.205          43.000  
E03  23860701.648   125388848.664         890.178          45.000    23860711.514    96077211.879         682.073          50.000  
R17  18322515.152    98047461.499       -2548.778          51.000    18322514.889    76259134.981       -1982.533          48.000  
R03  19810347.002   106046349.090         850.324          51.000    19810348.272    82480514.418         661.275          48.000  
R13  21725385.456   116012429.258        3160.799          41.000    21725399.440    90231836.268        2458.720          37.000  
E05  20321291.599   106789097.950       -1078.436          49.000    20321295.761    81825433.326        -826.371          53.000  
E09  24247278.039   127420279.055       -2828.082          45.000    24247286.862    97633750.424       -2166.968          50.000  
E15  25070439.452   131745997.370        1834.860          32.000    25070453.144                        1405.437          26.000  
E34  21917022.806   115174732.204        -384.095          47.000    21917029.386    88250792.546        -294.352          51.000  
E36  22981676.533   120769503.980       -3053.798          48.000    22981684.353    92537698.680       -2339.864          50.000  
G31  22906096.965   120372311.667       -3485.150          45.000    22906104.522    93796622.686       -2715.909          40.000  
E18  27657413.536   145340666.830       -1173.832          44.000                                                                  
E24  26787519.444   140769370.702        1442.557          33.000    26787539.626   107862321.944        1105.601          39.000  
> 2024 04 16 14 49 30.4940000  0 28                     
G02  22456132.091   118007719.045       -4744.219          42.000                                                                  
G03  19524369.175   102601236.611       -1685.074          50.000    19524372.033    79949024.613       -1312.958          46.000  
G04  18913586.996    99391565.896       -2171.851          47.000    18913587.100    77447973.994       -1692.389          47.000  
G06  20461121.864   107523931.562        1869.797          46.000    20461126.564    83784908.951        1456.853          46.000  
G07  21784731.290   114479568.337        3266.071          47.000    21784738.555    89204898.563        2544.952          42.000  
G09  19180905.831   100796342.272         159.485          47.000    19180908.541    78542617.308         124.286          46.000  
R02  18591642.563    99208554.923       -1563.374          52.000    18591644.582    77162222.655       -1215.839          47.000  
R18  19414765.653   103637349.568        1313.266          48.000    19414769.440    80606851.731        1021.576          49.000  
R12  20188162.455   107841558.143        1714.318          51.000    20188168.518    83876806.293        1333.367          48.000  
R11  21215711.161   113370325.300       -1898.987          48.000    21215718.562    88176937.767       -1476.963          45.000  
R01  20905660.054   111752694.740       -3100.986          45.000    20905671.940    86918782.932       -2411.828          33.000  
R24  21009378.270   112346536.419       -5131.357          48.000    21009387.438    87380651.614       -3990.877          45.000  
G17  22024583.042   115739903.645       -3477.344          39.000    22024589.286    90186968.466       -2709.412          32.000  
G19  22033844.460   115788601.965       -2138.007          45.000                                                                  
S31  37087063.593   194893823.361        -728.717          44.000  
S33  38038670.921   199894546.047        -728.773          42.000  
E03  23855636.164   125362234.091         884.087          44.000    23855647.039    96056818.974         677.306          50.000  
R17  18336873.240    98124295.346       -2573.357          51.000    18336872.371    76318894.518       -2001.653          47.000  
R03  19805598.935   106020931.274         844.232          52.000    19805600.069    82460745.110         656.720          48.000  
R13  21707627.497   115917605.891        3161.077          41.000    21707642.890    90158085.078        2458.429          37.000  
E05  20327466.071   106821547.081       -1084.796          49.000    20327470.588    81850296.922        -831.183          52.000  
E09  24263423.676   127505127.335       -2828.448          45.000    24263432.950    97698763.856       -2167.270          50.000  
E15  25059980.356   131691041.853        1828.719          32.000    25059997.578                        1401.189          27.000  
E34  21919255.644   115186465.832        -398.010          47.000    21919262.245    88259783.213        -305.039          52.000  
E36  22999137.206   120861261.442       -3063.390          47.000    22999145.464    92608006.194       -2347.216          50.000  
G31  22926020.209   120477007.300       -3494.456          44.000    22926027.550    93878203.428       -2723.278          40.000  
E18  27664101.293   145375810.391       -1169.291          44.000                                                                  
E24  26779282.575   140726082.160        1443.507          38.000    26779301.398   107829152.966        1105.844          42.000  
> 2024 04 16 14 50 00.4940000  0 28                     
G02  22483222.344   118150078.308       -4746.273          43.000                                                                  
G03  19534013.286   102651919.956       -1693.758          49.000    19534016.904    79988518.057       -1319.684          46.000  
G04  18926012.608    99456860.721       -2181.097          47.000    18926012.302    77498852.993       -1699.432          47.000  
G06  20450487.763   107468049.201        1855.889          45.000    20450492.162    83741364.316        1446.007          46.000  
G07  21766097.732   114381650.114        3261.992          46.000    21766104.512    89128598.879        2541.901          41.000  
G09  19180026.267   100791724.980         148.499          46.000    19180029.323    78539019.429         115.802          46.000  
R02  18600447.296    99255539.477       -1568.885          52.000    18600448.677    77198766.130       -1220.228          48.000  
R18  19407452.878   103598316.200        1288.914          49.000    19407457.373    80576492.501        1002.616          49.000  
R12  20178584.009   107790391.757        1697.029          50.000    20178591.471    83837010.377        1319.883          50.000  
R11  21226440.094   113427658.202       -1923.085          48.000    21226447.529    88221529.980       -1495.439          42.000  
R01  20923061.918   111845723.809       -3100.897          43.000    20923076.432    86991138.714       -2411.582          34.000  
R24  21038179.142   112500544.680       -5135.780          47.000    21038188.004    87500435.326       -3994.434          45.000  
G17  22044450.952   115844307.155       -3482.348          40.000    22044456.345    90268321.565       -2713.409          33.000  
G19  22046083.131   115852916.123       -2149.597          45.000                                                                  
S31  37091226.497   194915700.165        -729.315          45.000  
S33  38042831.467   199916409.121        -729.004          43.000  
E03  23850607.958   125335807.098         877.750          44.000    23850617.783    96036569.760         672.529          50.000  
R17  18351371.365    98201878.802       -2598.530          51.000    18351371.125    76379237.076       -2020.940          48.000  
R03  19800885.183   105995700.487         837.996          51.000    19800886.623    82441121.286         651.863          48.000  
R13  21689870.239   115822781.351        3160.636          41.000    21689884.886    90084332.961        2458.535          38.000  
E05  20333677.799   106854190.217       -1091.325          49.000    20333682.553    81875309.167        -836.217          53.000  
E09  24279572.940   127589992.504       -2828.939          44.000    24279582.107    97763790.233       -2167.732          50.000  
E15  25049561.177   131636272.027        1822.378          33.000    25049575.895                        1397.312          26.000  
E34  21921569.249   115198620.079        -412.170          48.000    21921575.254    88269096.171        -315.787          51.000  
E36  23016654.164   120953312.124       -3073.245          47.000    23016662.778    92678538.384       -2354.819          51.000  
G31  22945996.784   120581987.588       -3504.261          43.000    22946004.807    93960005.951       -2729.800          39.000  
E18  27670765.162   145410826.034       -1164.989          44.000                                                                  
E24  26771042.785   140682785.453        1443.600          40.000    26771062.101   107795977.754        1105.862          43.000  
> 2024 04 16 14 50 30.4940000  0 28                     
G02  22510326.575   118292509.278       -4748.901          44.000                                                                  
G03  19543706.376   102702857.178       -1702.506          50.000    19543710.380    80028209.320       -1326.519          46.000  
G04  18938489.343    99522421.267       -2189.960          48.000    18938488.595    77549939.088       -1706.445          47.000  
G06  20439931.319   107412577.423        1841.945          46.000    20439935.473    83698139.640        1435.332          45.000  
G07  21747484.559   114283839.385        3257.928          46.000    21747491.044    89052382.978        2538.852          41.000  
G09  19179208.996   100787427.253         137.585          47.000    19179210.821    78535670.576         107.208          45.000  
R02  18609280.288    99302681.069       -1574.202          51.000    18609283.851    77235431.785       -1224.391          49.000  
R18  19400275.872   103560010.168        1264.446          47.000    19400282.262    80546698.951         983.442          49.000  
R12  20169099.838   107739738.391        1679.649          50.000    20169109.233    83797613.443        1306.351          49.000  
R11  21237302.549   113485705.907       -1947.050          46.000    21237309.432    88266678.124       -1514.345          44.000  
R01  20940461.910   111938740.651       -3100.661          44.000    20940475.905                       -2411.329          28.000  
R24  21067002.809   112654676.251       -5140.011          47.000    21067011.044    87620314.961       -3997.636          42.000  
G17  22064344.229   115948851.462       -3487.177          35.000    22064351.335    90349784.366       -2717.535          33.000  
G19  22058388.327   115917577.069       -2161.328          45.000                                                                  
S31  37095389.726   194937579.204        -729.290          44.000  
S33  38046992.005   199938275.948        -729.349          42.000  
E03  23845613.636   125309562.820         871.517          44.000    23845623.261    96016460.558         667.784          50.000  
R17  18366008.930    98280204.152       -2623.388          52.000    18366008.871    76440156.678       -2040.454          49.000  
R03  19796204.495   105970651.654         831.789          49.000    19796207.648    82421638.954         646.809          48.000  
R13  21672112.412   115727954.730        3160.543          41.000    21672126.587    90010579.238        2458.249          39.000  
E05  20339925.369   106887021.728       -1097.623          48.000    20339930.362    81900465.758        -841.029          53.000  
E09  24295725.163   127674869.122       -2829.688          44.000    24295733.978    97828825.379       -2168.133          50.000  
E15  25039180.413   131581685.152        1816.107          33.000    25039194.855                3       1391.862          23.000  
E34  21923961.987   115211191.049        -426.088          49.000    21923967.085    88278728.447        -326.486          51.000  
E36  23034224.925   121045650.113       -3082.810          46.000    23034234.086    92749290.724       -2362.194          50.000  
G31  22966027.089   120687245.614       -3513.379          44.000    22966034.837    94042024.963       -2737.510          38.000  
E18  27677402.979   145445708.464       -1160.774          44.000                                                                  
E24  26762800.315   140639477.967        1443.613          40.000    26762820.405   107762794.275        1106.218          45.000  
> 2024 04 16 14 51 00.4940000  0 28                     
G02  22537442.973   118435005.700       -4750.693          43.000                                                                  
G03  19553446.927   102754045.352       -1710.415          49.000    19553450.252    80068096.166       -1332.870          46.000  
G04  18951014.331    99588242.122       -2198.315          48.000    18951014.343    77601228.037       -1712.866          47.000  
G06  20429453.101   107357515.320        1828.707          45.000    20429457.890    83655234.193        1424.815          45.000  
G07  21728891.974   114186135.753        3255.200          46.000    21728898.538    88976250.502        2536.308          41.000  
G09  19178451.115   100783444.629         127.612          47.000    19178453.937    78532567.244          99.298          46.000  
R02  18618144.451    99349974.978       -1578.932          51.000    18618147.672    77272215.894       -1228.016          49.000  
R18  19393236.581   103522430.473        1240.542          48.000    19393242.059    80517470.350         964.855          48.000  
R12  20159713.048   107689598.467        1662.760          50.000    20159721.660    83758615.880        1293.246          49.000  
R11  21248298.522   113544463.559       -1970.645          45.000    21248306.489    88312378.382       -1532.525          46.000  
R01  20957861.122   112031741.994       -3099.718          45.000    20957874.537                       -2410.801          29.000  
R24  21095848.097   112808922.765       -5143.351          47.000    21095855.660    87740283.968       -4000.456          42.000  
G17  22084264.821   116053529.095       -3491.235          39.000    22084270.385    90431351.062       -2720.630          33.000  
G19  22070757.702   115982578.958       -2172.375          45.000                                                                  
S31  37099552.541   194959456.538        -729.420          44.000  
S33  38051153.124   199960138.718        -728.619          43.000  
E03  23840652.924   125283497.384         865.858          44.000    23840663.189    95996488.412         663.532          50.000  
R17  18380783.071    98359265.078       -2647.527          51.000    18380783.390    76501648.413       -2059.166          48.000  
R03  19791558.259   105945780.256         826.336          50.000    19791560.382    82402294.601         642.484          48.000  
R13  21654353.497   115633126.872        3160.487          39.000    21654367.683    89936824.541        2458.377          39.000  
E05  20346208.070   106920036.995       -1103.575          48.000    20346213.185    81925763.133        -845.508          53.000  
E09  24311878.022   127759752.675       -2829.476          44.000    24311886.099    97893865.836       -2168.035          49.000  
E15  25028826.836                        1809.732          30.000    25028844.245                3       1386.260          23.000  
E34  21926432.612   115224175.806        -439.559          49.000    21926438.231    88288677.791        -336.868          51.000  
E36  23051850.109   121138270.490       -3091.870          47.000    23051859.426    92820259.438       -2369.068          51.000  
G31  22986108.895   120792775.327       -3522.026          43.000    22986116.775    94124255.678       -2744.285          39.000  
E18  27684015.674   145480453.352       -1155.771          45.000                                                                  
E24  26754557.700   140596158.010        1444.220          43.000    26754576.422   107729601.276        1106.601          45.000  
> 2024 04 16 14 51 30.4940000  0 28                     
G02  22564570.408   118577561.159       -4753.077          43.000                                                                  
G03  19563235.680   102805481.453       -1718.694          50.000    19563238.586    80108176.184       -1339.330          46.000  
G04  18963587.631    99654317.763       -2206.750          47.000    18963588.321    77652715.505       -1719.586          48.000  
G06  20419052.411   107302861.868        1814.958          44.000    20419057.237    83612647.182        1414.194          44.000  
G07  21710319.673   114088538.254        3251.353          45.000    21710326.671    88900200.740        2533.390          42.000  
G09  19177752.934   100779772.735         117.017          48.000    19177754.957    78529706.054          91.156          46.000  
R02  18627034.821    99397416.146       -1583.900          51.000    18627037.255    77309114.533       -1231.971          48.000  
R18  19386333.255   103485575.999        1216.316          49.000    19386337.855    80488805.809         946.023          49.000  
R12  20150424.251   107639972.206        1645.554          51.000    20150430.943    83720017.789        1279.859          49.000  
R11  21259426.993   113603926.204       -1993.788          46.000    21259433.847    88358627.014       -1550.778          46.000  
R01  20975255.860   112124723.390       -3099.098          46.000    20975266.307                       -2410.238          29.000  
R24  21124712.977   112963276.622       -5146.837          47.000    21124720.468    87860336.420       -4003.230          40.000  
G17  22104208.610   116158333.147       -3495.581          39.000    22104214.291                       -2724.359          32.000  
G19  22083190.826   116047915.977       -2183.508          44.000                                                                  
S31  37103715.030   194981328.306        -728.800          45.000  
S33  38055312.517   199981998.021        -729.107          42.000  
E03  23835725.910   125257606.808         860.190          44.000    23835736.473    95976650.260         659.082          50.000  
R17  18395694.369    98439054.690       -2671.798          51.000    18395694.406    76563706.881       -2078.146          48.000  
R03  19786945.204   105921081.375         820.386          52.000    19786946.831    82383084.438         638.028          47.000  
R13  21636594.645   115538297.930        3160.925          39.000    21636609.227    89863069.019        2458.144          40.000  
E05  20352524.142   106953231.185       -1109.438          48.000    20352529.789    81951197.630        -850.129          53.000  
E09  24328032.376   127844638.614       -2829.600          45.000    24328040.404    97958908.123       -2168.042          50.000  
E15  25018497.397                        1804.581          29.000                                                                  
E34  21928981.706   115237571.286        -453.414          48.000    21928987.026    88298941.844        -347.423          51.000  
E36  23069528.725   121231168.204       -3101.223          47.000    23069537.219    92891440.621       -2376.237          51.000  
G31  23006241.403   120898570.640       -3530.914          43.000    23006250.190    94206693.330       -2751.271          40.000  
E18  27690599.398   145515056.190       -1151.131          44.000                                                                  
E24  26746312.229   140552823.766        1444.651          42.000    26746329.871   107696397.378        1106.942          45.000  
> 2024 04 16 14 52 00.4940000  0 28                     
G02  22591709.733   118720179.042       -4754.879          43.000                                                                  
G03  19573072.218   102857172.465       -1727.192          51.000    19573075.308    80148454.818       -1345.878          46.000  
G04  18976211.005    99720652.626       -2215.381          48.000    18976211.238    77704404.958       -1726.294          47.000  
G06  20408731.547   107248626.019        1800.666          43.000    20408737.140    83570385.565        1403.242          45.000  
G07  21691769.905   113991056.087        3247.359          44.000    21691776.648    88824240.801        2530.516          43.000  
G09  19177114.517   100776417.101         106.604          48.000    19177116.349    78527091.289          83.112          46.000  
R02  18635952.487    99445010.126       -1588.985          50.000    18635955.887    77346132.006       -1235.829          49.000  
R18  19379565.501   103449456.038        1191.714          47.000    19379570.671    80460712.555         926.866          48.000  
R12  20141232.099   107590870.206        1627.953          51.000    20141238.929    83681827.431        1266.197          49.000  
R11  21270687.301   113664098.936       -2017.552          44.000    21270694.819    88405427.969       -1569.066          47.000  
R01  20992647.882   112217691.398       -3098.664          45.000    20992656.013                       -2409.935          29.000  
R24  21153599.109   113117740.010       -5150.503          47.000    21153606.606    87980474.021       -4005.763          40.000  
G17  22124175.837   116263266.647       -3499.695          37.000    22124183.853                       -2727.496          32.000  
G19  22095688.356   116113591.512       -2194.690          43.000                                                                  
S31  37107877.052   195003200.817        -728.944          44.000  
S33  38059472.379   200003856.686        -728.739          42.000  
E03  23830833.884   125231897.187         853.937          44.000    23830844.016    95956950.711         654.445          50.000  
R17  18410740.820    98519576.510       -2696.161          51.000    18410742.145    76626334.829       -2097.076          49.000  
R03  19782364.570   105896560.836         814.335          51.000    19782366.262    82364013.024         633.292          48.000  
R13  21618837.881   115443478.379        3160.766          38.000    21618852.151    89789320.811        2458.226          40.000  
E05  20358875.927   106986609.648       -1115.675          48.000    20358881.554    81976773.306        -854.783          53.000  
E09  24344187.366   127929532.353       -2829.790          44.000    24344194.883    98023956.389       -2168.381          50.000  
E34  21931610.281   115251384.418        -467.195          48.000    21931615.712    88309525.911        -357.985          51.000  
E36  23087260.917   121324348.141       -3110.512          47.000    23087269.100    92962838.089       -2383.423          51.000  
G31  23026425.479   121004635.507       -3539.674          43.000    23026433.622    94289341.013       -2758.182          39.000  
E18  27697159.312   145549522.571       -1146.481          45.000                                                                  
E24  26738064.728   140509483.481        1444.833          42.000    26738082.223   107663188.837        1107.169          44.000  
E15                                                                  25008249.540                        1378.082          27.000  
> 2024 04 16 14 52 30.4940000  0 28                     
G02  22618859.610   118862850.533       -4756.297          43.000                                                                  
G03  19582956.279   102909112.624       -1735.273          50.000    19582958.785    80188927.578       -1352.148          46.000  
G04  18988881.841    99787238.478       -2223.578          48.000    18988881.462    77756289.983       -1732.684          47.000  
G06  20398489.737   107194803.963        1787.282          44.000    20398494.862    83528446.387        1392.526          44.000  
G07  21673240.412   113893685.404        3243.931          44.000    21673247.640    88748367.791        2527.961          43.000  
G09  19176534.833   100773370.603          96.619          48.000    19176536.521    78524717.410          75.360          46.000  
R02  18644898.957    99492749.219       -1593.617          50.000    18644902.770    77383262.354       -1239.473          49.000  
R18  19372935.615   103414066.683        1167.527          48.000    19372940.252    80433187.551         908.170          47.000  
R12  20132137.847   107542289.847        1610.721          51.000    20132143.949    83644042.820        1252.753          49.000  
R11  21282078.821   113724974.282       -2040.772          43.000    21282086.139    88452775.371       -1587.294          46.000  
R01  21010035.915   112310639.436       -3097.637          44.000    21010042.149                       -2409.045          27.000  
R24  21182502.521   113272302.056       -5153.612          46.000    21182510.316    88100688.394       -4008.098          37.000  
G17  22144166.430   116368319.441       -3503.821          40.000    22144174.697    90676641.359       -2730.450          32.000  
G19  22108249.106   116179596.729       -2205.621          43.000                                                                  
S31  37112038.517   195025068.218        -728.511          45.000  
S33  38063630.751   200025710.483        -728.129          42.000  
E03  23825974.807   125206361.746         848.428          44.000    23825984.901    95937384.651         650.098          50.000  
R17  18425923.525    98600820.820       -2719.956          51.000    18425924.125    76689524.732       -2115.612          48.000  
R03  19777816.504   105872211.357         808.931          51.000    19777817.688    82345074.631         629.072          48.000  
R13  21601081.957   115348666.207        3160.374          37.000    21601096.086    89715578.343        2458.080          39.000  
E05  20365261.344   107020164.879       -1121.258          48.000    20365266.597    82002484.429        -859.124          53.000  
E09  24360341.491   128014426.673       -2829.805          43.000    24360350.251    98089005.093       -2168.104          50.000  
E15  24997978.469                1       1792.409          30.000    24997997.917                3       1374.293          26.000  
E34  21934316.544   115265609.400        -480.823          48.000    21934322.842    88320425.553        -368.419          51.000  
E36  23105043.921   121417802.583       -3119.405          47.000    23105052.955    93034445.879       -2390.277          51.000  
G31  23046658.858   121110960.890       -3548.425          43.000    23046667.121    94372191.701       -2764.821          40.000  
E18  27703691.126   145583845.334       -1141.589          45.000                                                                  
E24  26729814.748   140466132.747        1445.353          42.000    26729832.537   107629972.274        1107.473          44.000  
> 2024 04 16 14 53 00.4940000  0 28                     
G02  22646017.312   119005564.506       -4757.862          42.000                                                                  
G03  19592885.820   102961294.587       -1743.445          50.000    19592889.268    80229588.755       -1358.496          46.000  
G04  19001598.809    99854065.476       -2231.445          48.000    19001598.466    77808362.924       -1738.885          47.000  
G06  20388326.534   107141390.430        1773.692          44.000    20388330.633    83486825.553        1381.871          45.000  
G07  21654731.373   113796421.552        3240.343          44.000    21654739.526    88672578.053        2524.827          43.000  
G09  19176011.264   100770624.419          86.621          48.000    19176014.119    78522577.527          67.505          46.000  
R02  18653870.842    99540623.910       -1598.104          50.000    18653874.397    77420498.165       -1242.927          48.000  
R18  19366444.037   103379402.403        1143.446          49.000    19366446.936    80406226.505         889.272          48.000  
R12  20123140.132   107494226.738        1593.387          51.000    20123147.602    83606660.552        1239.313          50.000  
R11  21293600.043   113786542.478       -2063.591          37.000    21293607.191    88500661.653       -1605.192          46.000  
R01  21027417.793   112403558.987       -3096.804          43.000    21027426.560                1      -2408.350          30.000  
R24  21211423.120   113426950.616       -5156.371          47.000    21211430.304    88220970.004       -4010.496          35.000  
G17  22164178.952   116473480.589       -3507.031          41.000    22164186.560                       -2732.025          32.000  
G19  22120871.034   116245921.106       -2216.028          43.000                                                                  
S31  37116196.857   195046920.888        -728.595          44.000  
S33  38067787.087   200047551.125        -727.703          42.000  
E03  23821147.104   125180992.163         842.888          44.000    23821157.170    95917945.673         645.827          50.000  
R17  18441238.839    98682776.479       -2743.620          51.000    18441238.202    76753267.890       -2133.907          47.000  
R03  19773296.410   105848023.646         803.572          50.000    19773299.085    82326262.037         625.043          48.000  
R13  21583326.521   115253857.047        3160.435          37.000    21583341.186    89641838.193        2457.974          38.000  
E05  20371678.670   107053887.825       -1126.934          48.000    20371683.708    82028324.046        -863.456          53.000  
E09  24376493.276   128099312.658       -2829.475          42.000    24376503.664    98154047.412       -2167.988          50.000  
E34  21937100.219   115280238.816        -494.484          47.000    21937106.845    88331635.069        -378.884          51.000  
E36  23122878.826   121511522.110       -3128.477          48.000    23122887.378    93106256.770       -2397.125          50.000  
G31  23066939.575   121217536.890       -3556.738          43.000    23066947.360    94455237.658       -2771.276          39.000  
E18  27710194.110   145618015.673       -1136.594          46.000                                                                  
E24  26721562.123   140422765.337        1445.754          42.000    26721579.718   107596742.937        1107.855          44.000  
E15                                                                  24987783.735                3       1369.976          25.000  
> 2024 04 16 14 53 30.4940000  0 28                     
G02  22673183.905   119148322.168       -4759.630          43.000                                                                  
G03  19602862.926   103013722.621       -1751.503          51.000    19602865.329    80270441.694       -1364.816          45.000  
G04  19014361.674    99921135.372       -2239.685          47.000    19014361.893    77860625.111       -1745.178          48.000  
G06  20378240.820   107088391.640        1759.681          43.000    20378245.088    83445527.852        1371.301          44.000  
G07  21636245.081   113699271.337        3236.282          45.000    21636251.720    88596876.822        2521.757          42.000  
G09  19175546.158   100768181.384          76.422          48.000    19175548.641    78520673.894          59.576          46.000  
R02  18662869.245    99588637.219       -1602.729          52.000    18662872.062    77457841.813       -1246.546          48.000  
R18  19360085.894   103345469.425        1118.924          48.000    19360090.806    80379834.211         870.272          48.000  
R12  20114240.947   107446688.651        1575.860          51.000    20114247.737    83569686.559        1225.697          50.000  
R11  21305252.612   113848805.923       -2086.893          40.000    21305258.439    88549088.638       -1623.384          47.000  
R01  21044796.069   112496453.962       -3096.053          44.000    21044805.733    87497315.3991      -2408.267          33.000  
R24  21240360.483   113581685.023       -5159.090          47.000    21240361.008                       -4011.991          32.000  
G17  22184211.901   116578750.408       -3510.699          41.000    22184219.412    90840612.917       -2735.754          34.000  
G19  22133553.688   116312566.503       -2226.831          44.000                                                                  
S31  37120353.335   195068763.859        -727.622          44.000  
S33  38071941.031   200069379.692        -727.347          42.000  
E03  23816351.443   125155791.763         837.186          44.000    23816361.839    95898636.332         641.552          51.000  
R17  18456687.977    98765443.969       -2767.380          52.000    18456686.417    76817564.716       -2152.484          46.000  
R03  19768809.546   105824001.114         798.109          52.000    19768811.526    82307577.945         620.703          49.000  
R13  21565573.712   115159058.705        3159.823          37.000    21565587.536    89568106.476        2457.740          38.000  
E05  20378127.917   107087781.013       -1132.502          48.000    20378133.470    82054294.125        -867.789          52.000  
E09  24392648.348   128184193.096       -2829.121          44.000    24392655.544    98219085.457       -2167.708          50.000  
E15  24977591.231                        1780.308          27.000    24977585.083                3       1355.708          22.000  
E34  21939962.272   115295276.837        -507.962          48.000    21939968.405    88343157.676        -389.161          51.000  
E36  23140763.246   121605508.919       -3137.271          47.000    23140772.486    93178272.467       -2403.809          50.000  
G31  23087268.517   121324364.753       -3565.025          42.000    23087276.144    94538479.880       -2777.960          39.000  
E18  27716668.411   145652036.387       -1131.411          46.000                                                                  
E24  26713307.450   140379386.866        1445.976          41.000    26713324.867   107563505.090        1108.205          45.000  
> 2024 04 16 14 54 00.4940000  0 28                     
G02  22700359.441   119291127.241       -4761.082          44.000                                                                  
G03  19612887.548   103066404.011       -1760.382          50.000    19612890.780    80311492.067       -1371.788          46.000  
G04  19027171.586    99988452.915       -2248.083          47.000    19027172.047    77913080.320       -1751.813          47.000  
G06  20368236.388   107035816.748        1745.473          44.000    20368240.301    83404560.477        1359.818          44.000  
G07  21617781.054   113602243.689        3232.337          45.000    21617787.292    88521271.131        2518.356          42.000  
G09  19175139.669   100766047.350          66.083          48.000    19175142.713    78519011.013          51.312          46.000  
R02  18671894.249    99636794.248       -1607.681          51.000    18671896.772    77495297.252       -1250.368          48.000  
R18  19353867.800   103312276.958        1093.987          48.000    19353872.417    80354017.886         850.856          48.000  
R12  20105441.584   107399686.338        1557.737          50.000    20105447.490    83533129.294        1211.648          48.000  
R11  21317033.879   113911770.106       -2110.580          36.000    21317042.232    88598060.666       -1641.502          48.000  
R01  21062171.750   112589330.785       -3095.503          43.000    21062184.220    87569552.617       -2407.549          35.000  
R24  21269312.816   113736507.906       -5162.188          46.000    21269317.948    88461735.879       -4015.200          38.000  
G17  22204265.123   116684131.871       -3514.566          40.000    22204272.114                       -2739.440          31.000  
G19  22146297.569   116379536.602       -2237.817          44.000                                                                  
S31  37124509.344   195090602.754        -727.905          44.000  
S33  38076094.304   200091206.209        -727.588          42.000  
E03  23811589.759   125130766.849         831.192          43.000    23811599.755    95879461.447         636.804          51.000  
R17  18472270.658    98848827.064       -2791.381          51.000    18472269.655    76882418.104       -2170.888          47.000  
R03  19764354.419   105800149.379         792.295          51.000    19764355.539    82289026.670         616.245          48.000  
R13  21547824.609   115064282.209        3159.401          37.000    21547838.209    89494391.817        2456.738          37.000  
E05  20384610.961   107121849.991       -1138.576          47.000    20384616.406    82080398.905        -872.442          52.000  
E09  24408797.617   128269073.628       -2829.267          43.000    24408808.308    98284123.634       -2167.891          50.000  
E15  24967430.386                        1772.916          31.000    24967440.956                        1358.998          28.000  
E34  21942903.438   115310730.641        -522.077          49.000    21942909.092    88354998.872        -399.968          52.000  
E36  23158700.889   121699768.240       -3146.567          47.000    23158709.762    93250496.977       -2411.005          50.000  
G31  23107645.851   121431448.825       -3573.717          41.000    23107653.859    94621921.714       -2784.667          38.000  
E18  27723114.943   145685913.362       -1126.919          46.000                                                                  
E24  26705050.786   140336005.887        1446.229          41.000    26705069.247   107530265.328        1107.917          44.000  
> 2024 04 16 14 54 30.4940000  0 28                     
G02  22727543.122   119433977.038       -4762.234          43.000                                                                  
G03  19622960.712   103119339.307       -1768.583          50.000    19622963.888    80352740.260       -1378.078          46.000  
G04  19040028.580   100056016.211       -2255.902          47.000    19040029.044    77965726.998       -1757.843          48.000  
G06  20358312.722   106983668.330        1731.302          45.000    20358316.844    83363925.390        1349.296          45.000  
G07  21599341.033   113505341.514        3228.247          45.000    21599346.839    88445763.182        2515.576          41.000  
G09  19174792.795   100764221.460          56.024          48.000    19174795.258    78517588.232          43.610          46.000  
R02  18680945.590    99685094.416       -1612.171          51.000    18680948.057    77532863.996       -1253.895          49.000  
R18  19347788.940   103279827.484        1069.463          49.000    19347793.036    80328779.428         831.714          48.000  
R12  20096743.461   107353223.442        1539.958          50.000    20096750.744    83496991.564        1197.709          50.000  
R11  21328950.016   113975433.176       -2133.519          42.000    21328956.158    88647576.291       -1659.578          49.000  
R01  21079541.919   112682189.419       -3094.885          41.000    21079558.268    87641775.692       -2406.772          34.000  
R24  21298281.339   113891414.954       -5164.804          45.000    21298291.644    88582218.516       -4017.032          41.000  
G17  22224338.903   116789621.371       -3518.130          40.000    22224347.623    91004927.252       -2740.595          32.000  
G19  22159102.887   116446828.641       -2248.254          44.000                                                                  
S31  37128664.351   195112438.053        -727.447          45.000  
S33  38080247.388   200113028.967        -727.175          42.000  
E03  23806860.370   125105916.975         825.736          43.000    23806870.884    95860420.699         632.493          50.000  
R17  18487985.507    98932922.405       -2814.811          51.000    18487985.863    76947825.454       -2189.360          48.000  
R03  19759930.092   105776467.314         786.854          52.000    19759931.346    82270607.343         612.031          49.000  
R13  21530081.090   114969531.740        3158.224          39.000    21530093.971    89420697.343        2456.158          37.000  
E05  20391127.203   107156093.611       -1144.136          47.000    20391132.684    82106637.506        -876.597          52.000  
E09  24424952.058   128353953.499       -2829.110          44.000    24424960.523    98349161.257       -2167.695          50.000  
E15  24957331.632   131151669.3781       1767.610          29.000    24957332.844   100492833.6321       1354.470          28.000  
E34  21945923.744   115326600.700        -535.740          49.000    21945929.166    88367159.022        -410.478          52.000  
E36  23176690.184   121794298.583       -3155.388          48.000    23176698.473    93322929.134       -2417.708          50.000  
G31  23128071.821   121538785.844       -3581.819          42.000    23128079.254    94705560.648       -2791.321          38.000  
E18  27729534.373   145719645.770       -1121.846          47.000                                                                  
E24  26696795.200   140292624.264        1446.219          40.000    26696814.700   107497025.026        1108.163          45.000  
> 2024 04 16 14 55 00.4940000  0 28                     
G02  22754735.230   119576867.109       -4763.181          43.000                                                                  
G03  19633082.585   103172527.600       -1776.936          50.000    19633085.380    80394185.576       -1384.489          46.000  
G04  19052932.036   100123821.851       -2263.702          48.000    19052932.404    78018562.516       -1764.130          48.000  
G06  20348470.122   106931947.343        1717.397          44.000    20348474.058    83323623.429        1338.058          43.000  
G07  21580924.600   113408565.956        3224.004          45.000    21580930.796    88370353.922        2512.288          42.000  
G09  19174504.100   100762701.272          46.033          48.000    19174506.028    78516403.686          35.956          46.000  
R02  18690023.277    99733534.899       -1616.515          52.000    18690026.476    77570539.863       -1257.471          49.000  
R18  19341850.121   103248121.860        1044.743          50.000    19341853.643    80304119.524         812.757          48.000  
R12  20088146.347   107307302.313        1521.952          49.000    20088154.789    83461275.260        1183.782          50.000  
R11  21340993.772   114039792.259       -2156.830          40.000    21340999.964    88697633.177       -1677.346          48.000  
R01  21096909.436   112775028.258       -3093.710          42.000    21096924.995                       -2405.949          31.000  
R24  21327264.918   114046400.271       -5167.077          45.000    21327276.445    88702762.070       -4018.823          41.000  
G17  22244433.232   116895214.105       -3521.294          40.000    22244440.173                       -2743.590          31.000  
G19  22171968.456   116514438.500       -2258.508          44.000                                                                  
S31  37132818.533   195134267.647        -726.973          44.000  
S33  38084398.615   200134844.247        -726.934          43.000  
E03  23802164.385   125081240.285         819.905          43.000    23802175.026    95841512.630         628.213          50.000  
R17  18503832.950    99017725.224       -2838.085          51.000    18503834.009    77013783.079       -2207.409          49.000  
R03  19755536.101   105752952.467         781.464          50.000    19755538.982    82252318.147         607.806          49.000  
R13  21512342.793   114874809.823        3157.241          39.000    21512356.173    89347025.103        2455.494          37.000  
E05  20397676.726   107190509.186       -1149.779          48.000    20397681.986    82133007.883        -880.926          53.000  
E09  24441102.760   128438830.158       -2828.921          44.000    24441111.632    98414196.474       -2167.532          49.000  
E15  24947256.490                1       1761.364          29.000    24947264.375   100452280.783        1349.560          33.000  
E34  21949022.904   115342885.962        -549.467          50.000    21949027.800    88379637.316        -420.992          51.000  
E36  23194728.813   121889096.888       -3164.128          47.000    23194738.059    93395566.641       -2424.414          50.000  
G31  23148544.437   121646372.258       -3589.956          41.000    23148552.484    94789393.871       -2797.111          37.000  
E18  27735925.360   145753231.190       -1116.834          46.000                                                                  
E24  26688540.847   140249242.330        1446.411          40.000    26688558.927   107463784.488        1108.324          45.000  
> 2024 04 16 14 55 30.4940000  0 28                     
G02  22781935.049   119719796.054       -4764.835          44.000                                                                  
G03  19643252.965   103225970.827       -1785.571          50.000    19643255.477    80435829.566       -1391.333          46.000  
G04  19065881.162   100191869.342       -2272.070          48.000    19065881.325    78071586.452       -1770.441          48.000  
G06  20338709.760   106880657.837        1702.608          43.000    20338713.622    83283657.631        1326.508          43.000  
G07  21562533.041   113311921.524        3219.760          44.000    21562539.622    88295046.807        2508.624          43.000  
G09  19174273.741   100761487.366          35.413          49.000    19174275.231    78515457.787          27.588          46.000  
R02  18699126.991    99782115.793       -1621.675          51.000    18699130.819    77608324.923       -1261.231          49.000  
R18  19336050.992   103217163.861        1019.509          50.000    19336054.217    80280041.089         793.083          48.000  
R12  20079653.038   107261928.293        1503.497          50.000    20079660.081    83425984.430        1169.271          50.000  
R11  21353165.434   114104847.022       -2180.282          36.000    21353174.719    88748231.239       -1695.404          48.000  
R01  21114272.689   112867848.324       -3093.365          42.000    21114286.221                       -2406.458          30.000  
R24  21356263.096   114201461.240       -5169.875          47.000    21356273.953    88823364.452       -4021.222          41.000  
G17  22264546.121   117000907.826       -3524.693          41.000    22264556.077    91169565.410       -2746.001          33.000  
G19  22184895.109   116582365.205       -2269.449          44.000                                                                  
S31  37136971.503   195156093.222        -727.382          44.000  
S33  38088549.540   200156656.395        -726.680          43.000  
E03  23797501.244   125056737.784         814.043          43.000    23797512.202    95822738.041         623.700          50.000  
R17  18519812.096    99103233.567       -2861.905          51.000    18519812.831    77080289.437       -2225.988          49.000  
R03  19751174.804   105729605.653         775.676          51.000    19751176.680    82234159.567         603.460          47.000  
R13  21494610.878   114780121.955        3155.799          39.000    21494623.947    89273379.368        2454.823          37.000  
E05  20404258.783   107225097.032       -1155.671          48.000    20404263.801    82159510.254        -885.529          52.000  
E09  24457254.704   128523704.173       -2828.926          44.000    24457263.112    98479229.641       -2167.584          49.000  
E15  24937227.552                        1754.045          26.000    24937229.799   100411877.501        1344.204          33.000  
E34  21952200.831   115359588.337        -563.631          49.000    21952206.085    88392435.184        -431.719          51.000  
E36  23212819.856   121984163.159       -3173.226          47.000    23212828.614    93468409.459       -2431.415          50.000  
G31  23169064.626   121754207.002       -3598.322          39.000    23169073.662    94873420.608       -2803.913          37.000  
E18  27742288.828   145786670.268       -1112.049          46.000                                                                  
E24  26680285.651   140205863.347        1445.818          41.000    26680303.661   107430546.200        1107.863          44.000  
> 2024 04 16 14 56 00.4940000  0 28                     
G02  22809139.860   119862756.265       -4765.904          43.000                                                                  
G03  19653470.454   103279664.643       -1794.033          50.000    19653472.964    80477668.811       -1398.165          46.000  
G04  19078875.049   100260151.866       -2279.944          48.000    19078875.440    78124793.519       -1776.660          49.000  
G06  20329031.601   106829797.302        1688.096          43.000    20329035.418    83244026.099        1315.368          44.000  
G07  21544166.952   113215406.138        3214.892          44.000    21544172.814    88219840.270        2505.238          42.000  
G09  19174099.736   100760573.911          25.397          49.000    19174101.134    78514746.024          19.672          46.000  
R02  18708256.860    99830831.271       -1626.129          52.000    18708259.812    77646214.688       -1264.758          49.000  
R18  19330389.290   103186950.834         994.509          48.000    19330394.355    80256542.099         773.597          49.000  
R12  20071259.244   107217100.189        1484.855          48.000    20071268.322    83391118.214        1155.070          50.000  
R11  21365469.831   114170591.168       -2202.980          41.000    21365477.519    88799365.414       -1713.510          48.000  
R01  21131633.648   112960644.354       -3092.954          43.000    21131644.464                       -2405.530          27.000  
R24  21385274.951   114356588.702       -5171.933          48.000    21385283.077    88944018.571       -4022.295          38.000  
G17  22284677.071   117106694.330       -3527.921          41.000    22284688.494    91251996.126       -2748.747          34.000  
G19  22197880.498   116650601.238       -2279.736          45.000                                                                  
S31  37141123.303   195177909.436        -727.116          44.000  
S33  38092698.683   200178459.876        -726.616          42.000  
E03  23792871.914   125032404.138         808.115          44.000    23792881.183    95804092.829         619.267          49.000  
R17  18535922.106    99189439.025       -2885.121          52.000    18535922.547    77147337.997       -2243.903          49.000  
R03  19746843.806   105706420.656         770.055          51.000    19746844.820    82216126.852         598.984          47.000  
R13  21476884.691   114685467.269        3154.618          39.000    21476898.091    89199759.468        2453.585          38.000  
E05  20410872.179   107259851.077       -1161.218          48.000    20410877.168    82186139.958        -889.848          52.000  
E09  24473402.196   128608569.640       -2828.804          42.000    24473412.416    98544256.274       -2167.457          49.000  
E15  24927229.372                3       1749.175          24.000    24927232.380   100371621.099        1339.399          35.000  
E34  21955457.131   115376703.261        -577.353          48.000    21955463.105    88405549.179        -442.423          51.000  
E36  23230960.105   122079490.875       -3181.905          47.000    23230969.143    93541452.600       -2438.178          50.000  
G31  23189630.929   121862282.659       -3606.619          39.000    23189639.984    94957635.005       -2809.910          35.000  
E18  27748622.882   145819957.182       -1107.078          46.000                                                                  
E24  26672030.815   140162484.267        1445.748          42.000    26672049.491   107397307.843        1107.932          44.000  
> 2024 04 16 14 56 30.4950000  0 29                     
G02  22836354.254   120005765.454       -4767.477          45.000                                                                  
G03  19663738.275   103333626.940       -1803.138          49.000    19663742.424    80519717.253       -1404.994          46.000  
G04  19091916.793   100328685.331       -2288.485          49.000    19091917.205    78178196.156       -1783.180          49.000  
G06  20319437.264   106779382.115        1673.107          44.000    20319441.762    83204741.592        1303.873          44.000  
G07  21525827.986   113119034.922        3209.602          45.000    21525833.107    88144746.076        2501.268          41.000  
G09  19173985.367   100759975.527          14.640          49.000    19173987.863    78514279.783          11.411          46.000  
R02  18717414.012    99879697.449       -1631.278          52.000    18717417.341    77684221.672       -1268.746          49.000  
R18  19324872.760   103157499.844         968.994          50.000    19324877.387    80233635.797         753.558          49.000  
R12  20062973.582   107172835.797        1466.056          49.000    20062982.016    83356690.444        1140.286          49.000  
R11  21377906.259   114237040.867       -2226.569          46.000    21377912.833    88851048.300       -1731.792          48.000  
R01  21148992.190   113053435.700       -3092.880          43.000    21149005.045                       -2405.781          30.000  
R24  21414300.064   114511799.100       -5174.792          47.000    21414308.355    89064737.243       -4024.996          37.000  
G17  22304827.953   117212589.262       -3531.561          38.000    22304834.797    91334511.252       -2751.612          34.000  
G19  22210926.754   116719161.684       -2290.704          45.000                                                                  
S31  37145275.911   195199732.475        -727.365          44.000  
S33  38096848.921   200200270.366        -727.000          42.000  
E03  23788276.574   125008253.606         801.929          45.000    23788285.475    95785587.966         614.534          49.000  
R17  18552164.423    99276357.164       -2908.924          52.000    18552164.917    77214940.905       -2262.645          48.000  
R03  19742544.940   105683411.581         764.028          51.000    19742546.550    82198230.959         594.335          48.000  
R13  21459168.198   114590862.567        3152.348          40.000    21459180.734    89126178.409        2451.533          37.000  
E05  20417519.745   107294786.864       -1167.463          48.000    20417525.387    82212908.921        -894.614          52.000  
E09  24489556.522   128693444.120       -2829.083          44.000    24489563.880    98609289.799       -2167.748          50.000  
E15  24917279.729                3       1741.404          22.000    24917274.165   100331523.527        1333.776          36.000  
E34  21958795.942   115394247.324        -591.861          48.000    21958801.883    88418991.987        -453.510          51.000  
E36  23249154.008   122175097.293       -3191.271          47.000    23249162.533    93614709.286       -2445.311          50.000  
G16  24069682.515   126487042.7791        944.860          35.000                                                                  
G31  23210247.133   121970615.917       -3615.250          39.000    23210255.407    95042050.152       -2816.537          34.000  
E18  27754930.689   145853107.754       -1102.692          44.000                                                                  
E24  26663779.271   140119121.077        1445.150          42.000    26663797.066   107364081.690        1107.269          43.000  
> 2024 04 16 14 57 00.4950000  0 29                     
G02  22863574.843   120148809.043       -4768.979          45.000                                                                  
G03  19674057.111   103387852.547       -1812.035          49.000    19674061.181    80561970.867       -1411.823          47.000  
G04  19105004.155   100397461.124       -2296.729          48.000    19105004.505    78231787.609       -1789.680          48.000  
G06  20309929.834   106729416.042        1657.847          45.000    20309933.798    83165807.039        1291.824          44.000  
G07  21507518.202   113022814.989        3204.710          45.000    21507522.411    88069769.756        2497.083          40.000  
G09  19173930.360   100759689.266           4.248          49.000    19173933.732    78514056.767           3.184          47.000  
R02  18726598.231    99928708.170       -1636.244          51.000    18726602.746    77722341.076       -1272.796          49.000  
R18  19319498.453   103128812.949         943.329          49.000    19319503.080    80211323.790         733.850          48.000  
R12  20054793.277   107129139.788        1446.882          50.000    20054800.874    83322704.759        1125.382          48.000  
R11  21390472.099   114304187.964       -2250.057          46.000    21390478.479    88903273.635       -1750.027          47.000  
R01  21166347.216   113146213.477       -3092.636          40.000    21166361.347    88002681.830       -2405.520          33.000  
R24  21443337.460   114667075.964       -5177.117          45.000    21443346.746    89185507.534       -4026.713          41.000  
G17  22324997.641   117318579.822       -3534.698          39.000    22325006.876    91417100.963       -2754.267          33.000  
G19  22224033.808   116788037.186       -2301.257          45.000                                                                  
S31  37149429.589   195221558.299        -727.952          44.000  
S33  38100999.749   200222082.416        -726.889          42.000  
E03  23783715.029   124984285.359         795.856          44.000    23783724.158    95767222.748         609.743          49.000  
R17  18568538.483    99363976.323       -2932.442          52.000    18568539.329    77283089.011       -2280.838          49.000  
R03  19738279.806   105660577.348         758.104          51.000    19738281.449    82180471.041         589.673          50.000  
R13  21441462.120   114496316.072        3150.446          40.000    21441475.144    89052642.574        2450.323          39.000  
E05  20424201.594   107329898.843       -1173.445          48.000    20424206.934    82239812.873        -899.120          52.000  
E09  24505705.899   128778318.889       -2829.281          42.000    24505714.787    98674323.544       -2167.858          49.000  
E34  21962215.661   115412217.635        -606.221          48.000    21962221.847    88432761.407        -464.548          52.000  
E36  23267398.285   122270972.361       -3200.491          47.000    23267407.431    93688171.834       -2452.494          50.000  
G16  24064300.232   126458762.817         940.717          31.000                                                                  
G31  23230909.552   122079194.968       -3623.631          38.000    23230918.497    95126656.894       -2823.899          34.000  
E18  27761211.580   145886116.803       -1098.149          44.000                                                                  
E24  26655530.922   140075776.419        1444.309          43.000    26655548.924   107330869.715        1106.818          44.000  
E15                                                                  24907355.637   100291587.132        1328.535          36.000  
> 2024 04 16 14 57 30.4950000  0 29                     
G02  22890805.120   120291901.787       -4770.351          45.000                                                                  
G03  19684429.187   103442356.506       -1821.239          50.000    19684433.364    80604441.390       -1419.239          47.000  
G04  19118139.744   100466492.366       -2305.023          48.000    19118140.223    78285578.120       -1796.149          48.000  
G06  20300509.437   106679912.559        1642.667          44.000    20300514.056    83127232.926        1279.809          45.000  
G07  21489238.770   112926758.628        3199.188          45.000    21489244.013    87994920.893        2492.967          41.000  
G09  19173938.034   100759726.915          -6.465          49.000    19173939.852    78514086.110          -5.142          46.000  
R02  18735812.619    99977876.560       -1641.377          51.000    18735816.798    77760583.126       -1276.661          50.000  
R18  19314269.322   103100904.355         917.560          49.000    19314274.786    80189617.110         713.556          48.000  
R12  20046722.174   107086027.232        1427.550          49.000    20046730.139    83289172.893        1110.353          49.000  
R11  21403170.312   114372045.392       -2273.603          44.000    21403177.071    88956051.442       -1768.347          46.000  
R01  21183703.488   113238993.507       -3092.619          40.000    21183717.247                       -2404.532          30.000  
R24  21472389.821   114822433.180       -5179.626          44.000    21472401.577    89306340.312       -4028.854          43.000  
G17  22345188.282   117424678.774       -3538.025          39.000    22345197.651    91499775.088       -2756.891          35.000  
G19  22237203.349   116857240.078       -2311.945          44.000                                                                  
S31  37153586.085   195243400.810        -727.958          44.000  
S33  38105153.518   200243911.655        -727.767          42.000  
E03  23779189.623   124960510.780         789.398          43.000    23779199.670    95749005.944         604.877          49.000  
R17  18585046.042    99452309.005       -2956.028          52.000    18585046.368    77351792.062       -2299.188          49.000  
R03  19734049.182   105637928.915         751.991          51.000    19734050.735    82162855.685         584.830          49.000  
R13  21423769.834   114401841.742        3147.938          40.000    21423782.155    88979162.847        2448.660          38.000  
E05  20430919.532   107365199.711       -1179.807          48.000    20430924.733    82266861.561        -903.959          53.000  
E09  24521859.198   128863208.609       -2829.612          41.000    24521869.363    98739368.750       -2168.312          50.000  
E15  24897475.474                        1726.601          28.000    24897480.211   100251821.563        1322.944          38.000  
E34  21965718.812   115430627.847        -620.794          48.000    21965725.494    88446867.903        -475.750          52.000  
E36  23285696.802   122367130.431       -3209.769          48.000    23285705.817    93761851.198       -2459.419          51.000  
G16  24058949.547   126430643.240         934.596          35.000                                                                  
G31  23251622.089   122188033.795       -3632.140          36.000    23251630.954    95211466.032       -2830.709          33.000  
E18  27767468.541   145918997.230       -1093.597          43.000                                                                  
E24  26647288.833   140032463.400        1443.565          43.000    26647306.829   107297682.035        1105.904          45.000  
> 2024 04 16 14 58 00.4950000  0 29                     
G02  22918042.547   120435033.548       -4771.620          45.000                                                                  
G03  19694852.728   103497132.170       -1830.326          49.000    19694857.225    80647123.597       -1426.276          47.000  
G04  19131322.847   100535769.991       -2313.231          48.000    19131323.049    78339560.606       -1802.557          47.000  
G06  20291175.491   106630866.906        1627.411          45.000    20291180.813    83089015.587        1267.969          45.000  
G07  21470989.949   112830861.552        3193.972          45.000    21470995.566    87920196.165        2488.677          41.000  
G09  19174006.219   100760080.337         -16.930          50.000    19174006.481    78514361.502         -13.245          45.000  
R02  18745055.299   100027194.115       -1646.311          52.000    18745058.334    77798941.130       -1280.511          49.000  
R18  19309186.794   103073768.880         891.693          51.000    19309191.322    80168511.740         693.616          48.000  
R12  20038762.128   107043494.512        1408.190          51.000    20038768.050    83256091.971        1095.299          49.000  
R11  21415999.695   114440604.564       -2297.031          46.000    21416007.247    89009375.004       -1786.300          46.000  
R01  21201059.875   113331768.801       -3092.405          38.000    21201071.747    88147002.039       -2405.348          34.000  
R24  21501456.925   114977859.063       -5181.788          44.000    21501467.121    89427226.455       -4030.659          40.000  
G17  22365397.463   117530875.957       -3541.363          39.000    22365405.965    91582525.778       -2758.905          35.000  
G19  22250432.765   116926760.351       -2322.528          45.000                                                                  
S31  37157744.356   195265252.561        -728.299          44.000  
S33  38109309.434   200265750.434        -727.912          42.000  
E03  23774701.185   124936922.229         783.205          44.000    23774710.940    95730931.672         600.063          49.000  
R17  18601683.019    99541344.391       -2979.399          51.000    18601685.147    77421041.665       -2317.422          48.000  
R03  19729852.087   105615458.040         746.131          51.000    19729853.319    82145378.391         580.284          49.000  
R13  21406090.929   114307436.428        3145.937          40.000    21406102.609    88905736.870        2446.427          39.000  
E05  20437671.591   107400681.132       -1185.591          48.000    20437676.821    82294048.600        -908.550          53.000  
E09  24538016.204   128948105.128       -2829.983          43.000    24538024.797    98804419.136       -2168.466          49.000  
E15  24887626.570                3       1718.794          23.000    24887644.909   100212222.617        1317.167          37.000  
E34  21969304.483   115449471.137        -635.315          48.000    21969311.366    88461306.231        -486.758          52.000  
E36  23304047.516   122463562.730       -3218.935          48.000    23304056.582    93835740.702       -2466.522          51.000  
G16  24053628.487   126402679.251         929.574          37.000                                                                  
G31  23272380.531   122297122.407       -3640.617          34.000    23272390.987    95296469.842       -2836.941          32.000  
E18  27773700.065   145951741.009       -1089.091          43.000                                                                  
E24  26639051.709   139989176.738        1442.319          43.000    26639069.363   107264514.512        1104.958          44.000  
> 2024 04 16 14 58 30.4950000  0 29                     
G02  22945287.216   120578203.336       -4772.664          44.000                                                                  
G03  19705328.293   103552181.859       -1839.503          49.000    19705332.376    80690019.358       -1433.402          47.000  
G04  19144552.437   100605293.903       -2321.529          47.000    19144553.596    78393735.007       -1808.950          47.000  
G06  20281930.146   106582283.379        1611.636          45.000    20281935.303    83051158.297        1256.074          45.000  
G07  21452771.832   112735128.393        3188.438          44.000    21452778.791    87845599.162        2484.430          43.000  
G09  19174132.860   100760750.353         -27.584          50.000    19174133.865    78514883.602         -21.326          45.000  
R02  18754326.182   100076661.946       -1651.407          52.000    18754328.571    77837416.073       -1284.353          49.000  
R18  19304249.508   103047410.534         865.716          51.000    19304253.630    80148010.786         673.218          48.000  
R12  20030909.481   107001547.152        1388.462          51.000    20030913.951    83223466.354        1079.862          47.000  
R11  21428961.145   114509865.593       -2320.338          46.000    21428968.609    89063244.558       -1804.674          46.000  
R01  21218414.953   113424540.631       -3092.240          41.000    21218425.784                       -2404.419          32.000  
R24  21530535.098   115133351.479       -5183.920          42.000    21530544.072    89548164.415       -4032.262          40.000  
G17  22385623.674   117637169.166       -3544.580          39.000    22385632.597    91665351.367       -2761.676          35.000  
G19  22263721.970   116996597.259       -2333.270          44.000                                                                  
S31  37161904.310   195287114.462        -729.017          44.000  
S33  38113467.417   200287599.629        -728.368          43.000  
E03  23770247.287   124913521.042         777.052          43.000    23770258.192    95713000.992         595.332          49.000  
R17  18618452.190    99631080.824       -3002.894          50.000    18618454.097    77490836.520       -2335.504          49.000  
R03  19725686.264   105593165.924         740.221          50.000    19725688.174    82128040.130         575.717          49.000  
R13  21388424.933   114213106.090        3142.780          38.000    21388438.180    88832369.146        2444.550          40.000  
E05  20444457.703   107436343.731       -1191.687          48.000    20444463.146    82321374.450        -913.081          53.000  
E09  24554170.678   129033009.398       -2830.056          41.000    24554181.511    98869475.514       -2168.572          49.000  
E15  24877841.446                        1712.321          27.000    24877851.856   100172792.912        1311.724          37.000  
E34  21972972.961   115468749.666        -649.778          48.000    21972979.787    88476078.049        -497.837          52.000  
E36  23322450.210   122560269.499       -3227.897          48.000    23322459.508    93909840.514       -2473.362          51.000  
G16  24048338.656   126374875.327         924.103          39.000                                                                  
G31  23293186.423   122406460.382       -3648.496          33.000    23293197.513                       -2843.351          30.000  
E18  27779905.976   145984349.089       -1084.488          44.000                                                                  
E24  26630820.099   139945920.005        1441.378          43.000    26630837.297   107231369.883        1104.502          43.000  
> 2024 04 16 14 59 00.4950000  0 29                     
G02  22972537.768   120721406.673       -4774.071          44.000                                                                  
G03  19715856.556   103607504.351       -1848.727          49.000    19715859.726    80733127.679       -1440.599          47.000  
G04  19157829.199   100675060.416       -2329.702          48.000    19157830.265    78448098.452       -1815.327          47.000  
G06  20272774.227   106534162.604        1596.185          46.000    20272778.065    83013661.619        1243.909          45.000  
G07  21434585.323   112639560.163        3182.761          45.000    21434591.905    87771130.629        2480.020          42.000  
G09  19174319.778   100761734.343         -38.105          49.000    19174321.950    78515650.374         -29.565          46.000  
R02  18763623.993   100126277.158       -1656.281          52.000    18763626.814    77876005.605       -1288.208          50.000  
R18  19299457.425   103021829.419         839.435          51.000    19299461.003    80128114.364         653.113          47.000  
R12  20023165.458   106960186.959        1368.699          49.000    20023170.646    83191297.437        1064.558          46.000  
R11  21442053.286   114579824.562       -2343.746          48.000    21442061.519    89117656.914       -1822.920          47.000  
R01  21235769.519   113517307.552       -3092.188          38.000    21235776.949                       -2404.901          30.000  
R24  21559622.890   115288904.230       -5186.379          39.000    21559634.536    89669149.217       -4033.514          40.000  
G17  22405867.666   117743553.270       -3547.583          40.000    22405877.634    91748247.757       -2764.172          37.000  
G19  22277071.607   117066746.597       -2343.481          44.000                                                                  
S31  37166066.835   195308985.690        -729.440          44.000  
S33  38117626.664   200309457.931        -728.875          42.000  
E03  23765830.432   124890305.056         770.848          44.000    23765840.471    95695212.209         590.566          50.000  
R17  18635351.934    99721512.987       -3026.109          51.000    18635354.720    77561172.519       -2353.567          49.000  
R03  19721555.577   105571049.550         734.235          50.000    19721557.640    82110838.558         571.078          49.000  
R13  21370774.127   114118853.090        3140.188          39.000    21370787.527    88759061.611        2442.508          39.000  
E05  20451277.724   107472184.639       -1197.872          47.000    20451283.549    82348836.939        -917.813          53.000  
E09  24570329.605   129117918.863       -2830.440          41.000    24570339.621    98934535.799       -2168.865          49.000  
E15  24868065.004                3       1702.579          22.000    24868101.788   100133532.422        1305.953          38.000  
E34  21976724.588   115488461.996        -664.409          48.000    21976730.742    88491182.278        -509.100          52.000  
E36  23340904.239   122657247.431       -3237.307          47.000    23340914.079    93984148.088       -2480.469          51.000  
G16  24043078.799   126347231.884         918.600          39.000                                                                  
G31  23314039.384   122516043.572       -3657.304          33.000    23314050.644                       -2849.187          29.000  
E18  27786084.766   146016818.833       -1080.062          43.000                                                                  
E24  26622594.868   139902693.316        1440.240          43.000    26622610.647   107198248.274        1103.705          43.000  
> 2024 04 16 14 59 30.4950000  0 29                     
G02  22999795.534   120864649.093       -4775.355          43.000                                                                  
G03  19726438.030   103663108.321       -1857.990          48.000    19726440.381    80776455.332       -1447.730          46.000  
G04  19171152.471   100745075.783       -2337.726          47.000    19171153.077    78502655.821       -1821.725          47.000  
G06  20263707.444   106486515.189        1580.471          47.000    20263711.228    82976533.806        1231.526          45.000  
G07  21416432.728   112544167.892        3176.969          46.000    21416439.777    87696799.171        2475.660          43.000  
G09  19174568.459   100763039.512         -48.702          49.000    19174570.721    78516667.393         -37.904          46.000  
R02  18772950.676   100176046.945       -1661.486          51.000    18772953.960    77914715.371       -1292.264          50.000  
R18  19294812.771   102997036.027         813.409          51.000    19294815.808    80108830.627         632.758          47.000  
R12  20015535.594   106919425.851        1348.805          51.000    20015540.784    83159594.451        1049.004          48.000  
R11  21455277.150   114650487.840       -2367.010          48.000    21455284.872    89172617.048       -1840.978          46.000  
R01  21253123.801   113610077.399       -3092.311          38.000    21253130.211    88363463.317       -2404.759          35.000  
R24  21588724.296   115444521.234       -5187.822          39.000    21588737.656    89790184.063       -4035.234          40.000  
G17  22426129.544   117850033.357       -3551.031          40.000    22426139.756    91831218.937       -2766.858          36.000  
G19  22290480.909   117137213.689       -2354.120          44.000                                                                  
S31  37170231.639   195330872.779        -729.550          44.000  
S33  38121789.633   200331332.272        -729.316          43.000  
E03  23761449.564   124867281.928         764.584          44.000    23761459.296    95677571.201         585.859          50.000  
R17  18652383.389    99812645.655       -3049.216          52.000    18652384.765    77632053.323       -2371.560          49.000  
R03  19717457.849   105549116.065         728.177          51.000    19717461.257    82093779.223         566.382          50.000  
R13  21353140.196   114024690.208        3136.988          36.000    21353153.422    88685824.135        2440.240          39.000  
E05  20458133.422   107508210.819       -1203.701          48.000    20458138.899    82376441.387        -922.347          53.000  
E09  24586489.907   129202840.666       -2830.682          42.000    24586499.720    98999605.568       -2168.969          48.000  
E15  24858395.779                        1696.866          27.000    24858394.603   100094448.702        1300.122          39.000  
E34  21980560.127   115508616.627        -678.997          48.000    21980565.993    88506625.402        -520.229          52.000  
E36  23359411.866   122754503.094       -3246.365          48.000    23359421.093    94058668.458       -2487.348          50.000  
G16  24037850.811   126319759.447         913.163          39.000                                                                  
G31  23334940.677   122625877.105       -3664.476          32.000    23334951.069                1      -2855.986          26.000  
E18  27792239.581   146049157.515       -1075.382          45.000                                                                  
E24  26614375.966   139859506.768        1439.228          42.000    26614392.509   107165157.429        1102.435          44.000  
