     3.00           OBSERVATION DATA    M: Mixed            RINEX VERSION / TYPE
CONVBIN 2.4.3                           20240416 214442 UTC PGM / RUN BY / DATE 
format: u-blox UBX                                          COMMENT             
log: /home/regis/git/gnsspwv/obsdata/VERT00CHL/2024-04-16/VECOMMENT             
{self.marker}                                               MARKER NAME         
                                                            MARKER NUMBER       
GEODETIC                                                    MARKER TYPE         
{self.observer}     {self.institution}                      OBSERVER / AGENCY   
UNKNOWN             UBLOX-ZED-F9P                           REC # / TYPE / VERS 
UNKNOWN             TWIVSP6037L                             ANT # / TYPE        
  1713381.0000 -5047934.0000 -3490983.0000                  APPROX POSITION XYZ 
        0.0000        0.0000        0.0000                  ANTENNA: DELTA H/E/N
G    8 C1C L1C D1C S1C C2L L2L D2L S2L                      SYS / # / OBS TYPES 
R    8 C1C L1C D1C S1C C2C L2C D2C S2C                      SYS / # / OBS TYPES 
E    8 C1C L1C D1C S1C C7Q L7Q D7Q S7Q                      SYS / # / OBS TYPES 
S    4 C1C L1C D1C S1C                                      SYS / # / OBS TYPES 
  2024    04    16    21    30   00.0070000     GPS         TIME OF FIRST OBS   
  2024    04    16    21    44   30.0070000     GPS         TIME OF LAST OBS    
                                                            END OF HEADER       
> 2024 04 16 21 30 00.0070000  0 25                     
G13  22037885.465   115809976.9451       -785.956          47.000                                                                  
G15  23158177.883   121697097.6791        909.826          49.000    23158177.622    94828952.2061        708.806          45.000  
G19  23990380.960   126070677.2721       1360.983          48.000                                                                  
G24  25404317.942   133500689.2811       1318.277          45.000    25404323.203   104026595.6021       1026.978          43.000  
R05  21726949.907   116143233.4931      -3162.815          53.000    21726953.155    90333507.8311      -2459.938          51.000  
R16  22038895.521   117727957.1751       -423.822          53.000    22038896.629    91566573.3651       -329.600          49.000  
R04  25293877.379   135447320.5041      -5255.446          46.000    25293901.019   105347806.0011      -4087.566          46.000  
R06  22738037.146   121334615.5011       1758.170          42.000                                                                  
E08  25304083.966   132974014.8271      -1019.163          48.000    25304087.780   101889246.6521       -780.875          50.000  
S31  40784299.619   214322882.2511       -789.310          44.000  
S33  41735843.831   219323254.6801       -789.986          42.000  
E03  27752588.948   145840809.5991      -3152.545          45.000    27752600.601   111748183.2471      -2415.466          48.000  
R15  22848226.306   122094379.5351      -3224.554          51.000    22848227.683    94962155.3621      -2507.886          49.000  
R17  25575378.020   136859043.8981       1755.785          48.000    25575383.001   106445995.6301       1365.673          42.000  
E07  27234028.825   143115911.3851       1370.417          43.000    27234036.522   109660277.4891       1050.173          50.000  
G05  25241149.873   132642943.0091      -3593.027          40.000    25241161.484   103358156.7111      -2799.721          39.000  
G30  25869022.320   135942766.9861      -3183.099          41.000    25869029.902   105929534.2491      -2480.450          39.000  
E30  26003328.421   136648807.5501        443.130          49.000    26003335.037   104705181.5441        339.529          52.000  
G14  24310250.145   127751438.9641      -3729.946          44.000    24310250.001    99546737.6611      -2906.789          44.000  
E02  25767406.300   135408889.9851      -2105.272          48.000    25767410.127   103755050.5471      -1613.112          53.000  
G22  22583029.161   118674981.4111      -2386.630          48.000                                                                  
G17  23798188.677   125060637.1651        347.445          48.000    23798191.205    97450037.8821        270.772          44.000  
E25  29601993.173   155559736.6341      -3430.422          36.000    29602004.470   119195244.2201      -2628.981          44.000  
E18  22035261.899   115796453.1161      -1398.727          47.000                                                                  
G12                                                                  26498287.016                3       1842.839          25.000  
> 2024 04 16 21 30 30.0070000  0 26                     
G13  22042416.444   115833784.221        -801.342          48.000                                                                  
G15  23153021.509   121669999.760         896.717          49.000    23153021.231    94807837.009         698.680          45.000  
G19  23982647.481   126030039.824        1348.122          49.000                                                                  
G24  25396790.748   133461135.265        1318.609          44.000    25396795.900   103995774.469        1027.317          42.000  
R05  21744762.411   116238448.263       -3184.963          53.000    21744764.897    90407563.663       -2477.199          50.000  
R16  22041307.515   117740846.578        -435.621          51.000    22041309.319    91576598.531        -338.783          50.000  
R04  25323330.811   135605039.339       -5259.204          46.000    25323354.840   105470474.855       -4090.560          44.000  
R06  22728206.925   121282161.558        1738.852          42.000                                                                  
G12  26484787.119                3       2358.823          31.000    26484812.069                        1837.248          28.000  
E08  25309932.739   133004750.909       -1030.161          48.000    25309936.607   101912797.690        -789.316          50.000  
S31  40788803.378   214346550.522        -788.899          44.000  
S33  41740351.928   219346945.405        -789.552          42.000  
E03  27770603.288   145935479.624       -3158.943          45.000    27770615.540   111820722.452       -2420.452          48.000  
R15  22866338.243   122191168.436       -3228.186          51.000    22866340.729    95037435.657       -2510.754          49.000  
R17  25565565.444   136806541.314        1744.428          47.000    25565569.446   106405160.551        1356.548          41.000  
E07  27226217.249   143074867.327        1365.651          43.000    27226225.872   109628828.337        1046.403          50.000  
G05  25261677.035   132750808.041       -3598.063          42.000    25261687.660   103442206.850       -2803.662          39.000  
G30  25887198.245   136038283.371       -3184.686          42.000    25887205.089   106003962.645       -2481.671          37.000  
E30  26000824.998   136635651.965         433.764          49.000    26000831.419   104695101.447         332.392          52.000  
G14  24331558.875   127863419.764       -3735.530          44.000    24331560.390    99633995.396       -2910.792          46.000  
E02  25779444.178   135472153.171       -2112.454          48.000    25779448.881   103803524.985       -1618.582          54.000  
G22  22596692.699   118746784.135       -2400.465          47.000                                                                  
G17  23796255.784   125050476.370         329.730          48.000    23796257.342    97442120.533         257.005          44.000  
E25  29621578.142   155662650.981       -3429.516          36.000    29621588.240   119274100.747       -2628.204          43.000  
E18  22043337.936   115838895.719       -1430.747          46.000                                                                  
R09                                                                  25014409.261                3       1167.262          11.000  
> 2024 04 16 21 31 00.0070000  0 25                     
G13  22047037.905   115858071.672        -817.250          48.000                                                                  
G15  23147942.640   121643313.086         883.115          50.000    23147942.810    94787042.264         687.908          45.000  
G19  23974990.313   125989802.559        1334.763          48.000                                                                  
G24  25389264.980   133421588.016        1318.464          45.000    25389269.416   103964958.614        1027.243          42.000  
R05  21762701.372   116334345.978       -3207.531          52.000    21762704.312    90482150.678       -2494.802          50.000  
R16  22043789.496   117754107.163        -447.783          51.000    22043791.820    91586912.443        -348.354          50.000  
R04  25352809.214   135762888.619       -5263.390          46.000    25352833.735   105593245.256       -4093.691          45.000  
R06  22718491.391   121230318.879        1718.261          42.000                                                                  
G12  26471344.304                        2352.762          31.000    26471368.281                        1831.959          31.000  
E08  25315848.083   133035833.025       -1041.587          49.000    25315851.145   101936613.868        -798.115          50.000  
S31  40793307.532   214370219.081        -788.718          44.000  
S33  41744860.128   219370634.453        -789.192          43.000  
E03  27788658.423   146030362.331       -3165.805          45.000    27788671.584   111893424.598       -2425.883          48.000  
R15  22884476.115   122288082.733       -3232.147          52.000    22884476.295    95112813.441       -2513.837          49.000  
R17  25555822.728   136754400.419        1732.478          47.000    25555826.093   106364606.781        1347.258          43.000  
E07  27218437.239   143033987.566        1360.220          43.000    27218446.487   109597505.058        1042.280          50.000  
G05  25282234.770   132858839.968       -3603.411          40.000    25282247.302   103526387.034       -2807.710          41.000  
G30  25905386.558   136133860.223       -3186.420          42.000    25905392.878   106078438.068       -2482.880          37.000  
E30  25998377.622   136622791.229         424.127          49.000    25998384.168   104685247.269         324.992          52.000  
G14  24352901.340   127975575.723       -3741.088          44.000    24352902.931    99721389.645       -2915.163          47.000  
E02  25791526.490   135535647.283       -2119.893          48.000    25791531.343   103852176.371       -1624.396          54.000  
G22  22610438.737   118819020.463       -2414.703          47.000                                                                  
G17  23794426.987   125040868.568         311.147          48.000    23794428.977    97434634.083         242.393          44.000  
E25  29641159.952   155765556.213       -3429.350          36.000    29641170.154   119352950.298       -2627.848          42.000  
E18  22051599.439   115882311.799       -1463.038          47.000                                                                  
> 2024 04 16 21 31 30.0070000  0 26                     
G13  22051748.493   115882827.068        -832.885          48.000                                                                  
G15  23142940.361   121617026.111         869.612          49.000    23142941.007    94766558.955         677.582          45.000  
G19  23967407.628   125949955.331        1321.622          49.000                                                                  
G24  25381737.675   133382034.471        1319.196          45.000    25381742.182   103934137.894        1027.499          42.000  
R09  25290291.650                3       1899.438          27.000                                                                  
R05  21780766.132   116430910.819       -3229.855          52.000    21780769.300    90557256.559       -2512.025          51.000  
R16  22046338.944   117767724.067        -459.822          52.000    22046340.929    91597503.495        -357.593          50.000  
R04  25382309.204   135920851.208       -5267.210          45.000    25382333.509   105716103.968       -4096.706          44.000  
R06  22708889.372   121179077.638        1698.059          43.000                                                                  
E08  25321826.564   133067248.557       -1052.576          49.000    25321829.460   101960685.534        -806.612          50.000  
S31  40797808.785   214393873.570        -788.286          44.000  
S33  41749365.166   219394310.844        -789.091          42.000  
E03  27806751.869   146125443.690       -3172.613          45.000    27806765.533   111966278.983       -2430.998          48.000  
R15  22902632.217   122385106.812       -3235.925          52.000    22902633.657    95188276.639       -2516.882          48.000  
R17  25546144.933   136702611.808        1720.533          47.000    25546148.258   106324326.955        1338.153          43.000  
E07  27210686.736   142993260.509        1354.970          43.000    27210696.424   109566298.799        1038.330          51.000  
G05  25302822.076   132967022.248       -3608.452          41.000    25302834.325   103610684.326       -2811.806          39.000  
G30  25923582.843   136229484.390       -3188.190          41.000    25923588.875   106152950.341       -2483.826          36.000  
E30  25995983.193   136610212.007         414.687          48.000    25995990.441   104675608.811         317.801          52.000  
G14  24374274.581   128087891.311       -3746.445          44.000    24374275.209    99808908.251       -2919.262          46.000  
E02  25803650.344   135599357.746       -2127.282          48.000    25803654.804   103900993.530       -1629.928          53.000  
G22  22624263.506   118891675.210       -2428.822          46.000                                                                  
G17  23792700.858   125031802.520         293.197          47.000    23792703.583    97427569.777         228.421          44.000  
E25  29660738.540   155868438.110       -3428.930          36.000    29660747.388   119431781.962       -2627.263          40.000  
E18  22060041.503   115926687.268       -1495.069          44.000                                                                  
G12                                                                  26457956.684   108340899.7431       1828.284          32.000  
> 2024 04 16 21 32 00.0070000  0 25                     
G13  22056547.803   115908047.478        -848.362          48.000                                                                  
G15  23138013.628   121591136.814         856.244          49.000    23138014.579    94746385.525         667.373          45.000  
G19  23959898.636   125910496.687        1308.839          48.000                                                                  
G24  25374208.217   133342470.625        1318.915          44.000    25374213.701   103903309.098        1027.871          42.000  
R05  21798953.363   116528135.347       -3251.834          52.000    21798956.139    90632875.527       -2529.164          50.000  
R16  22048953.729   117781691.146        -471.466          52.000    22048955.234    91608366.883        -366.520          49.000  
R04  25411827.773   136078919.448       -5270.650          45.000    25411852.469   105839044.961       -4099.412          44.000  
R06  22699399.465   121128437.037        1678.058          42.000                                                                  
E08  25327867.348   133098993.849       -1063.624          49.000    25327870.554   101985009.854        -815.001          50.000  
S31  40802306.934   214417511.231        -787.669          44.000  
S33  41753867.717   219417970.523        -788.669          43.000  
E03  27824882.250   146220718.614       -3178.868          44.000    27824896.292   112039281.655       -2435.736          49.000  
R15  22920807.651   122482234.176       -3239.361          51.000    22920810.143    95263820.138       -2519.446          50.000  
R17  25536530.657   136651175.589        1708.408          43.000    25536536.300   106284321.214        1328.961          43.000  
E07  27202965.512   142952683.414        1350.183          43.000    27202974.562   109535207.437        1034.499          50.000  
G05  25323435.657   133075347.220       -3613.253          40.000    25323446.746   103695092.860       -2815.372          38.000  
G30  25941786.995   136325151.627       -3189.203          41.000    25941793.861   106227496.259       -2485.382          36.000  
E30  25993642.393   136597909.964         405.423          48.000    25993649.159   104666182.733         310.617          52.000  
G14  24395676.149   128200359.984       -3751.467          43.000    24395678.286    99896546.153       -2923.197          46.000  
E02  25815814.244   135663278.775       -2134.098          48.000    25815818.325   103949972.046       -1635.216          53.000  
G22  22638168.036   118964742.063       -2442.321          47.000                                                                  
G17  23791078.724   125023275.683         275.199          49.000    23791080.541    97420925.612         214.676          44.000  
E25  29680310.809   155971291.129       -3427.745          36.000    29680318.948   119510591.522       -2626.601          38.000  
E18  22068669.778   115972016.858       -1526.906          47.000                                                                  
G12                                                                  26444571.401                        1823.820          32.000  
> 2024 04 16 21 32 30.0070000  0 26                     
G13  22061437.673   115933746.738        -864.806          48.000                                                                  
G15  23133165.680   121565660.112         841.944          49.000    23133166.325    94726533.592         656.208          45.000  
G19  23952465.799   125871442.074        1294.868          48.000                                                                  
G24  25366679.861   133302909.468        1318.398          44.000    25366685.691   103872482.426        1027.355          42.000  
R09  25269014.720                2       1883.572          29.000    25269014.823                1       1465.887          27.000  
R05  21817266.961   116626030.164       -3274.621          53.000    21817269.740    90709015.851       -2546.953          50.000  
R16  22051636.768   117796019.972        -483.857          52.000    22051637.750    91619511.637        -376.354          50.000  
R04  25441367.864   136237102.713       -5274.856          45.000    25441391.868   105962075.518       -4102.509          43.000  
R06  22690023.778   121078413.958        1657.011          41.000                                                                  
G12  26431204.473   138896907.8721       2333.778          33.000    26431232.242                        1818.738          30.000  
E08  25333973.309   133131082.338       -1075.549          48.000    25333976.797   102009597.132        -824.115          50.000  
S31  40806803.733   214441144.404        -787.838          44.000  
S33  41758369.225   219441625.200        -788.646          43.000  
E03  27843052.856   146316199.207       -3186.205          45.000    27843065.566   112112441.918       -2441.479          49.000  
R15  22939004.702   122579476.041       -3243.506          51.000    22939007.226    95339452.739       -2522.693          48.000  
R17  25526985.577   136600109.183        1695.855          42.000    25526992.491   106244603.134        1318.728          42.000  
E07  27195276.093   142912270.778        1344.229          45.000    27195284.197   109504242.068        1029.834          50.000  
G05  25344078.467   133183824.709       -3618.499          39.000    25344089.796   103779620.227       -2819.788          37.000  
G30  25960002.625   136420874.799       -3192.090          40.000    25960010.208   106302085.737       -2487.189          37.000  
E30  25991355.917   136585897.843         395.358          48.000    25991362.883   104656978.786         303.009          52.000  
G14  24417108.866   128312992.299       -3757.430          44.000    24417111.916    99984311.617       -2927.898          47.000  
E02  25828019.832   135727421.873       -2141.946          47.000    25828024.431   103999120.718       -1641.275          53.000  
G22  22652153.241   119038231.487       -2456.911          47.000                                                                  
G17  23789562.118   125015302.796         256.201          48.000    23789564.130    97414713.102         199.603          45.000  
E25  29699880.453   156074127.178       -3427.915          36.000    29699888.431   119589388.078       -2626.512          38.000  
E18  22077479.814   116018312.540       -1559.517          47.000                                                                  
> 2024 04 16 21 33 00.0070000  0 26                     
G13  22066421.583   115959937.117        -881.037          48.000                                                                  
G15  23128398.493   121540609.010         828.214          49.000    23128398.856    94707013.313         645.387          45.000  
G19  23945112.836   125832805.605        1281.176          47.000                                                                  
G24  25359154.285   133263362.287        1318.020          44.000    25359159.986   103841666.636        1027.141          43.000  
R09  25258440.178                1       1876.535          28.000    25258438.875                        1459.798          26.000  
R05  21835707.659   116724604.024       -3296.808          53.000    21835710.495    90785684.305       -2564.153          50.000  
R16  22054388.615   117810720.094        -495.951          52.000    22054390.289    91630945.151        -385.721          51.000  
R04  25470930.270   136395408.721       -5278.665          46.000    25470955.784   106085201.675       -4105.394          44.000  
R06  22680767.864   121029022.828        1636.003          42.000                                                                  
G12  26417904.267   138826995.6961       2327.775          33.000    26417928.256   108177009.377        1813.931          32.000  
E08  25340146.474   133163525.587       -1087.115          48.000    25340150.139   102034456.246        -832.945          50.000  
S31  40811302.175   214464783.629        -787.857          44.000  
S33  41762871.713   219465286.236        -788.600          42.000  
E03  27861263.041   146411895.639       -3193.191          46.000    27861275.872   112185767.546       -2446.661          49.000  
R15  22957226.128   122676841.302       -3247.296          50.000    22957227.303    95415181.282       -2525.659          48.000  
R17  25517515.248   136549428.050        1683.140          43.000    25517523.124   106205184.687        1309.074          44.000  
E07  27187619.374   142872035.190        1338.536          45.000    27187627.372   109473412.356        1025.611          50.000  
G05  25364751.115   133292462.625       -3623.459          40.000    25364764.288   103864272.606       -2823.615          38.000  
G30  25978229.584   136516664.976       -3193.964          39.000    25978238.609   106376727.406       -2488.611          38.000  
E30  25989127.170   136574186.539         385.519          48.000    25989134.051   104648005.342         295.440          52.000  
G14  24438575.359   128425797.002       -3762.648          45.000    24438576.883   100072211.369       -2931.990          47.000  
E02  25840269.336   135791796.633       -2149.476          46.000    25840274.279   104048446.892       -1646.913          53.000  
G22  22666220.305   119112152.374       -2470.936          48.000                                                                  
G17  23788152.911   125007896.645         237.733          49.000    23788154.424    97408942.205         185.119          45.000  
E25  29719448.189   156176956.038       -3427.584          33.000    29719456.089   119668179.090       -2626.049          38.000  
E18  22086474.122   116065584.203       -1591.759          47.000                                                                  
> 2024 04 16 21 33 30.0070000  0 26                     
G13  22071496.725   115986606.232        -896.877          48.000                                                                  
G15  23123710.385   121515972.174         814.385          49.000    23123710.494    94687815.812         634.679          45.000  
G19  23937838.477   125794576.662        1267.573          48.000                                                                  
G24  25351629.040   133223815.836        1318.335          44.000    25351634.814   103810851.437        1027.369          43.000  
R09  25247908.614                        1869.273          31.000    25247925.333                        1454.379          30.000  
R05  21854271.463   116823840.108       -3318.711          52.000    21854274.445    90862867.820       -2581.211          50.000  
R16  22057206.485   117825776.330        -507.675          51.000    22057209.424    91642655.673        -394.864          50.000  
R04  25500513.824   136553820.278       -5282.014          46.000    25500539.596   106208410.192       -4108.297          44.000  
R06  22671628.756   120980253.713        1615.411          41.000                                                                  
G12  26404637.052   138757265.504        2321.057          37.000    26404657.765                        1808.427          30.000  
E08  25346385.110   133196310.806       -1098.393          48.000    25346389.072   102059577.384        -841.679          50.000  
S31  40815799.364   214488416.064        -787.531          44.000  
S33  41767372.483   219488939.783        -788.045          42.000  
E03  27879512.364   146507793.697       -3199.744          46.000    27879525.083   112259247.672       -2451.793          49.000  
R15  22975467.020   122774314.392       -3250.750          50.000    22975467.819    95490993.705       -2528.247          49.000  
R17  25508116.348   136499122.750        1670.525          46.000    25508123.423   106166058.661        1299.376          45.000  
E07  27179993.960   142831964.848        1332.975          44.000    27180002.242   109442709.243        1021.504          50.000  
G05  25385451.927   133401244.604       -3628.348          39.000    25385465.307   103949037.205       -2827.172          37.000  
G30  25996469.095   136612508.800       -3195.648          41.000    25996477.208   106451410.904       -2489.954          38.000  
E30  25986953.301   136562762.518         376.142          48.000    25986960.343   104639252.016         288.148          52.000  
G14  24460071.831   128538758.421       -3767.777          46.000    24460072.356   100160233.214       -2935.944          46.000  
E02  25852560.781   135856388.197       -2156.459          46.000    25852565.366   104097939.197       -1652.385          53.000  
G22  22680366.121   119186489.376       -2484.699          48.000                                                                  
G17  23786849.094   125001046.035         219.177          49.000    23786850.401    97403604.211         170.774          44.000  
E25  29739011.832   156279763.248       -3426.336          33.000    29739019.715   119746953.579       -2625.441          38.000  
E18  22095651.157   116113817.334       -1623.557          45.000                                                                  
> 2024 04 16 21 34 00.0070000  0 26                     
G13  22076662.803   116013753.032        -912.599          48.000                                                                  
G15  23119101.376   121491749.547         800.724          49.000    23119101.052    94668941.094         623.824          45.000  
G19  23930642.122   125756755.821        1253.992          47.000                                                                  
G24  25344103.202   133184268.045        1318.393          45.000    25344108.704   103780035.217        1027.311          42.000  
R09  25237426.460                3       1861.416          26.000    25237446.365                1       1448.052          28.000  
R05  21872959.099   116923733.455       -3340.483          53.000    21872962.169    90940562.553       -2598.162          50.000  
R16  22060090.441   117841184.925        -519.303          50.000    22060093.434    91654640.283        -403.879          51.000  
R04  25530116.512   136712332.025       -5285.280          46.000    25530141.673   106331696.714       -4110.583          45.000  
R06  22662606.346   120932107.678        1594.602          42.000                                                                  
G12  26391402.873   138687720.570        2314.691          35.000    26391423.458                        1804.081          26.000  
E08  25352688.707   133229436.220       -1109.708          48.000    25352693.087   102084959.202        -850.205          50.000  
S31  40820294.723   214512039.296        -787.038          44.000  
S33  41771872.180   219512585.887        -787.619          42.000  
E03  27897799.392   146603890.238       -3206.153          46.000    27897812.338   112332879.883       -2456.745          50.000  
R15  22993726.435   122871890.539       -3254.028          50.000    22993728.466    95566886.272       -2530.987          49.000  
R17  25498787.314   136449195.287        1658.054          48.000    25498793.452   106127226.459        1289.560          44.000  
E07  27172400.608   142792059.016        1327.572          45.000    27172408.351   109412132.214        1017.358          50.000  
G05  25406178.970   133510165.305       -3632.641          40.000    25406192.684   104033909.891       -2831.020          38.000  
G30  26014717.197   136708404.003       -3197.613          40.000    26014724.486   106526134.453       -2491.809          38.000  
E30  25984833.002   136551623.337         366.662          47.000    25984840.853   104630716.948         281.018          52.000  
G14  24481597.405   128651871.902       -3772.716          46.000    24481598.209   100248373.599       -2939.811          47.000  
E02  25864891.673   135921192.881       -2163.510          46.000    25864897.437   104147594.787       -1657.782          53.000  
G22  22694590.316   119261237.876       -2498.379          47.000                                                                  
G17  23785650.735   124994750.441         200.765          49.000    23785651.347    97398698.693         156.564          44.000  
E25  29758567.880   156382545.296       -3425.848          32.000    29758578.521   119825708.778       -2625.019          38.000  
E18  22105013.317   116163008.460       -1655.337          46.000                                                                  
> 2024 04 16 21 34 30.0070000  0 26                     
G13  22081918.965   116041374.115        -928.723          49.000                                                                  
G15  23114570.835   121467939.416         786.729          50.000    23114570.182    94650387.820         613.151          45.000  
G19  23923522.069   125719341.883        1240.354          47.000                                                                  
G24  25336576.356   133144715.382        1318.512          45.000    25336581.820   103749215.172        1027.355          42.000  
R09  25227022.194                        1854.567          27.000    25227043.426                1       1441.943          28.000  
R05  21891768.239   117024277.505       -3362.321          53.000    21891770.964    91018763.386       -2615.071          50.000  
R16  22063039.136   117856940.111        -530.961          50.000    22063042.323    91666894.432        -412.884          50.000  
R04  25559734.483   136870936.014       -5288.289          46.000    25559759.954   106455055.184       -4113.253          43.000  
R06  22653699.951   120884584.436        1573.612          41.000                                                                  
G12  26378202.464   138618358.444        2308.954          35.000    26378213.035                3       1799.377          26.000  
E08  25359055.749   133262898.532       -1121.120          47.000    25359060.656   102110599.164        -859.017          50.000  
S31  40824787.604   214535649.291        -786.748          44.000  
S33  41776368.934   219536217.623        -787.591          42.000  
E03  27916122.668   146700180.636       -3212.840          46.000    27916135.745   112406660.618       -2461.819          50.000  
R15  23012004.459   122969564.362       -3257.458          51.000    23012006.840    95642854.772       -2533.563          49.000  
R17  25489528.771   136399645.838        1645.177          49.000    25489533.451   106088688.328        1279.250          41.000  
E07  27164837.779   142752315.486        1322.024          46.000    27164845.265   109381679.516        1013.050          50.000  
G05  25426932.369   133619217.628       -3637.213          40.000    25426944.519   104118885.090       -2834.073          36.000  
G30  26032975.383   136804346.830       -3199.060          40.000    26032982.039   106600895.044       -2492.310          38.000  
E30  25982766.945   136540764.976         357.210          48.000    25982774.408   104622397.078         273.722          52.000  
G14  24503149.726   128765131.373       -3777.737          45.000    24503150.491   100336627.711       -2943.646          47.000  
E02  25877263.624   135986205.421       -2170.548          46.000    25877269.006   104197409.654       -1663.174          53.000  
G22  22708890.669   119336391.990       -2511.964          46.000                                                                  
G17  23784556.599   124989007.750         182.100          47.000    23784557.947    97394224.023         141.934          44.000  
E25  29778123.672   156485297.427       -3424.627          31.000    29778131.792   119904441.085       -2624.319          39.000  
E18  22114555.525   116213152.505       -1687.423          46.000                                                                  
> 2024 04 16 21 35 00.0070000  0 26                     
G13  22087265.517   116069470.162        -944.035          48.000                                                                  
G15  23110118.705   121444542.639         773.465          50.000    23110118.042    94632156.649         602.552          45.000  
G19  23916479.087   125682336.945        1226.947          48.000                                                                  
G24  25329048.942   133105157.357        1319.061          45.000    25329053.465   103718390.961        1028.094          42.000  
R09  25216612.810                3       1868.325          18.000    25216608.952                1       1437.496          29.000  
R05  21910698.570   117125468.704       -3383.387          53.000    21910701.122    91097467.554       -2631.506          50.000  
R16  22066052.664   117873039.764        -541.917          51.000    22066055.569    91679416.514        -421.534          50.000  
R04  25589368.901   137029628.362       -5290.723          44.000    25589394.156   106578482.572       -4115.151          39.000  
R06  22644911.647   120837686.787        1553.192          42.000                                                                  
G12  26365037.247   138549179.394        2303.489          36.000    26365081.014                3       1795.125          25.000  
E08  25365488.572   133296697.634       -1131.826          48.000    25365492.640   102136497.192        -867.287          51.000  
S31  40829277.628   214559245.651        -785.657          44.000  
S33  41780863.140   219559835.477        -786.751          43.000  
E03  27934482.608   146796663.383       -3218.896          45.000    27934495.934   112480588.736       -2466.356          49.000  
R15  23030301.566   123067332.576       -3260.046          50.000    23030302.689    95718896.737       -2535.650          49.000  
R17  25480339.522   136350478.229        1633.035          47.000    25480344.294   106050447.167        1269.865          41.000  
E07  27157305.814   142712735.185        1317.005          46.000    27157312.996   109351351.872        1009.183          49.000  
G05  25447709.130   133728397.571       -3641.033          41.000    25447721.523   104203959.820       -2837.206          36.000  
G30  26051241.107   136900336.615       -3200.177          39.000    26051248.189   106675692.287       -2493.781          38.000  
E30  25980753.107   136530186.682         348.396          47.000    25980761.027   104614291.791         266.852          52.000  
G14  24524729.446   128878533.899       -3781.857          45.000    24524729.913   100424993.308       -2946.976          46.000  
E02  25889674.441   136051423.730       -2177.019          46.000    25889679.719   104247382.173       -1667.991          53.000  
G22  22723268.400   119411948.995       -2524.940          45.000                                                                  
G17  23783569.476   124983818.914         164.082          48.000    23783571.191    97390180.922         127.932          44.000  
E25  29797674.573   156588017.846       -3423.454          31.000    29797678.729   119983149.028       -2623.058          39.000  
E18  22124277.912   116264247.454       -1718.604          46.000                                                                  
> 2024 04 16 21 35 30.0070000  0 26                     
G13  22092701.996   116098039.670        -960.504          48.000                                                                  
G15  23105744.621   121421558.810         758.976          50.000    23105744.393    94614247.234         591.416          45.000  
G19  23909514.818   125645741.482        1212.902          47.000                                                                  
G24  25321519.754   133065591.818        1318.890          45.000    25321524.220   103687560.883        1027.723          43.000  
R09  25206241.014                2       1838.387          31.000    25206246.592                        1430.292          27.000  
R05  21929748.087   117227301.813       -3405.327          52.000    21929751.550    91176670.977       -2648.481          50.000  
R16  22069130.875   117889480.011        -553.930          50.000    22069133.329    91692203.480        -430.801          50.000  
R04  25619019.533   137188402.894       -5294.222          41.000    25619044.706   106701974.044       -4117.438          35.000  
R06  22636240.865   120791415.708        1531.780          42.000                                                                  
G12  26351906.804   138480182.591        2296.407          33.000                                                                  
E08  25371983.981   133330831.630       -1143.648          48.000    25371988.045   102162651.825        -876.250          51.000  
S31  40833764.764   214582825.462        -786.092          45.000  
S33  41785354.934   219583437.893        -786.994          43.000  
E03  27952879.411   146893335.231       -3225.682          46.000    27952892.356   112554661.751       -2471.584          49.000  
R15  23048613.799   123165191.240       -3263.629          50.000    23048615.687    95795009.031       -2538.348          49.000  
R17  25471221.969   136301694.057        1619.549          48.000    25471228.062   106012504.247        1259.637          43.000  
E07  27149804.748   142673317.262        1311.013          47.000    27149811.814   109321148.645        1004.566          49.000  
G05  25468507.350   133837699.728       -3645.694          39.000    25468521.738   104289129.709       -2840.539          36.000  
G30  26069515.290   136996371.047       -3202.234          40.000    26069523.393   106750524.303       -2495.294          39.000  
E30  25978792.409   136519885.870         338.480          47.000    25978800.251   104606399.092         259.416          52.000  
G14  24546334.072   128992074.800       -3787.145          43.000    24546336.081   100513466.762       -2951.112          46.000  
E02  25902123.247   136116843.959       -2184.300          46.000    25902128.716   104297509.420       -1673.562          53.000  
G22  22737722.229   119487904.062       -2538.618          46.000                                                                  
G17  23782688.090   124979183.392         145.082          49.000    23782688.509    97386568.981         113.182          44.000  
E18  22134180.244   116316289.569       -1750.685          45.000                                                                  
E25                                                                  29817218.458   120061829.975       -2622.080          37.000  
> 2024 04 16 21 36 00.0070000  0 26                     
G13  22098232.176   116127102.974        -976.816          48.000                                                                  
G15  23101453.505   121399009.256         744.644          49.000    23101453.000    94596676.220         580.284          45.000  
G19  23902633.125   125609577.425        1198.582          48.000                                                                  
G24  25313992.745   133026037.981        1318.673          45.000    25313997.488   103656739.900        1027.375          43.000  
R09  25195922.906                1       1831.759          31.000    25195930.104                        1424.729          29.000  
R05  21948920.777   117329793.156       -3427.097          52.000    21948924.604    91256386.338       -2665.481          50.000  
R16  22072275.911   117906278.261        -565.583          52.000    22072277.419    91705268.869        -439.925          50.000  
R04  25648687.817   137347275.632       -5296.973          37.000    25648713.377   106825542.130       -4119.409          32.000  
R06  22627690.856   120745793.817        1509.934          41.000                                                                  
G12  26338811.979   138411388.196        2290.289          30.000    26338853.355                        1784.742          27.000  
E08  25378547.608   133365319.946       -1155.307          48.000    25378550.807   102189077.967        -885.148          51.000  
S31  40838252.545   214606408.981        -786.072          44.000  
S33  41789846.159   219607042.619        -786.672          42.000  
E03  27971314.675   146990214.224       -3232.416          45.000    27971328.111   112628893.505       -2476.855          49.000  
R15  23066945.363   123263157.235       -3267.096          49.000    23066948.534    95871204.795       -2540.961          49.000  
R17  25462180.293   136253316.734        1605.997          45.000    25462186.165   105974877.858        1248.994          40.000  
E07  27142337.447   142634082.302        1304.991          47.000    27142345.434   109291085.578        1000.099          48.000  
G05  25489332.648   133947139.620       -3649.963          38.000    25489349.174   104374406.889       -2844.301          37.000  
G30  26087802.482   137092469.102       -3204.354          39.000    26087810.450   106825405.890       -2496.421          40.000  
E30  25976888.507   136509881.295         328.859          47.000    25976896.341   104598733.406         251.957          52.000  
G14  24567970.140   129105770.796       -3792.253          44.000    24567970.169   100602061.067       -2954.864          44.000  
E02  25914615.083   136182483.621       -2191.276          47.000    25914619.470   104347804.812       -1679.053          53.000  
G22  22752254.207   119564273.928       -2552.265          45.000                                                                  
G17  23781915.346   124975121.720         126.197          49.000    23781915.579    97383404.184          98.080          45.000  
E25  29836739.742                1      -3421.927          28.000    29836754.269   120140497.710       -2621.510          35.000  
E18  22144268.083   116369296.393       -1782.757          46.000                                                                  
> 2024 04 16 21 36 30.0070000  0 26                     
G13  22103856.347   116156653.610        -993.147          49.000                                                                  
G15  23097243.531   121376888.662         730.273          48.000    23097243.310    94579439.452         568.952          45.000  
G19  23895832.793   125573840.288        1184.109          48.000                                                                  
G24  25306467.055   132986489.020        1318.403          45.000    25306471.715   103625922.739        1027.008          43.000  
R09  25185652.126   134490003.7251       1824.370          33.000    25185664.877   104603392.6121       1418.857          33.000  
R05  21968216.137   117432932.642       -3448.682          53.000    21968219.372    91336605.834       -2682.293          50.000  
R16  22075486.063   117923425.700        -577.312          52.000    22075487.574    91718605.892        -449.040          49.000  
R04  25678372.918   137506235.843       -5300.494          33.000    25678398.079                       -4122.231          30.000  
R06  22619262.012   120700817.291        1488.346          41.000                                                                  
G12  26325756.719   138342790.606        2283.631          35.000    26325775.337                3       1780.042          25.000  
E08  25385176.451   133400155.966       -1166.837          49.000    25385179.950   102215770.542        -894.101          51.000  
S31  40842739.236   214629987.266        -785.714          44.000  
S33  41794337.005   219630642.326        -786.714          42.000  
E03  27989788.210   147087292.451       -3239.080          44.000    27989801.537   112703277.913       -2481.928          49.000  
R15  23085297.109   123361221.491       -3270.292          50.000    23085300.429    95947477.021       -2543.613          49.000  
R17  25453215.035   136205343.330        1592.491          46.000    25453219.633   105937565.635        1238.674          40.000  
E07  27134905.623   142595024.769        1299.049          47.000    27134912.834   109261158.482         995.291          48.000  
G05  25510183.938   134056707.206       -3654.532          39.000    25510200.614   104459783.539       -2847.612          36.000  
G30  26106099.983   137188623.760       -3206.302          38.000    26106108.545   106900331.574       -2498.087          40.000  
E30  25975040.378   136500165.701         319.061          47.000    25975047.633   104591289.129         244.517          52.000  
G14  24589634.461   129219612.521       -3796.984          45.000    24589634.430   100690768.926       -2958.832          45.000  
E02  25927146.016   136248334.211       -2198.542          47.000    25927150.426   104398261.809       -1684.524          54.000  
G22  22766863.706   119641049.597       -2565.791          45.000                                                                  
G17  23781250.107   124971628.537         106.973          48.000    23781250.889    97380682.376          83.387          45.000  
E25  29856274.659                       -3421.622          30.000    29856285.985   120219145.700       -2621.239          34.000  
E18  22154534.155   116423259.272       -1814.602          45.000                                                                  
> 2024 04 16 21 37 00.0070000  0 26                     
G13  22109569.835   116186678.527       -1008.722          49.000                                                                  
G15  23093113.449   121355185.067         716.424          49.000    23093112.938    94562527.619         558.125          45.000  
G19  23889111.432   125538518.772        1170.464          48.000                                                                  
G24  25298939.131   132946931.284        1318.602          46.000    25298943.857   103595098.756        1027.570          44.000  
R09  25175423.538   134435383.860        1816.960          35.000    25175437.720   104560911.191        1413.417          37.000  
R05  21987628.112   117536703.187       -3469.560          52.000    21987631.802    91417316.121       -2698.496          50.000  
R16  22078758.682   117940906.558        -588.277          52.000    22078760.327    91732202.243        -457.477          50.000  
R04  25708069.584                       -5302.863          31.000    25708085.376                3      -4124.130          25.000  
R06  22610952.752   120656475.606        1467.542          43.000                                                                  
G12  26312737.739   138274377.365        2276.705          34.000    26312766.759                3       1774.104          26.000  
E08  25391869.247   133435326.383       -1178.034          48.000    25391872.657   102242719.317        -902.700          51.000  
S31  40847222.693   214653547.459        -784.998          43.000  
S33  41798824.918   219654225.637        -785.833          43.000  
E03  28008296.965   147184555.204       -3245.153          45.000    28008310.016   112777803.693       -2486.507          49.000  
R15  23103664.361   123459368.142       -3272.970          51.000    23103666.710    96023813.314       -2545.704          48.000  
R17  25444323.792   136157763.978        1579.408          47.000    25444328.482   105900559.983        1228.301          38.000  
E07  27127504.355   142556132.442        1293.495          47.000    27127511.570   109231357.937         991.181          48.000  
G05  25531056.012   134166385.655       -3657.609          38.000    25531071.086   104545246.604       -2849.931          35.000  
G30  26124406.808   137284821.207       -3207.336          37.000    26124413.822   106975290.644       -2499.451          37.000  
E30  25973244.430   136490725.041         310.010          48.000    25973251.016   104584055.521         237.546          52.000  
G14  24611322.584   129333583.957       -3801.119          44.000    24611322.829   100779577.846       -2961.976          45.000  
E02  25939713.833   136314380.428       -2204.814          47.000    25939718.353   104448868.710       -1689.437          53.000  
G22  22781548.039   119718214.789       -2578.527          45.000                                                                  
G17  23780691.526   124968691.672          88.554          49.000    23780692.221    97378394.034          69.139          45.000  
E25  29875799.180                       -3418.742          30.000    29875811.263   120297762.844       -2620.345          36.000  
E18  22164982.956   116478162.839       -1845.739          46.000                                                                  
> 2024 04 16 21 37 30.0070000  0 26                     
G13  22115373.676   116217177.482       -1024.491          48.000                                                                  
G15  23089063.462   121333899.120         702.596          49.000    23089061.690    94545941.217         547.687          44.000  
G19  23882469.097   125503614.387        1156.620          48.000                                                                  
G24  25291408.845   132907363.770        1319.222          45.000    25291414.737   103564267.159        1027.856          44.000  
R09  25165232.293   134380978.850        1810.298          38.000    25165249.407   104518596.807        1407.749          40.000  
R05  22007158.560   117641100.362       -3490.275          53.000    22007160.783    91498513.803       -2714.696          50.000  
R16  22082093.100   117958718.142        -599.098          52.000    22082094.397    91746055.810        -466.063          49.000  
R04  25737779.251                       -5303.887          27.000    25737815.208                3      -4125.778          23.000  
R06  22602762.353   120612770.648        1446.220          43.000                                                                  
G12  26299754.231   138206148.440        2271.210          34.000    26299788.779                        1769.661          29.000  
E08  25398625.551   133470830.349       -1188.938          47.000    25398628.875   102269923.669        -911.009          51.000  
S31  40851702.318   214677089.143        -784.520          45.000  
S33  41803308.650   219677789.072        -785.239          43.000  
E03  28026839.756   147282000.290       -3251.185          44.000    28026853.193   112852469.162       -2491.059          48.000  
R15  23122046.357   123557593.655       -3275.416          51.000    23122048.244    96100210.931       -2547.459          49.000  
R17  25435507.848   136110581.437        1566.117          48.000    25435510.079   105863862.757        1218.085          39.000  
E07  27120135.573   142517405.590        1288.304          48.000    27120141.887   109201684.196         987.018          47.000  
G05  25551948.329   134276170.707       -3661.138          39.000    25551963.328   104630792.735       -2852.690          36.000  
G30  26142719.117   137381060.112       -3208.636          36.000    26142725.892   107050282.035       -2500.006          38.000  
E30  25971499.878   136481557.794         301.174          48.000    25971506.546   104577031.418         230.711          52.000  
G14  24633035.317   129447681.524       -3805.306          45.000    24633033.863   100868485.030       -2965.201          44.000  
E02  25952318.701   136380619.577       -2211.019          46.000    25952323.468   104499623.418       -1694.243          54.000  
G22  22796307.088   119795766.025       -2591.309          47.000                                                                  
G17  23780238.332   124966311.701          70.085          49.000    23780240.120    97376539.685          54.579          46.000  
E18  22175608.786   116534004.235       -1876.961          46.000                                                                  
E25                                                                  29895328.564   120376347.067       -2618.324          35.000  
> 2024 04 16 21 38 00.0070000  0 26                     
G13  22121266.542   116248150.117       -1040.409          48.000                                                                  
G15  23085092.164   121313031.353         688.627          49.000    23085090.746    94529680.697         536.641          44.000  
G19  23875905.924   125469128.599        1142.450          48.000                                                                  
G24  25283876.151   132867785.489        1319.449          43.000    25283882.548   103533427.158        1028.140          43.000  
R09  25155083.489   134326787.297        1803.015          42.000    25155100.383   104476448.550        1402.017          40.000  
R05  22026804.231   117746120.261       -3510.949          52.000    22026807.326    91580195.836       -2730.723          50.000  
R16  22085488.689   117976857.033        -610.114          52.000    22085490.413    91760163.920        -474.585          50.000  
R04  25767493.240                3      -5293.098          21.000    25767512.337                3      -4124.859          21.000  
R06  22594691.658   120569704.576        1424.875          41.000                                                                  
G12  26286804.371   138138103.571        2264.878          36.000    26286825.468                        1765.260          28.000  
E08  25405444.499   133506667.043       -1200.102          47.000    25405448.127   102297382.984        -919.521          51.000  
S31  40856177.970   214700609.097        -783.602          44.000  
S33  41807788.506   219701330.311        -784.308          42.000  
E03  28045418.181   147379625.507       -3257.140          45.000    28045431.168   112927272.680       -2495.739          49.000  
R15  23140442.449   123655894.891       -3277.919          51.000    23140444.302    96176667.477       -2549.580          49.000  
R17  25426764.120   136063798.310        1552.748          47.000    25426768.535   105827476.277        1207.719          43.000  
E07  27112797.842   142478844.551        1282.675          48.000    27112803.932   109172137.483         982.909          48.000  
G05  25572859.721   134386057.899       -3664.609          38.000    25572874.711   104716418.441       -2855.288          35.000  
G30  26161039.947   137477339.269       -3209.761          37.000    26161047.895   107125304.786       -2501.143          38.000  
E30  25969807.144   136472662.454         292.098          49.000    25969813.703   104570215.648         223.766          52.000  
G14  24654769.972   129561901.669       -3809.216          44.000    24654769.756   100957487.721       -2968.377          45.000  
E02  25964959.514   136447048.887       -2217.375          46.000    25964964.369   104550523.852       -1699.111          54.000  
G22  22811137.630   119873699.994       -2604.083          46.000                                                                  
G17  23779891.362   124964488.704          51.442          49.000    23779892.928    97375119.302          40.122          46.000  
E18  22186413.694   116590780.449       -1908.175          47.000                                                                  
E25                                                                  29914836.226   120454896.805       -2617.767          36.000  
> 2024 04 16 21 38 30.0070000  0 26                     
G13  22127251.512   116279599.774       -1056.436          47.000                                                                  
G15  23081201.801   121292586.412         674.347          49.000    23081200.962    94513749.626         525.293          45.000  
G19  23869424.129   125435066.678        1128.186          48.000                                                                  
G24  25276343.275   132828199.338        1319.422          43.000    25276348.449   103502581.004        1028.214          43.000  
R09  25144975.257   134272811.975        1795.164          38.000    25144992.016   104434468.487        1396.249          39.000  
R05  22046567.235   117851762.495       -3531.857          53.000    22046569.926    91662361.914       -2747.085          49.000  
R16  22088945.440   117995324.475        -621.181          52.000    22088947.255    91774527.600        -483.061          49.000  
R04  25797233.896                3      -5308.964          22.000    25797263.928                3      -4138.916          11.000  
R06  22586742.161   120527283.317        1403.190          43.000                                                                  
G12  26273891.537   138070246.592        2258.571          35.000    26273911.724                        1760.296          31.000  
E08  25412327.403   133542839.458       -1211.317          47.000    25412331.405   102325099.549        -928.297          51.000  
S31  40860650.284   214724111.127        -783.331          44.000  
S33  41812265.103   219724855.083        -783.955          42.000  
E03  28064030.158   147477432.561       -3263.301          46.000    28064043.591   113002215.511       -2500.426          49.000  
R15  23158852.048   123754272.282       -3280.574          51.000    23158853.576    96253183.253       -2551.633          46.000  
R17  25418096.988   136017421.655        1539.059          44.000    25418101.699   105791405.896        1197.008          43.000  
E07  27105492.199   142440453.503        1276.703          49.000    27105498.444   109142721.045         978.307          48.000  
G05  25593790.931   134496046.220       -3668.210          40.000    25593805.829   104802122.884       -2858.501          35.000  
G30  26179368.914   137573661.508       -3211.478          35.000    26179376.975   107200360.991       -2502.457          39.000  
E30  25968166.994   136464041.402         282.685          49.000    25968172.873   104563610.041         216.615          52.000  
G14  24676527.931   129676244.764       -3813.651          43.000    24676528.602   101046586.261       -2971.500          45.000  
E02  25977636.958   136513669.540       -2223.989          46.000    25977641.973   104601570.903       -1704.098          54.000  
G22  22826040.512   119952016.835       -2617.017          46.000                                                                  
G17  23779650.880   124963226.885          32.589          50.000    23779652.059    97374136.203          25.402          46.000  
E18  22197396.384   116648492.397       -1939.395          47.000                                                                  
E25                                                                  29934335.263   120533413.111       -2617.133          33.000  
> 2024 04 16 21 39 00.0070000  0 26                     
G13  22133326.690   116311525.176       -1072.290          47.000                                                                  
G15  23077391.447   121272564.174         660.223          49.000    23077391.162    94498147.919         514.380          45.000  
G19  23863023.666   125401428.819        1113.966          49.000                                                                  
G24  25268808.954   132788603.188        1319.833          43.000    25268813.005   103471727.076        1028.290          42.000  
R09  25134907.119   134219050.178        1788.377          42.000    25134924.116   104392654.412        1390.030          35.000  
R05  22066445.006   117958020.968       -3552.393          52.000    22066447.271    91745007.275       -2762.988          49.000  
R16  22092463.514   118014116.324        -632.019          53.000    22092465.147    91789143.585        -491.634          50.000  
R04  25826958.923                3      -5303.114          22.000    25826954.659                3      -4130.302          19.000  
R06  22578913.102   120485507.746        1381.430          43.000                                                                  
G12  26261013.859   138002576.644        2252.399          34.000    26261032.401   107534607.0781       1755.226          32.000  
E08  25419274.450   133579345.737       -1222.681          47.000    25419278.395   102353071.914        -936.836          51.000  
S31  40865119.007   214747593.196        -782.508          44.000  
S33  41816737.853   219748358.951        -783.260          42.000  
E03  28082675.903   147575418.214       -3269.437          45.000    28082689.652   113077295.189       -2504.947          48.000  
R15  23177275.535   123852721.891       -3283.059          51.000    23177276.281    96329755.178       -2553.451          46.000  
R17  25409507.661   135971453.262        1525.401          43.000    25409510.342   105755652.984        1186.331          45.000  
E07  27098218.392   142402231.712        1271.027          48.000    27098224.970   109113434.287         973.934          48.000  
G05  25614740.582   134606130.394       -3671.341          39.000    25614753.830   104887902.087       -2860.657          34.000  
G30  26197706.864   137670024.217       -3212.497          35.000    26197714.550   107275448.890       -2503.882          37.000  
E30  25966577.597   136455692.068         273.629          49.000    25966583.888   104557212.652         209.605          52.000  
G14  24698309.198   129790706.242       -3817.496          43.000    24698309.708   101135777.043       -2974.488          44.000  
E02  25990349.532   136580477.773       -2230.261          45.000    25990354.956   104652761.671       -1708.849          54.000  
G22  22841015.672   120030711.940       -2629.669          47.000                                                                  
G17  23779517.852   124962525.319          13.773          50.000    23779518.604    97373589.664          10.711          46.000  
E18  22208554.520   116707135.883       -1970.366          46.000                                                                  
E25                                                                  29953825.254                       -2615.515          31.000  
> 2024 04 16 21 39 30.0070000  0 26                     
G13  22139494.475   116343936.901       -1088.896          48.000                                                                  
G15  23073663.096   121252975.843         645.288          48.000    23073663.830    94482884.353         502.728          46.000  
G19  23856704.988   125368227.288        1098.966          49.000                                                                  
G24  25261273.953   132749007.190        1319.236          44.000    25261278.117   103440873.211        1028.072          42.000  
R09  25124880.809   134165512.383        1780.492          43.000    25124898.623   104351014.415        1384.792          38.000  
R05  22086439.463   118064903.401       -3573.523          52.000    22086442.493    91828137.929       -2779.363          50.000  
R16  22096043.914   118033241.323        -643.479          53.000    22096045.399    91804018.693        -500.443          50.000  
R04  25856727.083                3      -5308.490          20.000                                                                  
R06  22571207.575   120444391.006        1359.265          42.000                                                                  
G12  26248176.159   137935104.581        2245.162          33.000    26248191.937   107482032.637        1749.205          36.000  
E08  25426287.167   133616196.130       -1234.533          47.000    25426290.673   102381307.956        -945.905          50.000  
S31  40869585.198   214771063.776        -782.632          45.000  
S33  41821208.427   219771851.980        -783.103          42.000  
E03  28101358.222   147673591.425       -3275.893          45.000    28101371.335   113152518.563       -2510.000          48.000  
R15  23195714.719   123951251.391       -3286.006          52.000    23195714.716    96406389.228       -2555.758          46.000  
R17  25400995.997   135925906.955        1510.713          43.000    25400999.020   105720228.393        1174.966          46.000  
E07  27090979.373   142364190.591        1264.680          48.000    27090985.938   109084285.966         969.089          48.000  
G05  25635708.165   134716316.748       -3674.719          38.000    25635723.469   104973760.891       -2863.471          38.000  
G30  26216055.309   137766437.429       -3215.206          38.000    26216062.055   107350576.129       -2505.094          40.000  
E30  25965042.100   136447624.035         263.951          49.000    25965048.526   104551030.814         202.222          52.000  
G14  24720115.740   129905293.840       -3821.935          42.000    24720117.044   101225066.056       -2978.090          46.000  
E02  26003099.059   136647481.938       -2237.196          44.000    26003105.502   104704102.574       -1714.119          54.000  
G22  22856064.045   120109792.875       -2642.780          47.000                                                                  
G17  23779491.188   124962394.898          -5.564          50.000    23779494.490    97373488.206          -4.295          47.000  
E18  22219893.390   116766718.983       -2002.097          47.000                                                                  
E25                                                                  29973308.145                       -2614.599          29.000  
> 2024 04 16 21 40 00.0070000  0 26                     
G13  22145758.767   116376854.501       -1105.882          49.000                                                                  
G15  23070022.710   121233842.307         630.023          49.000    23070022.095    94467975.144         491.046          45.000  
G19  23850474.019   125335483.709        1083.716          49.000                                                                  
G24  25253742.612   132709430.381        1318.894          43.000    25253746.467   103410034.352        1027.520          43.000  
R09  25114900.984   134112217.543        1772.364          47.000    25114914.569   104309563.562        1378.593          42.000  
R05  22106553.555   118172425.184       -3594.860          52.000    22106556.792    91911765.851       -2796.006          49.000  
R16  22099688.609   118052716.368        -655.125          52.000    22099690.278    91819166.059        -509.510          49.000  
R04  25886486.579                3      -5309.870          21.000                                                                  
R06  22563630.035   120403955.394        1336.490          42.000                                                                  
G12  26235379.851                        2237.353          31.000    26235393.664   107429628.103        1743.784          35.000  
E08  25433368.692   133653409.835       -1246.687          47.000    25433372.228   102409822.360        -955.072          51.000  
S31  40874052.928   214794543.031        -783.077          45.000  
S33  41825680.715   219795353.192        -783.582          42.000  
E03  28120079.382   147771970.023       -3282.825          45.000    28120092.427   113227899.318       -2515.380          48.000  
R15  23214171.106   124049878.249       -3289.335          51.000    23214172.135    96483099.028       -2558.150          48.000  
R17  25392567.331   135880806.367        1495.971          43.000    25392570.686   105685150.399        1163.312          46.000  
E07  27083779.155   142326350.507        1257.834          48.000    27083785.292   109055291.704         963.906          48.000  
G05  25656699.525   134826621.452       -3679.184          38.000    25656715.483   105059711.791       -2866.744          39.000  
G30  26234414.930   137862919.933       -3217.269          37.000    26234422.311   107425757.346       -2506.829          41.000  
E30  25963564.023   136439855.842         253.784          50.000    25963570.206   104545078.710         194.464          52.000  
G14  24741948.560   130020024.030       -3826.857          43.000    24741948.118   101314466.243       -2982.050          45.000  
E02  26015890.601   136714699.415       -2244.153          45.000    26015896.511   104755606.908       -1719.574          54.000  
G22  22871189.481   120189276.294       -2656.207          46.000                                                                  
G17  23779579.925   124962856.731         -25.311          49.000    23779581.684    97373848.218         -19.655          46.000  
E25  29992788.734                1      -3411.444          26.000    29992788.568                       -2614.534          29.000  
E18  22231414.545   116827258.474       -2034.103          48.000                                                                  
> 2024 04 16 21 40 30.0070000  0 26                     
G13  22152119.701   116410277.716       -1122.573          49.000                                                                  
G15  23066468.395   121215164.310         614.899          49.000    23066467.498    94453420.943         479.053          45.000  
G19  23844330.324   125303200.230        1068.403          48.000                                                                  
G24  25246214.824   132669871.909        1318.205          44.000    25246217.901   103379209.747        1027.208          41.000  
R09  25104965.684   134059164.594        1764.306          46.000    25104978.797   104268300.807        1372.301          43.000  
R05  22126786.622   118280582.044       -3615.899          52.000    22126789.144    91995887.730       -2812.370          49.000  
R16  22103399.747   118072538.720        -666.581          52.000    22103401.065    91834583.560        -518.411          50.000  
R04  25916270.688                3      -5314.092          17.000                                                                  
R06  22556180.659   120364202.985        1313.783          41.000                                                                  
G12  26222622.976   137800814.787        2230.982          32.000    26222634.126   107377393.393        1737.850          34.000  
E08  25440519.419   133690986.034       -1258.723          48.000    25440522.670   102438614.532        -964.435          51.000  
S31  40878521.916   214818028.577        -782.987          44.000  
S33  41830153.803   219818861.283        -783.415          42.000  
E03  28138839.047   147870551.866       -3289.353          45.000    28138852.314   113303435.810       -2520.492          49.000  
R15  23232645.096   124148599.574       -3292.312          50.000    23232646.938    96559882.314       -2560.574          47.000  
R17  25384221.413   135836153.942        1480.839          41.000    25384226.785   105650420.994        1151.825          47.000  
E07  27076616.619   142288711.864        1251.186          48.000    27076622.711   109026451.794         958.639          48.000  
G05  25677712.690   134937040.173       -3682.681          39.000    25677727.921   105145751.572       -2869.156          37.000  
G30  26252787.132   137959470.549       -3219.254          37.000    26252795.781   107500991.656       -2508.690          41.000  
E30  25962142.939   136432386.008         243.962          50.000    25962148.814   104539355.209         186.872          52.000  
G14  24763807.003   130134893.474       -3831.165          42.000    24763807.786   101403974.844       -2985.369          45.000  
E02  26028722.633   136782127.558       -2251.085          46.000    26028727.712   104807272.663       -1724.899          54.000  
G22  22886390.679   120269158.945       -2669.525          47.000                                                                  
G17  23779780.649   124963911.053         -45.064          49.000    23779782.018    97374669.910         -35.179          46.000  
E25  30012254.575                3      -3411.437          25.000    30012263.299                       -2613.617          28.000  
E18  22243115.218   116888751.220       -2065.695          47.000                                                                  
> 2024 04 16 21 41 00.0070000  0 25                     
G13  22158575.696   116444203.650       -1138.837          49.000                                                                  
G15  23063000.376   121196940.231         600.311          49.000    23063000.026    94439220.450         467.737          45.000  
G19  23838274.232   125271374.951        1053.625          49.000                                                                  
G24  25238690.100   132630328.452        1318.343          44.000    25238693.492   103348396.841        1027.172          42.000  
R09  25095073.031   134006349.189        1756.960          46.000    25095087.280   104227222.868        1366.642          45.000  
R05  22147136.797   118389367.348       -3636.163          52.000    22147139.565    92080498.396       -2828.043          49.000  
R16  22107173.513   118092703.078        -677.423          51.000    22107176.053    91850267.035        -526.868          49.000  
R06  22548858.079   120325133.287        1291.198          42.000                                                                  
G12  26209906.750                1       2224.108          31.000    26209917.235   107325327.346        1733.159          34.000  
E08  25447739.161   133728921.475       -1270.091          48.000    25447741.620   102467681.956        -973.158          51.000  
S31  40882991.263   214841517.517        -782.472          44.000  
S33  41834627.514   219842372.636        -783.489          42.000  
E03  28157636.326   147969332.428       -3295.516          45.000    28157650.408   113379124.541       -2525.126          49.000  
R15  23251135.994   124247409.306       -3294.687          50.000    23251136.996    96636734.334       -2562.624          47.000  
R17  25375961.154   135791950.234        1466.104          39.000    25375965.536   105616040.619        1140.467          46.000  
E07  27069492.271   142251272.612        1245.050          48.000    27069498.226   108997764.672         954.008          48.000  
G05  25698744.781   135047566.142       -3685.452          35.000    25698760.165   105231874.948       -2872.300          38.000  
G30  26271170.311   138056085.857       -3221.368          35.000    26271180.075   107576276.314       -2510.154          40.000  
E30  25960777.434   136425210.647         234.689          50.000    25960782.898   104533857.342         179.815          52.000  
G14  24785690.960   130249896.296       -3835.365          40.000    24785693.941   101493587.454       -2988.477          47.000  
E02  26041594.057   136849761.291       -2257.577          47.000    26041597.949   104859095.949       -1729.769          54.000  
G22  22901665.910   120349435.077       -2682.104          46.000                                                                  
G17  23780093.198   124965555.544         -64.262          49.000    23780094.230    97375951.483         -50.025          46.000  
E25  30031721.557                3      -3412.242          25.000    30031733.669                       -2612.186          28.000  
E18  22254996.843   116951191.604       -2096.812          47.000                                                                  
> 2024 04 16 21 41 30.0070000  0 26                     
G13  22165124.919   116478622.103       -1155.762          49.000                                                                  
G15  23059616.845   121179160.706         585.040          48.000    23059616.130    94425366.350         455.945          45.000  
G19  23832303.058   125239999.759        1038.104          49.000                                                                  
G24  25231165.592   132590789.420        1317.589          44.000    25231169.876   103317587.378        1026.816          43.000  
R09  25085224.298   133953760.827        1748.918          45.000    25085238.725   104186321.510        1360.364          46.000  
R05  22167603.189   118498766.444       -3657.135          52.000    22167605.623    92165586.420       -2844.382          49.000  
R16  22111009.548   118113196.719        -688.799          51.000    22111012.072    91866206.607        -535.702          50.000  
R04  25975812.662                3      -5328.408          16.000                                                                  
R06  22541663.130   120286738.198        1268.459          42.000                                                                  
G12  26197229.613                        2215.480          30.000    26197240.307   107273421.436        1727.444          34.000  
E08  25455024.031   133767205.653       -1282.010          48.000    25455026.925   102497016.586        -982.341          51.000  
S31  40887460.194   214864999.313        -782.690          44.000  
S33  41839100.314   219865876.477        -783.567          42.000  
E03  28176469.702   148068299.834       -3302.122          46.000    28176483.600   113454956.440       -2530.182          49.000  
R15  23269640.683   124346294.727       -3297.567          50.000    23269642.420    96713645.215       -2564.784          47.000  
R17  25367783.879   135748188.026        1451.298          43.000    25367787.223   105582003.644        1128.699          46.000  
E07  27062403.806   142214023.441        1238.289          48.000    27062409.961   108969223.207         948.840          49.000  
G05  25719794.633   135158185.258       -3688.325          35.000    25719811.873   105318070.842       -2874.496          39.000  
G30  26289567.814   138152754.792       -3223.294          39.000    26289576.050   107651602.737       -2511.853          41.000  
E30  25959465.304   136418318.504         225.060          49.000    25959471.342   104528576.487         172.437          52.000  
G14  24807597.622   130365019.329       -3839.455          39.000    24807598.991   101583293.808       -2991.734          45.000  
E02  26054501.112   136917588.200       -2264.234          47.000    26054504.990   104911067.277       -1734.890          54.000  
G22  22917013.508   120430091.097       -2695.099          46.000                                                                  
G17  23780516.785   124967780.477         -84.066          49.000    23780517.515    97377685.332         -65.355          45.000  
E18  22267057.456   117014566.630       -2128.270          47.000                                                                  
E25                                                                  30051196.621                       -2611.388          26.000  
> 2024 04 16 21 42 00.0070000  0 26                     
G13  22171767.466   116513530.345       -1171.860          47.000                                                                  
G15  23056317.700   121161823.770         570.300          48.000    23056317.009    94411857.135         444.336          45.000  
G19  23826418.709   125209073.362        1023.261          49.000                                                                  
G24  25223641.463   132551251.389        1318.019          43.000    25223646.197   103286778.703        1026.935          43.000  
R09  25075417.873   133901395.822        1741.577          48.000    25075431.009   104145593.898        1354.603          46.000  
R05  22188181.941   118608773.071       -3677.167          52.000    22188184.968    92251147.012       -2860.039          50.000  
R16  22114906.734   118134014.074        -699.432          51.000    22114909.016    91882397.970        -544.007          49.000  
R04  26005646.053                3      -5301.521          16.000                                                                  
R06  22534594.162   120249017.162        1245.827          43.000                                                                  
G12  26184581.493                3       2210.604          26.000    26184602.618                        1722.562          32.000  
E08  25462373.932   133805835.207       -1293.474          47.000    25462378.122   102526615.850        -991.115          51.000  
S31  40891926.411   214888469.167        -782.291          44.000  
S33  41843570.598   219889368.423        -782.845          42.000  
E03  28195337.777   148167449.417       -3308.001          45.000    28195351.516   113530927.930       -2534.752          49.000  
R15  23288159.725   124445250.149       -3299.748          51.000    23288160.973    96790610.592       -2566.532          47.000  
R17  25359688.479   135704868.092        1436.414          43.000    25359692.607   105548310.505        1117.208          44.000  
E07  27055350.244   142176962.232        1232.156          47.000    27055357.510   108940825.762         944.084          49.000  
G05  25740861.485   135268890.888       -3691.699          35.000    25740879.436   105404334.139       -2876.458          39.000  
G30  26307974.561   138249473.792       -3224.782          40.000    26307980.451   107726968.190       -2512.869          41.000  
E30  25958206.297   136411705.644         215.741          49.000    25958212.419   104523509.634         165.266          52.000  
G14  24829526.464   130480256.852       -3843.114          42.000    24829527.733   101673089.263       -2994.703          44.000  
E02  26067443.419   136985603.201       -2270.343          47.000    26067447.790   104963182.708       -1739.639          54.000  
G22  22932433.381   120511121.306       -2707.373          46.000                                                                  
G17  23781049.396   124970583.628        -103.251          50.000    23781050.830    97379869.769         -80.501          45.000  
E18  22279293.990   117078870.460       -2159.061          47.000                                                                  
E25                                                                  30070646.408                3      -2607.693          22.000  
> 2024 04 16 21 42 30.0070000  0 26                     
G13  22178506.194   116548941.196       -1189.158          48.000                                                                  
G15  23053105.524   121144944.216         554.608          48.000    23053105.422    94398704.290         432.227          45.000  
G19  23820621.000   125178610.888        1007.189          49.000                                                                  
G24  25216120.970   132511727.234        1316.822          44.000    25216124.731   103255980.820        1025.973          43.000  
R09  25065655.883   133849266.475        1733.313          49.000    25065668.965   104105049.541        1348.093          47.000  
R05  22208876.668   118719395.808       -3698.079          52.000    22208878.878    92337186.805       -2876.383          49.000  
R16  22118867.600   118155166.077        -711.011          52.000    22118868.538    91898849.640        -552.967          49.000  
R04  26035478.348                3      -5318.200          17.000                                                                  
R06  22527655.055   120211985.859        1222.441          42.000                                                                  
G12  26171996.034                2       2202.741          26.000    26172006.314   107170096.025        1716.429          36.000  
E08  25469793.115   133844823.003       -1306.113          47.000    25469797.193   102556489.609       -1000.806          51.000  
S31  40896392.769   214911939.851        -782.737          44.000  
S33  41848041.123   219912861.251        -783.633          42.000  
E03  28214241.672   148266792.713       -3315.153          45.000    28214256.260   113607047.836       -2540.081          50.000  
R15  23306692.232   124544286.441       -3302.967          49.000    23306694.376    96867638.849       -2568.877          48.000  
R17  25351676.410   135662006.582        1420.614          44.000    25351683.173   105514973.987        1104.842          42.000  
E07  27048336.006   142140103.036        1224.786          48.000    27048342.883   108912583.128         938.563          49.000  
G05  25761948.315   135379692.129       -3695.189          38.000    25761963.832   105490671.901       -2879.369          37.000  
G30  26326390.837   138346255.305       -3227.318          41.000    26326397.305   107802382.370       -2514.876          40.000  
E30  25957004.012   136405384.193         205.477          49.000    25957009.543   104518666.059         157.424          52.000  
G14  24851479.222   130595619.080       -3847.682          41.000    24851481.629   101762981.939       -2998.390          46.000  
E02  26080423.520   137053817.265       -2277.602          46.000    26080428.319   105015450.677       -1745.125          54.000  
G22  22947925.792   120592535.406       -2720.624          46.000                                                                  
G17  23781696.145   124973978.980        -123.500          50.000    23781697.044    97382515.635         -96.151          46.000  
E18  22291708.842   117144113.384       -2190.796          47.000                                                                  
E25                                                                  30090096.231                3      -2612.024          23.000  
> 2024 04 16 21 43 00.0070000  0 25                     
G13  22185341.179   116584862.813       -1205.497          48.000                                                                  
G15  23049982.325   121128530.463         539.862          49.000    23049981.972    94385914.412         420.728          46.000  
G19  23814913.782   125148621.899         992.290          49.000                                                                  
G24  25208603.063   132472224.438        1316.962          44.000    25208607.019   103225199.613        1026.054          43.000  
R09  25055938.384   133797380.154        1726.151          51.000    25055952.053   104064694.175        1342.474          48.000  
R05  22229686.580   118830639.135       -3717.853          51.000    22229690.287    92423709.225       -2891.607          50.000  
R16  22122891.259   118176658.484        -721.507          52.000    22122891.450    91915566.054        -561.156          49.000  
R06  22520846.458   120175654.936        1200.106          41.000                                                                  
G12  26159437.473                        2195.749          29.000    26159452.535   107118693.592        1710.878          36.000  
E08  25477281.771   133884176.599       -1317.242          47.000    25477286.000   102586643.656       -1009.277          51.000  
S31  40900860.456   214935419.468        -782.163          44.000  
S33  41852513.152   219936363.257        -782.800          42.000  
E03  28233185.227   148366335.997       -3320.830          45.000    28233199.021   113683320.976       -2544.549          50.000  
R15  23325241.177   124643409.307       -3304.891          49.000    23325244.004    96944734.421       -2570.505          47.000  
R17  25343755.095   135619615.267        1405.594          42.000    25343759.775   105482003.182        1093.256          41.000  
E07  27041361.861   142103454.674        1218.750          47.000    27041368.897   108884502.032         933.829          49.000  
G05  25783053.701   135490593.034       -3697.534          40.000    25783068.636   105577087.410       -2881.677          35.000  
G30  26344820.969   138443106.631       -3228.850          42.000    26344827.431   107877850.958       -2516.092          40.000  
E30  25955857.655   136399361.102         196.264          49.000    25955863.436   104514051.111         150.410          52.000  
G14  24873456.869   130711111.120       -3851.444          40.000    24873458.303   101852975.755       -3001.054          45.000  
E02  26093442.277   137122236.225       -2283.418          45.000    26093448.045   105067875.651       -1749.671          54.000  
G22  22963492.160   120674338.549       -2732.696          47.000                                                                  
G17  23782456.348   124977974.635        -142.635          50.000    23782456.873    97385629.270        -111.137          45.000  
E18  22304302.976   117210300.328       -2221.396          47.000                                                                  
E25                                                                  30109537.467                       -2608.378          26.000  
> 2024 04 16 21 43 30.0070000  0 25                     
G13  22192271.501   116621283.967       -1222.417          47.000                                                                  
G15  23046946.677   121112572.730         524.261          50.000    23046945.307    94373479.871         408.600          46.000  
G19  23809295.737   125119097.501         976.359          49.000                                                                  
G24  25201087.700   132432731.631        1316.204          43.000    25201091.803   103194426.148        1025.560          44.000  
R09  25046265.057   133745724.493        1717.981          50.000    25046277.305   104024518.172        1336.219          49.000  
R05  22250609.785   118942487.733       -3738.393          51.000    22250613.225    92510702.435       -2907.630          49.000  
R16  22126975.018   118198477.673        -732.689          51.000    22126976.840    91932536.615        -569.960          50.000  
R06  22514166.561   120140015.389        1176.328          42.000                                                                  
G12  26146928.969                        2188.427          30.000    26146940.371   107067458.696        1705.414          37.000  
E08  25484838.620   133923884.535       -1329.578          48.000    25484841.991   102617069.231       -1018.714          51.000  
S31  40905327.612   214958895.045        -782.530          44.000  
S33  41856984.933   219959861.222        -783.146          42.000  
E03  28252163.711   148466066.490       -3327.545          45.000    28252176.851   113759737.572       -2549.590          49.000  
R15  23343805.447   124742604.768       -3307.730          50.000    23343807.233    97021886.486       -2572.651          48.000  
R17  25335920.150   135577685.868        1389.714          44.000    25335924.007   105449391.702        1080.942          42.000  
E07  27034426.061   142067006.986        1211.404          47.000    27034433.099   108856574.710         928.317          49.000  
G05  25804172.793   135601578.866       -3700.970          38.000    25804189.978   105663569.029       -2883.881          34.000  
G30  26363260.857   138540016.084       -3231.227          40.000    26363268.930   107953364.855       -2518.039          40.000  
E30  25954766.086   136393624.275         186.348          49.000    25954771.730   104509655.497         142.847          52.000  
G14  24895455.114   130826719.067       -3855.376          37.000    24895458.184   101943059.791       -3004.327          45.000  
E02  26106498.354   137190846.861       -2290.208          44.000    26106504.149   105120447.480       -1754.916          54.000  
G22  22979130.375   120756517.074       -2745.648          47.000                                                                  
G17  23783328.652   124982560.788        -162.824          49.000    23783329.206    97389203.028        -126.852          45.000  
E25  30128970.962                3      -3403.092          25.000    30128972.697                3      -2608.925          25.000  
E18  22317075.657   117277417.317       -2252.764          48.000                                                                  
> 2024 04 16 21 44 00.0070000  0 26                     
G13  22199296.320   116658201.183       -1238.858          46.000                                                                  
G15  23043996.239   121097068.586         509.119          50.000    23043994.510    94361398.782         396.887          45.000  
G19  23803765.555   125090036.316         960.910          49.000                                                                  
G24  25193572.842   132393244.981        1316.235          44.000    25193578.607   103163657.510        1025.534          44.000  
R09  25036633.193   133694295.552        1710.498          50.000    25036645.854   103984518.556        1330.391          50.000  
R05  22271646.441   119054934.504       -3758.196          53.000    22271648.926    92598160.912       -2923.007          49.000  
R16  22131119.531   118220617.340        -743.441          52.000    22131121.802    91949756.455        -578.110          50.000  
R06  22507617.153   120105065.804        1153.576          42.000                                                                  
G12  26134451.485                        2181.378          30.000    26134467.373   107016389.270        1699.666          37.000  
E08  25492460.565   133963942.997       -1341.109          47.000    25492465.303   102647763.379       -1027.502          52.000  
S31  40909793.217   214982363.157        -782.188          44.000  
S33  41861454.510   219983350.823        -782.997          42.000  
E03  28271176.170   148565979.083       -3333.463          44.000    28271189.831   113836293.700       -2554.181          49.000  
R15  23362381.036   124841866.774       -3309.828          50.000    23362382.476    97099090.305       -2574.348          46.000  
R17  25328171.466   135536218.231        1374.507          44.000    25328173.524   105417139.326        1069.408          37.000  
E07  27027528.493   142030757.367        1204.939          48.000    27027534.927   108828799.149         923.279          49.000  
G05  25825307.936   135712642.592       -3703.674          38.000    25825325.658   105750111.201       -2885.913          33.000  
G30  26381712.905   138636979.488       -3232.870          42.000    26381720.439   108028920.785       -2519.165          40.000  
E30  25953727.861   136388169.220         177.171          49.000    25953733.357   104505475.785         135.759          52.000  
G14  24917476.010   130942436.482       -3859.083          40.000    24917477.908   102033229.277       -3007.190          45.000  
E02  26119590.291   137259643.567       -2296.344          44.000    26119595.517   105173161.868       -1759.485          54.000  
G22  22994839.525   120839064.610       -2757.849          47.000                                                                  
G17  23784313.584   124987734.549        -182.251          50.000    23784313.732    97393234.672        -142.094          45.000  
E18  22330023.440   117345457.824       -2283.298          48.000                                                                  
E27                                                                  29829783.249                3       1295.347          26.000  
E25                                                                  30148400.438                       -2606.521          26.000  
> 2024 04 16 21 44 30.0070000  0 27                     
G13  22206413.915   116695605.319       -1254.664          46.000                                                                  
G15  23041129.852   121082009.888         494.775          49.000    23041128.849    94349664.794         385.480          45.000  
G19  23798322.156   125061430.334         946.216          49.000                                                                  
G24  25186058.504   132353754.985        1316.707          44.000    25186063.349   103132886.246        1026.040          44.000  
G23  26491847.918                3        144.932          26.000                                                                  
R09  25027043.072   133643083.044        1703.786          50.000    25027054.287   103944687.264        1325.096          49.000  
R05  22292791.033   119167965.276       -3777.082          52.000    22292794.333    92686073.599       -2937.659          50.000  
R16  22135322.238   118243066.281        -753.068          52.000    22135323.562    91967216.865        -585.728          49.000  
R06  22501196.176   120070799.252        1130.980          43.000                                                                  
E08  25500148.625   134004342.343       -1351.935          47.000    25500152.820   102678718.752       -1035.941          52.000  
S31  40914255.505   215005813.581        -781.356          44.000  
S33  41865921.202   220006823.615        -781.916          42.000  
E03  28290220.241   148666062.854       -3338.845          43.000    28290235.511   113912980.978       -2558.250          49.000  
R15  23380965.680   124941183.514       -3311.195          49.000    23380968.187    97176336.674       -2575.324          47.000  
R17  25320506.556   135495206.304        1359.666          44.000    25320509.072   105385241.457        1057.700          39.000  
E07  27020666.403   141994697.475        1199.114          48.000    27020672.642   108801168.962         918.835          49.000  
G05  25846455.541   135823770.520       -3704.871          41.000    25846473.098   105836703.593       -2887.396          34.000  
G30  26400173.009   138733987.028       -3233.954          42.000    26400180.755   108104511.121       -2519.922          41.000  
E30  25952740.884   136382985.701         168.496          49.000    25952746.951   104501504.105         129.246          52.000  
G14  24939515.651   131058251.325       -3861.537          43.000    24939516.605   102123474.660       -3009.133          43.000  
E02  26132715.854   137328614.953       -2301.690          45.000    26132720.142   105226010.112       -1763.578          54.000  
G22  23010615.904   120921968.543       -2769.061          47.000                                                                  
G17  23785408.066   124993486.933        -200.939          48.000    23785408.084    97397717.165        -156.792          45.000  
E18  22343143.874   117414409.523       -2313.246          47.000                                                                  
E27                                                                  29820135.188                        1292.976          27.000  
E25                                                                  30167818.867                       -2605.301          25.000  
G12                                                                  26122031.993   106965478.221        1694.671          36.000  
