     3.00           OBSERVATION DATA    M: Mixed            RINEX VERSION / TYPE
CONVBIN 2.4.3                           20240416 134442 UTC PGM / RUN BY / DATE 
format: u-blox UBX                                          COMMENT             
log: /home/regis/git/gnsspwv/obsdata/VERT00CHL/2024-04-16/VECOMMENT             
{self.marker}                                               MARKER NAME         
                                                            MARKER NUMBER       
GEODETIC                                                    MARKER TYPE         
{self.observer}     {self.institution}                      OBSERVER / AGENCY   
UNKNOWN             UBLOX-ZED-F9P                           REC # / TYPE / VERS 
UNKNOWN             TWIVSP6037L                             ANT # / TYPE        
  1713381.0000 -5047934.0000 -3490983.0000                  APPROX POSITION XYZ 
        0.0000        0.0000        0.0000                  ANTENNA: DELTA H/E/N
G    8 C1C L1C D1C S1C C2L L2L D2L S2L                      SYS / # / OBS TYPES 
R    8 C1C L1C D1C S1C C2C L2C D2C S2C                      SYS / # / OBS TYPES 
E    8 C1C L1C D1C S1C C7Q L7Q D7Q S7Q                      SYS / # / OBS TYPES 
S    4 C1C L1C D1C S1C                                      SYS / # / OBS TYPES 
  2024    04    16    13    30   00.4990000     GPS         TIME OF FIRST OBS   
  2024    04    16    13    44   30.5000000     GPS         TIME OF LAST OBS    
                                                            END OF HEADER       
> 2024 04 16 13 30 00.4990000  0 25                     
G31  22806321.899   119848084.6231      -1389.365          45.000    22806322.252    93388095.6021      -1082.654          42.000  
G02  20794778.763   109277269.1541      -3392.847          48.000                                                                  
G19  23277913.645   122326321.1851        183.091          42.000                                                                  
G03  20631749.664   108420573.1351       -803.058          50.000    20631750.221    84483516.5771       -625.757          45.000  
G04  19929241.136   104728827.7631       -216.002          48.000    19929241.469    81606855.6001       -168.339          50.000  
R23  23122748.243   123691051.0951      -5319.870          43.000                                                                  
R24  19379200.462   103629082.0841      -2899.402          52.000    19379199.841    80600493.8841      -2255.081          49.000  
R02  19869170.045   106025402.6771       -263.812          52.000    19869172.164    82464278.2821       -205.104          49.000  
G21  21343882.409   112162760.9681      -4258.263          48.000                                                                  
S33  39506388.905   207607431.1891       -870.055          42.000  
S31  38554362.027   202604544.9391       -870.548          43.000  
E36  23148524.256   121646278.3161      -1379.700          47.000    23148530.284    93209541.5731      -1057.202          53.000  
G09  22261272.283   116983773.6201       1782.743          42.000    22261277.150    91156233.4521       1389.030          40.000  
E11  25021509.880   131488821.3701      -3346.406          41.000    25021516.902   100751199.4821      -2564.248          44.000  
R01  20308304.374   108559647.1851      -2997.211          50.000    20308306.352    84435118.3771      -2331.227          45.000  
R17  20064592.789   107369610.4841       1437.057          51.000    20064593.197    83509689.1791       1117.660          49.000  
R11  23278526.191   124393435.2631       1339.383          38.000    23278537.430    96750503.4911       1041.992          42.000  
G28  24190982.504   127124438.0251      -3104.905          38.000    24190988.031    99057960.1521      -2419.427          43.000  
E03  27220908.210   143046845.0421       1662.214          32.000    27220926.925   109607379.5701       1273.675          36.000  
E09  23984756.914   126040763.1951      -2442.899          46.000    23984763.501    96576653.3061      -1871.881          54.000  
E34  24538278.162   128949543.0361       1135.009          47.000    24538285.067    98805475.6551        869.517          52.000  
E05  22039507.958   115818346.2581        130.251          48.000    22039513.505    88743946.3731         99.833          51.000  
G17  21754203.173   114319061.9931      -1539.314          45.000    21754205.317    89079789.8511      -1199.427          45.000  
E18  28493377.886   149733633.7051      -1747.433          44.000                                                                  
E04                                                                  27958323.930                       -2712.925          29.000  
> 2024 04 16 13 30 30.4990000  0 26                     
G31  22814296.356   119889996.343       -1404.998          44.000    22814298.256    93420754.057       -1094.646          42.000  
G02  20814188.081   109379264.230       -3407.038          48.000                                                                  
G19  23276911.704   122321053.223         167.876          42.000                                                                  
G03  20636343.513   108444715.512        -806.567          49.000    20636344.136    84502328.802        -628.516          45.000  
G04  19930516.486   104735530.250        -231.033          49.000    19930516.856    81612078.317        -180.039          50.000  
R23  23152591.724   123850698.046       -5323.544          42.000                                                                  
R24  19395528.794   103716398.506       -2921.900          51.000    19395528.609    80668406.564       -2272.500          49.000  
R02  19870684.892   106033490.745        -275.629          51.000    19870687.774    82470569.040        -214.456          48.000  
G21  21368224.957   112290682.252       -4269.987          48.000                                                                  
S33  39511352.059   207633513.228        -868.937          42.000  
S31  38559328.154   202630641.080        -869.000          44.000  
E36  23156428.951   121687822.950       -1390.097          46.000    23156436.216    93241374.427       -1065.154          53.000  
G09  22251118.449   116930418.579        1774.175          40.000    22251124.016    91114658.174        1382.495          40.000  
E11  25040630.039   131589296.635       -3351.986          42.000    25040637.229   100828186.794       -2568.476          45.000  
R01  20325137.286   108649625.132       -3001.435          50.000    20325138.979    84505101.164       -2334.492          46.000  
R17  20056593.518   107326800.274        1416.782          52.000    20056593.010    83476392.383        1101.982          49.000  
R11  23271043.367   124353438.730        1326.492          41.000    23271050.929    96719395.268        1031.551          40.000  
G28  24208744.275   127217775.058       -3117.844          41.000    24208749.850    99130690.001       -2429.279          43.000  
E03  27211436.370   142997025.475        1659.024          36.000    27211446.926   109569206.193        1270.898          34.000  
E09  23998718.207   126114131.342       -2448.498          45.000    23998725.034    96632870.386       -1876.070          54.000  
E34  24531813.061   128915570.053        1129.809          47.000    24531820.238    98779444.435         865.686          52.000  
E05  22038787.815   115814565.234         121.676          48.000    22038794.077    88741049.239          93.141          52.000  
G17  21763043.210   114365514.728       -1557.835          46.000    21763044.514    89115986.711       -1213.769          45.000  
E18  28503345.623   149786016.335       -1744.901          44.000                                                                  
E04                                                                  27978532.430                       -2711.479          27.000  
R03                                                                  23185909.928                3       1474.500          19.000  
> 2024 04 16 13 31 00.4990000  0 25                     
G31  22822360.372   119932373.310       -1420.326          44.000    22822362.348    93453775.003       -1106.639          43.000  
G02  20833676.356   109481680.334       -3420.739          47.000                                                                  
G19  23275995.878   122316239.018         153.016          43.000                                                                  
G03  20640957.095   108468960.565        -809.937          49.000    20640958.085    84521221.004        -630.890          45.000  
G04  19931876.575   104742677.928        -245.631          49.000    19931876.336    81617647.939        -191.363          49.000  
R23  23182456.202   124010447.908       -5326.611          43.000                                                                  
R24  19411982.852   103804386.851       -2944.036          51.000    19411982.940    80736841.852       -2289.869          49.000  
R02  19872265.569   106041930.030        -287.097          51.000    19872268.800    82477132.906        -223.316          48.000  
G21  21392634.304   112418949.555       -4281.122          49.000                                                                  
S33  39516306.997   207659550.922        -867.232          42.000  
S31  38564285.944   202656692.250        -867.814          44.000  
E36  23164393.420   121729677.200       -1400.229          46.000    23164400.917    93273444.529       -1072.989          53.000  
G09  22241013.478   116877321.984        1765.009          38.000    22241020.608    91073284.325        1375.737          41.000  
E11  25059780.738   131689931.566       -3357.096          43.000    25059787.009   100905296.465       -2572.292          44.000  
R01  20341991.375   108739719.335       -3004.956          50.000    20341993.399    84575174.371       -2337.275          44.000  
R17  20048706.743   107284594.492        1396.783          52.000    20048706.653    83443565.699        1086.495          50.000  
R11  23263631.988   124313823.761        1313.981          44.000    23263637.859    96688583.806        1022.062          38.000  
G28  24226577.312   127311489.725       -3129.952          42.000    24226583.138    99203714.179       -2439.005          42.000  
E03  27201973.170   142947301.869        1655.892          35.000    27201987.459   109531106.326        1269.367          32.000  
E09  24012710.618   126187659.185       -2453.672          46.000    24012716.887    96689209.829       -1880.001          53.000  
E34  24525376.370   128881746.343        1124.853          47.000    24525383.876    98753527.601         861.944          52.000  
E05  22038117.758   115811042.578         113.070          48.000    22038123.670    88738350.055          86.704          52.000  
G17  21771986.498   114412515.605       -1575.815          44.000    21771988.664    89152610.678       -1227.815          45.000  
E18  28513299.280   149838319.375       -1742.295          45.000                                                                  
E04                                                                  27998725.091                3      -2709.571          25.000  
> 2024 04 16 13 31 30.4990000  0 26                     
G31  22830512.729   119975211.733       -1435.434          45.000    22830514.475    93487155.530       -1118.543          43.000  
G02  20853243.721   109584511.876       -3434.653          46.000                                                                  
G19  23275165.264   122311875.936         137.680          42.000                                                                  
G03  20645589.400   108493305.114        -813.025          50.000    20645590.699    84540190.778        -633.575          45.000  
G04  19933320.677   104750266.863        -260.330          48.000    19933319.915    81623561.385        -202.896          49.000  
R23  23212338.293   124170293.901       -5329.799          43.000                                                                  
R24  19428561.125   103893041.536       -2966.237          51.000    19428562.208    80805795.406       -2307.023          49.000  
R02  19873912.752   106050715.440        -298.636          52.000    19873916.087    82483966.010        -232.347          49.000  
G21  21417107.528   112547556.605       -4292.614          49.000                                                                  
S33  39521252.633   207685538.307        -865.343          42.000  
S31  38569234.218   202682695.070        -865.790          44.000  
E36  23172416.687   121771838.087       -1410.562          46.000    23172423.738    93305749.592       -1080.786          53.000  
G09  22230957.896   116824481.381        1756.877          40.000    22230965.295    91032109.947        1368.976          41.000  
E11  25078961.038   131790721.876       -3362.156          43.000    25078966.950   100982525.190       -2576.125          44.000  
R01  20358865.803   108829923.855       -3008.644          50.000    20358866.915    84645333.393       -2340.224          43.000  
R17  20040931.732   107242992.870        1376.486          52.000    20040932.505    83411208.910        1070.670          50.000  
R11  23256289.960   124274590.999        1301.589          44.000    23256298.722    96658069.576        1012.127          40.000  
R03  23164745.013                3       1883.822          18.000                                                                  
G28  24244482.154   127405576.647       -3142.352          43.000    24244488.209    99277028.401       -2448.474          42.000  
E03  27192529.580   142897671.466        1653.044          36.000    27192547.476   109493077.963        1265.948          31.000  
E09  24026732.394   126261341.824       -2458.599          46.000    24026738.258    96745667.894       -1883.902          53.000  
E34  24518968.005   128848070.090        1120.065          47.000    24518975.536    98727723.761         858.218          52.000  
E05  22037495.992   115807774.557         104.683          48.000    22037501.770    88735845.994          80.271          52.000  
G17  21781033.951   114460058.900       -1593.866          44.000    21781035.821    89189657.347       -1242.075          44.000  
E18  28523236.320   149890538.740       -1739.212          44.000                                                                  
E04                                                                  28018906.084                3      -2706.636          22.000  
> 2024 04 16 13 32 00.4990000  0 25                     
G31  22838751.597   120018506.562       -1450.794          46.000    22838752.914    93520891.701       -1130.400          43.000  
G02  20872889.866   109687752.332       -3448.187          47.000                                                                  
G19  23274418.941   122307959.155         123.114          42.000                                                                  
G03  20650240.298   108517744.465        -816.315          50.000    20650241.646    84559234.436        -636.023          45.000  
G04  19934847.404   104758291.462        -274.813          48.000    19934847.192    81629814.312        -214.151          49.000  
R23  23242236.969   124330227.202       -5332.613          44.000                                                                  
R24  19445264.561   103982355.137       -2988.120          52.000    19445264.500    80875261.473       -2324.125          49.000  
R02  19875622.913   106059840.475        -309.833          52.000    19875626.084    82491063.288        -240.999          49.000  
G21  21441643.526   112676495.911       -4303.601          47.000                                                                  
S33  39526188.000   207711474.132        -863.735          42.000  
S31  38574172.346   202708643.970        -864.109          44.000  
E36  23180497.446   121814301.038       -1420.448          46.000    23180504.394    93338286.095       -1088.418          53.000  
G09  22220952.604   116771892.777        1748.599          42.000    22220957.750    90991131.894        1362.472          41.000  
E11  25098168.654   131891661.742       -3367.185          42.000    25098175.375   101059868.502       -2580.031          44.000  
R01  20375759.447   108920231.566       -3011.951          50.000    20375760.828    84715572.618       -2342.560          44.000  
R17  20033270.108   107201994.244        1356.505          52.000    20033270.980    83379321.119        1055.046          49.000  
R11  23249017.935   124235739.305        1288.468          42.000    23249026.991    96627851.734        1002.284          35.000  
G28  24262455.473   127500028.759       -3154.280          42.000    24262462.938    99350627.183       -2458.175          43.000  
E03  27183101.055   142848129.975        1649.903          36.000    27183121.595                        1264.249          30.000  
E09  24040781.620   126335172.743       -2463.415          46.000    24040787.682    96802239.582       -1887.625          53.000  
E34  24512586.255   128814537.991        1115.270          46.000    24512594.542    98702030.366         854.602          52.000  
E05  22036921.136   115804755.897          96.402          48.000    22036927.103    88733533.000          73.859          51.000  
G17  21790182.705   114508138.469       -1611.473          43.000    21790185.349    89227121.864       -1255.879          44.000  
E18  28533155.638   149942668.919       -1736.324          43.000                                                                  
E04                                                                  28039066.335                3      -2691.800          21.000  
> 2024 04 16 13 32 30.4990000  0 26                     
G31  22847077.264   120062256.218       -1465.756          45.000    22847078.696    93554982.282       -1142.115          44.000  
G02  20892614.160   109791398.205       -3461.420          48.000                                                                  
G19  23273758.941   122304488.750         108.090          42.000                                                                  
G03  20654909.221   108542277.589        -819.220          50.000    20654909.959    84578351.149        -638.330          45.000  
G04  19936456.677   104766749.873        -289.026          48.000    19936457.232    81636405.301        -225.278          50.000  
R23  23272150.503   124490242.827       -5335.089          44.000                                                                  
R24  19462088.914   104072324.040       -3009.750          52.000    19462088.920    80945237.173       -2340.865          49.000  
R02  19877396.097   106069302.069        -320.918          52.000    19877399.248    82498422.316        -249.567          49.000  
G21  21466242.079   112805763.944       -4314.293          47.000                                                                  
S33  39531112.555   207737354.452        -861.698          42.000  
S31  38579099.996   202734538.516        -862.477          44.000  
E36  23188634.948   121857065.163       -1430.554          46.000    23188642.161    93371053.362       -1096.049          53.000  
G09  22210993.321   116719555.654        1740.577          42.000    22210998.453    90950349.891        1355.879          40.000  
E11  25117404.872   131992748.935       -3371.803          41.000    25117412.438   101137324.695       -2583.595          45.000  
R01  20392671.922   109010639.084       -3015.064          50.000    20392673.700    84785889.488       -2344.977          45.000  
R17  20025722.518   107161600.264        1336.436          52.000    20025722.807    83347903.650        1039.507          50.000  
R11  23241818.059   124197271.092        1276.038          41.000    23241819.797                1        992.456          29.000  
R03  23143647.876                3       1873.785          26.000                                                                  
G28  24280498.190   127594842.650       -3166.517          42.000    24280506.282    99424507.824       -2467.437          42.000  
E03  27173689.112   142798676.734        1647.042          34.000    27173711.510                3       1263.501          25.000  
E09  24054858.170   126409149.168       -2468.183          45.000    24054864.880    96858922.754       -1891.244          53.000  
E34  24506232.871   128781150.365        1110.569          46.000    24506240.983    98676447.676         850.962          52.000  
E05  22036393.599   115801985.016          88.299          47.000    22036399.859    88731409.864          67.642          51.000  
G17  21799433.171   114556751.285       -1629.022          44.000    21799435.491    89265001.882       -1269.630          43.000  
E18  28543057.279   149994707.940       -1733.013          42.000                                                                  
E04                                                                  28059216.871                3      -2698.544          23.000  
> 2024 04 16 13 33 00.4990000  0 25                     
G31  22855487.581   120106455.376       -1481.005          45.000    22855489.495    93589423.135       -1154.189          44.000  
G02  20912413.313   109895442.710       -3474.970          48.000                                                                  
G19  23273183.476   122301459.867          93.578          43.000                                                                  
G03  20659594.549   108566899.720        -822.327          50.000    20659595.440    84597537.210        -640.948          44.000  
G04  19938148.249   104775636.413        -303.453          48.000    19938149.495    81643329.872        -236.409          50.000  
R23  23302077.280   124650332.149       -5337.414          43.000                                                                  
R24  19479035.568   104162940.760       -3031.392          52.000    19479035.484    81015716.760       -2357.750          49.000  
R02  19879231.682   106079093.778        -331.888          53.000    19879234.156    82506038.109        -258.263          49.000  
G21  21490901.872   112935353.174       -4324.864          46.000                                                                  
S33  39536026.434   207763173.984        -859.907          43.000  
S31  38584016.139   202760372.723        -860.144          44.000  
E36  23196830.210   121900125.706       -1440.346          47.000    23196836.379    93404047.764       -1103.594          53.000  
G09  22201081.374   116667465.879        1732.171          44.000    22201086.089    90909760.570        1349.767          41.000  
E11  25136668.617   132093977.342       -3376.429          41.000    25136676.151   101214889.088       -2587.221          45.000  
R01  20409601.226   109101138.732       -3018.238          48.000    20409604.231    84856278.026       -2347.620          45.000  
R17  20018286.546   107121809.297        1316.276          52.000    20018286.441    83316955.176        1023.759          50.000  
R11  23234691.060   124159185.356        1263.257          42.000    23234695.217    96568168.1421        982.798          36.000  
G28  24298607.918   127690011.047       -3178.446          42.000    24298616.973    99498664.751       -2476.485          43.000  
E03  27164298.364   142749307.415        1644.128          36.000    27164313.059                3       1258.375          23.000  
E09  24068961.970   126483264.431       -2472.734          46.000    24068968.687    96915712.349       -1894.770          53.000  
E34  24499906.001   128747903.749        1105.823          46.000    24499914.481    98650973.044         847.314          52.000  
E05  22035912.665   115799456.505          80.306          47.000    22035918.766    88729472.434          61.478          51.000  
G17  21808784.336   114605890.505       -1646.690          44.000    21808786.722    89303292.110       -1283.220          43.000  
E18  28552941.349   150046650.170       -1730.031          42.000                                                                  
E04                                                                  28079346.777                3      -2699.942          25.000  
> 2024 04 16 13 33 30.4990000  0 26                     
G31  22863984.820   120151107.179       -1496.020          45.000    22863987.182    93624216.719       -1165.637          45.000  
G02  20932287.630   109999887.053       -3487.919          47.000                                                                  
G19  23272692.726   122298876.173          78.611          44.000                                                                  
G03  20664297.126   108591614.239        -825.391          50.000    20664298.622    84616795.239        -643.146          45.000  
G04  19939921.496   104784953.578        -317.802          48.000    19939922.767    81650589.985        -247.573          51.000  
R23  23332018.520   124810494.400       -5339.820          43.000                                                                  
R24  19496102.176   104254205.768       -3052.860          52.000    19496103.061    81086700.548       -2374.485          50.000  
R02  19881128.382   106089217.538        -343.002          53.000    19881131.208    82513912.113        -266.701          49.000  
G21  21515623.238   113065263.948       -4335.710          46.000                                                                  
S33  39540929.162   207788937.968        -857.791          42.000  
S31  38588921.213   202786149.424        -858.241          44.000  
E36  23205081.028   121943486.257       -1450.328          46.000    23205087.602    93437272.035       -1111.310          53.000  
G09  22191217.171   116615627.348        1723.909          45.000    22191221.224    90869367.047        1343.143          40.000  
E11  25155958.887   132195349.253       -3381.219          41.000    25155966.809   101292563.447       -2590.840          45.000  
R01  20426548.403   109191731.667       -3021.369          49.000    20426551.479    84926739.156       -2349.652          44.000  
R17  20010964.358   107082628.111        1295.809          52.000    20010964.029    83286480.974        1007.888          50.000  
R11  23227639.162   124121488.867        1250.091          44.000    23227644.759    96538848.841         972.222          39.000  
R03  23122733.729                        1859.480          27.000                                                                  
G28  24316785.919   127785535.017       -3190.017          43.000    24316794.335    99573098.697       -2485.606          43.000  
E03  27154918.958   142700025.720        1641.371          35.000    27154951.287                        1257.639          27.000  
E09  24083092.796   126557520.230       -2477.433          46.000    24083099.305    96972609.617       -1898.406          53.000  
E34  24493606.363   128714802.909        1100.982          46.000    24493615.416    98625610.127         843.524          52.000  
E05  22035477.147   115797173.181          71.953          46.000    22035484.251    88727722.859          55.257          51.000  
G17  21818236.163   114655557.772       -1664.346          45.000    21818238.208    89341993.748       -1296.723          44.000  
E18  28562808.075   150098498.045       -1726.571          42.000                                                                  
E04                                                                  28099457.944                3      -2702.654          21.000  
> 2024 04 16 13 34 00.4990000  0 27                     
G31  22872567.103   120196210.686       -1511.039          45.000    22872570.007    93659362.244       -1177.565          44.000  
G02  20952239.230   110104728.991       -3501.707          48.000                                                                  
G19  23272284.738   122296737.984          63.462          43.000                                                                  
G03  20669018.053   108616421.252        -828.668          49.000    20669019.369    84636125.358        -645.734          44.000  
G04  19941776.418   104794700.473        -332.346          48.000    19941777.020    81658184.956        -259.044          50.000  
R23  23361971.383   124970726.109       -5342.525          43.000                                                                  
R24  19513289.762   104346116.759       -3074.692          51.000    19513290.379    81158186.779       -2391.485          49.000  
R02  19883087.570   106099671.457        -354.245          53.000    19883090.397    82522042.923        -275.479          50.000  
R18  22922453.667                3       3149.090          11.000                                                                  
G21  21540406.023   113195493.016       -4346.465          46.000                                                                  
S33  39545820.333   207814642.711        -856.393          42.000  
S31  38593815.580   202811870.301        -856.882          43.000  
E36  23213389.873   121987146.913       -1460.683          47.000    23213396.126    93470726.257       -1119.260          53.000  
G09  22181399.972   116564040.739        1715.038          45.000    22181403.998    90829169.790        1336.404          40.000  
E11  25175276.207   132296863.502       -3386.478          41.000    25175284.139   101370346.863       -2594.811          45.000  
R01  20443513.633   109282415.471       -3024.573          49.000    20443515.296    84997270.929       -2352.552          44.000  
R17  20003756.052   107044059.695        1275.046          52.000    20003755.891    83256483.361         991.708          50.000  
R11  23220656.726   124084185.420        1236.391          40.000    23220664.054    96509835.109         962.080          36.000  
R03  23112308.537                3       1847.405          24.000    23112391.766                3       1441.885          24.000  
G28  24335031.499   127881412.157       -3202.092          44.000    24335039.107    99647807.854       -2495.230          42.000  
E03  27145556.655   142650832.092        1638.209          33.000    27145577.422                3       1266.725          15.000  
E09  24097249.660   126631914.779       -2482.418          46.000    24097256.269    97029613.163       -1902.171          53.000  
E34  24487335.685   128681849.255        1095.629          45.000    24487344.254    98600359.953         839.556          51.000  
E05  22035089.580   115795134.478          63.696          47.000    22035096.052    88726160.733          48.741          51.000  
G17  21827787.614   114705750.959       -1682.078          45.000    21827790.070    89381105.266       -1310.765          44.000  
E18  28572657.429   150150250.789       -1723.717          43.000                                                                  
E04                                                                  28119553.491                3      -2685.570          19.000  
> 2024 04 16 13 34 30.4990000  0 26                     
G31  22881236.063   120241761.709       -1526.032          45.000    22881238.737    93694856.422       -1189.043          45.000  
G02  20972264.438   110209962.561       -3514.450          48.000                                                                  
G19  23271961.852   122295041.565          48.946          42.000                                                                  
G03  20673755.219   108641316.728        -831.317          49.000    20673757.151    84655524.423        -647.668          44.000  
G04  19943711.940   104804872.167        -346.220          48.000    19943712.398    81666110.950        -269.755          50.000  
R23  23391936.988   125131019.094       -5344.336          43.000                                                                  
R24  19530597.250   104438666.654       -3095.710          52.000    19530597.720    81230169.928       -2407.832          49.000  
R02  19885107.418   106110449.474        -364.726          53.000    19885109.930    82530425.837        -283.714          49.000  
G21  21565247.807   113326033.596       -4356.551          47.000                                                                  
S33  39550700.515   207840287.423        -853.952          42.000  
S31  38598697.834   202837528.831        -854.634          44.000  
E36  23221754.063   122031103.684       -1470.083          46.000    23221760.564    93504407.392       -1126.523          53.000  
G09  22171630.295   116512702.657        1707.058          46.000    22171634.889    90789166.241        1330.209          41.000  
E11  25194621.073   132398514.803       -3390.912          42.000    25194627.953   101448235.293       -2597.999          45.000  
R01  20460493.787   109373183.626       -3027.081          50.000    20460495.263    85067868.305       -2354.352          44.000  
R17  19996663.492   107006102.925        1254.933          52.000    19996663.712    83226961.488         976.164          50.000  
R11  23213748.003   124047274.193        1223.538          42.000    23213757.939    96481126.621         951.627          38.000  
R03  23101935.714                1       1847.295          29.000    23101975.020                1       1436.693          27.000  
G28  24353341.816   127977636.078       -3213.332          45.000    24353349.940    99722787.251       -2503.645          41.000  
E03  27136211.779   142601722.841        1635.622          32.000    27136217.572                3       1253.828          23.000  
E09  24111431.803   126706442.224       -2486.485          46.000    24111438.481    97086718.564       -1905.226          53.000  
E34  24481092.690   128649040.077        1091.170          46.000    24481100.968    98575220.509         836.122          51.000  
E05  22034748.678   115793335.767          55.916          48.000    22034753.746    88724782.470          42.892          51.000  
G17  21837438.721   114756463.916       -1699.111          46.000    21837440.485    89420621.764       -1324.067          44.000  
E18  28582486.383   150201903.460       -1719.996          43.000                                                                  
E04                                                                  28139635.156                3      -2688.074          20.000  
> 2024 04 16 13 35 00.4990000  0 26                     
G31  22889988.840   120287762.808       -1541.097          44.000    22889991.529    93730701.386       -1201.015          45.000  
G02  20992364.465   110315588.861       -3527.527          47.000                                                                  
G19  23271723.561   122293790.542          33.979          43.000                                                                  
G03  20678510.092   108666304.244        -834.698          49.000    20678512.461    84674995.221        -650.262          45.000  
G04  19945728.849   104815471.213        -360.741          48.000    19945728.644    81674369.957        -281.091          50.000  
R23  23421913.914   125291373.054       -5346.234          42.000                                                                  
R24  19548023.138   104531856.451       -3117.134          51.000    19548024.555    81302650.782       -2424.493          49.000  
R02  19887188.169   106121553.346        -375.809          53.000    19887189.986    82539062.172        -292.296          48.000  
G21  21590148.215   113456886.730       -4367.070          47.000                                                                  
S33  39555569.274   207865873.623        -851.847          42.000  
S31  38603570.049   202863128.854        -852.659          44.000  
E36  23230176.280   122075360.223       -1480.562          46.000    23230182.144    93538318.198       -1134.422          53.000  
G09  22161908.727   116461617.129        1698.377          46.000    22161913.561    90749359.482        1323.614          42.000  
E11  25213990.806   132500305.451       -3395.688          41.000    25213998.527   101526230.510       -2601.949          45.000  
R01  20477490.381   109464037.650       -3030.023          51.000    20477491.969    85138532.477       -2356.573          45.000  
R17  19989685.334   106968764.260        1234.016          52.000    19989685.512    83197920.345         959.692          49.000  
R11  23206916.102   124010762.610        1209.997          43.000    23206924.770    96452728.849         941.009          40.000  
R03  23091592.368                        1840.276          29.000                                                                  
G28  24371719.180   128074207.898       -3225.020          44.000    24371727.942    99798037.757       -2512.896          41.000  
E03  27126878.046                        1632.384          29.000    27126893.126                        1251.326          29.000  
E09  24125639.415   126781104.318       -2491.264          46.000    24125646.093    97143927.141       -1908.895          53.000  
E34  24474877.926   128616380.285        1085.986          46.000    24474885.805    98550195.543         832.039          51.000  
E05  22034452.863   115791779.955          47.533          48.000    22034457.898    88723590.338          36.407          52.000  
G17  21847188.839   114807698.466       -1716.596          46.000    21847190.307    89460544.708       -1337.661          44.000  
E18  28592297.307   150253458.656       -1717.150          43.000                                                                  
E04                                                                  28159689.091                3      -2693.993          21.000  
> 2024 04 16 13 35 30.4990000  0 26                     
G31  22898832.262   120334235.081       -1556.535          43.000    22898835.484    93766913.516       -1213.065          45.000  
G02  21012542.801   110421627.084       -3541.551          47.000                                                                  
G19  23271574.590   122293006.509          18.248          44.000                                                                  
G03  20683286.580   108691405.442        -838.519          49.000    20683288.721    84694554.586        -653.320          45.000  
G04  19947831.306   104826518.230        -375.641          49.000    19947831.589    81682978.026        -292.569          50.000  
R23  23451906.203   125451806.334       -5348.536          37.000                                                                  
R24  19565574.480   104625705.345       -3139.271          52.000    19565574.419    81375644.255       -2441.582          49.000  
R02  19889334.150   106133003.419        -387.370          53.000    19889336.195    82547967.789        -301.307          49.000  
G21  21615111.295   113588070.633       -4378.364          46.000                                                                  
S33  39560431.630   207891422.430        -850.901          42.000  
S31  38608434.043   202888692.604        -851.420          43.000  
E36  23238658.736   122119938.195       -1491.316          46.000    23238665.046    93572475.317       -1142.709          52.000  
G09  22152239.529   116410806.356        1689.149          46.000    22152243.432    90709766.851        1316.111          40.000  
E11  25233391.526   132602255.825       -3401.149          41.000    25233399.108   101604348.085       -2606.149          45.000  
R01  20494506.104   109554996.661       -3033.655          51.000    20494507.717    85209278.312       -2359.540          45.000  
R17  19982827.351   106932069.139        1212.384          52.000    19982828.002    83169379.721         943.074          50.000  
R11  23200161.700   123974675.933        1195.598          41.000    23200171.831    96424661.628         930.204          40.000  
R03  23081298.150                        1833.348          28.000    23081308.225                1       1426.544          27.000  
G28  24390166.583   128171146.714       -3237.167          42.000    24390174.273    99873574.250       -2522.583          41.000  
E03  27117582.044                3       1627.003          25.000    27117587.980   109191274.3581       1247.801          33.000  
E09  24139875.840   126855920.838       -2496.346          46.000    24139883.047    97201254.056       -1912.865          53.000  
E34  24468695.854   128583892.862        1080.098          46.000    24468703.825    98525302.646         827.514          52.000  
E05  22034206.261   115790487.985          38.753          47.000    22034211.980    88722600.387          29.592          52.000  
G17  21857041.224   114859473.682       -1734.811          45.000    21857042.663    89500888.936       -1351.781          44.000  
E18  28602092.306   150304937.118       -1714.767          43.000                                                                  
E04                                                                  28179739.051                3      -2693.572          20.000  
> 2024 04 16 13 36 00.4990000  0 26                     
G31  22907766.471   120381183.803       -1573.149          43.000    22907769.464    93803496.820       -1225.758          45.000  
G02  21032801.471   110528081.169       -3555.618          48.000                                                                  
G19  23271515.306   122292695.681           2.305          44.000                                                                  
G03  20688085.776   108716626.340        -842.934          49.000    20688087.751    84714207.219        -656.782          45.000  
G04  19950019.641   104838018.223        -390.942          48.000    19950019.248    81691939.076        -304.745          50.000  
R23  23481914.220   125612321.076       -5352.088          33.000                                                                  
R24  19583248.939   104720216.385       -3161.586          52.000    19583249.091    81449152.765       -2458.997          49.000  
R02  19891545.444   106144803.760        -399.369          53.000    19891547.978    82557145.830        -310.560          50.000  
G21  21640139.406   113719588.762       -4389.927          46.000                                                                  
S33  39565287.296   207916939.382        -849.941          42.000  
S31  38613292.302   202914223.517        -850.927          44.000  
E36  23247204.068   122164843.554       -1502.530          46.000    23247210.254    93606883.280       -1151.240          53.000  
G09  22142623.445   116360276.771        1679.334          46.000    22142627.308    90670393.188        1308.936          40.000  
E11  25252823.213   132704370.630       -3406.887          41.000    25252831.440   101682591.687       -2610.465          46.000  
R01  20511542.273   109646064.510       -3037.549          50.000    20511543.321    85280108.765       -2362.366          44.000  
R17  19976093.137   106896026.270        1190.310          53.000    19976092.386    83141346.433         925.728          50.000  
R11  23193489.164   123939023.479        1181.046          40.000    23193499.664    96396932.270         918.516          40.000  
R03  23071040.844   123500996.3991       1826.145          34.000    23071058.654                3       1420.435          29.000  
G28  24408683.420   128268456.052       -3250.025          40.000    24408691.342    99949399.417       -2532.313          40.000  
E09  24154143.912   126930895.982       -2502.003          46.000    24154150.288    97258702.487       -1917.141          53.000  
E34  24462547.631   128551585.080        1073.738          46.000    24462555.981    98500547.396         822.730          52.000  
E05  22034011.483   115789465.199          29.468          47.000    22034017.192    88721816.703          22.566          52.000  
G17  21866997.371   114911793.608       -1753.172          46.000    21866998.888    89541657.628       -1366.264          43.000  
E18  28611876.610   150356343.923       -1712.389          44.000                                                                  
E03                                                                  27108302.944   109153886.655        1244.785          35.000  
E04                                                                  28199770.069                3      -2690.359          17.000  
> 2024 04 16 13 36 30.4990000  0 27                     
G31  22916789.319   120428601.287       -1588.520          42.000    22916792.477    93840445.454       -1237.629          45.000  
G02  21053136.258   110634941.734       -3568.873          48.000                                                                  
G19  23271544.408   122292851.359         -13.021          44.000                                                                  
G03  20692906.465   108741959.920        -846.446          49.000    20692908.842    84733947.657        -659.490          45.000  
G04  19952292.124   104849963.184        -405.588          48.000    19952291.216    81701246.867        -316.080          49.000  
R23  23511934.520                       -5353.791          30.000                                                                  
R24  19601045.706   104815379.613       -3183.115          53.000    19601044.919    81523168.516       -2475.689          49.000  
R02  19893820.783   106156945.561        -410.410          53.000    19893824.014    82566589.442        -319.173          50.000  
G21  21665227.749   113851430.487       -4400.332          46.000                                                                  
S33  39570135.544   207942418.182        -848.564          43.000  
S31  38618143.649   202939716.442        -849.094          44.000  
E36  23255809.629   122210069.345       -1512.855          46.000    23255816.664    93641536.772       -1159.256          53.000  
G09  22133060.474   116310021.895        1670.494          44.000    22133064.557    90631233.630        1301.712          40.000  
E11  25272285.390   132806641.580       -3411.715          42.000    25272293.476   101760954.922       -2614.157          46.000  
R01  20528597.131   109737231.404       -3040.601          51.000    20528599.165    85351016.222       -2364.771          45.000  
R17  19969478.010   106860631.651        1168.916          52.000    19969477.300    83113817.336         909.126          49.000  
R11  23186895.977   123903802.318        1166.739          37.000    23186907.060    96369538.160         907.529          40.000  
R03  23060823.519                        1819.412          28.000    23060847.677                        1413.542          30.000  
G28  24427268.884   128366126.395       -3261.827          40.000    24427277.409   100025505.922       -2541.487          40.000  
E09  24168440.165   127006020.974       -2506.611          47.000    24168446.051    97316265.727       -1920.737          52.000  
E34  24456432.729   128519451.326        1068.193          46.000    24456440.896    98475925.475         818.465          51.000  
E05  22033866.271   115788703.936          20.919          47.000    22033872.299    88721233.398          16.086          52.000  
G17  21877055.879   114964648.962       -1770.821          46.000    21877056.814    89582843.582       -1380.080          43.000  
E18  28621643.362   150407671.202       -1709.738          43.000                                                                  
E03                                                                  27099038.998   109116583.250        1241.800          37.000  
E04                                                                  28219785.399                3      -2691.588          18.000  
R18                                                                  22827315.358                3       2184.631          11.000  
> 2024 04 16 13 37 00.4990000  0 26                     
G31  22925901.325   120476481.002       -1603.716          44.000    22925903.836    93877754.276       -1249.689          45.000  
G02  21073546.058   110742200.760       -3582.043          48.000                                                                  
G19  23271662.165   122293467.906         -28.475          45.000                                                                  
G03  20697748.250   108767400.575        -850.010          49.000    20697750.363    84753771.513        -662.314          46.000  
G04  19954648.489   104862346.305        -420.223          48.000    19954647.819    81710896.040        -327.431          49.000  
R23  23541965.547                       -5355.463          28.000                                                                  
R24  19618962.087   104911186.105       -3204.292          53.000    19618961.493    81597684.562       -2492.144          49.000  
R02  19896158.894   106169421.086        -421.516          54.000    19896161.169    82576292.605        -327.839          50.000  
G21  21690375.556   113983587.296       -4410.445          46.000                                                                  
S33  39574975.553   207967852.710        -847.162          42.000  
S31  38622986.411   202965164.435        -847.687          44.000  
E36  23264476.121   122255609.845       -1523.299          46.000    23264482.780    93676431.393       -1167.212          53.000  
G09  22123548.817   116260036.453        1661.664          46.000    22123552.752    90592283.978        1294.823          41.000  
E11  25291775.035   132909061.691       -3416.787          41.000    25291783.820   101839432.431       -2617.980          46.000  
R01  20545668.860   109828489.450       -3043.524          50.000    20545671.235    85421994.632       -2367.096          45.000  
R17  19962984.127   106825882.111        1147.417          52.000    19962983.602    83086789.931         892.598          49.000  
R11  23180385.682   123869009.590        1152.440          39.000    23180396.740    96342477.297         896.287          40.000  
R03  23050643.247                        1812.997          28.000    23050657.406    95971548.3311       1410.086          33.000  
G28  24445923.068   128464149.507       -3273.611          40.000    24445930.648   100101887.308       -2550.573          39.000  
E09  24182763.327   127081288.222       -2511.400          47.000    24182768.862    97373937.979       -1924.297          52.000  
E34  24450349.952   128487487.139        1062.671          46.000    24450358.157    98451433.487         814.139          51.000  
E05  22033770.424   115788197.813          12.587          47.000    22033776.376    88720845.591           9.591          52.000  
G17  21887214.101   115018032.112       -1788.058          46.000    21887215.710    89624440.770       -1393.418          43.000  
E18  28631394.843   150458912.200       -1706.697          45.000                                                                  
E03                                                                  27089792.767   109079359.872        1239.357          36.000  
E04                                                                  28239787.387                3      -2678.496          23.000  
> 2024 04 16 13 37 30.4990000  0 27                     
G31  22935100.759   120524828.021       -1619.229          42.000    22935103.932    93915427.222       -1262.002          44.000  
G02  21094033.978   110849861.712       -3595.411          48.000                                                                  
G19  23271868.508   122294551.033         -44.012          44.000                                                                  
G03  20702610.683   108792954.168        -853.766          49.000    20702612.810    84773683.398        -665.226          45.000  
G04  19957089.181   104875172.372        -434.880          49.000    19957088.348    81720890.377        -338.961          49.000  
R23  23572009.675                       -5357.374          29.000                                                                  
R24  19636998.765   105007639.142       -3225.867          52.000    19637000.011    81672703.496       -2509.010          49.000  
R02  19898559.937   106182234.445        -432.762          53.000    19898562.355    82586258.544        -336.615          49.000  
R18  23681780.181                3       3069.037          11.000                                                                  
G21  21715584.767   114116062.221       -4421.068          46.000                                                                  
S33  39579808.041   207993246.701        -845.681          42.000  
S31  38627821.830   202990573.473        -846.434          44.000  
E36  23273202.584   122301470.871       -1534.047          46.000    23273210.034    93711571.628       -1175.489          53.000  
G09  22114088.603   116210326.891        1652.268          45.000    22114093.619    90553549.337        1287.409          42.000  
E11  25311294.181   133011635.502       -3421.808          41.000    25311302.612   101918027.695       -2621.852          46.000  
R01  20562758.199   109919842.308       -3046.521          49.000    20562760.841    85493046.778       -2369.568          46.000  
R17  19956612.924   106791786.695        1125.605          53.000    19956612.259    83060271.295         875.451          50.000  
R11  23173958.499   123834654.257        1137.911          37.000    23173967.549    96315756.580         884.819          40.000  
R03  23040504.370   123337536.443        1806.138          34.000    23040515.514                        1404.485          30.000  
G28  24464644.758   128562528.770       -3285.134          41.000    24464651.625   100178546.209       -2559.567          38.000  
E03  27080565.562   142309376.3721       1614.108          33.000    27080569.685   109042221.297        1236.541          38.000  
E09  24197113.948   127156701.793       -2516.369          47.000    24197119.583    97431722.353       -1928.017          52.000  
E34  24444301.728   128455699.743        1056.476          46.000    24444309.034    98427076.953         809.604          51.000  
E05  22033723.737   115787951.968           3.859          47.000    22033729.653    88720657.236           2.918          52.000  
G17  21897473.283   115071946.463       -1805.782          45.000    21897475.418    89666451.862       -1407.338          44.000  
E18  28641129.700   150510071.927       -1704.109          44.000                                                                  
E04                                                                  28259770.918                3      -2682.758          24.000  
> 2024 04 16 13 38 00.4990000  0 26                     
G31  22944389.248   120573634.252       -1634.492          44.000    22944391.280    93953457.991       -1273.685          44.000  
G02  21114596.352   110957914.894       -3608.338          48.000                                                                  
G19  23272161.759   122296093.216         -59.121          43.000                                                                  
G03  20707493.676   108818613.144        -857.160          49.000    20707495.458    84793677.398        -668.083          45.000  
G04  19959612.634   104888432.764        -449.204          49.000    19959611.998    81731223.146        -350.033          49.000  
R23  23602062.606                       -5359.668          25.000                                                                  
R24  19655154.659   105104728.054       -3246.877          53.000    19655156.196    81748216.996       -2525.352          49.000  
R02  19901022.860   106195375.883        -443.490          53.000    19901025.532    82596479.692        -344.948          50.000  
G21  21740852.980   114248844.321       -4431.145          47.000                                                                  
S33  39584631.721   208018593.903        -844.062          42.000  
S31  38632647.973   203015935.044        -844.452          44.000  
E36  23281989.198   122347644.871       -1544.265          46.000    23281996.849    93746951.668       -1183.305          53.000  
G09  22104679.641   116160886.100        1643.365          43.000    22104684.815    90515024.084        1280.510          42.000  
E11  25330841.156   133114354.153       -3426.339          42.000    25330849.329   101996733.952       -2625.257          45.000  
R01  20579863.155   110011280.032       -3049.347          50.000    20579866.002    85564164.901       -2371.820          45.000  
R17  19950363.243   106758340.330        1104.067          53.000    19950362.889    83034257.471         858.706          50.000  
R11  23167613.235   123800732.945        1123.548          41.000    23167620.978    96289373.550         873.955          41.000  
R03  23030401.322   123283452.790        1799.791          36.000    23030409.984                        1399.786          27.000  
G28  24483432.366   128661254.070       -3296.536          42.000    24483438.858   100255474.793       -2568.654          38.000  
E03  27071350.693   142261010.763        1610.373          35.000    27071365.969   109005161.949        1233.946          38.000  
E09  24211490.523   127232252.285       -2520.576          47.000    24211496.585    97489611.625       -1931.360          52.000  
E34  24438285.526   128424082.863        1051.109          47.000    24438292.424    98402851.082         805.374          51.000  
E05  22033725.024   115787958.136          -4.362          48.000    22033730.611    88720661.969          -3.366          52.000  
G17  21907832.075   115126382.621       -1823.167          45.000    21907833.781    89708869.562       -1420.641          44.000  
E18  28650848.677   150561141.868       -1700.761          44.000                                                                  
E04                                                                  28279741.079                3      -2684.022          23.000  
> 2024 04 16 13 38 30.4990000  0 26                     
G31  22953762.329   120622890.096       -1649.490          44.000    22953764.915    93991839.101       -1285.312          44.000  
G02  21135230.758   111066349.023       -3620.995          48.000                                                                  
G19  23272540.595   122298085.776         -74.169          44.000                                                                  
G03  20712394.936   108844368.742        -860.508          49.000    20712396.483    84813746.687        -670.624          45.000  
G04  19962217.467   104902117.557        -463.370          49.000    19962216.502    81741886.615        -361.188          49.000  
R23  23632126.024                3      -5360.671          25.000                                                                  
R24  19673426.827   105202440.522       -3267.655          52.000    19673428.204    81824215.479       -2541.465          49.000  
R02  19903544.762   106208834.922        -454.111          52.000    19903547.861    82606947.839        -353.228          50.000  
G21  21766176.986   114381922.219       -4441.146          46.000                                                                  
S33  39589444.465   208043885.217        -842.609          43.000  
S31  38637463.350   203041239.849        -842.843          44.000  
E36  23290834.476   122394122.958       -1554.549          46.000    23290841.260    93782564.703       -1191.153          53.000  
G09  22095320.591   116111705.649        1634.664          43.000    22095327.089    90476701.743        1273.741          44.000  
E11  25350413.796   133217207.578       -3430.996          42.000    25350421.744   102075543.488       -2628.828          45.000  
R01  20596982.467   110102790.838       -3051.733          49.000    20596985.374    85635339.890       -2373.633          44.000  
R17  19944232.675   106725536.947        1082.515          53.000    19944232.651    83008743.759         841.961          50.000  
R11  23161344.634   123767239.592        1108.995          33.000    23161351.105    96263323.277         862.530          36.000  
R03  23020333.850   123229558.712        1793.172          37.000    23020343.908    95845346.598        1394.543          36.000  
G28  24502283.458   128760313.996       -3307.721          42.000    24502290.134   100332664.115       -2577.559          38.000  
E03  27062169.079   142212739.931        1607.432          35.000    27062179.664   108968175.273        1231.605          38.000  
E09  24225891.449   127307929.058       -2524.849          47.000    24225897.457    97547597.666       -1934.676          52.000  
E34  24432299.921   128392629.038        1045.461          47.000    24432306.831    98378750.139         801.114          51.000  
E05  22033772.098   115788206.748         -12.533          48.000    22033777.712    88720852.484          -9.597          52.000  
G17  21918287.955   115181329.105       -1840.411          44.000    21918291.111    89751684.928       -1433.969          45.000  
E18  28660547.910   150612112.246       -1697.564          44.000                                                                  
E04                                                                  28299690.157                3      -2676.837          24.000  
> 2024 04 16 13 39 00.5000000  0 26                     
G31  22963221.097   120672597.956       -1664.336          44.000    22963223.991    94030572.486       -1296.949          43.000  
G02  21155937.935   111175166.933       -3633.401          48.000                                                                  
G19  23273005.579   122300530.497         -88.967          45.000                                                                  
G03  20717314.466   108870223.740        -863.574          49.000    20717316.645    84833893.420        -672.784          44.000  
G04  19964902.322   104916227.922        -477.371          49.000    19964902.133    81752881.705        -372.058          50.000  
R23  23662206.299                3      -5351.965          22.000                                                                  
R24  19691817.482   105300778.876       -3288.070          52.000    19691817.396    81900700.781       -2557.381          48.000  
R02  19906125.740   106222611.623        -464.455          52.000    19906129.063    82617663.046        -361.301          50.000  
G21  21791558.066   114515299.043       -4450.531          47.000                                                                  
S33  39594246.580   208069121.429        -840.116          42.000  
S31  38642268.614   203066490.446        -840.677          44.000  
E36  23299737.670   122440908.460       -1564.430          46.000    23299744.377    93818413.305       -1198.807          53.000  
G09  22086012.048   116062786.236        1626.457          44.000    22086017.527    90438582.824        1267.381          44.000  
E11  25370013.067   133320199.653       -3434.924          42.000    25370020.464   102154459.259       -2632.092          44.000  
R01  20614115.902   110194377.572       -3054.024          49.000    20614118.251    85706573.961       -2375.392          45.000  
R17  19938223.417   106693380.157        1061.032          53.000    19938223.407    82983732.954         825.240          50.000  
R11  23155155.958   123734178.205        1094.654          36.000    23155160.455    96237608.890         851.445          34.000  
R03  23010301.612   123175853.872        1786.806          40.000    23010310.083    95803576.162        1389.644          37.000  
G28  24521198.462   128859711.106       -3318.931          40.000    24521204.904   100410116.193       -2585.612          38.000  
E03  27053001.803   142164564.520        1604.345          36.000    27053011.807   108931261.705        1229.313          39.000  
E09  24240317.304   127383734.657       -2528.826          47.000    24240322.641    97605682.400       -1937.671          52.000  
E34  24426345.431   128361340.350        1040.208          46.000    24426352.947    98354775.722         797.039          51.000  
E05  22033865.260   115788698.959         -20.368          47.000    22033871.434    88721229.652         -15.597          51.000  
G17  21928841.317   115236787.581       -1856.990          46.000    21928845.026    89794899.244       -1447.045          45.000  
E18  28670228.677   150662985.667       -1694.023          44.000                                                                  
E04                                                                  28319623.663                3      -2663.312          20.000  
> 2024 04 16 13 39 30.5000000  0 26                     
G31  22972766.676   120722760.128       -1680.026          44.000    22972769.070    94069659.854       -1309.246          42.000  
G02  21176717.942   111284365.307       -3646.663          47.000                                                                  
G19  23273558.342   122303433.842        -104.721          45.000                                                                  
G03  20722254.683   108896182.740        -867.401          50.000    20722256.689    84854121.160        -675.830          44.000  
G04  19967669.231   104930768.055        -492.174          49.000    19967669.718    81764211.675        -383.550          50.000  
R23  23692264.971                3      -5369.231          17.000                                                                  
R24  19710324.062   105399739.764       -3309.405          52.000    19710324.089    81977670.249       -2573.920          49.000  
R02  19908767.772   106236709.698        -475.607          52.000    19908770.239    82628628.226        -369.937          49.000  
G21  21816995.468   114648968.951       -4460.803          47.000                                                                  
S33  39599039.652   208094308.028        -838.822          42.000  
S31  38647063.810   203091691.561        -839.588          44.000  
E36  23308698.307   122488004.469       -1575.478          45.000    23308706.549    93854499.831       -1207.142          53.000  
G09  22076754.702   116014137.811        1616.835          45.000    22076759.521    90400675.046        1259.843          43.000  
E11  25389638.798   133423328.488       -3440.134          42.000    25389645.339   102233479.794       -2635.905          44.000  
R01  20631262.755   110286038.029       -3056.929          50.000    20631266.340    85777865.324       -2377.688          45.000  
R17  19932336.634   106661881.376        1038.673          52.000    19932336.980    82959233.937         807.845          50.000  
R11  23149052.663                        1080.060          31.000    23149054.620    96212239.973         839.469          36.000  
R03  23000303.056   123122348.282        1779.765          41.000    23000312.568    95761960.846        1384.527          41.000  
G28  24540176.963   128959442.502       -3330.300          39.000    24540184.233   100487828.712       -2594.915          38.000  
E03  27043854.109   142116494.260        1600.332          37.000    27043864.085   108894428.721        1226.056          39.000  
E09  24254767.476   127459668.475       -2533.630          47.000    24254772.546    97663865.392       -1941.353          52.000  
E34  24420425.254   128330226.513        1033.882          46.000    24420432.320    98330935.270         792.206          52.000  
E05  22034006.639   115789440.268         -29.087          47.000    22034012.265    88721797.699         -22.356          51.000  
G17  21939492.014   115292758.032       -1874.522          45.000    21939495.633    89838512.527       -1460.692          45.000  
E18  28679891.194   150713764.088       -1691.355          44.000                                                                  
E04                                                                  28339535.150                3      -2663.793          20.000  
> 2024 04 16 13 40 00.0000000  0 25                     
G31  22982239.572   120772541.290       -1695.333          44.000    22982242.290    94108450.286       -1321.083          43.000  
G02  21197224.954   111392127.417       -3659.597          48.000                                                                  
G19  23274189.054   122306746.798        -120.127          44.000                                                                  
G03  20727134.302   108921822.663        -871.381          50.000    20727135.903    84874100.289        -679.022          45.000  
G04  19970471.581   104945495.518        -506.654          49.000    19970472.424    81775687.601        -394.769          50.000  
R24  19728637.802   105497669.926       -3330.246          53.000    19728637.109    82053838.033       -2590.074          49.000  
R02  19911425.745   106250896.050        -486.606          52.000    19911428.462    82639662.083        -378.469          49.000  
G21  21842065.197   114780709.583       -4470.930          47.000                                                                  
S33  39603745.504   208119038.226        -837.839          42.000  
S31  38651772.506   203116435.326        -838.393          44.000  
E36  23317571.374   122534631.027       -1586.010          45.000    23317579.251    93890226.629       -1215.204          53.000  
G09  22067704.247   115966574.487        1607.636          46.000    22067707.528    90363612.787        1252.768          43.000  
E11  25408964.215   133524885.137       -3445.521          41.000    25408971.098   102311295.683       -2639.977          44.000  
R01  20648139.588   110376254.825       -3059.792          50.000    20648142.818    85848033.855       -2379.954          45.000  
R17  19926670.385   106631561.963        1016.664          52.000    19926671.232    82935652.201         790.736          50.000  
R11  23143133.497   123669933.831        1064.228          36.000    23143139.631    96187641.190         828.164          40.000  
R03  22990512.352   123069938.203        1772.944          41.000    22990521.232    95721197.589        1379.046          39.000  
G28  24558903.189   129057849.598       -3341.353          37.000    24558910.210   100564509.362       -2604.042          36.000  
E03  27034877.586   142069337.681        1596.448          37.000    27034891.686   108858295.779        1223.174          40.000  
E09  24269002.725   127534473.687       -2538.151          47.000    24269007.732    97721183.608       -1944.845          52.000  
E34  24414637.021   128299813.223        1027.706          46.000    24414644.971    98307631.623         787.502          52.000  
E05  22034193.461   115790422.658         -37.606          48.000    22034199.124    88722550.467         -28.872          51.000  
G17  21950062.414   115348305.769       -1891.849          45.000    21950064.906    89881796.401       -1474.155          43.000  
E18  28689378.407   150763615.574       -1688.635          44.000                                                                  
E04                                                                  28359099.069                3      -2669.692          21.000  
> 2024 04 16 13 40 30.0000000  0 25                     
G31  22991960.334   120823624.150       -1710.581          43.000    22991962.719    94148255.067       -1332.659          42.000  
G02  21218151.641   111502099.773       -3672.177          48.000                                                                  
G19  23274918.088   122310577.733        -135.591          44.000                                                                  
G03  20732117.326   108948008.820        -874.799          50.000    20732118.962    84894505.066        -681.537          45.000  
G04  19973403.920   104960904.502        -520.872          49.000    19973404.470    81787694.586        -405.902          49.000  
R24  19747378.275   105597881.950       -3350.899          53.000    19747377.352    82131780.608       -2606.296          49.000  
R02  19914190.419   106265646.106        -497.075          52.000    19914192.917    82651134.372        -386.684          50.000  
G21  21867615.360   114914979.838       -4480.779          46.000                                                                  
S33  39608523.458   208144145.477        -836.471          43.000  
S31  38656553.265   203141557.349        -836.711          43.000  
E36  23326655.188   122582364.694       -1596.429          45.000    23326662.727    93926801.742       -1223.271          54.000  
G09  22058551.682   115918480.465        1598.307          46.000    22058555.561    90326137.032        1245.585          42.000  
E11  25428644.499   133628307.024       -3449.708          40.000    25428651.990   102390540.753       -2643.242          44.000  
R01  20665316.428   110468080.219       -3062.138          49.000    20665320.194    85919453.491       -2381.677          45.000  
R17  19921033.568   106601393.074         994.397          53.000    19921032.708    82912187.503         773.443          49.000  
R11  23137195.927   123638224.029        1048.909          35.000    23137207.196    96162978.053         816.088          42.000  
R03  22980593.926   123016842.327        1766.570          41.000    22980601.298    95679900.916        1373.636          37.000  
G28  24578011.064   129158261.919       -3352.832          36.000    24578018.505   100642752.448       -2612.430          36.000  
E03  27025775.235   142021492.617        1592.911          39.000    27025787.877   108821635.274        1220.306          41.000  
E09  24283504.570   127610680.467       -2542.515          47.000    24283509.489    97779575.741       -1948.174          52.000  
E34  24408786.063   128269066.970        1021.749          46.000    24408794.122    98284072.835         782.927          52.000  
E05  22034431.672   115791674.808         -46.055          48.000    22034437.559    88723509.923         -35.369          51.000  
G17  21960909.917   115405307.487       -1908.618          46.000    21960912.265    89926213.252       -1487.379          44.000  
E18  28699009.415   150814225.151       -1685.566          45.000                                                                  
E04                                                                  28378982.515                3      -2666.089          23.000  
> 2024 04 16 13 41 00.0000000  0 25                     
G31  23001770.712   120875178.792       -1726.594          43.000    23001774.483    94188427.514       -1345.484          43.000  
G02  21239153.556   111612467.462       -3685.769          47.000                                                                  
G19  23275737.559   122314885.831        -151.859          44.000                                                                  
G03  20737123.758   108974318.389        -879.169          50.000    20737125.664    84915006.000        -685.016          46.000  
G04  19976421.131   104976758.603        -536.145          49.000    19976420.950    81800048.403        -417.709          49.000  
R24  19766236.884   105698729.071       -3372.331          53.000    19766236.655    82210217.136       -2622.939          49.000  
R02  19917017.965   106280730.847        -508.571          52.000    19917019.577    82662866.961        -395.616          50.000  
G21  21893224.726   115049557.003       -4491.246          46.000                                                                  
S33  39613295.034   208169220.441        -835.444          42.000  
S31  38661327.528   203166646.556        -836.066          44.000  
E36  23335801.073   122630428.503       -1607.835          45.000    23335808.853    93963629.809       -1231.921          54.000  
G09  22049454.563   115870675.347        1588.432          46.000    22049458.226    90288886.372        1237.908          43.000  
E11  25448354.334   133731883.504       -3455.390          40.000    25448362.675   102469904.277       -2647.497          45.000  
R01  20682511.872   110559994.248       -3065.486          50.000    20682514.661    85990942.106       -2384.266          45.000  
R17  19915523.696   106571907.648         971.230          53.000    19915522.101    82889254.439         755.479          49.000  
R11  23131349.184   123606986.068        1032.377          33.000    23131362.041    96138681.902         803.651          42.000  
R03  22970714.963   122963961.599        1759.182          41.000    22970722.881    95638771.573        1368.172          40.000  
G28  24597183.745   129259022.395       -3364.259          36.000    24597192.725   100721266.910       -2621.812          36.000  
E03  27016693.040   141973770.195        1588.568          39.000    27016705.434   108785068.766        1217.120          41.000  
E09  24298033.386   127687030.939       -2547.679          47.000    24298038.495    97838077.978       -1952.004          52.000  
E34  24402972.435   128238516.841        1014.762          46.000    24402980.456    98260664.322         777.637          51.000  
E05  22034720.384   115793192.197         -55.145          48.000    22034726.139    88724672.601         -42.272          51.000  
G17  21971857.828   115462834.603       -1926.487          46.000    21971859.486    89971039.473       -1501.056          44.000  
E18  28708625.774   150864756.956       -1683.277          45.000                                                                  
E04                                                                  28398848.169                3      -2666.160          22.000  
> 2024 04 16 13 41 30.5000000  0 26                     
G31  23011838.297   120928082.223       -1742.736          43.000    23011840.477    94229650.910       -1357.798          42.000  
G02  21260584.347   111725084.292       -3699.017          48.000                                                                  
G19  23276665.825   122319761.144        -168.309          44.000                                                                  
G03  20742239.482   109001200.030        -883.594          50.000    20742240.848    84935952.688        -688.446          45.000  
G04  19979576.456   104993338.940        -551.301          49.000    19979576.101    81812968.150        -429.685          50.000  
R24  19785532.415   105801911.557       -3393.856          53.000    19785532.678    82290470.079       -2639.800          49.000  
R02  19919957.342   106296415.008        -520.075          52.000    19919959.851    82675065.747        -404.474          51.000  
G21  21919321.009   115186695.559       -4501.721          46.000                                                                  
S33  39618141.347   208194688.162        -834.804          42.000  
S31  38666177.131   203192128.760        -834.918          44.000  
E36  23345166.330   122679638.675       -1619.234          45.000    23345173.347    94001336.252       -1240.669          54.000  
G09  22040263.657   115822377.055        1578.506          45.000    22040267.612    90251251.414        1229.978          43.000  
E11  25468425.099   133837350.309       -3460.667          41.000    25468432.970   102550716.214       -2651.595          45.000  
R01  20700010.699   110653535.819       -3068.567          49.000    20700014.207    86063696.566       -2386.377          45.000  
R17  19910054.366   106542641.437         947.678          53.000    19910053.473    82866491.883         737.007          49.000  
R11  23125492.563   123575720.717        1016.712          36.000    23125510.323    96114364.645         790.835          40.000  
R03  22960712.806   122910426.991        1751.461          42.000    22960722.762    95597133.663        1362.231          41.000  
G28  24616745.499   129361823.516       -3377.475          34.000    24616755.142   100801371.440       -2630.416          35.000  
E03  27007486.124   141925385.392        1584.176          40.000    27007498.211   108747994.716        1213.903          42.000  
E09  24312833.617   127764806.288       -2552.584          47.000    24312838.848    97897672.011       -1955.888          52.000  
E34  24397102.276   128207666.898        1007.971          45.000    24397109.706    98237026.090         772.317          51.000  
E05  22035067.251   115795012.976         -64.362          48.000    22035072.440    88726067.749         -49.335          51.000  
G17  21983090.531   115521863.297       -1944.455          45.000    21983091.707    90017035.766       -1514.897          44.000  
E18  28718387.875   150916057.258       -1680.802          45.000                                                                  
E04                                                                  28419032.488                3      -2666.182          20.000  
R18                                                                  23533076.030                3       2582.812          13.000  
> 2024 04 16 13 42 00.5000000  0 25                     
G31  23021832.808   120980603.516       -1758.656          45.000    23021834.635    94270576.562       -1370.242          41.000  
G02  21281740.335   111836260.088       -3712.531          47.000                                                                  
G19  23277671.525   122325048.068        -184.415          44.000                                                                  
G03  20747297.344   109027776.942        -888.068          50.000    20747298.288    84956661.996        -692.218          46.000  
G04  19982766.739   105010105.192        -566.427          49.000    19982766.581    81826032.750        -441.345          50.000  
R24  19804632.878   105904048.108       -3415.220          52.000    19804632.738    82369909.498       -2656.267          49.000  
R02  19922913.799   106312187.178        -531.423          52.000    19922915.946    82687333.018        -413.402          51.000  
G21  21945049.917   115321900.500       -4512.051          45.000                                                                  
S33  39622904.217   208219716.188        -833.718          42.000  
S31  38670942.341   203217171.146        -834.149          44.000  
E36  23354442.724   122728386.101       -1630.598          46.000    23354449.858    94038688.120       -1249.394          54.000  
G09  22031281.428   115775173.930        1568.582          46.000    22031285.908    90214469.839        1221.913          44.000  
E11  25488196.356   133941252.526       -3466.110          41.000    25488205.012   102630329.328       -2655.893          44.000  
R01  20717241.123   110745640.177       -3071.796          49.000    20717244.343    86135333.193       -2389.062          45.000  
R17  19904806.399   106514561.080         924.343          53.000    19904805.911    82844651.634         718.861          49.000  
R11  23119835.035   123545461.902        1000.055          37.000    23119846.803    96090830.172         778.242          39.000  
R03  22950918.832   122857997.804        1743.945          43.000    22950929.206    95556355.500        1356.499          42.000  
G28  24636054.867   129463296.471       -3388.196          33.000    24636064.770   100880441.010       -2639.704          33.000  
E03  26998455.944   141877929.331        1579.586          41.000    26998468.037   108711632.322        1210.483          43.000  
E09  24327419.578   127841459.176       -2557.549          47.000    24327425.644    97956405.981       -1959.692          52.000  
E34  24391368.350   128177534.433        1000.859          46.000    24391375.550    98213937.610         766.985          51.000  
E05  22035461.255   115797081.097         -73.421          49.000    22035466.369    88727652.429         -56.329          51.000  
G17  21994241.439   115580460.502       -1962.092          44.000    21994242.575    90062695.837       -1529.049          44.000  
E18  28727976.213   150966447.555       -1678.529          44.000                                                                  
E04                                                                  28438864.632                3      -2648.845          12.000  
> 2024 04 16 13 42 30.5000000  0 24                     
G31  23031921.389   121033613.572       -1775.257          46.000    23031923.671    94311883.091       -1383.256          43.000  
G02  21302974.373   111947843.778       -3726.332          48.000                                                                  
G19  23278772.155   122330831.333        -201.266          44.000                                                                  
G03  20752381.654   109054497.622        -893.250          49.000    20752383.282    84977483.291        -696.124          45.000  
G04  19986044.791   105027332.951        -582.043          48.000    19986045.450    81839456.987        -453.555          50.000  
R24  19823853.346   106006830.317       -3436.941          52.000    19823854.166    82449851.110       -2673.146          49.000  
R02  19925934.369   106328308.661        -543.281          51.000    19925937.145    82699871.944        -422.622          50.000  
G21  21970839.867   115457423.183       -4522.825          46.000                                                                  
S33  39627664.533   208244731.947        -833.832          42.000  
S31  38675705.252   203242200.611        -834.319          44.000  
E36  23363786.099   122777483.418       -1642.595          46.000    23363792.853    94076308.074       -1258.563          53.000  
G09  22022358.558   115728280.965        1557.730          46.000    22022361.853    90177929.964        1213.618          44.000  
E11  25508000.382   134045325.268       -3472.149          40.000    25508010.304   102710073.123       -2660.456          45.000  
R01  20734490.169   110837846.799       -3075.299          49.000    20734493.504    86207049.376       -2391.858          45.000  
R17  19899691.248   106487192.440         900.267          52.000    19899691.416    82823364.923         700.224          50.000  
R11  23114269.065   123515704.584         983.271          42.000    23114277.738    96067685.784         764.751          41.000  
R03  22941169.702   122805803.192        1735.857          45.000    22941179.155    95515759.843        1349.833          43.000  
G28  24655432.009                       -3401.018          31.000    24655444.038   100959791.441       -2649.594          34.000  
E03  26989451.690   141830616.809        1574.274          40.000    26989464.820   108675379.958        1206.473          43.000  
E09  24342036.115   127918270.401       -2563.193          46.000    24342042.351    98015261.273       -1963.975          52.000  
E34  24385676.420   128147622.144         993.195          46.000    24385683.291    98191017.851         760.972          51.000  
E05  22035908.848   115799432.192         -83.116          49.000    22035914.046    88729453.931         -63.832          52.000  
G17  22005493.466   115639595.742       -1980.300          44.000    22005496.111    90108775.172       -1543.116          44.000  
E18  28737554.295   151016777.367       -1676.812          44.000                                                                  
> 2024 04 16 13 43 00.0000000  0 24                     
G31  23041935.820   121086238.701       -1792.534          45.000    23041937.233    94352889.624       -1396.804          41.000  
G02  21323933.515   112057985.885       -3740.854          48.000                                                                  
G19  23279950.533   122337024.915        -218.860          44.000                                                                  
G03  20757412.305   109080936.004        -899.298          49.000    20757414.435    84998084.611        -700.836          45.000  
G04  19989357.990   105044745.132        -598.411          48.000    19989358.443    81853024.919        -466.420          49.000  
R24  19842874.617   106108548.871       -3459.209          52.000    19842875.546    82528965.440       -2690.475          48.000  
R02  19928971.695   106344523.129        -556.059          50.000    19928975.565    82712483.220        -432.504          50.000  
G21  21996261.675   115591016.420       -4534.502          46.000                                                                  
S33  39632347.302   208269340.434        -834.612          42.000  
S31  38680390.961   203266823.338        -835.377          44.000  
E36  23373042.750   122826126.188       -1655.508          46.000    23373049.210    94113579.757       -1268.454          53.000  
G09  22013644.677   115682495.003        1546.351          46.000    22013648.736    90142252.674        1205.120          44.000  
E11  25527510.376   134147851.185       -3478.687          40.000    25527520.569   102788631.673       -2665.511          45.000  
R01  20751473.879   110928637.353       -3079.804          49.000    20751476.965    86277664.183       -2395.532          44.000  
R17  19894796.536   106460999.900         875.477          52.000    19894796.857    82802992.975         680.971          50.000  
R11  23108891.587   123486958.497         965.469          45.000    23108898.864    96045327.906         751.100          40.000  
R03  22931628.551   122754730.181        1726.887          45.000    22931637.244    95476036.477        1343.001          44.000  
G28  24674555.774                       -3413.026          30.000    24674569.771   101038108.850       -2660.053          32.000  
E03  26980629.864   141784255.748        1568.259          41.000    26980642.293   108639856.613        1201.836          43.000  
E09  24356443.127   127993976.808       -2569.521          47.000    24356448.959    98073270.015       -1968.845          52.000  
E34  24380125.017   128118447.089         984.718          46.000    24380131.816    98168662.978         754.436          51.000  
E05  22036405.368   115802042.007         -93.777          49.000    22036410.740    88731453.664         -71.873          52.000  
G17  22016662.769   115698290.252       -1999.122          45.000    22016665.355    90154511.043       -1557.637          44.000  
E18  28746963.939   151066231.173       -1676.180          43.000                                                                  
> 2024 04 16 13 43 30.0000000  0 25                     
G31  23052218.933   121140277.691       -1810.300          44.000    23052219.557    94394997.897       -1410.813          40.000  
G02  21345331.580   112170433.361       -3756.010          48.000                                                                  
G19  23281250.375   122343854.030        -236.900          45.000                                                                  
G03  20762562.757   109108004.312        -905.554          49.000    20762564.924    85019176.793        -705.658          45.000  
G04  19992821.638   105062946.681        -615.326          48.000    19992821.310    81867207.929        -479.517          49.000  
R24  19862345.043   106212664.881       -3482.172          51.000    19862345.764    82609944.469       -2708.318          48.000  
R02  19932132.791   106361394.431        -569.104          50.000    19932136.919    82725605.343        -442.608          50.000  
R18  23458798.206                1       3302.084          30.000                                                                  
G21  22022181.419   115727222.230       -4546.209          46.000                                                                  
S33  39637114.922   208294392.133        -835.931          43.000  
S31  38685160.930   203291889.024        -836.115          44.000  
E36  23382528.757   122875979.058       -1668.483          46.000    23382535.789    94151778.661       -1278.466          53.000  
G09  22004850.041   115636280.260        1534.273          46.000    22004855.057    90106241.271        1195.523          45.000  
E11  25547390.324   134252320.274       -3485.803          40.000    25547400.021   102868679.135       -2670.948          44.000  
R01  20768771.962   111021103.354       -3084.827          49.000    20768774.623    86349582.097       -2399.225          44.000  
R17  19889959.505   106435113.947         849.907          52.000    19889959.573    82782859.486         661.122          50.000  
R11  23103523.284   123458268.945         946.847          44.000    23103527.854    96023013.904         736.547          38.000  
R03  22921975.619   122703063.669        1717.381          45.000    22921985.577    95435851.575        1335.720          46.000  
G28  24694085.914   129768239.914       -3426.894          31.000    24694096.295   101118058.527       -2670.214          33.000  
E03  26971690.501   141737290.652        1562.106          39.000    26971704.622   108603870.456        1196.901          42.000  
E09  24371129.601   128071158.807       -2576.221          46.000    24371136.490    98132409.408       -1974.027          52.000  
E34  24374528.579   128089037.483         975.544          47.000    24374535.256    98146128.387         747.584          51.000  
E05  22036970.329   115805014.121        -104.739          49.000    22036976.153    88733730.997         -80.211          52.000  
G17  22028129.820   115758547.103       -2018.355          47.000    22028132.433    90201464.321       -1572.800          45.000  
E18  28756528.673   151116500.318       -1675.617          42.000                                                                  
> 2024 04 16 13 44 00.0000000  0 25                     
G31  23062604.373   121194851.987       -1827.729          45.000    23062603.902    94437523.286       -1424.576          38.000  
G02  21366815.931   112283331.000       -3770.620          49.000                                                                  
G19  23282652.872   122351228.323        -254.721          44.000                                                                  
G03  20767750.501   109135266.186        -911.761          49.000    20767752.822    85040419.799        -710.443          45.000  
G04  19996381.367   105081655.480        -631.831          48.000    19996381.617    81881786.200        -492.406          49.000  
R24  19881942.776   106317467.028       -3504.568          51.000    19881944.520    82691457.150       -2725.847          49.000  
R02  19935368.452   106378659.453        -581.939          50.000    19935372.002    82739033.674        -452.535          49.000  
R18  23440257.632                        3294.555          32.000    23440257.122                3       2563.998          26.000  
G21  22048168.847   115863785.683       -4557.937          46.000                                                                  
S33  39641888.966   208319479.255        -836.769          42.000  
S31  38689937.433   203316990.222        -837.228          44.000  
E36  23392091.544   122926230.871       -1681.428          46.000    23392098.285    94190283.237       -1288.377          53.000  
G09  21996124.833   115590426.151        1522.757          46.000    21996129.783    90070510.893        1186.375          45.000  
E11  25567312.120   134357005.301       -3492.867          39.000    25567321.334   102948892.072       -2676.313          44.000  
R01  20786097.211   111113715.379       -3089.240          49.000    20786099.912    86421613.579       -2402.692          44.000  
R17  19885265.860   106409997.758         824.657          52.000    19885265.377    82763324.710         641.335          49.000  
R11  23098260.018   123430140.764         928.515          45.000    23098264.973    96001136.575         721.856          40.000  
R03  22912378.427   122651681.330        1708.170          48.000    22912387.277    95395887.722        1328.617          46.000  
G28  24713688.184                       -3440.425          28.000    24713696.607                       -2681.017          30.000  
E03  26962790.669   141690519.371        1555.720          40.000    26962803.961   108568032.780        1192.159          42.000  
E09  24385855.807   128148543.283       -2582.759          46.000    24385862.232    98191703.923       -1978.898          52.000  
E34  24368984.531   128059901.504         966.863          47.000    24368990.817    98123803.465         740.719          51.000  
E05  22037598.880   115808316.387        -115.438          49.000    22037604.474    88736261.296         -88.405          51.000  
G17  22039707.318   115819384.245       -2037.359          47.000    22039708.578    90248869.814       -1587.634          44.000  
E18  28766091.753   151166755.654       -1674.766          42.000                                                                  
> 2024 04 16 13 44 30.5000000  0 25                     
G31  23073265.304   121250877.183       -1845.872          45.000    23073266.037    94481179.204       -1438.331          40.000  
G02  21388744.450   112398562.367       -3785.649          50.000                                                                  
G19  23284184.415   122359277.734        -273.334          44.000                                                                  
G03  20773061.631   109163174.436        -918.378          50.000    20773063.932    85062166.502        -715.521          46.000  
G04  20000098.460   105101188.197        -649.054          47.000    20000098.819    81897006.484        -505.699          49.000  
R24  19901998.906   106424709.025       -3527.699          52.000    19901998.593    82774867.473       -2743.642          48.000  
R02  19938733.038   106396607.043        -595.098          52.000    19938735.007    82752992.901        -462.827          49.000  
R18  23421454.154                        3285.934          31.000    23421465.264    97241911.2091       2556.455          32.000  
G21  22074657.136   116002982.399       -4569.818          46.000                                                                  
S33  39646747.305   208345014.076        -837.719          42.000  
S31  38694799.420   203342539.570        -838.245          44.000  
E36  23401890.027   122977722.366       -1695.077          46.000    23401897.021    94229737.691       -1298.731          53.000  
G09  21987322.425   115544171.251        1510.380          45.000    21987328.037    90034468.192        1176.957          46.000  
E11  25587605.148   134463648.389       -3500.253          39.000    25587614.904   103030605.357       -2681.910          44.000  
R01  20803737.303   111208011.472       -3094.135          49.000    20803740.697    86494954.901       -2406.421          45.000  
R17  19880640.579   106385247.986         798.371          52.000    19880640.335    82744074.911         621.061          49.000  
R11  23093014.251   123402115.946         909.195          44.000    23093021.606    95979339.647         707.185          40.000  
R03  22902672.630   122599726.866        1698.610          50.000    22902680.108    95355478.894        1321.146          45.000  
E03  26953779.094   141643160.778        1549.111          40.000    26953791.826   108531745.084        1187.227          43.000  
E09  24400864.579   128227416.546       -2589.419          46.000    24400871.317    98252139.212       -1984.078          52.000  
E34  24363399.646   128030555.186         957.493          47.000    24363406.142    98101317.362         733.625          51.000  
E05  22038300.587   115812004.646        -126.572          48.000    22038306.608    88739087.355         -96.981          52.000  
G17  22051587.818   115881820.634       -2056.808          46.000    22051590.088    90297521.467       -1602.782          44.000  
E18  28775812.069   151217826.918       -1674.272          43.000                                                                  
G28                                                                  24733702.789                       -2690.773          29.000  
