     3.00           OBSERVATION DATA    M: Mixed            RINEX VERSION / TYPE
CONVBIN 2.4.3                           20240416 015942 UTC PGM / RUN BY / DATE 
format: u-blox UBX                                          COMMENT             
log: /home/regis/git/gnsspwv/obsdata/VERT00CHL/2024-04-16/VECOMMENT             
{self.marker}                                               MARKER NAME         
                                                            MARKER NUMBER       
GEODETIC                                                    MARKER TYPE         
{self.observer}     {self.institution}                      OBSERVER / AGENCY   
UNKNOWN             UBLOX-ZED-F9P                           REC # / TYPE / VERS 
UNKNOWN             TWIVSP6037L                             ANT # / TYPE        
  1713381.0000 -5047934.0000 -3490983.0000                  APPROX POSITION XYZ 
        0.0000        0.0000        0.0000                  ANTENNA: DELTA H/E/N
G    8 C1C L1C D1C S1C C2L L2L D2L S2L                      SYS / # / OBS TYPES 
R    8 C1C L1C D1C S1C C2C L2C D2C S2C                      SYS / # / OBS TYPES 
E    8 C1C L1C D1C S1C C7Q L7Q D7Q S7Q                      SYS / # / OBS TYPES 
S    4 C1C L1C D1C S1C                                      SYS / # / OBS TYPES 
  2024    04    16    01    45   00.0020000     GPS         TIME OF FIRST OBS   
  2024    04    16    01    59   30.0030000     GPS         TIME OF LAST OBS    
                                                            END OF HEADER       
> 2024 04 16 01 45 00.0020000  0 24                     
G25  21800821.463   114564126.2291        339.479          46.000    21800822.670    89270764.0001        264.290          43.000  
G24  22186276.823   116589589.4661      -3184.547          48.000    22186281.995    90849003.4601      -2481.499          46.000  
G32  23878658.542   125483105.7351      -1452.530          48.000    23878664.093    97779004.9411      -1131.889          41.000  
E09  27212031.063   143000177.9021       -603.863          45.000    27212039.660   109571556.5151       -462.827          48.000  
R16  20875880.366   111515200.5111      -1362.788          51.000    20875881.409    86734039.0561      -1059.925          51.000  
R09  21313829.537   113814673.6561       1528.265          51.000    21313828.776    88522618.1621       1188.733          50.000  
R15  24218660.216   129417020.6601      -3428.077          49.000    24218666.237   100657647.2721      -2666.181          44.000  
R20  23818655.200                3       3756.273          30.000    23818668.520                3       2924.024          25.000  
G29  22208202.653   116704873.2211       1359.474          49.000    22208206.361    90938872.0421       1059.384          46.000  
S33  40377495.809   212185191.3161       -722.015          42.000  
S31  39424512.563   207177204.6791       -721.743          46.000  
G06  24626942.434   129415475.6591      -2907.324          37.000    24626939.652   100843258.5341      -2265.390          41.000  
G11  23044225.501   121098467.5581       -914.983          47.000    23044223.997    94362543.3981       -712.881          45.000  
R18  21075202.978   112500926.4511      -2986.030          50.000    21075204.538    87500746.3981      -2322.443          51.000  
R19  20199525.846   108054145.7421        596.306          43.000    20199523.390    84042283.7881        463.676          45.000  
E04  26416211.240   138818119.1041      -2731.939          47.000    26416220.860   106367178.0651      -2093.483          49.000  
G12  21926113.615   115222509.2381      -1195.297          48.000    21926112.006    89783766.4631       -931.521          46.000  
E33  26533183.526   139433039.2901       2167.541          45.000    26533198.537   106838476.5641       1660.770          49.000  
E31  26087486.421   137090747.2171        698.557          47.000    26087493.613   105043618.3381        535.332          51.000  
E13  27550613.792   144779497.3071      -2286.414          40.000    27550619.316   110934966.2041      -1751.933          42.000  
E14  20297854.160   106665966.7281        693.118          48.000    20297864.692    81731109.7001        531.095          51.000  
E26  25218956.096   132526838.5071        295.688          44.000    25218959.032   101546723.7961        226.532          48.000  
E21  27083936.364   142327010.3531      -2226.253          40.000    27083938.879   109055761.2541      -1705.704          43.000  
G28                                                                  24802886.363                        2055.489          30.000  
> 2024 04 16 01 45 30.0020000  0 24                     
G25  21798893.275   114553992.871         336.148          47.000    21798893.862    89262867.854         262.003          44.000  
G24  22204494.852   116685325.584       -3197.995          48.000    22204500.215    90923602.655       -2491.858          46.000  
G32  23886997.932   125526929.869       -1469.113          46.000    23887003.811    97813153.355       -1144.689          41.000  
E09  27215516.571   143018496.170        -617.311          45.000    27215525.677   109585592.462        -472.928          49.000  
R16  20883565.918   111556252.815       -1374.081          50.000    20883565.989    86765968.612       -1068.734          50.000  
R09  21305256.281   113768892.180        1523.670          51.000    21305255.443    88487010.361        1185.083          50.000  
R15  24237924.409   129519963.079       -3434.840          49.000    24237930.857   100737713.067       -2671.590          44.000  
R20  23797596.973                1       3751.837          36.000    23797609.638    98977278.5121       2918.121          42.000  
G29  22200478.892   116664280.423        1346.701          48.000    22200482.317    90907241.078        1049.326          43.000  
S33  40381616.796   212206848.064        -721.696          43.000  
S31  39428629.691   207198849.8741       -721.094          43.000  
G06  24643581.975   129502918.653       -2922.726          35.000    24643579.238   100911396.054       -2276.876          42.000  
G11  23049503.151   121126200.282        -933.872          47.000    23049501.314    94384153.375        -727.741          45.000  
R18  21092046.725   112590836.687       -3007.967          51.000    21092047.393    87570676.602       -2339.559          49.000  
R19  20196255.584   108036651.836         569.843          44.000    20196252.901    84028677.457         443.440          45.000  
E04  26431830.408   138900203.4631      -2739.313          48.000    26431840.857   106430059.503       -2098.712          43.000  
G12  21932949.609   115258431.137       -1199.423          48.000    21932947.929    89811757.544        -934.581          47.000  
E33  26520820.213   139368069.004        2163.707          45.000    26520834.638   106788694.596        1657.903          50.000  
E31  26083497.204   137069787.857         698.658          47.000    26083505.100   105027558.662         535.332          51.000  
E13  27563701.478   144848265.027       -2298.075          43.000    27563705.414   110987658.457       -1760.949          42.000  
E14  20293991.977   106645672.394         659.583          42.000    20294003.058    81715559.263         505.488          41.000  
E26  25217303.861   132518164.660         282.635          43.000    25217308.726   101540077.704         216.550          49.000  
E21  27096647.643   142393807.830       -2227.043          41.000    27096650.781   109106943.723       -1706.498          44.000  
G28                                                                  24787838.624                        2052.576          30.000  
> 2024 04 16 01 46 00.0020000  0 24                     
G25  21796984.432   114543961.079         332.759          47.000    21796984.658    89255050.881         259.363          44.000  
G24  22222789.947   116781467.269       -3211.331          47.000    22222794.950    90998518.068       -2502.282          45.000  
G32  23895432.241   125571253.503       -1485.792          45.000    23895438.175    97847691.022       -1157.787          41.000  
E09  27219079.147   143037216.559        -630.549          44.000    27219087.854   109599936.544        -483.043          48.000  
R16  20891314.895   111597647.893       -1385.421          51.000    20891314.966    86798164.744       -1077.598          50.000  
R09  21296708.871   113723249.339        1519.281          51.000    21296708.066    88451510.400        1181.604          49.000  
R15  24257226.901   129623114.182       -3441.651          48.000    24257235.169   100817941.171       -2676.665          45.000  
R20  23776558.021                3       3747.095          31.000    23776571.595    98889791.3983       2914.641          38.000  
G29  22192830.049   116624080.641        1333.597          47.000    22192833.011    90875916.122        1039.180          45.000  
S33  40385736.285   212228496.288        -721.571          39.000  
S31  39432745.190   207220476.045        -720.198          42.000  
G06  24660305.529   129590808.396       -2937.269          32.000    24660303.647   100979881.721       -2288.499          41.000  
G11  23054889.361   121154505.855        -952.957          46.000    23054887.886    94406209.732        -742.554          46.000  
R18  21109013.804   112681406.834       -3029.681          51.000    21109014.302    87641120.026       -2356.495          50.000  
R19  20193133.511   108019952.903         543.573          43.000    20193131.316    84015689.424         422.738          45.000  
E04  26447493.569   138982523.2741      -2747.184          52.000    26447503.436   106493119.500       -2105.017          47.000  
G12  21939811.045   115294482.454       -1203.774          49.000    21939807.912    89839849.469        -937.932          47.000  
E33  26508479.181   139303217.775        2159.969          44.000    26508493.899   106739003.860        1654.979          50.000  
E31  26079510.216   137048835.188         698.510          46.000    26079517.959   105011504.103         535.131          51.000  
E13  27576855.068   144917390.350       -2310.111          42.000    27576859.542   111040624.702       -1770.070          42.000  
E14  20290323.073   106626389.955         626.098          45.000    20290333.261    81700784.706         479.910          48.000  
E26  25215728.991   132509890.178         269.215          43.000    25215734.232   101533737.618         206.408          49.000  
E21  27109363.887   142460640.565       -2228.330          40.000    27109368.063   109158153.209       -1707.225          43.000  
G28                                                                  24772812.293                        2049.453          30.000  
> 2024 04 16 01 46 30.0020000  0 24                     
G25  21795094.351   114534028.158         329.517          47.000    21795094.787    89247311.050         256.859          44.000  
G24  22241162.004   116878009.019       -3224.569          49.000    22241166.190    91073745.195       -2512.751          45.000  
G32  23903960.537   125616071.503       -1501.952          45.000    23903967.204    97882613.963       -1170.627          42.000  
E09  27222718.361   143056335.398        -643.819          45.000    27222726.101   109614585.945        -493.242          48.000  
R16  20899129.145   111639383.856       -1396.740          52.000    20899128.311    86830626.043       -1086.421          50.000  
R09  21288186.784   113677743.316        1514.789          51.000    21288186.172    88416116.852        1178.094          50.000  
R15  24276568.612   129726469.706       -3448.413          47.000    24276576.978   100898328.246       -2682.196          44.000  
R20  23755540.966   127031560.3393       3746.204          33.000    23755556.482    98802383.0423       2911.517          44.000  
G29  22185255.212   116584270.934        1320.644          45.000    22185257.651    90844895.050        1028.935          40.000  
S33  40389853.264   212250132.175        -720.869          47.000  
S31  39436857.921   207242088.956        -720.116          43.000  
G28  24757803.584                3       2626.992          26.000    24757806.515                        2046.578          30.000  
G06  24677113.703   129679139.397       -2951.167          35.000    24677111.776   101048711.192       -2299.982          42.000  
G11  23060384.338   121183381.004        -971.769          46.000    23060382.400    94428709.881        -757.113          46.000  
R18  21126103.303   112772629.802       -3051.495          51.000    21126103.936    87712071.248       -2373.401          51.000  
R19  20190159.952   108004046.414         517.181          43.000    20190158.481    84003317.740         402.195          46.000  
E04  26463196.642   139065052.242       -2754.706          48.000    26463208.805   106556372.9291      -2110.455          56.000  
G12  21946695.676   115330660.298       -1207.920          49.000    21946692.031    89868039.999        -941.377          46.000  
E33  26496159.689   139238484.281        2155.813          44.000    26496175.002   106689403.334        1651.866          50.000  
E31  26075523.089   137027885.669         698.462          47.000    26075531.223   104995451.964         535.148          51.000  
E13  27590077.007   144986868.509       -2321.670          44.000    27590080.463   111093861.315       -1778.948          41.000  
E14  20286845.419   106608113.532         592.800          44.000    20286856.158    81686780.533         454.230          48.000  
E26  25214230.507   132502012.567         256.111          43.000    25214235.371   101527701.633         196.254          50.000  
E21  27122088.010   142527505.468       -2229.298          41.000    27122092.096   109209387.343       -1708.189          43.000  
> 2024 04 16 01 47 00.0020000  0 24                     
G25  21793222.730   114524193.007         326.362          47.000    21793223.271    89239647.361         254.021          44.000  
G24  22259609.385   116974948.113       -3237.758          48.000    22259613.501    91149282.045       -2523.072          44.000  
G32  23912582.504   125661380.791       -1518.543          46.000    23912590.061    97917919.689       -1183.071          42.000  
E09  27226432.388   143075851.168        -657.080          45.000    27226440.098   109629539.493        -503.435          49.000  
R16  20907006.398   111681460.665       -1408.175          52.000    20907005.265    86863352.432       -1095.236          50.000  
R09  21279690.724   113632375.415        1510.119          51.000    21279690.416    88380830.706        1174.536          50.000  
R15  24295948.680   129830028.701       -3455.328          47.000    24295957.302   100978873.485       -2687.408          44.000  
R20  23734558.063   126919341.4022       3739.447          37.000    23734575.589    98715120.2062       2908.021          37.000  
G29  22177753.509   116544852.425        1307.596          50.000    22177756.310    90814179.433        1018.937          49.000  
S33  40393967.524   212271754.428        -720.097          38.000  
S31  39440965.021   207263660.0873       -719.508          39.000  
G28  24742842.000                        2623.337          27.000    24742824.301                        2043.847          30.000  
G06  24694004.634   129767908.167       -2965.699          33.000    24694004.116   101117881.782       -2311.463          42.000  
G11  23065986.685   121212824.534        -990.815          46.000    23065986.315    94451652.981        -772.131          46.000  
R18  21143313.760   112864500.755       -3073.018          50.000    21143314.349    87783526.465       -2390.107          51.000  
R19  20187335.298   107988932.951         490.613          43.000    20187333.399    83991562.838         381.635          47.000  
E04  26478944.353   139147802.793       -2762.001          43.000    26478956.792   106619778.819       -2116.619          44.000  
G12  21953603.991   115366963.614       -1212.153          49.000    21953600.547    89896328.292        -944.469          46.000  
E33  26483863.347   139173869.269        2151.851          43.000    26483878.746   106639893.575        1648.907          50.000  
E31  26071537.621   137006937.902         698.345          48.000    26071544.944   104979401.174         535.000          51.000  
E13  27603365.180   145056696.998       -2333.176          44.000    27603367.372   111147366.345       -1787.764          40.000  
E14  20283558.369   106590842.669         558.891          47.000    20283570.167    81673530.8671        428.295          49.000  
E26  25212807.214   132494531.541         242.896          43.000    25212811.870   101521969.534         186.034          50.000  
E21  27134817.862   142594401.672       -2230.147          41.000    27134821.983   109260645.456       -1708.783          42.000  
> 2024 04 16 01 47 30.0020000  0 24                     
G25  21791370.110   114514455.813         323.022          47.000    21791370.535    89232059.895         251.655          44.000  
G24  22278131.322   117072282.939       -3251.244          48.000    22278135.866    91225127.479       -2533.535          45.000  
G32  23921298.295   125707179.358       -1534.850          46.000    23921305.123    97953606.655       -1195.846          42.000  
E09  27230220.974   143095763.373        -670.416          44.000    27230229.626   109644796.802        -513.775          49.000  
R16  20914946.379   111723879.398       -1419.817          52.000    20914946.753    86896344.712       -1104.202          51.000  
R09  21271221.790   113587147.198        1505.168          52.000    21271220.448    88345653.240        1170.714          49.000  
R15  24315367.681   129933790.512       -3462.134          49.000    24315375.517   101059576.472       -2692.780          44.000  
R20  23713589.347   126807226.3173       3734.793          36.000    23713611.758    98627927.0443       2905.004          45.000  
G29  22170327.338   116505823.297        1294.501          47.000    22170329.733    90783766.896        1008.425          43.000  
S33  40398079.055   212293362.115        -719.862          40.000  
S31  39445075.049   207285267.2351       -719.407          48.000  
G06  24710980.926   129857112.465       -2981.034          33.000    24710978.562   101187391.678       -2322.790          41.000  
G11  23071698.147   121242836.465       -1009.927          45.000    23071697.740    94475038.949        -786.980          46.000  
R18  21160644.837   112957016.141       -3094.570          52.000    21160645.562    87855482.875       -2406.942          51.000  
R19  20184658.311   107974613.525         463.920          43.000    20184657.811    83980425.556         360.811          47.000  
E04  26494733.269   139230778.268       -2769.646          40.000    26494745.596   106683362.5601      -2122.009          44.000  
G12  21960536.025   115403392.395       -1216.456          48.000    21960532.557    89924714.367        -947.993          46.000  
E33  26471591.483   139109374.576        2147.636          44.000    26471605.430   106590476.005        1645.615          50.000  
E31  26067551.946   136985991.592         698.057          48.000    26067558.879   104963351.493         534.913          51.000  
E13  27616718.929   145126874.238       -2345.155          45.000    27616721.973   111201138.610       -1796.971          41.000  
E14  20280462.892   106574577.406         525.377          48.000    20280474.488    81661067.880         402.520          53.000  
E26  25211460.215   132487447.847         229.468          44.000    25211463.845   101516541.843         175.795          50.000  
E21  27147554.525   142661329.426       -2231.513          41.000    27147558.471   109311927.713       -1709.694          43.000  
G28                                                                  24727862.091                        2040.744          29.000  
> 2024 04 16 01 48 00.0020000  0 24                     
G25  21789534.883   114504811.083         320.051          48.000    21789534.958    89224544.501         249.572          44.000  
G24  22296727.383   117170005.891       -3263.828          47.000    22296732.057    91301275.761       -2543.293          43.000  
G32  23930105.995   125753459.411       -1550.600          48.000    23930112.156    97989668.829       -1208.378          42.000  
E09  27234083.874   143116065.523        -683.216          44.000    27234093.432   109660352.881        -523.444          49.000  
R16  20922950.639   111766634.884       -1430.727          52.000    20922950.363    86929598.965       -1112.796          51.000  
R09  21262777.487   113542054.276        1500.933          51.000    21262776.041    88310580.985        1167.418          49.000  
R15  24334822.821   130037748.501       -3468.445          49.000    24334829.902   101140431.989       -2697.626          43.000  
R20  23692648.409   126695229.1821       3730.409          36.000    23692670.432    98540819.6381       2901.801          40.000  
G29  22162973.938   116467179.962        1281.726          52.000    22162976.009    90753655.373         998.624          44.000  
S33  40402186.814   212314948.488        -719.387          44.000  
S31  39449178.528                3       -717.718          35.000  
G28  24712947.995                1       2615.464          27.000    24712916.520   101195244.313        2038.067          29.000  
G06  24728036.422   129946743.757       -2994.509          34.000    24728034.304   101257234.361       -2333.382          41.000  
G11  23077515.881   121273410.563       -1028.381          46.000    23077515.575    94498863.016        -801.460          47.000  
R18  21178094.175   113050165.881       -3115.474          51.000    21178095.160    87927932.691       -2423.097          51.000  
R19  20182128.939   107961083.313         437.853          43.000    20182128.693    83969902.094         340.570          47.000  
E04  26510561.227   139313964.888       -2776.476          46.000    26510575.503   106747103.390       -2127.305          51.000  
G12  21967489.948   115439940.256       -1220.127          48.000    21967487.451    89953193.221        -950.669          46.000  
E33  26459339.786   139044996.018        2144.102          44.000    26459354.067   106541147.401        1642.975          49.000  
E31  26063564.831   136965040.366         698.563          48.000    26063571.807   104947298.043         535.304          51.000  
E13  27630138.979   145197392.672       -2356.201          46.000    27630140.993   111255172.311       -1805.385          41.000  
E14  20277558.111   106559311.850         492.423          50.000    20277568.815    81649371.626         377.215          55.000  
E26  25210186.064   132480756.162         216.588          43.000    25210189.895   101511414.511         165.923          50.000  
E21  27160295.359   142728282.756       -2232.021          41.000    27160299.226   109363229.585       -1710.368          43.000  
> 2024 04 16 01 48 30.0020000  0 23                     
G25  21787719.279   114495270.773         316.239          48.000    21787719.468    89217110.473         246.403          44.000  
G24  22315398.175   117268125.470       -3277.233          49.000    22315403.325    91377732.789       -2553.607          48.000  
G32  23939006.137   125800230.679       -1567.196          47.000    23939013.400    98026113.735       -1221.286          42.000  
E09  27238023.661   143136768.931        -696.736          44.000    27238033.507   109676216.430        -533.863          50.000  
R16  20931020.537   111809740.181       -1442.658          52.000    20931019.629    86963125.274       -1122.046          51.000  
R09  21254360.875   113497110.747        1495.604          51.000    21254359.686    88275624.938        1163.275          50.000  
R15  24354316.044   130141914.618       -3475.677          48.000    24354324.291   101221449.413       -2703.430          41.000  
R20  23671737.262   126583432.6221       3724.781          37.000    23671756.136    98453855.6941       2897.013          45.000  
G29  22155694.754   116428933.432        1268.337          48.000    22155698.101    90723853.078         988.201          42.000  
S33  40406292.174   212336526.379        -719.017          42.000  
G28  24698006.860   129788967.5421       2611.136          28.000    24697995.945                        2034.284          28.000  
G06  24745175.321   130036811.503       -3009.692          37.000    24745174.208   101327417.121       -2344.987          40.000  
G11  23083443.299   121304558.566       -1047.876          46.000    23083442.140    94523134.230        -816.367          46.000  
R18  21195665.237   113143958.339       -3137.079          51.000    21195665.560    88000882.410       -2439.967          51.000  
R19  20179749.391   107948355.223         411.112          43.000    20179748.695    83960002.490         319.467          47.000  
E04  26526434.781   139397369.670       -2783.859          38.000    26526448.432   106811009.729       -2133.717          30.000  
G12  21974469.885   115476619.514       -1224.803          48.000    21974467.632    89981774.435        -954.409          47.000  
E33  26447114.027   138980747.318        2139.437          45.000    26447127.380   106491918.308        1639.318          49.000  
E31  26059579.351   136944095.760         697.965          48.000    26059585.896   104931249.658         534.957          51.000  
E13  27643624.574   145268262.559       -2368.204          46.000    27643627.447   111309475.265       -1814.358          42.000  
E14  20274845.681   106545054.511         458.509          48.000    20274855.178    81638447.136         351.165          50.000  
E26  25208988.926   132474468.937         202.799          43.000    25208993.341   101506597.106         155.461          50.000  
E21  27173043.162   142795273.720       -2233.486          42.000    27173047.053   109414560.291       -1711.483          42.000  
> 2024 04 16 01 49 00.0020000  0 23                     
G25  21785924.347   114485838.154         312.999          48.000    21785924.388    89209760.386         243.865          44.000  
G24  22334144.916   117366643.985       -3290.487          46.000    22334149.725    91454501.073       -2563.876          44.000  
G32  23947999.862   125847493.919       -1583.071          46.000    23948007.073    98062941.928       -1233.537          41.000  
E09  27242041.136   143157875.847        -709.979          45.000    27242050.065   109692389.169        -544.047          50.000  
R16  20939156.466   111853199.132       -1454.272          52.000    20939155.862    86996926.638       -1131.148          51.000  
R09  21245973.151   113452321.044        1490.625          50.000    21245971.727    88240788.561        1159.356          50.000  
R15  24373848.831   130246290.837       -3482.373          48.000    24373857.567   101302630.233       -2708.514          42.000  
R20  23650855.507   126471755.229        3720.732          31.000    23650869.868    98366966.9341       2893.632          32.000  
G29  22148492.190   116391087.335        1255.299          49.000    22148494.794    90694363.194         977.922          43.000  
S33  40410397.201   212358098.143        -718.601          41.000  
G28  24683109.402   129710706.217        2605.657          31.000    24683107.006                        2031.157          29.000  
G06  24762398.748   130127316.111       -3023.862          39.000    24762397.176   101397940.336       -2355.945          40.000  
G11  23089480.933   121336283.062       -1066.785          46.000    23089479.197    94547854.675        -831.201          46.000  
R18  21213356.694   113238392.720       -3158.173          52.000    21213356.310    88074331.375       -2456.379          51.000  
R19  20177520.337   107936432.497         384.387          43.000    20177519.301    83950729.329         298.912          46.000  
E04  26542348.837   139481003.410       -2791.240          41.000    26542361.056   106875094.085       -2138.731          44.000  
G12  21981475.209   115513432.923       -1229.061          48.000    21981472.710    90010460.196        -957.678          47.000  
E33  26434913.053   138916633.120        2135.028          45.000    26434926.403   106442792.305        1636.044          49.000  
E31  26055596.046   136923160.205         698.042          49.000    26055602.075   104915208.219         534.767          51.000  
E13  27657177.144   145339485.118       -2379.822          46.000    27657180.543   111364048.499       -1823.384          41.000  
E14  20272324.100   106531809.772         424.894          48.000    20272335.070    81628298.958         325.587          48.000  
E26  25207870.965   132468589.715         189.429          44.000    25207874.709   101502092.315         145.111          51.000  
E21  27185797.963   142862305.239       -2234.681          41.000    27185803.403   109465922.088       -1712.345          43.000  
> 2024 04 16 01 49 30.0020000  0 24                     
G25  21784149.947   114476514.909         309.030          48.000    21784150.380    89202495.554         240.847          44.000  
G24  22352967.083   117465559.217       -3303.642          45.000    22352972.010    91531578.191       -2574.094          42.000  
G32  23957087.638   125895248.639       -1599.841          46.000    23957094.510    98100153.118       -1246.843          41.000  
E09  27246134.287   143179387.277        -723.708          45.000    27246143.731   109708871.863        -554.482          50.000  
R16  20947358.461   111897014.867       -1466.284          52.000    20947358.236    87031005.497       -1140.429          51.000  
R09  21237614.004   113407688.941        1485.248          50.000    21237612.935    88206074.727        1155.231          49.000  
R15  24393422.434   130350878.274       -3489.661          49.000    24393429.485   101383975.278       -2713.861          41.000  
R20  23629993.642                3       3714.756          29.000    23630012.541    98280227.946        2889.504          40.000  
G29  22141366.711   116353642.220        1241.665          51.000    22141368.495    90665185.160         967.870          42.000  
S33  40414501.205   212379664.455        -718.741          44.000  
S31  39461480.920   207371478.3461       -717.859          47.000  
G28  24668244.028   129632578.027        2601.458          33.000    24668241.488                        2028.644          30.000  
G06  24779703.221   130218256.605       -3038.230          40.000    24779702.075   101468803.239       -2367.404          40.000  
G11  23095626.997   121368585.293       -1086.132          46.000    23095625.306    94573025.320        -846.335          46.000  
R18  21231165.939   113333466.413       -3179.473          50.000    21231166.664    88148277.619       -2472.869          51.000  
R19  20175443.111   107925318.760         357.301          44.000    20175439.945    83942085.389         277.734          45.000  
E04  26558304.976   139564859.789       -2798.754          38.000    26558316.973   106939348.673       -2144.582          46.000  
G12  21988505.847   115550381.860       -1233.756          47.000    21988503.856    90039251.572        -961.325          47.000  
E33  26422738.669   138852656.718        2130.369          46.000    26422751.789   106393771.932        1632.384          49.000  
E31  26051613.787   136902234.949         697.435          48.000    26051620.230   104899174.656         534.460          51.000  
E13  27670797.498   145411060.294       -2391.453          46.000    27670800.778   111418891.894       -1832.531          42.000  
E14  20269995.704   106519578.612         390.934          45.000    20270007.553    81618926.592         299.515          52.000  
E26  25206830.081   132463120.617         175.531          45.000    25206834.091   101497901.788         134.602          51.000  
E21  27198560.324   142929378.995       -2236.512          40.000    27198567.369   109517316.266       -1713.660          42.000  
> 2024 04 16 01 50 00.0020000  0 24                     
G25  21782397.007   114467305.480         305.072          48.000    21782397.944    89195319.421         237.541          45.000  
G24  22371865.835   117564874.740       -3317.201          46.000    22371870.537    91608967.456       -2584.851          45.000  
G32  23966268.875   125943496.647       -1616.390          46.000    23966275.876    98137748.539       -1259.621          41.000  
E09  27250306.383   143201306.800        -737.469          45.000    27250314.715   109725667.226        -564.980          50.000  
R16  20955628.851   111941192.166       -1478.555          53.000    20955627.700    87065365.583       -1149.996          50.000  
R09  21229286.247   113363220.399        1479.576          49.000    21229285.325    88171488.132        1150.761          50.000  
R15  24413035.144   130455680.738       -3497.094          49.000    24413043.251   101465487.564       -2719.702          43.000  
R20  23609172.028   126248865.0081       3709.285          42.000    23609182.077    98193591.4353       2885.103          37.000  
G29  22134318.528   116316603.255        1227.797          51.000    22134320.336    90636323.957         956.871          42.000  
S33  40418604.218   212401228.481        -719.122          40.000  
S31  39465580.856   207393019.699        -718.158          43.000  
G28  24653403.156   129554589.424        2597.114          33.000    24653401.583   100951558.2351       2024.058          31.000  
G06  24797090.950   130309634.785       -3053.061          41.000    24797091.201   101540007.150       -2379.172          39.000  
G11  23101883.685   121401469.206       -1105.708          45.000    23101882.959    94598649.218        -861.659          47.000  
R18  21249096.347   113429179.920       -3201.058          51.000    21249097.530    88222721.457       -2489.699          51.000  
R19  20173517.500   107915019.016         329.738          43.000    20173514.683    83934074.621         256.378          45.000  
E04  26574302.400   139648902.4781      -2806.046          47.000    26574313.683   107003754.7871      -2150.423          51.000  
G12  21995563.133   115587470.634       -1238.586          46.000    21995561.683    90068151.899        -965.083          47.000  
E33  26410590.909   138788824.517        2125.511          45.000    26410604.001   106344862.312        1628.436          49.000  
E31  26047633.527   136881323.806         696.771          47.000    26047640.990   104883151.928         533.864          51.000  
E13  27684485.265   145482990.648       -2403.651          46.000    27684488.656   111474007.433       -1841.626          43.000  
E14  20267861.044   106508362.608         357.090          46.000    20267872.352    81610333.140         273.594          47.000  
E26  25205869.207   132458066.505         161.532          45.000    25205872.266   101494029.234         123.809          51.000  
E21  27211334.363   142996499.346       -2238.154          40.000    27211338.795   109568746.083       -1714.822          41.000  
> 2024 04 16 01 50 30.0020000  0 24                     
G25  21780665.980   114458209.386         301.152          48.000    21780666.881    89188231.574         234.714          45.000  
G24  22390840.981   117664586.424       -3330.502          47.000    22390845.105    91686664.990       -2595.430          43.000  
G32  23975542.902   125992235.673       -1633.017          45.000    23975551.535    98175726.691       -1272.664          41.000  
E09  27254554.288   143223632.950        -751.126          45.000    27254563.025   109742774.170        -575.573          49.000  
R16  20963966.037   111985731.219       -1490.791          52.000    20963965.764    87100007.034       -1159.479          51.000  
R09  21220989.682   113318916.584        1473.895          50.000    21220989.658    88137029.646        1146.356          50.000  
R15  24432688.558   130560696.770       -3504.218          49.000    24432697.156   101547165.913       -2725.262          44.000  
R20  23588373.585   126137655.9981       3703.852          39.000    23588387.311    98107109.7471       2880.748          40.000  
G29  22127347.453   116279969.431        1214.059          48.000    22127348.845    90607778.000         946.183          40.000  
S33  40422707.287   212422792.055        -718.713          45.000  
S31  39469679.644   207414559.563        -718.469          38.000  
G28  24638589.579   129476741.801        2592.071          34.000    24638586.463   100890897.813        2018.705          32.000  
G06  24814562.388   130401447.335       -3067.866          44.000    24814562.783   101611549.533       -2390.507          41.000  
G11  23108252.673   121434933.719       -1125.104          46.000    23108251.335    94624725.520        -876.776          47.000  
R18  21267147.083   113525528.589       -3222.199          53.000    21267147.614    88297659.326       -2506.147          52.000  
R19  20171744.354   107905532.714         302.620          44.000    20171740.262    83926696.531         235.419          44.000  
E04  26590344.171   139733213.451       -2813.944          46.000    26590355.106   107068350.788       -2156.480          47.000  
G12  22002647.672   115624698.802       -1243.309          46.000    22002646.155    90097160.835        -969.021          47.000  
E33  26398470.948   138725137.152        2120.323          45.000    26398483.951   106296063.750        1624.669          49.000  
E31  26043656.130   136860425.666         696.212          47.000    26043664.305   104867139.165         533.474          51.000  
E13  27698239.481   145555273.712       -2415.465          46.000    27698243.116   111529393.256       -1850.816          43.000  
E14  20265919.279   106498159.983         323.069          42.000    20265930.315    81602515.913         247.489          43.000  
E26  25204986.516   132453427.135         147.702          46.000    25204988.988   101490474.463         113.011          51.000  
E21  27224116.337   143063665.561       -2239.769          41.000    27224121.063   109620211.066       -1716.252          42.000  
> 2024 04 16 01 51 00.0020000  0 25                     
G25  21778956.843   114449226.969         297.680          48.000    21778957.641    89181232.287         232.026          45.000  
G24  22409890.559   117764693.255       -3343.339          49.000    22409894.066    91764670.548       -2605.364          46.000  
G32  23984910.885   126041463.582       -1648.854          46.000    23984919.611    98214085.841       -1284.704          43.000  
E09  27258880.369   143246365.394        -764.380          46.000    27258888.749   109760192.428        -585.702          49.000  
R16  20972372.260   112030633.624       -1502.670          53.000    20972371.933    87134931.091       -1168.747          51.000  
R09  21212724.256   113274779.378        1468.590          50.000    21212724.839    88102700.738        1142.229          50.000  
R15  24452380.095   130665926.350       -3511.017          48.000    24452390.055   101629010.347       -2730.859          43.000  
R20  23567612.809   126026619.987        3697.667          39.000    23567626.467    98020765.7411       2875.719          41.000  
G29  22120453.275   116243741.261        1200.985          48.000    22120455.623    90579547.891         935.815          41.000  
S33  40426810.339                3       -718.240          32.000  
S31  39473778.111                        -716.479          29.000  
G28  24623805.595   129399037.494        2587.683          34.000    24623800.932   100830348.974        2016.092          34.000  
G06  24832116.850   130493692.015       -3081.903          44.000    24832117.058   101683428.645       -2401.639          40.000  
G11  23114730.700   121468978.700       -1144.265          45.000    23114729.616    94651254.185        -891.825          47.000  
R18  21285314.612   113622508.628       -3243.007          52.000    21285314.943    88373088.275       -2522.316          51.000  
R19  20170122.765   107896861.054         275.621          43.000    20170119.432    83919952.034         214.400          45.000  
R07  24108620.436                3      -3168.962          12.000                                                                  
E04  26606424.868   139817731.622       -2820.432          38.000    26606434.287   107133112.175       -2161.567          42.000  
G12  22009758.504   115662066.301       -1247.765          47.000    22009756.371    90126278.353        -972.239          47.000  
E33  26386379.167   138661597.467        2115.616          45.000    26386391.675   106247378.840        1620.968          49.000  
E31  26039681.730   136839540.447         696.086          46.000    26039689.767   104851136.284         533.355          51.000  
E13  27712061.572   145627908.156       -2426.828          46.000    27712065.084   111585048.303       -1859.426          43.000  
E14  20264170.218   106488971.472         289.459          47.000    20264181.341    81595475.737         221.845          50.000  
E26  25204181.763   132449203.392         133.977          45.000    25204185.245   101487238.138         102.607          50.000  
E21  27236907.304   143130878.056       -2241.151          42.000    27236910.511   109671711.491       -1717.309          41.000  
> 2024 04 16 01 51 30.0020000  0 24                     
G25  21777268.784   114440356.857         293.777          49.000    21777269.998    89174320.522         228.907          45.000  
G24  22429014.923   117865191.192       -3356.567          49.000    22429019.000    91842980.770       -2615.561          47.000  
G32  23994372.538   126091176.275       -1665.027          48.000    23994379.774    98252822.669       -1297.469          42.000  
E09  27263282.896   143269501.706        -777.971          47.000    27263291.270   109777920.149        -596.093          48.000  
R16  20980846.311   112075898.253       -1514.814          53.000    20980845.546    87170136.867       -1178.162          51.000  
R09  21204490.831   113230809.005        1462.779          51.000    21204490.750    88068501.607        1137.756          51.000  
R15  24472111.414   130771366.727       -3518.311          46.000    24472122.401   101711018.779       -2736.530          44.000  
R20  23546881.209   125915774.933        3692.178          36.000    23546892.125    97934559.664        2871.124          38.000  
G29  22113636.228   116207919.243        1187.245          48.000    22113639.038    90551636.052         924.650          38.000  
S33  40430911.856   212465876.6401       -718.133          39.000  
S31  39477875.076   207457637.7253       -717.748          44.000  
G28  24609043.908   129321476.847        2583.270          35.000    24609042.566   100769912.186        2012.557          34.000  
G06  24849751.680   130586364.487       -3096.034          45.000    24849751.770   101755641.093       -2412.517          40.000  
G11  23121318.748   121503602.082       -1163.774          44.000    23121318.428    94678233.502        -906.815          47.000  
R18  21303598.438   113720114.275       -3263.916          52.000    21303599.201    88449003.809       -2538.617          51.000  
R19  20168653.688   107889003.092         248.431          42.000    20168650.869    83913840.308         193.291          45.000  
E04  26622546.417   139902443.1951      -2827.694          47.000    26622556.488   107198037.649       -2167.369          50.000  
G12  22016895.763   115699571.352       -1252.529          46.000    22016893.160    90155503.023        -975.946          47.000  
E33  26374314.507   138598205.975        2110.516          45.000    26374326.965   106198808.274        1617.144          50.000  
E31  26035709.559   136818666.054         695.624          46.000    26035717.314   104835141.712         532.898          50.000  
E13  27725950.199   145700890.499       -2438.470          46.000    27725953.207   111640969.948       -1868.425          44.000  
E14  20262614.018   106480793.229         255.851          47.000    20262624.448    81589210.028         195.893          54.000  
E26  25203456.246   132445394.001         119.995          45.000    25203459.853   101484319.329          91.911          50.000  
E21  27249705.488   143198135.135       -2242.839          41.000    27249709.278   109723246.111       -1718.382          42.000  
> 2024 04 16 01 52 00.0020000  0 24                     
G25  21775601.960   114431598.501         289.910          48.000    21775603.644    89167495.723         225.745          45.000  
G24  22448212.419   117966077.597       -3369.534          48.000    22448216.757    91921593.704       -2625.667          46.000  
G32  24003924.992   126141371.141       -1681.400          47.000    24003932.883    98291935.228       -1310.208          43.000  
E09  27267761.647   143293040.619        -791.437          46.000    27267770.780   109795956.359        -606.366          49.000  
R16  20989388.052   112121525.476       -1527.101          53.000    20989387.794    87205624.652       -1187.789          51.000  
R09  21196288.880   113187006.938        1457.023          52.000    21196288.312    88034433.367        1133.232          51.000  
R15  24491883.300   130877016.985       -3525.342          47.000    24491894.897   101793190.406       -2741.888          45.000  
R20  23526181.386   125805074.8931       3685.552          38.000    23526190.330                3       2866.460          41.000  
G29  22106895.792   116172500.775        1173.759          49.000    22106899.454    90524059.3381        914.498          42.000  
S33  40435013.148   212487427.987        -718.661          40.000  
S31  39481971.579   207479165.2421       -717.421          40.000  
G28  24594311.830   129244061.552        2577.667          35.000    24594311.246   100709588.572        2008.927          34.000  
G06  24867467.264   130679461.667       -3110.563          44.000    24867467.422   101828184.460       -2423.838          41.000  
G11  23128018.785   121538802.821       -1183.195          46.000    23128016.122    94705662.712        -921.936          46.000  
R18  21321999.747   113818340.960       -3284.771          52.000    21322000.310    88525402.373       -2554.755          50.000  
R19  20167335.967   107881958.990         220.901          42.000    20167334.441    83908361.697         171.959          47.000  
E04  26638711.415   139987379.561       -2834.599          40.000    26638720.263   107263083.5611      -2171.943          42.000  
G12  22024058.627   115737213.570       -1257.208          46.000    22024056.786    90184834.632        -979.633          47.000  
E33  26362278.203   138534962.993        2105.598          44.000    26362289.972   106150351.856        1613.270          49.000  
E31  26031738.880   136797801.511         695.205          46.000    26031746.711   104819154.693         532.724          50.000  
E13  27739903.983   145774218.490       -2450.192          45.000    27739906.728   111697156.442       -1877.353          45.000  
E14  20261249.416   106473622.720         222.001          46.000    20261259.977    81583715.678         170.072          47.000  
E26  25202811.853   132441998.970         106.208          46.000    25202813.785   101481717.986          81.292          50.000  
E21  27262512.814   143265436.363       -2243.933          41.000    27262518.152   109774814.541       -1719.473          44.000  
> 2024 04 16 01 52 30.0020000  0 24                     
G25  21773958.258   114422957.991         285.887          48.000    21773959.718    89160762.774         222.854          45.000  
G24  22467484.374   118067355.661       -3382.430          48.000    22467489.063    92000511.642       -2635.626          45.000  
G32  24013569.818   126192051.121       -1697.567          46.000    24013577.398    98331425.653       -1322.644          44.000  
E09  27272318.256   143316986.939        -805.156          46.000    27272328.092   109814304.739        -616.981          49.000  
R16  20997998.474   112167521.682       -1539.454          53.000    20997997.757    87241399.435       -1197.376          50.000  
R09  21188118.996   113143380.855        1451.245          52.000    21188118.452    88000501.998        1128.772          51.000  
R15  24511695.019   130982881.882       -3532.544          46.000    24511706.312   101875528.968       -2747.620          44.000  
R20  23505506.573   125694518.1343       3679.609          37.000    23505519.700                3       2861.525          33.000  
G29  22100233.548   116137492.145        1160.063          47.000    22100236.903    90496779.958         904.191          42.000  
S33  40439112.900   212508980.007        -718.583          49.000  
S31  39486067.909   207500693.100        -717.830          45.000  
G28  24579606.521   129166799.111        2572.766          32.000    24579609.433   100649384.096        2004.578          35.000  
G06  24885264.344   130772986.424       -3124.779          43.000    24885264.106   101901061.026       -2434.934          42.000  
G11  23134827.750   121574585.941       -1202.507          45.000    23134825.916    94733545.740        -936.984          47.000  
R18  21340517.866   113917190.264       -3305.426          52.000    21340517.535    88602285.236       -2570.880          50.000  
R19  20166172.394   107875734.868         193.737          42.000    20166170.995    83903520.835         150.676          47.000  
E04  26654916.087   140072536.506       -2842.039          47.000    26654924.145   107328327.4751      -2177.654          52.000  
G12  22031248.560   115774998.305       -1261.973          45.000    22031247.134    90214277.259        -983.312          47.000  
E33  26350270.778   138471875.532        2100.157          44.000    26350282.108   106102014.741        1609.073          49.000  
E31  26027771.285   136776951.969         694.598          46.000    26027778.953   104803179.178         532.320          50.000  
E13  27753924.864   145847895.900       -2462.037          45.000    27753926.526   111753610.638       -1886.273          45.000  
E14  20260078.124   106467465.980         188.206          49.000    20260087.726    81578998.539         144.273          53.000  
E26  25202244.391   132439024.268          92.078          45.000    25202247.491   101479438.726          70.460          50.000  
E21  27275329.361   143332787.319       -2245.775          41.000    27275334.410   109826421.084       -1720.884          44.000  
> 2024 04 16 01 53 00.0020000  0 25                     
G25  21772337.584   114414442.125         281.996          48.000    21772339.132    89154127.021         219.669          45.000  
G24  22486833.156   118169030.443       -3395.781          50.000    22486837.022    92079738.959       -2646.042          46.000  
G32  24023307.352   126243221.168       -1713.783          46.000    24023314.983    98371298.105       -1335.346          43.000  
E09  27276954.557   143341346.498        -818.814          46.000    27276963.612   109832969.739        -627.260          49.000  
R16  21006679.370   112213894.914       -1552.053          53.000    21006678.715    87277467.455       -1207.081          50.000  
R09  21179983.025   113099938.647        1445.037          51.000    21179982.501    87966713.637        1123.900          51.000  
R15  24531548.253   131088967.672       -3539.850          47.000    24531559.301   101958039.288       -2753.125          44.000  
R20  23484879.040   125584199.392        3673.509          38.000    23484884.023    97676635.5501       2856.874          40.000  
G29  22093650.755   116102899.196        1146.349          46.000    22093654.167    90469824.085         893.377          34.000  
S33  40443214.331   212530536.224        -718.572          47.000  
S31  39490165.947   207522227.431        -717.839          36.000  
G28  24564931.302                        2567.181          30.000    24564937.509   100589305.575        2000.543          34.000  
G06  24903143.785   130866942.741       -3139.026          43.000    24903143.247   101974273.844       -2446.029          41.000  
G11  23141748.985   121610957.507       -1222.163          45.000    23141747.439    94761887.288        -952.180          47.000  
R18  21359153.248   114016664.764       -3326.184          52.000    21359152.754    88679654.338       -2586.963          50.000  
R19  20165163.614   107870338.156         166.232          42.000    20165162.183    83899323.577         129.229          47.000  
E04  26671162.289   140157906.2541      -2849.273          35.000    26671172.612                       -2182.682          43.000  
G12  22038467.299   115812932.035       -1266.907          46.000    22038465.557    90243836.012        -987.111          47.000  
E33  26338295.236   138408951.164        2094.892          45.000    26338305.629   106053802.556        1605.162          49.000  
E31  26023808.383   136756123.626         694.058          47.000    26023815.481   104787219.902         531.804          50.000  
G20  25968141.009                1       1354.387          28.000                                                                  
E13  27768013.327   145921927.588       -2473.512          43.000    27768013.723   111810336.318       -1895.231          45.000  
E14  20259100.447   106462327.852         154.379          50.000    20259109.396    81575062.145         118.373          53.000  
E26  25201760.098   132436476.935          77.929          45.000    25201762.463   101477486.914          59.680          49.000  
E21  27288156.793   143400194.669       -2247.657          39.000    27288160.993   109878070.831       -1722.202          43.000  
> 2024 04 16 01 53 30.0020000  0 25                     
G25  21770739.902   114406042.584         278.115          49.000    21770740.362    89147581.939         216.942          44.000  
G24  22506254.693   118271090.948       -3408.342          46.000    22506258.172    92159266.936       -2655.720          40.000  
G32  24033135.341   126294870.460       -1729.566          45.000    24033143.434    98411544.247       -1347.643          44.000  
E09  27281667.329   143366109.893        -832.077          47.000    27281676.053   109851944.184        -637.611          49.000  
R16  21015429.376   112260636.781       -1564.160          53.000    21015428.849    87313822.203       -1216.608          50.000  
R09  21171880.422   113056673.993        1439.197          51.000    21171880.088    87933063.378        1119.453          50.000  
R15  24551441.686   131195264.772       -3546.704          48.000    24551452.099   102040713.996       -2758.404          43.000  
R20  23464287.189                3       3666.021          33.000    23464293.725    97590998.8551       2852.947          36.000  
G29  22087145.852   116068714.386        1132.748          53.000    22087148.234    90443174.4491        882.571          42.000  
S33  40447315.830   212552088.097        -718.536          43.000  
S31  39494262.781   207543757.224        -717.650          38.000  
G28  24550286.458   129012625.4341       2562.592          29.000    24550294.839   100529347.854        1996.332          33.000  
G06  24921103.255   130961319.313       -3152.687          41.000    24921102.492   102047814.151       -2456.531          41.000  
G11  23148780.142   121647908.411       -1241.176          45.000    23148778.948    94790680.272        -967.326          47.000  
R18  21377902.430   114116751.747       -3346.338          51.000    21377902.262    88757499.792       -2602.722          49.000  
R19  20164307.437   107865759.350         139.113          42.000    20164306.411    83895762.050         108.175          47.000  
E04  26687448.936   140243483.9131      -2855.943          40.000    26687457.197   107459332.2941      -2187.970          42.000  
G12  22045712.967   115851006.463       -1271.466          47.000    22045711.226    90273504.395        -990.681          47.000  
E33  26326348.887   138346184.720        2089.571          44.000    26326358.586   106005712.002        1601.005          50.000  
E31  26019846.894   136735307.488         693.642          47.000    26019854.326   104771269.977         531.527          51.000  
G20  25960414.435   136422925.1171       1351.842          32.000                                                                  
E13  27782165.749   145996303.148       -2484.932          42.000    27782167.356   111867325.508       -1904.080          46.000  
E14  20258314.026   106458197.636         120.976          47.000    20258323.466    81571897.848          92.578          48.000  
E26  25201355.213   132434348.764          63.962          45.000    25201357.732   101475856.292          48.981          50.000  
E21  27300993.496   143467649.783       -2249.339          39.000    27300996.631   109929757.266       -1723.522          42.000  
> 2024 04 16 01 54 00.0020000  0 25                     
G25  21769163.167   114397757.717         274.116          48.000    21769163.612    89141126.272         213.501          44.000  
G24  22525748.104   118373533.869       -3421.293          50.000    22525751.288    92239093.344       -2665.970          47.000  
G32  24043054.120   126346994.825       -1745.695          46.000    24043062.334    98452160.725       -1360.015          44.000  
E09  27286456.145   143391274.583        -845.631          47.000    27286464.612   109871226.111        -647.950          49.000  
R16  21024249.500   112307746.774       -1576.539          54.000    21024248.512    87350463.270       -1226.271          50.000  
R09  21163811.522   113013586.901        1433.178          51.000    21163811.035    87899551.236        1114.598          50.000  
R15  24571374.223   131301770.289       -3553.827          49.000    24571383.621   102123550.756       -2764.093          43.000  
R20  23443730.857   125364159.7711       3660.994          40.000    23443739.143    97505481.1031       2847.021          44.000  
G29  22080718.659   116034935.395        1118.982          49.000    22080721.252    90416854.952         872.007          44.000  
S33  40451416.603   212573634.669        -717.590          39.000  
S31  39498359.000   207565283.043        -717.438          42.000  
G06  24939141.189   131056111.714       -3166.835          41.000    24939140.200   102121678.515       -2467.390          41.000  
G11  23155921.612   121685436.276       -1260.727          45.000    23155920.172    94819922.824        -982.322          47.000  
R18  21396765.576   114217445.069       -3366.681          52.000    21396765.215    88835816.863       -2618.500          49.000  
R19  20163605.078   107861998.800         111.782          42.000    20163603.705    83892837.178          86.857          48.000  
E04  26703773.181   140329259.013       -2863.070          44.000    26703781.972   107525067.3731      -2193.755          55.000  
G12  22052984.580   115889219.499       -1276.340          46.000    22052983.393    90303280.802        -994.492          48.000  
E33  26314431.417   138283575.489        2084.148          47.000    26314440.865   105957742.369        1596.832          52.000  
E31  26015887.594   136714501.394         693.120          46.000    26015895.008   104755327.747         531.186          50.000  
G20  25952703.385   136382403.425        1349.138          36.000                                                                  
E13  27796383.311   146071019.014       -2496.151          42.000    27796385.001   111924575.447       -1912.808          46.000  
E14  20257718.335   106455072.183          87.149          48.000    20257728.076    81569503.517          66.857          52.000  
E26  25201029.356   132432638.422          49.889          45.000    25201032.500   101474545.826          38.258          50.000  
E21  27313835.915   143535151.023       -2251.090          38.000    27313840.799   109981478.975       -1724.774          41.000  
G28                                                                  24535681.722   100469511.209        1992.438          33.000  
> 2024 04 16 01 54 30.0020000  0 25                     
G25  21767608.395   114389590.368         270.283          49.000    21767609.465    89134762.345         210.603          45.000  
G24  22545314.436   118476357.489       -3433.977          46.000    22545318.222    92319216.013       -2676.453          35.000  
G32  24053063.025   126399593.609       -1761.110          46.000    24053071.813    98493146.830       -1372.538          42.000  
E09  27291320.822   143416842.005        -858.936          47.000    27291329.963   109890816.613        -658.106          48.000  
R16  21033137.682   112355227.961       -1588.808          53.000    21033137.214    87387393.051       -1235.756          50.000  
R09  21155776.739   112970681.285        1427.184          50.000    21155776.598    87866180.229        1110.039          51.000  
R15  24591344.214   131408486.188       -3560.878          47.000    24591354.931   102206551.044       -2769.500          44.000  
R20  23423213.299   125254423.338        3654.899          38.000    23423221.116    97420153.3381       2841.729          38.000  
G29  22074368.975   116001565.251        1105.482          51.000    22074371.246    90390852.194         861.530          45.000  
S33  40455516.120   212595177.706        -718.064          44.000  
S31  39502454.359   207586804.845        -717.455          42.000  
G28  24521093.176   128859201.488        2550.714          32.000    24521098.750   100409799.120        1987.762          33.000  
G06  24957257.843   131151319.572       -3180.751          42.000    24957256.958   102195866.642       -2478.286          40.000  
G11  23163172.399   121723542.812       -1279.938          45.000    23163170.987    94849616.299        -997.333          45.000  
R18  21415742.371   114318742.985       -3386.597          52.000    21415742.189    88914604.162       -2634.088          50.000  
R19  20163055.357   107859058.568          84.361          42.000    20163054.075    83890550.475          65.477          47.000  
E04  26720135.194   140415252.3081      -2869.924          38.000    26720146.702   107590955.3811      -2199.193          43.000  
G12  22060282.716   115927573.427       -1280.737          46.000    22060281.286    90333166.984        -998.080          47.000  
E33  26302544.131   138221126.942        2078.935          46.000    26302553.028   105909896.265        1592.905          52.000  
E31  26011930.701   136693707.220         692.960          47.000    26011938.171   104739394.657         530.942          51.000  
G20  25945007.035   136341963.723        1346.351          37.000                                                                  
E13  27810665.642   146146075.654       -2507.616          40.000    27810668.362   111982086.538       -1921.376          48.000  
E14  20257315.037   106452952.439          53.942          47.000    20257323.927    81567879.673          41.315          51.000  
E26  25200783.995   132431348.571          36.034          45.000    25200787.129   101473557.546          27.552          50.000  
E21  27326691.146   143602700.656       -2252.494          39.000    27326695.742   110033237.767       -1725.990          42.000  
> 2024 04 16 01 55 00.0020000  0 25                     
G25  21766075.031   114381533.815         266.687          48.000    21766075.932    89128484.943         207.958          45.000  
G24  22564950.948   118579553.826       -3446.086          50.000    22564955.011    92399629.329       -2685.414          47.000  
G32  24063160.935   126452658.001       -1776.393          47.000    24063169.390    98534495.803       -1384.144          43.000  
E09  27296261.655   143442804.413        -871.883          47.000    27296270.532   109910709.750        -668.073          48.000  
R16  21042094.110   112403073.875       -1600.967          53.000    21042094.396    87424606.499       -1245.161          51.000  
R09  21147774.510   112927952.403        1421.250          51.000    21147774.581    87832946.715        1105.565          50.000  
R15  24611353.607   131515404.725       -3567.318          47.000    24611364.838   102289709.024       -2774.632          45.000  
R20  23402732.421   125144924.3881       3647.554          35.000    23402737.984    97334968.896        2837.771          36.000  
G29  22068094.938   115968597.023        1092.117          50.000    22068098.219    90365162.714         851.036          43.000  
S33  40459614.000   212616706.1193       -718.464          37.000  
S31  39506548.383   207608315.840        -716.934          45.000  
G28  24506545.009   128782725.789        2545.923          33.000    24506545.668                        1984.699          32.000  
G06  24975452.553   131246933.238       -3193.693          41.000    24975451.142   102270370.995       -2488.561          38.000  
G11  23170532.281   121762220.469       -1298.891          43.000    23170530.973    94879754.792       -1012.083          46.000  
R18  21434829.668   114420634.327       -3406.140          52.000    21434830.185    88993853.017       -2649.310          50.000  
R19  20162656.896   107856931.478          57.352          41.000    20162655.828    83888896.043          44.627          47.000  
E04  26736536.004   140501457.727       -2876.171          43.000    26736546.129   107656991.817       -2203.567          47.000  
G12  22067606.265   115966061.427       -1285.140          46.000    22067605.251    90363157.648       -1001.364          47.000  
E33  26290687.891   138158831.809        2073.915          44.000    26290695.703   105862166.675        1589.104          49.000  
E31  26007974.415   136672917.638         693.020          46.000    26007981.961   104723465.081         530.949          51.000  
G20  25937326.081   136301601.813        1343.469          35.000                                                                  
E13  27825012.496   146221464.337       -2518.360          38.000    27825014.437   112039852.016       -1929.626          49.000  
E14  20257101.329   106451829.858          20.813          47.000    20257109.569    81567020.020          15.970          50.000  
E26  25200617.191   132430472.686          22.327          45.000    25200620.394   101472886.467          17.065          50.000  
E21  27339556.156   143670291.809       -2253.747          41.000    27339557.729   110085028.357       -1726.688          42.000  
> 2024 04 16 01 55 30.0020000  0 25                     
G25  21764561.390   114373585.739         263.152          46.000    21764562.883    89122292.014         205.157          45.000  
G24  22584657.771   118683118.210       -3458.254          46.000    22584661.636    92480329.486       -2694.782          45.000  
G32  24073346.669   126506183.082       -1791.902          46.000    24073354.407    98576203.756       -1396.199          42.000  
E09  27301277.803   143469158.785        -885.078          47.000    27301285.925   109930903.215        -678.134          49.000  
R16  21051119.045   112451283.214       -1613.136          53.000    21051118.830    87462102.609       -1254.560          50.000  
R09  21139806.130   112885399.708        1415.423          51.000    21139805.399    87799850.266        1100.847          50.000  
R15  24631399.716   131622522.759       -3573.976          46.000    24631411.155   102373022.075       -2779.693          44.000  
R20  23382284.173   125035584.775        3641.357          33.000    23382286.550    97249913.6171       2831.555          39.000  
G29  22061896.879   115936030.023        1078.879          49.000    22061900.117    90339786.539         840.651          44.000  
S33  40463708.905   212638226.915        -717.482          44.000  
S31  39510639.104   207629814.956        -716.517          48.000  
G28  24492024.414   128706404.995        2541.626          33.000    24492019.937                        1980.927          31.000  
G06  24993723.596   131342947.899       -3207.161          41.000    24993722.390   102345187.805       -2499.196          40.000  
G11  23178000.535   121801466.395       -1317.866          44.000    23177998.216    94910336.075       -1026.817          45.000  
R18  21454026.352   114523112.616       -3425.744          51.000    21454027.858    89073558.360       -2664.490          50.000  
R19  20162411.362   107855616.981          30.104          42.000    20162410.668    83887874.052          23.558          49.000  
E04  26752972.144   140587831.230       -2882.359          41.000    26752982.773   107723173.862       -2208.344          43.000  
G12  22074955.479   116004681.471       -1289.695          45.000    22074954.477    90393251.169       -1005.054          48.000  
E33  26278861.493   138096691.485        2068.639          44.000    26278867.414   105814555.798        1585.069          47.000  
E31  26004018.981   136652130.122         692.949          46.000    26004025.942   104707537.096         530.861          51.000  
G20  25929660.134   136261317.673        1341.234          38.000                                                                  
E13  27839421.384   146297181.145       -2529.544          36.000    27839422.917   112097868.904       -1938.117          49.000  
E14  20257076.836   106451700.599         -12.381          50.000    20257084.511    81566921.517          -9.518          54.000  
E26  25200529.496   132430008.989           8.526          45.000    25200531.798   101472531.193           6.516          50.000  
E21  27352424.641   143737922.419       -2255.083          39.000    27352427.118   110136849.168       -1727.891          41.000  
> 2024 04 16 01 56 00.0020000  0 25                     
G25  21763071.482   114365753.944         259.108          47.000    21763072.489    89116189.073         201.886          44.000  
G24  22604436.654   118787056.575       -3470.714          48.000    22604439.527    92561320.873       -2704.435          45.000  
G32  24083620.963   126560175.584       -1807.521          44.000    24083627.927    98618276.089       -1408.413          39.000  
E09  27306369.183   143495912.972        -898.287          47.000    27306377.662   109951403.046        -688.431          50.000  
R16  21060213.581   112499865.907       -1625.604          53.000    21060212.894    87499889.126       -1264.387          50.000  
R09  21131872.079   112843033.599        1409.143          51.000    21131871.604    87766898.886        1095.811          50.000  
R15  24651485.587   131729848.820       -3580.985          48.000    24651496.599   102456496.789       -2785.107          44.000  
R20  23361872.439   124926430.0301       3634.422          39.000    23361876.082                3       2827.539          38.000  
G29  22055776.588   115903870.501        1065.245          49.000    22055779.902    90314727.634         830.128          44.000  
S33  40467803.749   212659743.368        -716.915          43.000  
S31  39514729.284   207651307.970        -716.577          45.000  
G28  24477531.935                1       2537.085          33.000    24477533.218                        1976.245          31.000  
G06  25012071.863   131439369.554       -3220.819          41.000    25012070.508   102420321.717       -2509.799          41.000  
G11  23185578.500   121841288.632       -1336.930          44.000    23185576.848    94941366.460       -1041.878          45.000  
R18  21473335.251   114626182.667       -3445.611          51.000    21473335.481    89153724.010       -2679.901          49.000  
R19  20162318.500   107855122.202           2.905          41.000    20162318.277    83887489.195           2.277          49.000  
E04  26769445.311   140674403.309       -2889.171          40.000    26769456.020   107789509.448       -2213.700          47.000  
G12  22082331.488   116043442.124       -1294.351          45.000    22082330.426    90423454.248       -1008.562          48.000  
E33  26267066.883   138034714.333        2063.158          44.000    26267071.391   105767069.008        1580.831          48.000  
E31  26000065.274   136631352.948         692.423          47.000    26000071.829   104691617.038         530.610          51.000  
G20  25922009.624   136221122.807        1338.374          34.000                                                                  
E13  27853893.392   146373232.910       -2540.632          33.000    27853895.212   112156142.446       -1946.613          50.000  
E14  20257242.211   106452571.354         -45.562          50.000    20257250.125    81567589.221         -34.890          51.000  
E26  25200520.869   132429966.492          -5.587          45.000    25200523.838   101472498.675          -4.332          50.000  
E21  27365301.343   143805601.151       -2256.484          39.000    27365306.461   110188706.919       -1729.207          42.000  
> 2024 04 16 01 56 30.0020000  0 25                     
G25  21761603.333   114358036.283         255.776          48.000    21761603.931    89110175.334         199.283          44.000  
G24  22624286.003   118891362.948       -3482.856          50.000    22624288.724    92642599.133       -2713.859          45.000  
G32  24093982.105   126614627.619       -1822.414          42.000    24093989.875    98660706.132       -1420.025          41.000  
E09  27311534.593   143523061.916        -911.153          45.000    27311543.985   109972205.339        -698.158          50.000  
R16  21069377.478   112548817.810       -1637.640          53.000    21069377.066    87537962.790       -1273.656          50.000  
R09  21123972.438   112800851.776        1403.266          50.000    21123972.429    87734090.845        1091.406          51.000  
R15  24671609.065   131837377.246       -3587.325          49.000    24671620.031   102540128.957       -2790.042          44.000  
R20  23341505.325                3       3628.140          28.000    23341515.423    97080311.9611       2822.615          46.000  
G29  22049733.224   115872114.933        1052.119          49.000    22049736.950    90289983.593         819.846          45.000  
S33  40471896.070   212681250.069        -716.428          46.000  
S31  39518817.631   207672791.856        -716.213          36.000  
G06  25030496.241   131536191.215       -3234.001          40.000    25030495.373   102495767.323       -2519.879          41.000  
G11  23193264.305   121881682.227       -1355.732          44.000    23193263.912    94972842.033       -1056.263          45.000  
R18  21492753.518   114729835.748       -3464.490          52.000    21492753.225    89234343.136       -2694.574          49.000  
R19  20162378.631   107855443.983         -23.943          42.000    20162378.440    83887739.317         -18.560          48.000  
E04  26785955.568   140761139.6351      -2894.684          36.000    26785966.532   107855984.746       -2218.106          42.000  
G12  22089734.108   116082338.754       -1298.673          45.000    22089732.728    90453763.297       -1011.851          48.000  
E33  26255302.046   137972897.502        2057.847          44.000    26255307.132   105719703.906        1576.836          47.000  
E31  25996111.895   136610581.594         692.637          46.000    25996118.812   104675701.442         530.708          51.000  
G20  25914376.970   136181015.173        1336.149          34.000                                                                  
E14  20257596.604   106454436.328         -78.470          52.000    20257604.841    81569018.695         -60.122          55.000  
E26  25200592.795   132430341.308         -19.156          45.000    25200595.393   101472785.903         -14.670          50.000  
E21  27378188.706   143873323.890       -2257.805          38.000    27378193.781   110240598.366       -1730.233          43.000  
E13                                                                  27868429.759   112214668.006       -1954.747          49.000  
G28                                                                  24463070.109                        1971.893          27.000  
> 2024 04 16 01 57 00.0020000  0 25                     
G25  21760155.536   114350429.694         251.573          48.000    21760156.471    89104248.164         195.971          45.000  
G24  22644203.421   118996032.178       -3495.116          47.000    22644205.454    92724160.188       -2723.505          42.000  
G32  24104429.687   126669534.870       -1837.706          43.000    24104437.858    98703490.821       -1432.062          41.000  
E09  27316775.121   143550601.981        -924.548          45.000    27316784.862   109993307.293        -708.398          50.000  
R16  21078610.313   112598137.649       -1650.177          53.000    21078610.593    87576322.617       -1283.472          50.000  
R09  21116107.859   112758853.834        1396.740          50.000    21116107.680    87701425.826        1086.383          51.000  
R15  24691769.813   131945104.726       -3594.201          49.000    24691782.571   102623915.903       -2795.651          45.000  
R20  23321175.902   124708808.4013       3620.469          36.000    23321187.753    96995776.853        2815.743          33.000  
G29  22043766.595   115840760.068        1038.448          48.000    22043769.857    90265551.610         809.146          44.000  
S33  40475986.226   212702742.949        -716.788          36.000  
S31  39522903.986   207694264.691        -715.618          41.000  
G28  24448639.442   128478466.1391       2524.384          32.000    24448613.823                3       1967.541          24.000  
G06  25048995.654   131633407.377       -3247.120          41.000    25048994.026   102571520.330       -2529.956          39.000  
G11  23201059.425   121922643.732       -1374.968          46.000    23201058.389    95004760.115       -1071.492          45.000  
R18  21512279.090   114834064.957       -3483.966          51.000    21512279.083    89315410.320       -2709.729          49.000  
R19  20162590.833   107856579.839         -51.557          41.000    20162591.078    83888622.602         -39.948          48.000  
E04  26802502.127   140848084.258       -2901.231          42.000    26802512.272   107922605.295       -2223.062          29.000  
G12  22097161.556   116121368.970       -1303.309          46.000    22097159.474    90484176.449       -1015.566          47.000  
E33  26243568.278   137911241.594        2052.331          45.000    26243573.840   105672461.921        1572.559          49.000  
E31  25992160.385   136589812.941         692.149          47.000    25992166.418   104659787.914         530.362          50.000  
G20  25906761.061   136140994.900        1332.521          36.000                                                                  
E13  27883029.552   146526273.4721      -2562.253          31.000    27883026.011   112273442.078       -1963.340          49.000  
E14  20258138.609   106457290.559        -111.605          46.000    20258147.985    81571205.983         -85.455          49.000  
E26  25200743.619   132431131.036         -33.401          46.000    25200745.531   101473391.049         -25.520          51.000  
E21  27391083.532   143941087.949       -2259.483          38.000    27391089.142   110292521.437       -1731.318          43.000  
> 2024 04 16 01 57 30.0020000  0 25                     
G25  21758729.618   114342937.972         247.811          48.000    21758730.779    89098410.599         192.989          45.000  
G24  22664189.481   119101065.028       -3507.266          50.000    22664192.381    92806004.536       -2732.985          47.000  
G32  24114965.874   126724899.176       -1853.152          43.000    24114973.157    98746632.118       -1443.806          43.000  
E09  27322090.911   143578535.506        -937.672          45.000    27322100.169   110014710.737        -718.469          50.000  
R16  21087913.268   112647829.220       -1662.556          53.000    21087912.122    87614971.600       -1293.128          50.000  
R09  21108278.375   112717045.013        1390.392          50.000    21108278.295    87668907.884        1081.482          50.000  
R15  24711967.342   132053033.607       -3601.004          50.000    24711980.517   102707859.427       -2800.799          45.000  
R20  23300883.584   124600295.976        3612.568          33.000    23300892.564                3       2810.350          45.000  
G29  22037877.021   115809809.506        1024.963          49.000    22037878.962    90241434.636         798.696          44.000  
S33  40480074.931   212724226.785        -715.712          40.000  
S31  39526987.791   207715727.144        -715.128          43.000  
G28  24434242.314                        2519.855          31.000    24434209.985                3       1962.270          23.000  
G06  25067570.384   131731018.574       -3260.249          40.000    25067568.677   102647581.179       -2540.565          38.000  
G11  23208963.819   121964175.614       -1393.965          46.000    23208961.522    95037122.655       -1086.173          45.000  
R18  21531911.956   114938869.237       -3503.070          51.000    21531912.949    89396924.805       -2724.573          49.000  
R19  20162955.866   107858533.207         -78.961          40.000    20162956.652    83890141.898         -61.247          49.000  
E04  26819082.839   140935240.5081      -2907.158          40.000    26819093.169   107989373.3321      -2227.807          46.000  
G12  22104614.758   116160536.041       -1307.841          47.000    22104612.877    90514696.258       -1019.055          47.000  
E33  26231867.188   137849752.283        2046.766          44.000    26231872.215   105625347.748        1568.217          48.000  
E31  25988209.493   136569049.847         692.045          47.000    25988215.096   104643878.660         530.216          50.000  
G20  25899162.951   136101067.984        1329.540          37.000                                                                  
E14  20258869.967   106461135.649        -144.685          47.000    20258879.592    81574152.616        -110.922          50.000  
E26  25200973.109   132432339.200         -47.250          46.000    25200975.378   101474316.842         -36.217          50.000  
E21  27403988.990   144008896.626       -2260.801          40.000    27403992.802   110344478.724       -1732.581          44.000  
E13                                                                  27897684.227   112332465.720       -1971.571          49.000  
> 2024 04 16 01 58 00.0020000  0 25                     
G25  21757325.707   114335560.922         243.865          47.000    21757327.143    89092662.353         190.006          45.000  
G24  22684244.547   119206459.226       -3519.331          47.000    22684247.881    92888130.550       -2742.417          44.000  
G32  24125588.138   126780716.339       -1868.294          44.000    24125593.828    98790126.085       -1455.708          38.000  
E09  27327481.833   143606861.431        -950.842          46.000    27327490.724   110036414.854        -728.584          50.000  
R16  21097284.942   112697893.173       -1675.105          53.000    21097284.877    87653910.179       -1302.870          50.000  
R09  21100484.712   112675426.983        1383.940          50.000    21100484.098    87636538.391        1076.409          51.000  
R15  24732202.931   132161163.213       -3607.722          47.000    24732215.296   102791958.995       -2805.955          44.000  
R20  23280629.118   124491988.275        3605.921          37.000    23280640.201    96827121.1421       2804.274          39.000  
G29  22032063.026   115779263.175        1011.257          48.000    22032065.005    90217632.763         787.998          43.000  
S33  40484160.844   212745695.1751       -715.673          46.000  
S31  39531070.031   207737179.199        -715.149          41.000  
G28  24419876.919                        2512.921          31.000    24419873.923                        1958.185          28.000  
G06  25086219.032   131829021.900       -3273.717          39.000    25086218.867   102723947.519       -2550.451          39.000  
G11  23216975.156   122006276.919       -1412.955          46.000    23216972.117    95069928.931       -1101.102          44.000  
R18  21551652.189   115044244.274       -3522.058          51.000    21551652.559    89478883.233       -2739.429          48.000  
R19  20163473.218   107861303.513        -105.959          40.000    20163474.666    83892296.391         -82.415          49.000  
E04  26835697.870   141022551.819       -2913.378          44.000    26835708.401   108056273.430       -2232.315          48.000  
G12  22112093.949   116199839.804       -1312.479          46.000    22112091.727    90545322.587       -1022.761          47.000  
E33  26220197.119   137788432.672        2040.914          45.000    26220201.628   105578364.692        1563.783          48.000  
E31  25984258.811   136548291.832         691.609          47.000    25984264.854   104627973.284         529.986          50.000  
G20  25891582.117   136061236.336        1325.814          35.000                                                                  
E14  20259789.528   106465969.797        -177.734          48.000    20259798.765    81577857.414        -136.215          54.000  
E26  25201281.975   132433965.921         -61.371          46.000    25201284.940   101475563.360         -46.996          51.000  
E21  27416899.917   144076749.749       -2262.691          40.000    27416905.562   110396470.096       -1733.858          44.000  
E13                                                                  27912404.447   112391737.426       -1980.009          49.000  
> 2024 04 16 01 58 30.0020000  0 25                     
G25  21755944.617   114328301.538         240.037          49.000    21755945.439    89087006.015         186.852          45.000  
G24  22704369.496   119312214.651       -3531.189          49.000    22704372.089    92970538.098       -2751.565          44.000  
G32  24136295.645   126836986.516       -1883.230          42.000    24136302.172    98833973.123       -1467.133          37.000  
E09  27332946.904   143635580.949        -963.946          46.000    27332956.134   110058420.558        -738.473          50.000  
R16  21106725.957   112748332.344       -1687.458          52.000    21106726.981    87693140.614       -1312.575          50.000  
R09  21092726.861   112634003.937        1377.691          51.000    21092726.434    87604320.526        1071.434          50.000  
R15  24752476.427   132269494.647       -3614.216          49.000    24752489.642   102876215.556       -2810.931          45.000  
R20  23260418.698                        3598.534          33.000    23260425.693    96743078.4791       2798.516          39.000  
G29  22026327.687   115749122.847         997.894          49.000    22026329.429    90194147.145         777.559          44.000  
S33  40488246.290   212767160.043        -715.167          39.000  
S31  39535150.385   207758622.975        -714.702          38.000  
G28  24405545.505   128251992.7531       2508.093          33.000    24405535.269                        1954.486          29.000  
G06  25104942.935   131927416.634       -3286.494          39.000    25104942.516   102800618.930       -2560.541          38.000  
G11  23225094.103   122048948.976       -1431.838          46.000    23225093.458    95103179.940       -1115.637          45.000  
R18  21571499.004   115150187.921       -3540.710          51.000    21571499.631    89561283.888       -2753.961          49.000  
R19  20164144.935   107864893.343        -133.425          40.000    20164146.013    83895088.249        -103.563          50.000  
E04  26852348.951   141110041.5991      -2919.458          48.000    26852357.925   108123315.800       -2236.986          51.000  
G12  22119598.859   116239282.328       -1316.963          46.000    22119597.705    90576057.017       -1026.187          47.000  
E33  26208559.030   137727283.992        2035.514          46.000    26208563.746   105531512.342        1559.700          50.000  
E31  25980309.728   136527540.629         691.756          46.000    25980316.024   104612073.129         530.050          50.000  
G20  25884021.681   136021504.702        1322.850          35.000                                                                  
E14  20260897.315   106471792.386        -210.388          49.000    20260906.038    81582319.214        -161.205          56.000  
E26  25201671.742   132436013.614         -75.218          46.000    25201674.659   101477132.442         -57.602          51.000  
E21  27429820.121   144144649.568       -2263.880          39.000    27429825.766   110448497.211       -1734.620          44.000  
E13                                                                  27927186.002   112451257.334       -1988.064          49.000  
> 2024 04 16 01 59 00.0020000  0 25                     
G25  21754587.023   114321167.179         235.539          48.000    21754588.393    89081446.757         183.555          45.000  
G24  22724563.313   119418336.951       -3543.696          47.000    22724565.395    93053231.569       -2761.284          42.000  
G32  24147090.832   126893716.215       -1898.891          43.000    24147098.001    98878178.500       -1479.745          41.000  
E09  27338489.014   143664701.485        -977.588          46.000    27338497.862   110080733.529        -748.957          50.000  
R16  21116241.039   112799155.821       -1700.698          51.000    21116241.212    87732669.940       -1322.866          50.000  
R09  21085007.867   112592786.185        1370.280          51.000    21085007.680    87572262.336        1065.763          51.000  
R15  24772789.077   132378035.673       -3621.678          44.000    24772802.681   102960635.147       -2816.799          41.000  
R20  23240252.450   124276070.6031       3590.832          39.000    23240258.114                3       2789.628          29.000  
G29  22020670.876   115719396.739         983.876          49.000    22020672.467    90170984.143         766.641          44.000  
S33  40492330.724   212788625.549        -715.756          45.000  
S31  39539231.714   207780065.934        -714.998          41.000  
G28  24391251.295   128176863.051        2501.410          34.000    24391244.114    99878048.0851       1949.182          32.000  
G06  25123742.206   132026208.445       -3299.843          37.000    25123742.628   102877599.728       -2571.215          39.000  
G11  23233324.661   122092199.360       -1451.458          45.000    23233324.803    95136881.595       -1131.065          45.000  
R18  21591454.025   115256704.398       -3560.254          51.000    21591453.530    89644130.065       -2768.981          48.000  
R19  20164971.467   107869311.106        -161.245          41.000    20164972.338    83898524.078        -125.311          49.000  
E04  26869034.542   141197723.849       -2926.054          42.000    26869043.904   108190500.078       -2241.924          46.000  
G12  22127132.467   116278872.109       -1322.214          46.000    22127131.327    90606906.208       -1030.403          47.000  
E33  26196957.767   137666314.198        2028.998          46.000    26196960.919   105484795.599        1554.732          50.000  
E31  25976363.520   136506804.269         690.833          46.000    25976370.234   104596184.353         529.367          51.000  
G20  25876481.332   135981884.381        1318.921          34.000                                                                  
E14  20262193.853   106478609.577        -243.971          45.000    20262202.763    81587543.034        -186.916          48.000  
E26  25202142.991   132438490.886         -89.911          46.000    25202146.280   101479030.659         -68.861          52.000  
E21  27442753.895   144212604.408       -2265.930          40.000    27442757.826   110500566.534       -1736.561          45.000  
E13                                                                  27942030.464   112511030.490       -1996.757          49.000  
> 2024 04 16 01 59 30.0030000  0 25                     
G25  21753254.925   114314164.362         231.250          48.000    21753255.536    89075990.175         180.188          46.000  
G24  22744828.163   119524832.223       -3555.940          47.000    22744829.942    93136215.460       -2770.973          43.000  
G32  24157974.065   126950911.067       -1913.779          44.000    24157980.456    98922746.251       -1491.420          40.000  
E09  27344107.397   143694228.221        -991.027          46.000    27344116.622   110103357.739        -759.346          50.000  
R16  21125828.364   112850371.606       -1713.686          51.000    21125828.890    87772504.379       -1332.906          50.000  
R09  21077329.417   112551779.858        1363.262          52.000    21077328.755    87540368.689        1060.295          51.000  
R15  24793142.811   132486794.532       -3628.644          41.000    24793156.687   103045224.115       -2822.351          39.000  
R20  23220124.216   124168464.7351       3582.130          39.000    23220136.822    96575514.5161       2783.881          30.000  
G29  22015093.747   115690088.720         969.769          48.000    22015095.189    90148146.780         755.899          42.000  
S33  40496416.513   212810095.984        -715.656          42.000  
S31  39543313.396   207801514.763        -715.222          38.000  
G28  24376988.800   128101923.294        2494.824          36.000    24376987.640    99819653.500        1944.013          34.000  
G06  25142618.795   132125403.017       -3312.800          37.000    25142618.563   102954894.302       -2581.610          38.000  
G11  23241666.614   122136033.787       -1470.894          46.000    23241665.426    95171038.299       -1146.069          44.000  
R18  21611516.864   115363798.212       -3579.272          52.000    21611516.106    89727425.290       -2783.954          49.000  
R19  20165953.284   107874562.059        -188.943          41.000    20165952.747    83902608.054        -147.018          48.000  
E04  26885757.449   141285599.184       -2932.112          40.000    26885768.009   108257831.626       -2246.713          50.000  
G12  22134695.855   116318615.708       -1327.509          46.000    22134693.907    90637875.219       -1034.354          47.000  
E33  26185390.052   137605531.171        2022.892          47.000    26185393.437   105438222.232        1549.913          51.000  
E31  25972421.367   136486086.880         690.261          46.000    25972427.846   104580310.101         528.890          51.000  
G20  25868964.079   135942381.315        1314.121          35.000                                                                  
E13  27956930.792                3      -2616.755          26.000    27956938.662   112571061.331       -2005.190          48.000  
E14  20263680.566   106486424.833        -277.105          39.000    20263689.811    81593531.684        -212.298          48.000  
E26  25202697.113   132441403.274        -104.332          46.000    25202700.741   101481262.261         -79.987          52.000  
E21  27455696.368   144280621.914       -2268.104          40.000    27455700.580   110552683.782       -1738.067          44.000  
