     3.00           OBSERVATION DATA    M: Mixed            RINEX VERSION / TYPE
CONVBIN 2.4.3                           20240416 211441 UTC PGM / RUN BY / DATE 
format: u-blox UBX                                          COMMENT             
log: /home/regis/git/gnsspwv/obsdata/VERT00CHL/2024-04-16/VECOMMENT             
{self.marker}                                               MARKER NAME         
                                                            MARKER NUMBER       
GEODETIC                                                    MARKER TYPE         
{self.observer}     {self.institution}                      OBSERVER / AGENCY   
UNKNOWN             UBLOX-ZED-F9P                           REC # / TYPE / VERS 
UNKNOWN             TWIVSP6037L                             ANT # / TYPE        
  1713381.0000 -5047934.0000 -3490983.0000                  APPROX POSITION XYZ 
        0.0000        0.0000        0.0000                  ANTENNA: DELTA H/E/N
G    8 C1C L1C D1C S1C C2L L2L D2L S2L                      SYS / # / OBS TYPES 
R    8 C1C L1C D1C S1C C2C L2C D2C S2C                      SYS / # / OBS TYPES 
E    8 C1C L1C D1C S1C C7Q L7Q D7Q S7Q                      SYS / # / OBS TYPES 
S    4 C1C L1C D1C S1C                                      SYS / # / OBS TYPES 
  2024    04    16    21    00   00.0060000     GPS         TIME OF FIRST OBS   
  2024    04    16    21    14   30.0060000     GPS         TIME OF LAST OBS    
                                                            END OF HEADER       
> 2024 04 16 21 00 00.0060000  0 25                     
G13  21918362.202   115181871.2871         61.786          48.000                                                                  
G15  23589845.567   123965505.5481       1570.249          48.000    23589846.210    96596538.3921       1223.658          44.000  
G19  24566736.348   129099360.2891       1946.146          46.000                                                                  
G24  25852456.600   135855618.5751       1303.332          41.000    25852465.235   105861590.3701       1015.968          41.000  
R05  20901428.530   111730361.9951      -1706.094          52.000    20901428.817    86901278.5381      -1326.821          49.000  
R16  22026144.381   117659818.4561        377.786          51.000    22026148.629    91513569.7121        293.828          50.000  
R04  23590891.201   126328167.8521      -4802.188          50.000    23590899.874    98255197.7981      -3735.027          48.000  
R06  23505127.063   125427925.8161       2715.100          36.000                                                                  
R14  25430996.554   135561542.1831      -4262.054          36.000    25431003.313   105436935.8091      -3315.322          33.000  
E08  25063133.682   131707809.8501       -400.423          47.000    25063138.431   100919036.7321       -306.772          51.000  
S31  40508855.782   212875407.0201       -814.114          44.000  
S33  41460163.363   217874536.0771       -814.859          42.000  
G20  25806387.599   135613204.5311      -3974.739          43.000                                                                  
E03  26745395.047   140548003.4371      -2712.542          47.000    26745405.417   107692665.4661      -2078.521          51.000  
R15  21815607.419   116576379.9991      -2851.822          51.000    21815610.107    90670378.5141      -2218.082          49.000  
E07  27743572.605   145793550.6981       1579.489          39.000    27743581.727   111711966.1241       1210.417          45.000  
G05  24084920.636   126567004.8891      -3091.757          47.000    24084927.274    98623681.7201      -2409.111          43.000  
G30  24794349.498   130295350.6871      -3085.930          39.000    24794358.143   101528953.7431      -2404.541          43.000  
E30  26250670.703   137948567.2811       1001.971          47.000    26250680.422   105701092.2031        767.744          52.000  
G14  23104793.805   121416726.2241      -3254.415          49.000    23104795.035    94610598.8001      -2535.853          49.000  
E02  25130279.456   132060759.6941      -1583.392          48.000    25130283.499   101189598.2661      -1213.264          53.000  
G22  21923060.429   115206812.3311      -1427.279          48.000                                                                  
G17  24085398.812   126569895.4331       1283.355          46.000    24085405.024    98626071.6831        999.957          45.000  
E25  28427401.055   149387204.0371      -3396.258          39.000    28427411.356   114465640.4871      -2602.579          47.000  
E18  21883524.564   114998989.0691        494.542          45.000                                                                  
> 2024 04 16 21 00 30.0060000  0 25                     
G13  21918046.499   115180210.920          49.030          47.000                                                                  
G15  23580906.527   123918531.834        1561.210          48.000    23580907.575    96559935.579        1216.483          44.000  
G19  24555646.132   129041081.969        1939.255          45.000                                                                  
G24  25845017.205   135816525.523        1302.838          42.000    25845026.286   105831128.510        1014.980          41.000  
R05  20911074.901   111781929.341       -1731.775          52.000    20911075.827    86941386.390       -1346.974          50.000  
R16  22024064.357   117648705.428         363.069          52.000    22024067.835    91504926.369         282.343          50.000  
R04  23617826.326   126472403.328       -4813.475          50.000    23617834.391    98367380.380       -3743.811          47.000  
R06  23489896.668   125346657.383        2702.558          35.000                                                                  
R14  25454975.245   135689361.643       -4259.177          35.000    25454982.547   105536350.859       -3312.646          33.000  
E08  25065447.358   131719968.394        -410.224          47.000    25065452.199   100928353.017        -314.314          51.000  
S31  40513504.911   212899836.909        -814.307          44.000  
S33  41464816.079   217898985.055        -814.947          42.000  
G20  25829075.692   135732428.616       -3973.401          42.000                                                                  
E03  26760903.967   140629502.478       -2720.796          48.000    26760914.373   107755112.656       -2084.720          51.000  
R15  21831643.150   116662070.778       -2860.852          51.000    21831646.003    90737026.878       -2225.191          50.000  
E07  27734562.757   145746201.922        1576.995          40.000    27734571.421   111675686.101        1208.551          44.000  
G05  24102604.534   126659932.602       -3103.323          47.000    24102611.354    98696092.666       -2418.335          44.000  
G30  24811972.886   130387957.678       -3087.740          39.000    24811980.094   101601114.947       -2406.275          42.000  
E30  26244977.623   137918648.718         992.586          47.000    26244986.874   105678167.754         760.605          52.000  
G14  23123402.825   121514518.451       -3265.031          49.000    23123404.555    94686800.524       -2544.177          49.000  
E02  25139348.188   132108418.626       -1593.843          48.000    25139352.865   101226116.165       -1221.215          53.000  
G22  21931259.378   115249900.318       -1445.060          48.000                                                                  
G17  24078111.899   126531593.456        1270.001          48.000    24078115.193    98596226.172         989.658          44.000  
E25  28446798.368   149489131.912       -3398.731          41.000    28446807.428   114543740.975       -2604.194          45.000  
E18  21880786.560   114984604.554         464.412          45.000                                                                  
> 2024 04 16 21 01 00.0060000  0 25                     
G13  21917801.724   115178926.018          36.521          48.000                                                                  
G15  23572017.777   123871822.044        1552.538          48.000    23572019.146    96523538.410        1209.734          44.000  
G19  24544593.324   128983003.243        1932.579          45.000                                                                  
G24  25837577.255   135777426.159        1303.171          43.000    25837585.928   105800661.758        1015.516          41.000  
R05  20920863.100   111834256.766       -1756.934          52.000    20920865.960    86982085.440       -1366.529          50.000  
R16  22022064.930   117638025.903         348.685          52.000    22022068.450    91496620.198         271.258          50.000  
R04  23644822.757   126616965.300       -4824.092          50.000    23644830.874    98479816.847       -3752.015          47.000  
R06  23474735.627   125265750.175        2690.972          37.000                                                                  
R14  25478931.393   135817065.917       -4254.507          34.000    25478939.057   105635676.341       -3309.309          34.000  
E08  25067814.902   131732408.771        -419.359          47.000    25067819.626   100937885.268        -321.262          52.000  
S31  40518150.971   212924253.333        -813.580          44.000  
S33  41469466.003   217923421.883        -814.270          42.000  
G20  25851755.297   135851606.406       -3971.936          42.000                                                                  
E03  26776457.374   140711235.196       -2728.425          48.000    26776467.619   107817738.894       -2090.582          51.000  
R15  21847727.835   116748023.016       -2869.455          51.000    21847729.932    90803878.606       -2231.756          48.000  
E07  27725564.669   145698915.010        1575.268          39.000    27725573.184   111639453.468        1206.978          45.000  
G05  24120352.375   126753198.356       -3114.513          46.000    24120359.548    98768766.969       -2426.954          45.000  
G30  24829604.177   130480615.599       -3089.622          38.000    24829612.125   101673315.827       -2407.762          42.000  
E30  26239335.982   137889001.210         983.670          47.000    26239345.369   105655450.992         753.778          53.000  
G14  23142070.298   121612620.594       -3275.320          48.000    23142072.624    94763243.730       -2552.089          48.000  
E02  25148474.043   132156375.728       -1603.541          48.000    25148478.725   101262862.523       -1228.639          53.000  
G22  21939558.754   115293514.636       -1462.662          48.000                                                                  
G17  24070897.105   126493681.135        1257.275          46.000    24070900.041    98566684.309         979.658          44.000  
E25  28466203.761   149591116.099       -3400.179          40.000    28466214.273   114621884.661       -2605.438          45.000  
E18  21878219.531   114971116.030         434.589          45.000                                                                  
> 2024 04 16 21 01 30.0060000  0 25                     
G13  21917627.756   115178016.716          23.783          47.000                                                                  
G15  23563179.633   123825376.379        1543.668          47.000    23563180.620    96487347.030        1202.875          45.000  
G19  24533578.876   128925125.133        1925.831          45.000                                                                  
G24  25830135.379   135738318.332        1303.734          44.000    25830144.032   105770188.355        1015.897          42.000  
R05  20930793.484   111887342.164       -1782.313          51.000    20930796.691    87023374.033       -1386.308          50.000  
R16  22020145.168   117627776.315         334.330          51.000    22020149.732    91488648.425         260.039          49.000  
R04  23671879.008   126761848.431       -4834.794          50.000    23671887.237    98592503.118       -3760.345          47.000  
R06  23459642.417   125185206.121        2678.379          38.000                                                                  
R14  25502865.796   135944651.158       -4251.123          36.000    25502873.561   105734909.420       -3306.531          34.000  
E08  25070236.191   131745129.939        -428.896          47.000    25070240.135   100947632.680        -328.581          52.000  
S31  40522794.416   212948654.852        -813.171          43.000  
S33  41474113.783   217947843.564        -813.721          42.000  
G20  25874425.120   135970733.900       -3969.990          43.000                                                                  
E03  26792054.703   140793199.165       -2736.081          48.000    26792064.830   107880542.307       -2096.489          51.000  
R15  21863860.541   116834231.377       -2877.875          52.000    21863861.905    90870929.503       -2238.324          48.000  
E07  27716577.092   145651689.194        1573.130          39.000    27716586.307   111603267.671        1205.240          45.000  
G05  24138163.810   126846797.062       -3125.573          47.000    24138170.343    98841700.719       -2435.368          43.000  
G30  24847247.080   130573322.177       -3091.028          39.000    24847253.543   101745554.587       -2408.498          41.000  
E30  26233744.642   137859623.068         974.641          47.000    26233754.789   105632940.658         746.873          53.000  
G14  23160797.044   121711027.960       -3285.355          49.000    23160798.462    94839924.767       -2560.033          48.000  
E02  25157656.126   132204627.639       -1613.287          48.000    25157660.775   101299834.809       -1236.184          53.000  
G22  21947957.610   115337651.156       -1479.951          48.000                                                                  
G17  24063756.670   126456159.101        1244.123          46.000    24063759.475    98537446.549         969.405          44.000  
E25  28485621.350   149693153.146       -3402.119          40.000    28485631.444   114700068.816       -2606.845          45.000  
E18  21875822.279   114958524.309         404.652          45.000                                                                  
> 2024 04 16 21 02 00.0060000  0 25                     
G13  21917527.505   115177487.290          11.209          47.000                                                                  
G15  23554392.736   123779199.439        1534.629          48.000    23554393.551    96451365.077        1195.844          44.000  
G19  24522604.882   128867453.465        1918.882          45.000                                                                  
G24  25822692.219   135699204.471        1303.700          44.000    25822700.897   105739710.273        1016.046          43.000  
R05  20940866.684   111941187.575       -1807.530          51.000    20940869.354    87065253.761       -1405.929          51.000  
R16  22018307.235   117617958.668         319.956          51.000    22018311.783    91481012.609         248.869          49.000  
R04  23698995.508   126907051.918       -4845.450          50.000    23699003.320    98705438.526       -3768.670          47.000  
R06  23444617.880   125105032.051        2665.859          38.000                                                                  
R14  25526777.789   136072118.933       -4246.661          33.000    25526787.745   105834050.973       -3303.638          33.000  
E08  25072710.616   131758135.619        -438.462          47.000    25072715.047   100957598.088        -335.892          52.000  
S31  40527435.376   212973043.834        -812.774          44.000  
S33  41478758.324   217972252.690        -813.601          42.000  
G20  25897086.026   136089810.538       -3968.380          43.000                                                                  
E03  26807696.199   140875396.676       -2744.022          48.000    26807706.035   107943524.679       -2102.491          50.000  
R15  21880041.745   116920695.895       -2886.440          51.000    21880043.301    90938179.676       -2244.939          49.000  
E07  27707602.562   145604528.574        1570.936          39.000    27707611.862   111567131.801        1203.667          45.000  
G05  24156038.125   126940728.664       -3136.492          47.000    24156045.299    98914893.856       -2443.871          44.000  
G30  24864900.103   130666079.804       -3092.857          41.000    24864905.124   101817833.178       -2409.928          42.000  
E30  26228206.570   137830517.452         965.525          47.000    26228215.568   105610639.131         739.823          52.000  
G14  23179581.458   121809740.660       -3295.579          49.000    23179582.033    94916843.744       -2568.045          47.000  
E02  25166894.812   132253175.833       -1623.279          49.000    25166899.266   101337034.103       -1243.867          53.000  
G22  21956456.307   115382311.201       -1497.376          48.000                                                                  
G17  24056690.606   126419033.127        1230.926          44.000    24056695.935    98508517.411         959.089          44.000  
E25  28505048.820   149795244.144       -3404.144          42.000    28505059.048   114778294.320       -2608.263          44.000  
E18  21873598.095   114946834.887         374.468          45.000                                                                  
> 2024 04 16 21 02 30.0060000  0 25                     
G13  21917499.705   115177346.832          -1.302          47.000                                                                  
G15  23545657.873   123733300.687        1525.767          48.000    23545658.985    96415599.895        1189.017          44.000  
G19  24511671.444   128809998.632        1912.117          46.000                                                                  
G24  25815249.163   135660091.419        1304.364          43.000    25815257.361   105709232.832        1016.362          43.000  
R05  20951082.755   111995799.762       -1832.628          51.000    20951086.611    87107729.846       -1425.381          50.000  
R16  22016551.619   117608579.546         305.957          52.000    22016555.809    91473717.846         237.955          50.000  
R04  23726172.151   127052579.466       -4855.651          50.000    23726179.820    98818625.949       -3776.530          47.000  
R06  23429664.100   125025239.155        2653.870          38.000                                                                  
R14  25550666.043                       -4242.792          32.000    25550674.613                3      -3300.183          27.000  
E08  25075240.907   131771433.826        -447.582          47.000    25075245.752   100967787.664        -343.016          52.000  
S31  40532075.845   212997427.811        -812.165          44.000  
S33  41483402.055   217996656.503        -812.774          42.000  
G20  25919738.030   136208840.980       -3966.390          43.000                                                                  
E03  26823384.080   140957834.414       -2751.486          48.000    26823393.435   108006691.132       -2108.332          50.000  
R15  21896271.352   117007420.929       -2894.508          53.000    21896272.172    91005632.434       -2251.328          49.000  
E07  27698641.889   145557441.476        1568.711          40.000    27698651.597   111531052.280        1202.121          45.000  
G05  24173977.516   127034997.349       -3147.260          47.000    24173984.601    98988349.668       -2452.379          44.000  
G30  24882560.957   130758895.461       -3094.104          39.000    24882567.296   101890156.972       -2411.236          41.000  
E30  26222722.147   137801691.808         956.678          48.000    26222729.914   105588552.109         733.031          52.000  
G14  23198424.554   121908763.233       -3305.265          48.000    23198425.730    94994004.183       -2575.518          47.000  
E02  25176190.406   132302026.042       -1632.823          49.000    25176194.980   101374464.800       -1251.161          53.000  
G22  21965055.889   115427501.176       -1514.516          48.000                                                                  
G17  24049702.019   126382313.293        1217.666          45.000    24049708.533    98479904.787         948.923          45.000  
E25  28524487.072   149897394.685       -3405.570          41.000    28524497.611   114856565.468       -2609.499          44.000  
E18  21871546.583   114936057.521         344.507          45.000                                                                  
> 2024 04 16 21 03 00.0060000  0 25                     
G13  21917546.241   115177587.881         -14.528          47.000                                                                  
G15  23536975.389   123687673.846        1516.380          47.000    23536975.970    96380046.586        1181.697          44.000  
G19  24500777.288   128752755.259        1904.550          46.000                                                                  
G24  25807804.278   135620970.476        1304.171          43.000    25807812.519   105678749.249        1016.442          43.000  
R05  20961442.251   112051169.682       -1858.273          52.000    20961443.651    87150795.307       -1445.305          50.000  
R16  22014875.667   117599628.663         291.249          51.000    22014880.003    91466756.189         226.529          50.000  
R04  23753406.132   127198419.362       -4866.417          50.000    23753415.376    98932056.358       -3784.936          47.000  
R06  23414781.336   124945822.948        2641.046          38.000                                                                  
R14  25574534.490   136326708.287       -4238.946          34.000    25574542.187                3      -3301.871          23.000  
E08  25077825.672   131785017.074        -457.404          47.000    25077830.598   100978195.620        -350.441          52.000  
S31  40536712.957   213021797.333        -811.929          44.000  
S33  41488043.585   218021046.169        -812.637          42.000  
G20  25942378.709   136327813.517       -3964.617          44.000                                                                  
E03  26839115.582   141040503.417       -2759.376          48.000    26839124.666   108070034.787       -2114.377          50.000  
R15  21912546.445   117094395.246       -2903.239          51.000    21912548.540    91073279.139       -2257.978          49.000  
E07  27689693.956   145510420.742        1565.981          40.000    27689703.643   111495023.581        1200.248          45.000  
G05  24191978.599   127129591.309       -3158.428          47.000    24191985.429    99062059.008       -2461.096          43.000  
G30  24900233.239   130851760.309       -3096.110          40.000    24900239.240   101962519.098       -2412.503          42.000  
E30  26217287.869   137773137.895         947.407          48.000    26217295.502   105566673.313         725.924          51.000  
G14  23217324.583   122008084.497       -3315.680          48.000    23217326.792    95071397.354       -2583.628          48.000  
E02  25185542.330   132351168.488       -1642.881          49.000    25185546.740   101412119.390       -1258.801          53.000  
G22  21973753.981   115473210.665       -1532.280          48.000                                                                  
G17  24042791.790   126345993.872        1203.870          46.000    24042797.875    98451604.154         938.177          45.000  
E25  28543935.865   149999594.734       -3407.471          43.000    28543945.635   114934874.536       -2610.865          44.000  
E18  21869668.175   114926186.396         313.902          45.000                                                                  
> 2024 04 16 21 03 30.0060000  0 25                     
G13  21917666.310   115178218.314         -27.726          47.000                                                                  
G15  23528345.704   123642327.141        1506.728          47.000    23528346.868    96344711.579        1173.984          44.000  
G19  24489926.392   128695732.664        1896.964          46.000                                                                  
G24  25800358.670   135581847.228        1303.951          43.000    25800366.824   105648263.851        1015.956          42.000  
R05  20971942.498   112107302.450       -1883.999          52.000    20971944.290    87194454.067       -1465.265          50.000  
R16  22013282.819   117591111.380         276.585          52.000    22013285.526    91460131.766         215.116          50.000  
R04  23780701.082   127344573.604       -4877.142          51.000    23780709.213    99045731.212       -3793.241          47.000  
R06  23399971.048   124866793.121        2628.004          38.000                                                                  
R14  25598384.358   136453824.558       -4235.059          34.000    25598392.653                2      -3294.281          27.000  
E08  25080466.646   131798892.128        -467.625          47.000    25080470.904   100988827.165        -358.182          53.000  
S31  40541349.081   213046158.857        -812.105          44.000  
S33  41492683.029   218045428.094        -812.476          42.000  
G20  25965008.766   136446731.409       -3963.136          44.000                                                                  
E03  26854891.979   141123409.060       -2767.562          47.000    26854901.514   108133559.765       -2120.592          50.000  
R15  21928869.843   117181621.988       -2911.885          51.000    21928872.202    91141122.130       -2264.809          49.000  
E07  27680759.706   145463473.482        1563.486          39.000    27680769.994   111459051.200        1197.993          46.000  
G05  24210041.710   127224513.623       -3169.727          47.000    24210049.851    99136024.146       -2469.900          44.000  
G30  24917916.049   130944679.998       -3098.781          41.000    24917921.167   102034923.977       -2414.532          41.000  
E30  26211906.037   137744861.939         937.711          47.000    26211914.517   105545007.476         718.528          51.000  
G14  23236282.510   122107707.663       -3325.969          49.000    23236284.275    95149025.779       -2591.625          48.000  
E02  25194950.006   132400607.700       -1653.071          49.000    25194954.764   101450001.380       -1266.596          53.000  
G22  21982551.974   115519444.210       -1549.891          48.000                                                                  
G17  24035958.678   126310083.478        1190.065          46.000    24035963.982    98423622.249         927.323          45.000  
E25  28563395.204   150101848.598       -3409.479          44.000    28563403.965   115013224.861       -2612.516          44.000  
E18  21867963.137   114917229.961         283.165          44.000                                                                  
> 2024 04 16 21 04 00.0060000  0 25                     
G13  21917860.382   115179239.365         -40.451          47.000                                                                  
G15  23519769.794   123597262.246        1497.538          47.000    23519770.849    96309596.140        1167.116          44.000  
G19  24479118.363   128638933.364        1889.629          46.000                                                                  
G24  25792912.578   135542720.976        1304.520          42.000    25792921.501   105617776.111        1016.529          43.000  
R05  20982585.688   112164196.899       -1908.981          52.000    20982587.768    87238705.247       -1484.858          50.000  
R16  22011768.427   117583025.985         262.398          52.000    22011771.667    91453843.251         204.055          50.000  
R04  23808053.427   127491038.698       -4887.140          51.000    23808060.757    99159647.839       -3801.145          46.000  
R06  23385233.920   124788153.317        2614.912          38.000                                                                  
R14  25622210.552   136580821.648       -4231.427          31.000    25622215.367                1      -3290.942          30.000  
E08  25083162.907   131813059.404        -476.918          47.000    25083166.753   100999682.632        -365.447          52.000  
S31  40545983.313   213070511.659        -811.448          43.000  
S33  41497321.019   218069800.540        -812.109          42.000  
G20  25987628.104   136565591.212       -3960.755          44.000                                                                  
E03  26870712.915   141206550.392       -2775.228          47.000    26870723.242   108197265.331       -2126.418          50.000  
R15  21945239.857   117269097.312       -2919.783          52.000    21945241.871    91209158.478       -2270.943          49.000  
E07  27671839.773   145416600.499        1561.533          40.000    27671850.039   111423135.737        1196.411          46.000  
G05  24228167.036   127319760.930       -3180.011          46.000    24228174.369    99210242.518       -2478.048          44.000  
G30  24935607.655   131037653.731       -3099.980          40.000    24935614.689   102107370.960       -2415.578          41.000  
E30  26206578.219   137716863.699         928.843          48.000    26206586.579   105523554.448         711.646          51.000  
G14  23255297.513   122207629.668       -3335.526          50.000    23255298.358    95226887.063       -2599.170          47.000  
E02  25204414.001   132450341.883       -1662.507          49.000    25204418.798   101488109.422       -1273.914          53.000  
G22  21991449.248   115566199.758       -1567.081          48.000                                                                  
G17  24029202.312   126274584.434        1176.518          46.000    24029208.009    98395960.874         916.788          45.000  
E25  28582862.673   150204154.287       -3410.946          43.000    28582872.413   115091614.883       -2613.581          43.000  
E18  21866432.581   114909190.250         252.743          44.000                                                                  
> 2024 04 16 21 04 30.0060000  0 25                     
G13  21918129.555   115180651.907         -53.561          48.000                                                                  
G15  23511248.048   123552480.635        1488.055          46.000    23511249.061    96274701.434        1159.545          44.000  
G19  24468351.300   128582359.512        1882.100          45.000                                                                  
G24  25785465.878   135503590.613        1304.301          43.000    25785475.239   105587285.174        1016.488          43.000  
R05  20993371.004   112221851.559       -1934.379          52.000    20993373.605    87283547.713       -1504.525          51.000  
R16  22010334.496   117575370.638         248.075          52.000    22010338.383    91447889.208         192.948          50.000  
R04  23835462.168   127637809.870       -4897.374          51.000    23835470.406    99273802.494       -3808.918          47.000  
R06  23370570.050   124709906.289        2601.895          38.000                                                                  
R14  25646012.870                       -4226.868          28.000    25646017.449                       -3287.885          31.000  
E08  25085914.467   131827518.934        -486.714          48.000    25085918.265   101010762.027        -372.942          52.000  
S31  40550615.415   213094854.176        -811.081          44.000  
S33  41501957.141   218094164.078        -811.643          42.000  
G20  26010234.817   136684389.265       -3958.600          44.000                                                                  
E03  26886579.227   141289925.980       -2782.961          48.000    26886589.294   108261150.400       -2132.387          50.000  
R15  21961655.642   117356817.800       -2928.023          51.000    21961657.287    91277385.522       -2277.369          48.000  
E07  27662934.463   145369802.224        1558.766          40.000    27662943.728   111387277.514        1194.455          45.000  
G05  24246353.353   127415328.735       -3190.665          46.000    24246360.680    99284710.673       -2486.359          44.000  
G30  24953311.274   131130680.424       -3101.748          42.000    24953316.478   102179859.217       -2416.951          42.000  
E30  26201302.946   137689142.619         919.617          48.000    26201311.533   105502313.762         704.511          51.000  
G14  23274367.969   122307846.938       -3345.247          49.000    23274368.993    95304978.431       -2606.738          48.000  
E02  25213934.095   132500368.760       -1672.286          49.000    25213938.693   101526441.717       -1281.362          53.000  
G22  22000445.423   115613475.004       -1584.395          48.000                                                                  
G17  24022526.055   126239498.967        1162.765          46.000    24022530.966    98368621.777         905.952          45.000  
E25  28602339.862   150306509.292       -3412.396          44.000    28602349.726   115170042.707       -2614.916          42.000  
E18  21865078.491   114902068.810         222.112          45.000                                                                  
> 2024 04 16 21 05 00.0060000  0 25                     
G13  21918474.415   115182465.345         -67.138          47.000                                                                  
G15  23502782.212   123507991.460        1478.012          48.000    23502783.382    96240034.647        1151.621          44.000  
G19  24457629.983   128526021.636        1874.060          45.000                                                                  
G24  25778020.296   135464463.368        1304.285          44.000    25778028.584   105556796.675        1016.278          43.000  
R05  21004301.198   112280273.411       -1960.112          52.000    21004302.941    87328986.876       -1524.599          51.000  
R16  22008983.408   117568152.152         233.368          52.000    22008986.894    91442274.939         181.550          50.000  
R04  23862929.087   127784891.240       -4907.786          50.000    23862938.752    99388198.479       -3817.101          48.000  
R06  23355982.696   124632064.000        2587.965          39.000                                                                  
R14  25669811.489                3      -4225.731          22.000    25669802.040                3      -3284.336          25.000  
E08  25088722.984   131842279.225        -497.021          48.000    25088726.623   101022071.847        -380.857          52.000  
S31  40555247.497   213119194.397        -811.253          41.000  
S33  41506592.550   218118523.850        -811.877          42.000  
G20  26032831.343   136803130.252       -3957.124          44.000                                                                  
E03  26902491.282   141373542.904       -2791.182          49.000    26902501.085   108325220.400       -2138.823          50.000  
R15  21978118.419   117444788.332       -2936.529          53.000    21978119.415    91345807.037       -2283.896          47.000  
E07  27654044.973   145323087.481        1555.682          41.000    27654054.806   111351483.272        1191.973          46.000  
G05  24264600.538   127511221.983       -3201.953          45.000    24264608.254    99359432.343       -2494.725          43.000  
G30  24971024.480   131223767.344       -3103.969          38.000    24971030.375   102252394.390       -2418.876          41.000  
E30  26196081.338   137661706.497         909.818          47.000    26196091.114   105481291.448         697.076          52.000  
G14  23293495.577   122408364.399       -3355.565          48.000    23293496.815    95383303.688       -2614.919          47.000  
E02  25223510.605   132550694.487       -1682.489          49.000    25223515.381   101565003.008       -1289.132          53.000  
G22  22009541.296   115661275.487       -1602.125          48.000                                                                  
G17  24015930.535   126204836.756        1148.206          46.000    24015934.348    98341612.454         894.679          44.000  
E25  28621827.262   150408919.650       -3414.551          43.000    28621837.705   115248512.961       -2616.594          41.000  
E18  21863899.697   114895875.539         190.775          45.000                                                                  
> 2024 04 16 21 05 30.0060000  0 25                     
G13  21918897.544   115184686.020         -80.812          48.000                                                                  
G15  23494372.930   123463802.305        1467.897          46.000    23494373.977    96205601.626        1143.999          44.000  
G19  24446955.549   128469928.144        1865.740          46.000                                                                  
G24  25770575.781   135425344.168        1303.735          43.000    25770584.556   105526314.419        1016.119          44.000  
R05  21015375.042   112339466.441       -1985.956          52.000    21015375.726    87375025.872       -1544.647          51.000  
R16  22007714.265   117561374.022         218.589          52.000    22007717.528    91437003.188         169.967          50.000  
R04  23890453.811   127932284.600       -4918.262          50.000    23890464.700    99502837.046       -3825.512          49.000  
R06  23341471.687   124554635.371        2574.077          38.000                                                                  
R14  25693545.112                3      -4222.675          21.000                                                                  
E08  25091590.138   131857346.140        -507.331          48.000    25091594.045   101033616.649        -388.755          52.000  
S31  40559879.928   213143538.044        -811.479          43.000  
S33  41511228.699   218142887.515        -811.968          42.000  
G20  26055417.484   136921816.300       -3955.235          44.000                                                                  
E03  26918450.464   141457405.668       -2799.461          48.000    26918459.351   108389478.766       -2145.081          49.000  
R15  21994627.858   117533011.201       -2944.924          52.000    21994629.234    91414424.798       -2290.499          48.000  
E07  27645173.556   145276462.609        1552.526          42.000    27645181.738   111315757.918        1189.681          45.000  
G05  24282911.474   127607442.264       -3212.664          46.000    24282919.242    99434408.885       -2503.457          44.000  
G30  24988751.482   131316919.289       -3106.130          42.000    24988756.462   102324980.280       -2420.289          41.000  
E30  26190915.975   137634560.637         899.980          47.000    26190925.002   105460491.531         689.589          52.000  
G14  23312681.188   122509184.440       -3365.729          49.000    23312682.001    95461864.765       -2622.772          47.000  
E02  25233144.744   132601322.772       -1692.626          49.000    25233149.592   101603796.144       -1296.929          53.000  
G22  22018738.048   115709605.105       -1619.776          48.000                                                                  
G17  24009415.644   126170605.761        1133.846          44.000    24009420.524    98314939.211         883.372          44.000  
E25  28641326.476   150511388.871       -3416.586          44.000    28641336.946   115327028.265       -2618.039          41.000  
E18  21862897.538   114890617.822         159.671          45.000                                                                  
> 2024 04 16 21 06 00.0060000  0 25                     
G13  21919397.864   115187316.628         -94.628          48.000                                                                  
G15  23486021.582   123419916.716        1457.806          46.000    23486022.303    96171405.148        1135.988          44.000  
G19  24436328.756   128414083.480        1857.214          46.000                                                                  
G24  25763133.361   135386233.847        1303.546          44.000    25763142.223   105495839.104        1015.747          45.000  
R05  21026591.948   112399431.315       -2011.624          52.000    21026594.521    87421665.150       -1564.690          51.000  
R16  22006527.770   117555036.576         203.827          52.000    22006531.008    91432074.170         158.590          50.000  
R04  23918037.041   128079987.330       -4928.460          51.000    23918048.291    99617716.186       -3833.127          48.000  
R06  23327039.586   124477625.687        2559.889          39.000                                                                  
R14  25717357.865                3      -4214.422          15.000    25717311.782   106623801.4041      -3278.583          29.000  
E08  25094516.235   131872721.781        -517.577          48.000    25094520.109   101045397.972        -396.572          52.000  
S31  40564512.613   213167884.084        -811.422          43.000  
S33  41515865.762   218167253.844        -812.343          41.000  
G20  26077992.648   137040446.069       -3953.201          44.000                                                                  
E03  26934455.803   141541514.881       -2807.701          48.000    26934465.251   108453925.952       -2151.305          50.000  
R15  22011184.710   117621484.390       -2953.214          52.000    22011185.543    91483237.257       -2296.927          48.000  
E07  27636317.827   145229930.041        1549.454          42.000    27636327.237   111280103.277        1187.460          46.000  
G05  24301284.065   127703987.776       -3223.423          46.000    24301291.536    99509638.848       -2511.835          44.000  
G30  25006491.017   131410137.144       -3108.248          42.000    25006496.029   102397617.478       -2422.247          40.000  
E30  26185806.009   137607706.399         890.279          48.000    26185814.372   105439915.073         682.182          52.000  
G14  23331923.819   122610305.560       -3375.647          49.000    23331925.314    95540660.419       -2630.388          48.000  
E02  25242835.631   132652253.370       -1702.558          48.000    25242841.188   101642820.932       -1304.597          53.000  
G22  22028035.820   115758463.541       -1637.370          49.000                                                                  
G17  24002984.734   126136810.078        1119.221          46.000    24002988.585    98288605.134         872.134          43.000  
E25  28660836.994   150613916.570       -3418.325          43.000    28660846.838   115405588.436       -2619.039          40.000  
E18  21862075.565   114886299.084         128.268          45.000                                                                  
> 2024 04 16 21 06 30.0060000  0 25                     
G13  21919975.442   115190352.057        -107.801          47.000                                                                  
G15  23477727.672   123376330.192        1448.037          46.000    23477727.794    96137441.719        1128.263          43.000  
G19  24425748.879   128358484.158        1849.336          46.000                                                                  
G24  25755691.007   135347125.475        1303.876          43.000    25755700.622   105465365.356        1015.643          45.000  
R05  21037952.698   112460160.177       -2036.889          52.000    21037954.348    87468898.656       -1584.187          50.000  
R16  22005422.110   117549131.746         189.789          52.000    22005425.663    91427481.644         147.620          51.000  
R04  23945676.128   128227989.222       -4938.100          51.000    23945687.171    99732828.040       -3840.734          48.000  
R06  23312686.607   124401031.956        2546.029          39.000                                                                  
E08  25097500.290   131888400.258        -527.603          48.000    25097503.777   101057411.350        -404.237          53.000  
S31  40569144.777   213192227.186        -811.310          44.000  
S33  41520501.687   218191617.056        -811.893          42.000  
G20  26100555.300   137159009.845       -3950.931          44.000                                                                  
E03  26950506.074   141625863.294       -2815.521          48.000    26950516.101   108518556.429       -2157.298          49.000  
R15  22027786.131   117710198.632       -2960.993          52.000    22027787.786    91552237.217       -2302.940          48.000  
E07  27627479.490   145183484.338        1546.976          42.000    27627488.504   111244515.215        1185.182          45.000  
G05  24319715.934   127800848.922       -3233.681          46.000    24319724.259    99585114.764       -2519.897          45.000  
G30  25024239.862   131503413.862       -3109.914          40.000    25024244.651   102470300.600       -2423.525          39.000  
E30  26180749.097   137581137.334         881.100          48.000    26180758.280   105419557.128         675.063          52.000  
G14  23351222.479   122711718.370       -3385.016          48.000    23351224.058    95619683.337       -2637.660          48.000  
E02  25252583.367   132703478.170       -1712.191          47.000    25252588.507   101682071.125       -1311.937          52.000  
G22  22037432.319   115807842.169       -1654.482          49.000                                                                  
G17  23996635.865   126103445.886        1105.093          46.000    23996639.065    98262607.245         861.204          43.000  
E25  28680356.197   150716494.503       -3419.789          43.000    28680367.316   115484187.135       -2620.846          39.000  
E18  21861432.337   114882914.783          97.325          47.000                                                                  
R14                                                                  25741018.212                3      -3275.299          25.000  
> 2024 04 16 21 07 00.0060000  0 26                     
G13  21920630.945   115193797.240        -121.605          47.000                                                                  
G15  23469491.001   123333047.652        1437.829          46.000    23469491.341    96103715.154        1120.216          43.000  
G19  24415215.472   128303135.483        1840.622          45.000                                                                  
G24  25748249.505   135308021.791        1303.345          43.000    25748258.648   105434895.216        1015.521          45.000  
R05  21049457.026   112521655.157       -2062.591          52.000    21049458.587    87516728.053       -1604.180          50.000  
R16  22004398.480   117543661.339         175.153          52.000    22004402.110    91423227.038         136.257          50.000  
R04  23973370.021   128376289.563       -4948.228          50.000    23973381.527    99848172.030       -3848.627          49.000  
R06  23298412.604   124324861.066        2532.019          38.000                                                                  
E08  25100542.316   131904385.417        -537.890          48.000    25100545.520   101069659.718        -412.131          53.000  
S31  40573777.118   213216569.950        -811.466          44.000  
S33  41525137.533   218215980.636        -811.946          42.000  
G20  26123105.735   137277507.779       -3948.666          44.000                                                                  
E03  26966603.700   141710453.238       -2823.582          48.000    26966613.297   108583371.985       -2163.419          50.000  
R15  22044432.510   117799154.217       -2969.109          52.000    22044434.575    91621424.901       -2309.263          48.000  
E07  27618658.403   145137129.798        1543.636          42.000    27618667.074   111208996.985        1182.870          45.000  
G05  24338208.199   127898025.073       -3244.229          46.000    24338216.661    99660836.150       -2528.032          44.000  
G30  25042001.110   131596752.261       -3112.204          40.000    25042007.083   102543031.733       -2425.211          39.000  
E30  26175747.903   137554856.602         871.260          47.000    26175757.338   105399420.096         667.602          52.000  
G14  23370576.361   122813423.150       -3394.958          48.000    23370577.517    95698933.785       -2645.331          47.000  
E02  25262387.891   132754998.725       -1722.096          47.000    25262392.446   101721547.927       -1319.567          52.000  
G22  22046927.741   115857742.203       -1671.885          48.000                                                                  
G17  23990369.538   126070518.186        1090.279          46.000    23990372.518    98236949.512         849.658          43.000  
E25  28699886.319   150819124.034       -3421.751          44.000    28699897.267   115562825.357       -2621.810          39.000  
E18  21860967.668   114880470.058          65.952          47.000                                                                  
R09                                                                  24957729.370                3       1638.232          14.000  
R14                                                                  25764699.977                3      -3270.372          22.000  
> 2024 04 16 21 07 30.0060000  0 25                     
G13  21921364.330   115197650.037        -135.625          47.000                                                                  
G15  23461312.321   123290067.482        1427.156          47.000    23461312.442    96070224.172        1112.289          43.000  
G19  24404729.481   128248037.749        1831.686          45.000                                                                  
G24  25740808.732   135268918.749        1303.076          44.000    25740817.310   105404425.595        1015.271          44.000  
R05  21061102.741   112583911.618       -2088.335          52.000    21061104.655    87565149.694       -1624.217          50.000  
R16  22003454.582   117538620.565         160.500          52.000    22003457.789    91419306.539         124.757          50.000  
R04  24001119.132   128524881.279       -4958.299          50.000    24001130.921    99963742.590       -3856.542          48.000  
R06  23284217.185   124249113.203        2517.452          39.000                                                                  
E08  25103641.472   131920674.329        -548.409          48.000    25103645.070   101082140.842        -420.204          53.000  
S31  40578408.456   213240908.108        -811.483          44.000  
S33  41529773.069   218240339.085        -811.953          42.000  
G20  26145642.271   137395933.338       -3946.853          45.000                                                                  
E03  26982745.737   141795280.429       -2831.856          48.000    26982755.865   108648369.308       -2169.810          50.000  
R15  22061124.683   117888344.356       -2977.368          52.000    22061126.099    91690794.999       -2315.653          48.000  
E07  27609853.948   145090863.901        1540.332          41.000    27609863.120   111173546.682        1180.206          45.000  
G05  24356758.580   127995509.272       -3254.989          45.000    24356767.710    99736797.552       -2536.245          44.000  
G30  25059772.169   131690148.267       -3114.681          38.000    25059780.540   102615807.741       -2426.621          40.000  
E30  26170800.528   137528860.611         861.397          47.000    26170810.356   105379501.262         659.996          52.000  
G14  23389984.154   122915413.541       -3404.754          48.000    23389985.770    95778406.792       -2653.043          48.000  
E02  25272247.028   132806809.856       -1732.114          47.000    25272251.946   101761247.390       -1327.299          52.000  
G22  22056520.676   115908158.723       -1689.512          47.000                                                                  
G17  23984186.490   126038026.282        1075.468          47.000    23984189.948    98211631.392         837.918          44.000  
E25  28719425.083   150921799.875       -3423.601          44.000    28719435.885   115641499.068       -2623.219          40.000  
E18  21860679.880   114878963.113          34.267          46.000                                                                  
R14                                                                  25788371.189                3      -3268.999          23.000  
> 2024 04 16 21 08 00.0060000  0 25                     
G13  21922176.872   115201921.075        -149.153          47.000                                                                  
G15  23453193.216   123247400.958        1417.230          47.000    23453193.569    96036977.599        1104.325          44.000  
G19  24394293.507   128193202.719        1823.734          44.000                                                                  
G24  25733369.816   135229825.509        1303.241          44.000    25733377.673   105373963.605        1015.546          44.000  
R05  21072893.018   112646937.817       -2113.477          52.000    21072895.025    87614170.024       -1643.766          50.000  
R16  22002592.268   117534017.493         146.354          51.000    22002595.724    91415726.466         113.904          49.000  
R04  24028924.226   128673769.997       -4967.571          51.000    24028935.529   100079544.112       -3863.610          49.000  
R06  23270103.462   124173801.782        2503.016          39.000                                                                  
R14  25812003.269                2      -4200.138          27.000    25812015.163                3      -3275.267          20.000  
E08  25106801.276   131937277.256        -558.343          48.000    25106804.347   101094862.575        -427.803          53.000  
S31  40583040.556   213265251.390        -811.359          44.000  
S33  41534409.113   218264702.217        -812.022          42.000  
G20  26168166.187   137514293.080       -3943.872          44.000                                                                  
E03  26998934.573   141880353.692       -2839.530          47.000    26998944.830   108713555.197       -2175.790          50.000  
R15  22077860.185   117977775.848       -2984.748          51.000    22077862.173    91760352.806       -2321.523          49.000  
E07  27601068.162   145044697.375        1537.448          41.000    27601077.849   111138172.502        1178.202          46.000  
G05  24375368.774   128093307.739       -3264.850          44.000    24375378.629    99813003.855       -2544.000          44.000  
G30  25077558.160   131783611.106       -3116.547          39.000    25077564.841   102688635.819       -2428.123          39.000  
E30  26165910.284   137503159.006         852.013          48.000    26165919.010   105359807.969         652.894          52.000  
G14  23409448.601   123017696.250       -3414.060          49.000    23409449.422    95858107.577       -2660.255          48.000  
E02  25282163.034   132858919.578       -1741.600          47.000    25282168.199   101801175.640       -1334.463          53.000  
G22  22066214.218   115959099.568       -1706.384          47.000                                                                  
G17  23978088.904   126005982.261        1060.921          46.000    23978092.401    98186662.256         826.510          44.000  
E25  28738974.143   151024529.888       -3424.918          45.000    28738984.629   115720214.243       -2624.196          40.000  
E18  21860572.897   114878405.365           3.095          45.000                                                                  
> 2024 04 16 21 08 30.0060000  0 25                     
G13  21923068.253   115206605.623        -162.881          47.000                                                                  
G15  23445132.831   123205044.269        1406.896          47.000    23445133.620    96003972.433        1096.245          44.000  
G19  24383908.061   128138627.500        1815.148          44.000                                                                  
G24  25725930.919   135190735.678        1303.125          44.000    25725938.825   105343504.263        1015.564          44.000  
R05  21084825.845   112710726.410       -2138.761          52.000    21084827.662    87663783.323       -1663.455          50.000  
R16  22001810.865   117529844.661         132.171          51.000    22001814.546    91412481.049         102.689          50.000  
R04  24056782.901   128822945.971       -4976.957          51.000    24056792.675   100195569.061       -3871.010          48.000  
R06  23256070.777   124098924.459        2489.186          39.000                                                                  
E08  25110018.562   131954188.776        -568.616          47.000    25110022.465   101107820.787        -435.699          53.000  
S31  40587672.756   213289593.481        -810.975          44.000  
S33  41539045.408   218289064.032        -811.610          42.000  
G20  26190675.609   137632578.211       -3941.259          43.000                                                                  
E03  27015168.290   141965666.173       -2847.490          47.000    27015178.862   108778924.379       -2181.780          49.000  
R15  22094639.015   118067439.237       -2992.308          50.000    22094642.024    91830091.023       -2327.437          49.000  
E07  27592300.753   144998625.253        1534.316          42.000    27592310.223   111102870.681        1175.587          46.000  
G05  24394037.398   128191412.135       -3274.908          45.000    24394047.814    99889448.559       -2551.916          44.000  
G30  25095355.582   131877134.207       -3118.064          41.000    25095361.945   102761510.866       -2429.842          40.000  
E30  26161074.764   137477745.713         842.614          48.000    26161082.883   105340335.599         645.579          52.000  
G14  23428966.532   123120262.372       -3423.350          49.000    23428967.146    95938029.181       -2667.515          48.000  
E02  25292134.395   132911320.175       -1751.383          47.000    25292139.636   101841326.775       -1341.922          53.000  
G22  22076006.760   116010556.305       -1723.487          48.000                                                                  
G17  23972074.779   125974382.349        1046.103          45.000    23972077.851    98162039.142         815.238          43.000  
E25  28758532.490   151127306.288       -3426.297          45.000    28758542.333   115798964.984       -2625.181          40.000  
E18  21860647.221   114878792.591         -28.296          46.000                                                                  
R14                                                                  25835631.184                3      -3262.688          21.000  
> 2024 04 16 21 09 00.0060000  0 24                     
G13  21924037.188   115211697.177        -176.329          47.000                                                                  
G15  23437131.064   123162991.471        1396.759          48.000    23437130.974    95971204.066        1088.507          43.000  
G19  24373571.141   128084306.717        1806.534          45.000                                                                  
G24  25718490.691   135151640.748        1303.296          44.000    25718498.605   105313040.972        1015.479          43.000  
R05  21096899.656   112775268.038       -2163.743          52.000    21096900.958    87713982.328       -1682.975          49.000  
R16  22001109.091   117526092.607         118.256          51.000    22001112.160    91409562.876          91.974          50.000  
R04  24084691.036   128972397.140       -4986.181          50.000    24084702.764   100311808.007       -3878.063          48.000  
R06  23242119.376   124024476.878        2474.369          39.000                                                                  
E08  25113293.902   131971401.553        -578.733          47.000    25113298.218   101121009.820        -443.387          53.000  
S31  40592303.090   213313925.065        -810.630          44.000  
S33  41543678.981   218313416.395        -811.322          42.000  
G20  26213168.573   137750777.444       -3938.425          42.000                                                                  
E03  27031446.877   142051209.124       -2855.118          47.000    27031456.900   108844470.161       -2187.747          49.000  
R15  22111459.428   118157323.943       -2999.700          51.000    22111461.962    91900001.350       -2333.111          48.000  
E07  27583550.366   144952640.668        1531.564          43.000    27583559.713   111067635.901        1173.501          46.000  
G05  24412761.920   128289810.125       -3284.647          44.000    24412772.692    99966121.996       -2559.456          44.000  
G30  25113163.431   131970709.144       -3119.691          42.000    25113168.481   102834426.334       -2431.078          40.000  
E30  26156291.661   137452612.703         833.151          48.000    26156300.154   105321077.995         638.433          52.000  
G14  23448535.535   123223101.046       -3432.367          48.000    23448536.334    96018163.153       -2674.515          47.000  
E02  25302159.474   132964002.052       -1760.550          47.000    25302164.751   101881693.427       -1349.021          53.000  
G22  22085895.263   116062518.604       -1740.355          48.000                                                                  
G17  23966144.734   125943220.805        1031.496          45.000    23966148.158    98137757.639         803.726          44.000  
E25  28778097.867   151230119.399       -3427.520          46.000    28778107.020   115877743.864       -2626.366          41.000  
E18  21860898.788   114880118.445         -59.824          45.000                                                                  
> 2024 04 16 21 09 30.0060000  0 25                     
G13  21925084.068   115217200.206        -189.908          47.000                                                                  
G15  23429186.950   123121247.434        1386.490          47.000    23429187.125    95938676.321        1080.618          44.000  
G19  24363284.093   128030246.253        1797.934          46.000                                                                  
G24  25711050.392   135112543.272        1303.748          44.000    25711057.555   105282575.703        1015.967          43.000  
R05  21109114.601   112840564.231       -2188.774          52.000    21109116.365    87764768.179       -1702.422          50.000  
R16  22000485.621   117522762.788         104.231          51.000    22000488.774    91406973.134          81.044          51.000  
R04  24112653.187   129122122.715       -4995.027          51.000    24112663.775   100428260.374       -3885.077          48.000  
R06  23228249.819   123950465.588        2460.302          39.000                                                                  
E08  25116627.858   131988919.100        -588.544          47.000    25116631.748   101134432.390        -451.031          53.000  
S31  40596931.834   213338249.484        -810.291          43.000  
S33  41548311.838   218337761.097        -811.091          43.000  
G20  26235646.368   137868891.051       -3935.077          41.000                                                                  
E03  27047769.298   142136984.598       -2862.508          47.000    27047779.562   108910194.112       -2193.416          49.000  
R15  22128321.738   118247429.510       -3006.789          51.000    22128323.303    91970083.478       -2338.562          49.000  
E07  27574817.139   144906747.640        1528.737          43.000    27574826.151   111032471.289        1171.323          45.000  
G05  24431542.530   128388501.278       -3294.054          45.000    24431553.299   100043023.870       -2567.049          44.000  
G30  25130980.290   132064338.441       -3121.510          42.000    25130986.188   102907384.150       -2432.088          40.000  
E30  26151562.240   137427762.854         823.892          48.000    26151571.467   105302037.374         631.393          52.000  
G14  23468156.738   123326212.321       -3441.191          48.000    23468157.451    96098509.580       -2681.479          47.000  
E02  25312237.911   133016966.523       -1769.692          47.000    25312243.632   101922276.628       -1356.049          53.000  
G22  22095880.132   116114988.167       -1757.052          49.000                                                                  
G17  23960299.406   125912503.164        1016.862          45.000    23960304.112    98113822.020         792.409          45.000  
E25  28797669.655   151332970.396       -3428.412          46.000    28797679.143   115956551.758       -2627.080          41.000  
E18  21861328.545   114882387.456         -91.007          44.000                                                                  
R09                                                                  24897965.269                3       1585.777          16.000  
> 2024 04 16 21 10 00.0060000  0 24                     
G13  21926208.739   115223108.314        -203.764          47.000                                                                  
G15  23421300.771   123079806.506        1376.354          47.000    23421301.487    95906384.764        1072.339          44.000  
G19  24353045.930   127976442.358        1789.077          47.000                                                                  
G24  25703608.063   135073435.279        1303.717          43.000    25703615.403   105252102.240        1015.948          43.000  
R05  21121469.509   112906605.733       -2213.817          52.000    21121470.460    87816133.743       -1721.945          49.000  
R16  21999939.648   117519846.201          90.310          52.000    21999942.636    91404704.820          70.166          50.000  
R04  24140663.381   129272111.061       -5003.939          51.000    24140674.374   100544917.121       -3891.878          49.000  
R06  23214460.938   123876886.742        2445.220          39.000                                                                  
E08  25120017.035   132006734.447        -598.720          46.000    25120021.927   101148083.124        -458.783          53.000  
S31  40601557.750   213362559.059        -810.043          44.000  
S33  41552941.733   218362090.986        -810.754          42.000  
G20  26258105.291   137986908.239       -3932.269          41.000                                                                  
E03  27064134.481   142222984.199       -2870.305          46.000    27064145.289   108976089.781       -2199.375          49.000  
R15  22145223.753   118337745.414       -3014.073          52.000    22145224.577    92040329.158       -2344.297          49.000  
E07  27566100.095   144860939.664        1525.533          42.000    27566109.106   110997371.828        1168.918          46.000  
G05  24450377.146   128487474.644       -3303.824          45.000    24450387.156   100120145.645       -2574.409          44.000  
G30  25148806.258   132158014.049       -3123.375          42.000    25148812.546   102980378.019       -2433.768          41.000  
E30  26146885.593   137403188.496         814.502          47.000    26146894.985   105283207.847         624.136          52.000  
G14  23487827.928   123429585.764       -3450.140          48.000    23487829.470    96179060.283       -2688.371          47.000  
E02  25322369.471   133070204.348       -1779.089          47.000    25322374.163   101963069.281       -1363.146          52.000  
G22  22105959.101   116167955.534       -1773.813          48.000                                                                  
G17  23954536.712   125882224.352        1001.945          45.000    23954541.384    98090228.344         780.641          45.000  
E25  28817246.705   151435849.985       -3429.779          45.000    28817256.633   116035381.571       -2627.871          42.000  
E18  21861939.503   114885593.519        -122.528          45.000                                                                  
> 2024 04 16 21 10 30.0060000  0 25                     
G13  21927410.835   115229426.314        -217.612          47.000                                                                  
G15  23413473.467   123038674.034        1365.752          46.000    23413474.393    95874333.511        1064.275          44.000  
G19  24342856.910   127922900.180        1780.066          46.000                                                                  
G24  25696165.137   135034319.621        1303.931          44.000    25696172.035   105221622.813        1015.924          44.000  
R05  21133963.310   112973394.770       -2238.999          52.000    21133965.450    87868080.684       -1741.341          50.000  
R16  21999470.739   117517344.580          76.191          50.000    21999473.618    91402759.221          59.304          50.000  
R04  24168722.675   129422361.811       -5012.818          51.000    24168734.427   100661777.933       -3898.898          49.000  
R06  23200754.465   123803747.403        2430.225          40.000                                                                  
E08  25123464.095   132024851.572        -609.075          46.000    25123469.320   101161965.092        -466.766          53.000  
S31  40606181.349   213386855.976        -809.905          44.000  
S33  41557569.131   218386407.939        -810.646          42.000  
G20  26280545.248   138104829.509       -3929.214          40.000                                                                  
E03  27080542.934   142309210.505       -2878.181          46.000    27080553.421   109042159.143       -2205.389          49.000  
R15  22162164.193   118428272.090       -3021.195          52.000    22162165.317    92110738.767       -2349.814          49.000  
E07  27557399.610   144815221.212        1522.347          43.000    27557409.181   110962340.967        1166.402          46.000  
G05  24469265.278   128586730.665       -3313.462          44.000    24469275.434   100197487.673       -2581.923          45.000  
G30  25166641.155   132251738.805       -3125.187          42.000    25166646.876   103053410.249       -2435.438          40.000  
E30  26142262.213   137378893.012         805.016          47.000    26142271.129   105264591.984         616.719          51.000  
G14  23507549.191   123533221.900       -3459.072          48.000    23507551.017    96259815.693       -2695.450          47.000  
E02  25332553.283   133123717.229       -1788.646          48.000    25332557.020   102004072.689       -1370.438          52.000  
G22  22116133.696   116221422.126       -1790.689          49.000                                                                  
G17  23948859.389   125852390.194         986.796          45.000    23948863.774    98066981.144         768.874          45.000  
E25  28836829.901   151538759.750       -3431.007          44.000    28836839.791   116114234.517       -2629.013          42.000  
E18  21862727.997   114889741.494        -154.172          45.000                                                                  
R14                                                                  25929894.030                3      -3249.508          24.000  
> 2024 04 16 21 11 00.0060000  0 25                     
G13  21928692.186   115236160.435        -231.540          47.000                                                                  
G15  23405706.091   122997856.967        1355.177          46.000    23405706.754    95842528.070        1055.946          44.000  
G19  24332718.861   127869627.551        1771.050          46.000                                                                  
G24  25688721.627   134995201.024        1304.095          45.000    25688727.842   105191141.094        1016.125          44.000  
R05  21146598.492   113040935.033       -2263.910          52.000    21146600.287    87920611.942       -1760.840          50.000  
R16  21999080.595   117515261.544          62.382          51.000    21999083.487    91401139.209          48.533          50.000  
R04  24196829.041   129572876.358       -5021.657          49.000    24196842.658   100778843.895       -3905.643          49.000  
R06  23187132.501   123731056.400        2415.385          40.000                                                                  
E08  25126970.551   132043276.166        -619.314          46.000    25126975.104   101176082.647        -474.644          52.000  
S31  40610803.489   213411145.457        -809.507          44.000  
S33  41562195.295   218410718.791        -810.186          42.000  
G20  26302967.921   138222657.192       -3926.234          39.000                                                                  
E03  27096995.287   142395667.698       -2885.645          46.000    27097005.711   109108405.440       -2211.163          48.000  
R15  22179145.091   118519011.756       -3028.286          52.000    22179146.556    92181314.049       -2355.343          49.000  
E07  27548717.567   144769598.531        1519.036          43.000    27548727.628   110927383.466        1163.926          46.000  
G05  24488207.489   128686270.842       -3322.876          45.000    24488217.113   100275051.076       -2589.116          45.000  
G30  25184486.006   132345517.483       -3126.886          42.000    25184492.959   103126484.462       -2436.598          40.000  
E30  26137692.947   137354881.374         795.624          48.000    26137701.581   105246193.609         609.675          51.000  
G14  23527321.257   123637122.971       -3467.859          49.000    23527322.718    96340777.528       -2702.280          47.000  
E02  25342789.266   133177508.552       -1797.719          48.000    25342793.245   102045289.458       -1377.501          52.000  
G22  22126403.105   116275390.822       -1807.431          48.000                                                                  
G17  23943268.315   125823008.253         971.725          46.000    23943272.900    98044086.332         757.167          45.000  
E25  28856418.756   151641703.102       -3432.136          44.000    28856429.673   116193113.168       -2629.805          44.000  
E18  21863697.885   114894837.888        -185.764          45.000                                                                  
R14                                                                  25953392.883                1      -3245.957          27.000  
> 2024 04 16 21 11 30.0060000  0 26                     
G13  21930053.917   115243312.938        -245.375          47.000                                                                  
G15  23397999.602   122957358.287        1344.594          45.000    23398000.221    95810970.705        1047.703          44.000  
G19  24322633.869   127816628.826        1761.990          47.000                                                                  
G24  25681277.180   134956080.140        1304.211          44.000    25681283.486   105160657.585        1016.028          45.000  
R05  21159373.803   113109226.244       -2288.864          52.000    21159375.992    87973727.262       -1780.174          50.000  
R16  21998768.489   117513596.651          48.583          51.000    21998772.238    91399844.422          37.736          50.000  
R04  24224986.184   129723652.018       -5030.092          50.000    24224999.814   100896112.970       -3912.279          48.000  
R06  23173594.829   123658818.549        2400.406          39.000                                                                  
E08  25130535.147   132062009.839        -629.606          46.000    25130539.949   101190437.054        -482.329          52.000  
S31  40615424.620   213435429.135        -809.056          44.000  
S33  41566819.534   218435021.430        -809.795          42.000  
G20  26325372.512   138340389.322       -3922.856          40.000                                                                  
E03  27113490.779   142482356.056       -2893.388          45.000    27113502.059   109174828.841       -2216.982          48.000  
R15  22196165.358   118609962.429       -3035.144          52.000    22196167.287    92252053.456       -2360.645          50.000  
R17  25976239.643   139004102.9803       2076.358          45.000                                                                  
E07  27540054.375   144724073.740        1515.758          43.000    27540064.387   110892500.979        1161.702          46.000  
G05  24507203.355   128786092.250       -3331.959          45.000    24507212.005   100352833.632       -2596.500          44.000  
G30  25202342.319   132439350.682       -3128.860          42.000    25202348.215   103199601.172       -2438.008          40.000  
E30  26133178.084   137331154.524         786.229          48.000    26133186.592   105228013.453         602.388          51.000  
G14  23547143.018   123741287.138       -3476.512          49.000    23547143.745    96421944.375       -2709.022          47.000  
E02  25353077.998   133231577.771       -1806.990          48.000    25353082.165   102086719.148       -1384.558          52.000  
G22  22136768.230   116329860.693       -1823.857          48.000                                                                  
G17  23937764.329   125794081.552         956.728          47.000    23937768.350    98021546.246         745.579          45.000  
E25  28876014.251   151744679.415       -3433.029          44.000    28876025.085   116272017.094       -2630.521          44.000  
E18  21864848.694   114900885.179        -217.567          46.000                                                                  
R14                                                                  25976866.965                3      -3241.841          22.000  
> 2024 04 16 21 12 00.0060000  0 26                     
G13  21931494.281   115250881.578        -259.273          48.000                                                                  
G15  23390353.423   122917175.919        1334.095          46.000    23390353.520    95779659.874        1039.261          43.000  
G19  24312600.166   127763902.886        1752.882          47.000                                                                  
G24  25673830.201   134916952.712        1304.346          43.000    25673837.495   105130168.999        1016.278          44.000  
R05  21172288.493   113178262.302       -2313.725          52.000    21172290.550    88027421.938       -1799.573          50.000  
R16  21998534.205   117512344.734          34.781          51.000    21998537.533    91398870.805          27.105          50.000  
R04  24253191.103   129874680.982       -5038.621          52.000    24253205.070   101013579.034       -3918.887          49.000  
R06  23160142.166   123587033.460        2385.383          40.000                                                                  
E08  25134158.235   132081049.357        -639.796          47.000    25134162.910   101205025.821        -490.242          52.000  
S31  40620042.697   213459700.473        -809.065          44.000  
S33  41571442.573   218459315.046        -809.487          42.000  
G20  26347756.489   138458018.997       -3919.358          37.000                                                                  
E03  27130030.373   142569270.819       -2900.918          45.000    27130041.435   109241425.723       -2222.840          48.000  
R15  22213224.204   118701117.353       -3041.951          52.000    22213225.468    92322951.697       -2365.894          49.000  
R17  25964617.439   138941904.4131       2070.091          43.000    25964628.680   108065986.6923       1610.122          42.000  
E07  27531409.759   144678644.140        1512.652          44.000    27531419.430   110857691.440        1159.107          47.000  
G05  24526250.862   128886188.400       -3341.165          44.000    24526260.164   100430830.262       -2603.439          45.000  
G30  25220208.120   132533234.078       -3130.366          43.000    25220214.669   103272756.995       -2439.245          41.000  
E30  26128715.836   137307708.591         776.789          47.000    26128724.980   105210048.540         595.098          52.000  
G14  23567013.396   123845707.704       -3485.005          48.000    23567014.455    96503311.026       -2715.490          46.000  
E02  25363418.470   133285919.322       -1816.062          48.000    25363422.932   102128357.505       -1391.466          52.000  
G22  22147227.694   116384825.751       -1840.520          47.000                                                                  
G17  23932345.685   125765608.525         941.423          47.000    23932350.140    97999359.663         733.419          46.000  
E25  28895614.902   151847683.108       -3434.003          44.000    28895626.131   116350941.988       -2631.223          45.000  
E18  21866180.217   114907880.814        -249.036          46.000                                                                  
R14                                                                  26000311.424                3      -3246.530          18.000  
> 2024 04 16 21 12 30.0060000  0 25                     
G13  21933012.996   115258866.121        -273.079          47.000                                                                  
G15  23382766.749   122877310.788        1323.330          46.000    23382767.158    95748596.190        1031.173          43.000  
G19  24302618.110   127711451.216        1743.699          45.000                                                                  
G24  25666381.641   134877816.952        1304.626          41.000    25666389.617   105099673.935        1016.589          44.000  
R05  21185340.862   113248040.932       -2338.344          51.000    21185344.108    88081694.138       -1818.824          50.000  
R16  21998376.591   117511502.515          21.231          52.000    21998380.078    91398215.859          16.409          50.000  
R04  24281442.516   130025958.101       -5046.698          51.000    24281455.929   101131238.086       -3925.224          49.000  
R06  23146774.819   123515703.811        2370.323          40.000                                                                  
E08  25137840.126   132100393.889        -649.963          47.000    25137844.006   101219848.272        -497.951          52.000  
S31  40624659.377   213483960.027        -808.470          44.000  
S33  41576063.082   218483594.530        -809.425          42.000  
G20  26370120.205   138575541.720       -3915.729          41.000                                                                  
E03  27146612.548   142656409.785       -2908.315          45.000    27146623.777   109308194.396       -2228.520          48.000  
R15  22230319.000   118792472.161       -3048.493          51.000    22230321.689    92394005.430       -2371.046          50.000  
R17  25953030.301   138879892.786        2063.878          46.000    25953039.147   108017755.918        1605.211          44.000  
E07  27522783.185   144633309.465        1509.434          45.000    27522792.599   110822954.610        1156.647          47.000  
G05  24545349.960   128986554.087       -3350.038          44.000    24545359.417   100509036.932       -2610.520          45.000  
G30  25238082.541   132627165.884       -3131.942          42.000    25238088.753   103345950.558       -2440.332          41.000  
E30  26124306.723   137284542.018         767.398          47.000    26124316.469   105192297.701         587.939          52.000  
G14  23586931.648   123950380.436       -3493.351          48.000    23586932.853    96584874.196       -2722.175          46.000  
E02  25373811.104   133340530.217       -1824.954          48.000    25373815.350   102170202.258       -1398.261          52.000  
G22  22157781.227   116440282.652       -1856.759          48.000                                                                  
G17  23927013.499   125737590.116         926.304          47.000    23927017.852    97977527.331         721.791          45.000  
E25  28915221.234   151950711.110       -3434.695          44.000    28915231.778   116429885.487       -2631.710          45.000  
E18  21867692.037   114915824.595        -280.666          46.000                                                                  
> 2024 04 16 21 13 00.0060000  0 25                     
G13  21934611.705   115267264.887        -286.757          47.000                                                                  
G15  23375240.984   122837761.615        1312.999          46.000    23375241.231    95717778.724        1023.022          43.000  
G19  24292688.254   127659274.083        1734.625          45.000                                                                  
G24  25658931.624   134838669.650        1305.005          42.000    25658939.683   105069169.838        1017.004          43.000  
R05  21198532.159   113318557.281       -2362.861          51.000    21198535.230    88136540.120       -1837.682          50.000  
R16  21998295.079   117511065.843           7.826          51.000    21998297.802    91397876.298           6.150          50.000  
R04  24309737.450   130177476.277       -5054.430          51.000    24309751.303   101249084.599       -3931.142          48.000  
R06  23133492.776   123444830.142        2354.828          39.000                                                                  
E08  25141579.080   132120041.146        -659.908          48.000    25141582.981   101234902.692        -505.685          52.000  
S31  40629272.615   213508203.438        -807.950          44.000  
S33  41580680.175   218507858.670        -808.280          42.000  
G20  26392463.292   138692951.997       -3911.863          42.000                                                                  
E03  27163237.156   142743769.319       -2915.634          46.000    27163247.975   109375132.045       -2233.998          49.000  
R15  22247451.231   118884020.989       -3054.824          52.000    22247453.517    92465210.083       -2375.960          49.000  
R17  25941476.345   138818069.029        2057.871          45.000    25941487.009   107969671.216        1600.301          43.000  
E07  27514174.070   144588067.995        1506.661          45.000    27514183.407   110788289.212        1154.425          47.000  
G05  24564499.158   129087183.049       -3358.606          44.000    24564508.275   100587448.755       -2617.185          44.000  
G30  25255964.622   132721142.902       -3133.235          42.000    25255971.664   103419179.336       -2441.258          40.000  
E30  26119951.557   137261651.918         758.512          47.000    26119960.451   105174758.688         581.103          52.000  
G14  23606897.205   124055299.665       -3501.359          48.000    23606898.754    96666629.428       -2728.363          46.000  
E02  25384253.783   133395405.939       -1833.547          48.000    25384258.189   102212249.922       -1404.893          53.000  
G22  22168426.207   116496226.072       -1872.800          47.000                                                                  
G17  23921769.146   125710025.810         911.343          48.000    23921773.025    97956048.834         710.116          45.000  
E25  28934830.596   152053758.868       -3435.166          43.000    28934840.794   116508844.147       -2632.135          45.000  
E18  21869381.119   114924714.780        -311.961          44.000                                                                  
> 2024 04 16 21 13 30.0060000  0 26                     
G13  21936287.826   115276075.581        -300.942          47.000                                                                  
G15  23367774.665   122798527.067        1302.256          47.000    23367775.278    95687206.425        1014.824          44.000  
G19  24282810.780   127607370.471        1725.312          45.000                                                                  
G24  25651479.803   134799506.778        1305.420          43.000    25651487.000   105038653.595        1017.218          44.000  
R05  21211862.014   113389806.237       -2387.395          52.000    21211864.623    88191955.916       -1856.880          50.000  
R16  21998288.312   117511029.350          -5.663          51.000    21998291.155    91397848.024          -4.410          50.000  
R04  24338077.306   130329228.184       -5062.532          51.000    24338090.495   101367112.865       -3937.370          48.000  
R06  23120296.477   123374412.326        2339.331          39.000                                                                  
E08  25145374.745   132139988.058        -670.110          48.000    25145379.006   101250186.704        -513.495          52.000  
S31  40633882.272   213532426.770        -807.531          44.000  
S33  41585293.651   218532103.256        -808.180          42.000  
G20  26414783.789   138810243.206       -3907.676          40.000                                                                  
E03  27179903.213   142831344.783       -2922.997          46.000    27179913.448   109442235.167       -2239.617          49.000  
R15  22264618.922   118975757.392       -3061.276          51.000    22264620.118    92536560.584       -2380.953          49.000  
R17  25929957.876   138756433.256        2051.100          45.000    25929968.437   107921732.689        1595.122          45.000  
E07  27505582.186   144542917.187        1503.403          46.000    27505591.351   110753693.268        1152.023          47.000  
G05  24583697.301   129188068.278       -3367.381          43.000    24583705.939   100666060.294       -2623.907          43.000  
G30  25273855.612   132815160.995       -3134.891          42.000    25273863.390   103492440.160       -2442.603          41.000  
E30  26115647.769   137239034.497         749.157          47.000    26115656.480   105157428.597         573.944          52.000  
G14  23626908.729   124160458.886       -3509.509          49.000    23626909.506    96748571.660       -2734.728          46.000  
E02  25394744.931   133450541.110       -1842.325          47.000    25394750.133   102254496.378       -1411.721          53.000  
G22  22179163.448   116552651.050       -1889.124          47.000                                                                  
G17  23916609.529   125682914.169         895.861          48.000    23916613.477    97934923.052         698.035          45.000  
E25  28954442.778   152156821.071       -3435.800          43.000    28954452.839   116587813.897       -2632.637          45.000  
E18  21871252.200   114934548.874        -343.903          44.000                                                                  
R14                                                                  26070464.729                3      -3242.888          16.000  
> 2024 04 16 21 14 00.0060000  0 25                     
G13  21938044.058   115285303.055        -314.706          47.000                                                                  
G15  23360369.044   122759612.457        1291.454          46.000    23360370.515    95656883.410        1006.488          44.000  
G19  24272986.804   127555746.847        1716.008          44.000                                                                  
G24  25644025.402   134760331.370        1305.951          44.000    25644031.741   105008127.610        1017.438          44.000  
R05  21225328.019   113461789.239       -2411.832          52.000    21225329.808    88247942.645       -1875.884          49.000  
R16  21998356.033   117511394.919         -19.083          51.000    21998359.516    91398132.468         -14.903          50.000  
R04  24366460.452   130481213.601       -5070.341          50.000    24366473.852   101485322.729       -3943.480          48.000  
R06  23107187.203   123304457.753        2323.785          39.000                                                                  
E08  25149228.510   132160238.638        -680.300          47.000    25149232.288   101265703.395        -521.287          52.000  
S31  40638488.895   213556633.786        -806.818          44.000  
S33  41589904.035   218556330.408        -807.529          42.000  
G20  26437081.734   138927416.236       -3904.007          37.000                                                                  
E03  27196609.193   142919138.806       -2930.390          46.000    27196620.220   109509505.763       -2245.265          49.000  
R15  22281821.483   119067681.783       -3067.464          51.000    22281822.040    92608057.372       -2385.842          49.000  
R17  25918476.078   138694993.219        2044.490          47.000    25918485.163   107873946.440        1590.298          43.000  
E07  27497007.976   144497861.711        1500.182          46.000    27497017.408   110719170.354        1149.416          47.000  
G05  24602944.713   129289209.782       -3375.834          44.000    24602953.515   100744871.498       -2630.438          43.000  
G30  25291755.517   132909223.256       -3136.287          42.000    25291763.033   103565735.368       -2443.979          41.000  
E30  26111396.155   137216693.086         740.023          47.000    26111405.086   105140310.017         566.976          52.000  
G14  23646965.719   124265858.741       -3517.489          49.000    23646966.300    96830701.387       -2740.992          46.000  
E02  25405286.004   133505937.580       -1851.082          47.000    25405291.708   102296943.046       -1418.408          53.000  
G22  22189993.448   116609559.118       -1905.110          48.000                                                                  
G17  23911537.755   125656261.146         880.543          47.000    23911540.263    97914154.650         686.099          44.000  
E25  28974057.625   152259899.500       -3436.435          42.000    28974067.631   116666796.072       -2633.030          44.000  
E18  21873305.891   114945331.407        -375.398          46.000                                                                  
> 2024 04 16 21 14 30.0060000  0 25                     
G13  21939878.529   115294944.683        -328.344          47.000                                                                  
G15  23353024.735   122721015.898        1281.312          47.000    23353025.449    95626808.242         998.240          44.000  
G19  24263216.497   127504401.498        1706.918          45.000                                                                  
G24  25636566.651   134721139.380        1306.769          44.000    25636573.434   104977588.703        1018.164          43.000  
R05  21238930.396   113534500.929       -2435.795          52.000    21238932.550    88304496.139       -1894.513          50.000  
R16  21998498.825   117512157.116         -32.012          51.000    21998502.239    91398725.399         -24.926          50.000  
R04  24394884.498   130633424.749       -5077.330          49.000    24394898.799   101603708.167       -3949.036          48.000  
R06  23094164.675   123234966.364        2308.505          39.000                                                                  
E08  25153139.091   132180789.748        -690.030          47.000    25153143.032   101281450.369        -528.695          52.000  
S31  40643090.797   213580819.983        -805.423          44.000  
S33  41594510.364   218580537.739        -806.542          42.000  
G20  26459354.742   139044464.505       -3899.664          34.000                                                                  
E03  27213357.579   143007146.825       -2936.995          46.000    27213367.922   109576940.323       -2250.435          49.000  
R15  22299056.831   119159787.628       -3073.066          51.000    22299059.401    92679695.179       -2390.353          50.000  
R17  25907031.384   138633748.993        2038.096          45.000    25907039.656   107826312.443        1585.241          46.000  
E07  27488451.930   144452898.966        1497.238          46.000    27488461.351   110684718.509        1147.305          47.000  
G05  24622240.009   129390600.816       -3383.657          46.000    24622247.551   100823877.131       -2636.625          43.000  
G30  25309662.638   133003325.580       -3137.829          42.000    25309669.838   103639061.757       -2444.722          41.000  
E30  26107195.807   137194623.877         731.239          46.000    26107205.262   105123399.996         560.157          52.000  
G14  23667067.153   124371492.627       -3524.970          49.000    23667067.758    96913013.480       -2746.709          46.000  
E02  25415876.360   133561589.908       -1859.239          47.000    25415881.909   102339585.765       -1424.645          53.000  
G22  22200913.223   116666943.672       -1920.718          47.000                                                                  
G17  23906551.258   125630065.126         865.877          46.000    23906554.637    97893742.363         674.476          43.000  
E25  28993673.570   152362988.769       -3436.549          40.000    28993685.206   116745786.569       -2633.234          44.000  
E18  21875537.340   114957059.616        -406.667          46.000                                                                  
