     3.00           OBSERVATION DATA    M: Mixed            RINEX VERSION / TYPE
CONVBIN 2.4.3                           20240416 101442 UTC PGM / RUN BY / DATE 
format: u-blox UBX                                          COMMENT             
log: /home/regis/git/gnsspwv/obsdata/VERT00CHL/2024-04-16/VECOMMENT             
{self.marker}                                               MARKER NAME         
                                                            MARKER NUMBER       
GEODETIC                                                    MARKER TYPE         
{self.observer}     {self.institution}                      OBSERVER / AGENCY   
UNKNOWN             UBLOX-ZED-F9P                           REC # / TYPE / VERS 
UNKNOWN             TWIVSP6037L                             ANT # / TYPE        
  1713381.0000 -5047934.0000 -3490983.0000                  APPROX POSITION XYZ 
        0.0000        0.0000        0.0000                  ANTENNA: DELTA H/E/N
G    8 C1C L1C D1C S1C C2L L2L D2L S2L                      SYS / # / OBS TYPES 
R    8 C1C L1C D1C S1C C2C L2C D2C S2C                      SYS / # / OBS TYPES 
E    8 C1C L1C D1C S1C C7Q L7Q D7Q S7Q                      SYS / # / OBS TYPES 
S    4 C1C L1C D1C S1C                                      SYS / # / OBS TYPES 
  2024    04    16    10    00   00.4940000     GPS         TIME OF FIRST OBS   
  2024    04    16    10    14   30.4940000     GPS         TIME OF LAST OBS    
                                                            END OF HEADER       
> 2024 04 16 10 00 00.4940000  0 27                     
G02  20715200.744   108859143.5561       1967.599          43.000                                                                  
E02  24749503.512   130059509.0291       -634.607          44.000    24749506.115    99655982.8831       -486.115          46.000  
G03  22075860.038   116009439.4221       2216.956          40.000    22075859.156    90396924.1081       1727.661          34.000  
G16  22331110.664   117350804.2221      -3930.804          40.000                                                                  
R23  18521040.183    99075227.3851       1290.430          49.000                                                                  
R21  22053697.744   118013953.2271      -3437.964          48.000    22053695.047    91788695.2521      -2674.023          42.000  
R08  17455231.553    93472006.0461        806.689          50.000    17455225.697    72700499.0721        627.367          49.000  
G21  19678073.375   103408975.0811       1792.513          49.000                                                                  
S33  37824537.461   198769373.9041       -629.540          42.000  
S31  36871283.456   193760002.0911       -629.984          44.000  
E36  23817064.059   125159517.7311        874.653          45.000    23817067.231    95901515.2341        670.182          48.000  
G10  20409623.118   107253481.1191      -3642.003          44.000    20409620.995    83574139.8421      -2837.709          43.000  
E11  21055342.036   110646607.0861       -508.759          46.000    21055337.734    84781230.2161       -389.914          47.000  
R01  20855300.421   111483722.8091       3649.740          45.000    20855302.702    86709413.5821       2838.834          43.000  
R22  18502851.580    98769603.6571      -1650.077          51.000    18502849.018    76820854.6181      -1283.296          51.000  
R07  18503931.631    99053023.4501      -3179.847          50.000    18503925.629    77041311.7941      -2473.257          49.000  
G27  18698635.990    98262026.9321      -2291.786          48.000    18698634.731    76567820.9431      -1785.959          46.000  
G08  18300345.657    96169050.6991         28.328          49.000    18300343.515    74936947.7231         22.004          45.000  
E04  22708966.883   119336478.7411        257.449          49.000    22708965.594    91439674.2561        197.312          50.000  
E25  24044360.773   126353916.6681      -2717.645          43.000    24044365.253    96816659.9771      -2082.447          47.000  
E09  23994671.913   126092918.6351       2185.775          45.000    23994675.407    96616629.8791       1674.817          50.000  
E14  25940745.948   136319696.9111       -452.141          36.000    25940748.130   104452727.3411       -346.587          40.000  
E19  25377189.198                       -2464.736          30.000    25377185.233   102183510.4271      -1888.118          43.000  
G32  19635670.673   103186205.9671       -435.901          50.000    19635669.069    80404873.2971       -339.661          47.000  
E12  24466758.098   128573820.2501      -2020.510          34.000    24466760.455    98517687.6031      -1548.539          44.000  
E10  22851387.427   120085063.1511      -1412.106          48.000    22851387.021    92013434.1601      -1082.126          50.000  
E24                                                                  26134633.965                3      -2606.977          21.000  
> 2024 04 16 10 00 30.4940000  0 27                     
G02  20703975.028   108800155.299        1965.341          43.000                                                                  
E02  24753165.981   130078753.827        -648.062          45.000    24753168.382    99670728.873        -496.669          46.000  
G03  22063223.938   115943040.504        2209.979          40.000    22063224.204    90345184.617        1722.101          36.000  
G16  22353547.280   117468711.019       -3929.521          39.000                                                                  
R23  18513822.558    99036617.093        1283.900          49.000                                                                  
R21  22072992.977   118117208.624       -3445.617          45.000    22072990.820    91869004.811       -2679.718          41.000  
R08  17450785.932    93448200.643         780.688          50.000    17450779.777    72681983.789         607.205          49.000  
G21  19667851.643   103355260.249        1788.739          48.000                                                                  
S33  37828131.431   198788260.978        -629.374          42.000  
S31  36874881.327   193778909.231        -630.201          44.000  
E36  23812071.865   125133281.816         874.895          46.000    23812074.501    95881412.445         670.284          48.000  
G10  20430426.670   107362806.763       -3646.413          44.000    20430424.637    83659328.641       -2841.389          43.000  
E11  21058254.229   110661909.951        -510.884          46.000    21058249.728    84792955.792        -391.517          47.000  
R01  20834838.814   111374339.829        3642.783          46.000    20834840.305    86624337.887        2833.301          43.000  
R22  18512159.613    98819289.209       -1662.127          52.000    18512156.657    76859498.911       -1292.773          51.000  
R07  18521811.607    99148735.911       -3200.604          49.000    18521805.999    77115754.835       -2489.393          51.000  
G27  18711769.539    98331044.479       -2309.063          49.000    18711768.091    76621600.806       -1799.403          46.000  
G08  18300237.314    96168484.995           9.625          49.000    18300235.714    74936506.897           7.538          45.000  
E04  22707535.605   119328959.838         244.057          48.000    22707534.725    91433913.031         186.965          50.000  
E25  24059897.784   126435561.301       -2724.964          43.000    24059901.483    96879218.845       -2087.834          47.000  
E09  23982207.146   126027415.910        2181.320          45.000    23982210.586    96566439.457        1671.358          50.000  
E14  25943333.371   136333287.873        -453.918          33.000    25943334.552   104463141.099        -347.899          37.000  
E19  25391285.191                       -2474.759          29.000    25391283.985   102240280.230       -1896.379          43.000  
G32  19638219.132   103199599.301        -456.754          50.000    19638217.307    80415309.680        -355.809          47.000  
E12  24478303.016   128634485.396       -2023.365          33.000    24478304.272    98564171.222       -1550.121          43.000  
E10  22859457.520   120127470.648       -1414.627          48.000    22859456.732    92045928.185       -1083.975          50.000  
E24                                                                  26153980.598                3      -2594.285          23.000  
> 2024 04 16 10 01 00.4940000  0 27                     
G02  20692761.138   108741228.160        1963.049          43.000                                                                  
E02  24756903.988   130098397.736        -661.583          44.000    24756906.422    99685780.679        -507.039          46.000  
G03  22050627.965   115876846.821        2202.704          40.000    22050627.537    90293604.993        1716.553          33.000  
G16  22375974.375   117586570.092       -3928.234          34.000                                                                  
R23  18506640.428    98998194.959        1277.349          50.000                                                                  
R21  22092330.310   118220681.902       -3452.954          47.000    22092326.291    91949483.770       -2685.339          41.000  
R08  17446485.770    93425171.988         754.431          50.000    17446478.604    72664072.642         586.800          49.000  
G21  19657649.821   103301647.932        1785.182          49.000                                                                  
S33  37831725.232   198807144.527        -629.550          42.000  
S31  36878478.490   193797811.357        -630.098          44.000  
E36  23807078.080   125107035.191         874.805          46.000    23807079.988    95861301.417         670.348          48.000  
G10  20451255.522   107472262.712       -3650.932          44.000    20451254.316    83744618.968       -2844.744          44.000  
E11  21061177.084   110677271.513        -512.942          45.000    21061173.032    84804726.367        -393.173          47.000  
R01  20814416.436   111265163.806        3635.495          46.000    20814416.871    86539423.118        2827.696          43.000  
R22  18521534.812    98869334.788       -1674.297          51.000    18521532.019    76898423.229       -1302.302          51.000  
R07  18539804.733    99245062.305       -3221.347          49.000    18539801.344    77190675.356       -2505.490          51.000  
G27  18725001.621    98400577.147       -2326.620          50.000    18724999.570    76675782.100       -1812.922          47.000  
G08  18300236.748    96168478.391          -9.453          48.000    18300234.450    74936501.682          -7.327          45.000  
E04  22706179.398   119321836.028         230.666          48.000    22706179.245    91428454.559         176.646          50.000  
E25  24075475.484   126517414.555       -2732.115          43.000    24075478.138    96941937.547       -2093.453          47.000  
E09  23969766.159   125962039.706        2176.862          44.000    23969769.849    96516345.990        1667.944          49.000  
E14  25945925.297                        -454.648          30.000    25945926.256   104473575.697        -348.479          34.000  
E19  25405442.914                1      -2485.624          28.000    25405442.746   102297289.267       -1904.372          44.000  
G32  19640886.035   103213611.154        -477.430          51.000    19640883.476    80426228.016        -372.118          47.000  
E12  24489860.315   128695208.317       -2024.833          35.000    24489858.571    98610699.149       -1551.905          41.000  
E10  22867540.826   120169946.011       -1417.246          48.000    22867539.269    92078474.225       -1085.839          49.000  
E24                                                                  26173305.162                3      -2602.767          18.000  
> 2024 04 16 10 01 30.4940000  0 27                     
G02  20681561.239   108682365.987        1960.999          44.000                                                                  
E02  24760717.248   130118442.938        -674.940          43.000    24760720.683    99701139.961        -517.097          46.000  
G03  22038072.117   115810861.873        2195.831          38.000    22038070.499    90242188.043        1711.108          33.000  
G16  22398392.401   117704380.870       -3927.172          31.000                                                                  
R23  18499493.615    98959966.174        1271.034          50.000                                                                  
R21  22111707.407   118324375.562       -3460.120          46.000    22111704.119    92030134.171       -2691.223          42.000  
R08  17442330.781    93402923.676         728.398          49.000    17442325.223    72646768.421         566.597          50.000  
G21  19647468.239   103248141.572        1781.811          49.000                                                                  
S33  37835317.722   198826024.647        -629.339          42.000  
S31  36882074.749   193816710.760        -629.795          44.000  
E36  23802081.594   125080780.456         875.152          46.000    23802083.959    95841184.188         670.643          48.000  
G10  20472109.898   107581849.387       -3655.095          45.000    20472108.303    83830011.173       -2848.230          44.000  
E11  21064111.921   110692694.738        -515.210          45.000    21064108.183    84816544.182        -394.746          47.000  
R01  20794033.035   111156200.781        3628.433          47.000    20794032.924    86454674.058        2822.253          42.000  
R22  18530979.555    98919744.143       -1686.426          52.000    18530975.064    76937630.476       -1311.708          51.000  
R07  18557915.648    99342001.401       -3241.492          52.000    18557910.906    77266072.425       -2521.069          52.000  
G27  18738331.600    98470626.502       -2343.672          49.000    18738329.929    76730365.996       -1826.271          47.000  
G08  18300342.796    96169035.029         -28.066          49.000    18300340.596    74936935.426         -21.877          46.000  
E04  22704899.521   119315110.743         217.508          48.000    22704899.195    91423301.431         166.637          49.000  
E25  24091090.878   126599476.965       -2738.927          43.000    24091093.914    97004816.505       -2098.641          47.000  
E09  23957350.660   125896794.584        2172.540          45.000    23957353.988    96466352.942        1664.769          50.000  
E19  25419664.501                       -2495.640          29.000    25419660.077   102354538.313       -1912.224          43.000  
G32  19643671.131   103228244.643        -498.131          51.000    19643668.435    80437630.744        -388.165          47.000  
E12  24501427.154   128755992.240       -2027.211          37.000    24501425.628    98657273.794       -1553.282          41.000  
E10  22875636.699   120212492.342       -1419.468          48.000    22875635.734    92111074.651       -1087.685          49.000  
E24                                                                  26192608.985                3      -2584.739          18.000  
E14                                                                  25948523.342                        -349.390          30.000  
> 2024 04 16 10 02 00.4940000  0 27                     
G02  20670374.274   108623573.697        1958.768          44.000                                                                  
E02  24764609.967   130138893.536        -688.438          44.000    24764612.511    99716809.890        -527.542          46.000  
G03  22025556.019   115745090.928        2189.081          40.000    22025555.385    90190938.014        1705.261          34.000  
G16  22420803.251   117822145.061       -3925.255          30.000                                                                  
R23  18492384.420    98921937.494        1264.411          50.000                                                                  
R21  22131127.252   118428293.891       -3467.590          45.000    22131124.528    92110959.350       -2697.028          40.000  
R08  17438321.971    93381461.559         702.327          50.000    17438317.377    72630075.751         546.154          49.000  
G21  19637307.585   103194747.806        1778.055          49.000                                                                  
S33  37838910.840   198844906.429        -629.304          42.000  
S31  36885671.545   193835611.959        -630.023          44.000  
E36  23797083.444   125054522.081         875.324          45.000    23797087.304    95821064.194         670.713          48.000  
G10  20492989.043   107691568.920       -3659.469          45.000    20492986.204    83915506.907       -2851.650          43.000  
E11  21067059.073   110708184.484        -517.655          45.000    21067055.940    84828412.974        -396.586          48.000  
R01  20773690.808   111047458.788        3621.146          47.000    20773690.197    86370096.919        2816.280          41.000  
R22  18540491.669    98970522.806       -1698.695          53.000    18540488.259    76977124.955       -1321.272          52.000  
R07  18576139.528    99439554.257       -3261.872          52.000    18576134.708    77341946.878       -2537.044          51.000  
G27  18751760.876    98541196.049       -2360.852          50.000    18751758.584    76785355.282       -1839.648          47.000  
G08  18300557.620    96170160.566         -47.017          50.000    18300554.056    74937812.514         -36.702          46.000  
E04  22703697.404   119308789.221         204.067          49.000    22703696.232    91418457.674         156.328          49.000  
E25  24106744.936   126681751.020       -2745.941          41.000    24106749.433    97067857.628       -2103.974          46.000  
E09  23944961.230   125831686.890        2167.966          45.000    23944964.217    96416465.211        1661.234          50.000  
E19  25433940.728                       -2506.559          30.000    25433938.424   102412029.771       -1920.365          44.000  
G32  19646574.512   103243504.674        -519.070          51.000    19646572.046    80449521.721        -404.547          47.000  
E12  24513007.619   128816842.088       -2029.504          38.000    24513004.239    98703898.950       -1554.826          40.000  
E10  22883747.376   120255114.626       -1421.934          48.000    22883746.404    92143733.271       -1089.555          49.000  
E24                                                                  26211891.700                3      -2591.293          14.000  
E14                                                                  25951126.431                        -350.145          27.000  
> 2024 04 16 10 02 30.4940000  0 29                     
G02  20659199.088   108564846.552        1956.463          45.000                                                                  
E02  24768577.381   130159743.288        -701.917          43.000    24768579.748    99732785.663        -537.875          46.000  
G03  22013080.551   115679529.011        2181.470          41.000    22013078.090    90139850.799        1700.238          35.000  
G16  22443204.257   117939854.139       -3923.280          28.000                                                                  
R23  18485312.495    98884105.567        1257.443          51.000                                                                  
R21  22150586.833   118532430.343       -3475.220          45.000    22150585.187    92191954.140       -2703.155          42.000  
R08  17434460.535    93360781.644         675.864          50.000    17434454.725    72613991.393         525.790          49.000  
G21  19627167.389   103141461.537        1774.087          48.000                                                                  
S33  37842502.926   198863783.536        -629.575          42.000  
S31  36889267.579   193854508.794        -630.300          44.000  
E36  23792084.507   125028254.185         875.522          44.000    23792088.783    95800936.875         670.715          48.000  
G10  20513891.651   107801413.304       -3663.738          45.000    20513890.073    84001099.934       -2854.773          44.000  
E11  21070018.325   110723735.433        -519.805          45.000    21070015.180    84840328.665        -398.333          48.000  
R01  20753389.839   110938935.435        3613.506          47.000    20753388.496    86285689.781        2810.502          40.000  
R22  18550072.146    99021665.949       -1711.192          52.000    18550069.347    77016902.925       -1330.923          52.000  
R07  18594477.012    99537710.838       -3282.222          52.000    18594470.928    77418290.853       -2552.821          51.000  
G27  18765287.674    98612278.895       -2378.298          49.000    18765285.259    76840744.449       -1853.150          47.000  
G08  18300879.518    96171850.370         -66.137          50.000    18300876.265    74939129.233         -51.487          46.000  
E04  22702570.730   119302866.458         190.301          49.000    22702569.062    91413919.470         145.874          49.000  
E25  24122441.354   126764228.859       -2753.160          43.000    24122444.398    97131054.885       -2109.314          46.000  
E09  23932598.302   125766712.685        2163.217          45.000    23932599.833    96366679.735        1657.458          48.000  
E19  25448272.177                       -2516.627          28.000    25448275.092   102469758.101       -1928.340          44.000  
G32  19649596.589   103259385.884        -540.115          50.000    19649593.564    80461896.708        -420.739          47.000  
E12  24524597.282   128877752.627       -2031.939          38.000    24524595.120    98750570.647       -1557.001          39.000  
E10  22891871.472   120297807.557       -1424.664          48.000    22891870.768    92176446.023       -1091.587          49.000  
E24                                                                  26231146.757                3      -2590.619          13.000  
E14                                                                  25953737.440                        -350.770          27.000  
R14                                                                  23342959.482                3      -1215.600          11.000  
R13                                                                  21589176.594                3      -2830.480          13.000  
> 2024 04 16 10 03 00.4940000  0 29                     
G02  20648034.695   108506181.652        1954.252          44.000                                                                  
E02  24772620.180   130180988.032        -714.849          43.000    24772622.615    99749064.092        -547.746          46.000  
G03  22000643.739   115614172.988        2174.988          41.000    22000640.894    90088924.078        1694.879          34.000  
G16  22465590.127   118057474.9441      -3920.523          26.000                                                                  
R23  18478276.929    98846468.691        1250.989          50.000                                                                  
R21  22170087.790   118636780.525       -3482.129          45.000    22170086.813    92273115.140       -2708.136          44.000  
R08  17430743.833    93340881.073         650.118          50.000    17430738.647    72598513.214         505.759          50.000  
G21  19617047.488   103088280.498        1770.726          48.000                                                                  
S33  37846093.859   198882653.895        -629.224          42.000  
S31  36892862.159   193873398.282        -629.467          44.000  
E36  23787082.827   125001972.991         876.069          43.000    23787087.448    95780799.372         671.291          48.000  
G10  20534817.298   107911376.476       -3667.486          45.000    20534815.336    84086785.514       -2857.711          43.000  
E11  21072988.544   110739344.153        -521.274          46.000    21072985.696    84852288.617        -399.653          48.000  
R01  20733128.894   110830630.395        3606.334          46.000    20733128.083    86201452.480        2804.849          40.000  
R22  18559721.221    99073170.831       -1723.106          53.000    18559717.128    77056962.225       -1340.183          51.000  
R07  18612922.516    99636463.252       -3301.889          52.000    18612917.822    77495098.333       -2568.166          50.000  
G27  18778912.062    98683870.232       -2395.004          49.000    18778908.624    76896529.836       -1866.121          47.000  
G08  18301306.932    96174102.028         -84.692          49.000    18301304.917    74940883.788         -66.058          46.000  
E04  22701518.956   119297339.355         177.576          49.000    22701517.406    91409684.446         135.976          49.000  
E25  24138174.628   126846904.618       -2759.200          43.000    24138177.238    97194403.835       -2114.146          46.000  
E09  23920259.367   125701870.148        2159.010          45.000    23920260.663    96316995.165        1654.226          50.000  
E19  25462669.282                1      -2527.034          29.000    25462669.847   102527719.236       -1935.975          44.000  
G32  19652735.989   103275884.908        -560.460          51.000    19652733.157    80474753.115        -436.952          47.000  
E12  24536199.816   128938720.415       -2033.471          39.000    24536197.402    98797286.150       -1557.939          39.000  
E10  22900008.569   120340567.854       -1426.648          49.000    22900007.781    92209210.391       -1093.118          50.000  
E24                                                                  26250374.681                3      -2579.922          25.000  
E14                                                                  25956352.169                3       -353.205          24.000  
R14                                                                  23350431.411                3      -1237.029          16.000  
R13                                                                  21607710.988                3      -2835.606          13.000  
> 2024 04 16 10 03 30.4940000  0 25                     
G02  20636883.554   108447584.364        1951.602          44.000                                                                  
E02  24776738.809   130202631.623        -728.580          43.000    24776741.380    99765648.134        -558.446          46.000  
G03  21988247.003   115549027.895        2167.578          40.000    21988244.287    90038161.579        1688.849          35.000  
R23  18471278.904    98809033.752        1243.810          50.000                                                                  
R21  22189629.920   118741348.552       -3489.841          46.000    22189628.973    92354445.579       -2714.581          43.000  
R08  17427175.435    93321765.438         623.527          50.000    17427169.304    72583645.517         484.942          50.000  
G21  19606948.534   103035209.966        1766.624          49.000                                                                  
S33  37849683.674   198901519.414        -629.159          42.000  
S31  36896455.880   193892284.109        -629.867          44.000  
E36  23782080.052   124975682.732         875.950          44.000    23782084.340    95760654.924         671.168          48.000  
G10  20555764.973   108021460.495       -3671.897          45.000    20555762.982    84172565.246       -2861.390          42.000  
E11  21075970.901   110755015.364        -523.843          46.000    21075967.725    84864296.439        -401.399          48.000  
R01  20712911.071   110722551.701        3598.207          46.000    20712910.120    86117391.224        2798.709          40.000  
R22  18569437.824    99125042.776       -1735.822          53.000    18569434.736    77097307.054       -1350.041          51.000  
R07  18631481.645    99735812.390       -3322.116          51.000    18631477.138    77572369.880       -2583.840          51.000  
G27  18792631.968    98755973.301       -2412.491          49.000    18792629.075    76952714.010       -1879.849          47.000  
G08  18301842.727    96176921.026        -104.128          49.000    18301841.294    74943080.386         -81.065          45.000  
E04  22700543.092   119292213.002         163.575          49.000    22700541.787    91405756.483         125.449          49.000  
E25  24153943.352   126929780.616       -2766.293          41.000    24153948.074    97257906.198       -2119.632          46.000  
E09  23907947.086   125637165.454        2154.006          46.000    23907947.905    96267416.233        1650.490          50.000  
E19  25477128.925   133883175.0741      -2537.091          33.000    25477122.877   102585915.560       -1944.149          43.000  
G32  19655994.343   103293006.432        -581.727          50.000    19655991.351    80488094.575        -453.271          47.000  
E12  24547811.803   128999750.226       -2035.324          38.000    24547811.098    98844049.240       -1559.894          39.000  
E10  22908159.311   120383400.341       -1429.542          49.000    22908158.522    92242030.066       -1095.360          50.000  
E14                                                                  25958971.072                3       -356.073          18.000  
> 2024 04 16 10 04 00.4940000  0 27                     
G02  20625747.120   108389063.257        1949.283          44.000                                                                  
E02  24780934.558   130224681.162        -741.836          44.000    24780937.196    99782543.204        -568.278          47.000  
G03  21975891.280   115484102.058        2160.321          39.000    21975890.436    89987569.932        1683.484          37.000  
R23  18464319.933    98771810.756        1237.162          49.000                                                                  
R21  22209213.581   118846141.751       -3496.918          43.000    22209210.785    92435951.164       -2719.712          38.000  
R08  17423753.746    93303442.786         597.529          50.000    17423748.001    72569394.625         464.624          50.000  
G21  19596871.988   102982259.346        1762.917          49.000                                                                  
S33  37853274.800   198920389.743        -629.255          42.000  
S31  36900050.258   193911173.374        -629.771          44.000  
E36  23777077.526   124949391.048         876.254          44.000    23777080.586    95740509.401         671.478          47.000  
G10  20576736.880   108131670.648       -3675.746          44.000    20576735.658    84258443.297       -2864.018          42.000  
E11  21078966.535   110770757.090        -525.826          46.000    21078963.229    84876358.298        -402.907          48.000  
R01  20692736.768   110614710.178        3590.649          46.000    20692736.436    86033514.413        2792.897          40.000  
R22  18579227.055    99177290.574       -1748.022          53.000    18579223.158    77137944.177       -1359.468          52.000  
R07  18650152.941    99835762.135       -3341.627          52.000    18650148.285    77650108.552       -2599.098          51.000  
G27  18806450.804    98828594.638       -2429.353          48.000    18806448.726    77009302.023       -1893.074          47.000  
G08  18302489.572    96180316.158        -122.892          49.000    18302487.562    74945725.887         -95.660          45.000  
E04  22699645.097   119287495.689         150.526          49.000    22699644.252    91402141.961         115.265          49.000  
E25  24169754.122   127012862.382       -2772.833          41.000    24169757.567    97321566.213       -2124.666          45.000  
E09  23895661.381   125572608.048        2149.460          45.000    23895663.228    96217950.169        1646.956          49.000  
E19  25491640.967   133959438.901       -2547.142          33.000    25491635.034   102644351.409       -1951.907          42.000  
G32  19659372.189   103310758.330        -602.314          51.000    19659369.340    80501927.243        -469.386          47.000  
E12  24559440.251   129060850.333       -2037.801          38.000    24559438.568    98890866.112       -1561.581          39.000  
E10  22916325.347   120426313.076       -1431.812          49.000    22916324.992    92274911.232       -1097.066          50.000  
E14                                                                  25961602.201                3       -355.246          16.000  
R14                                                                  23366699.370                3      -1282.722          12.000  
R13                                                                  22247602.722                3      -2856.664          13.000  
> 2024 04 16 10 04 30.4940000  0 25                     
G02  20614626.661   108330622.942        1946.603          44.000                                                                  
E02  24785208.471   130247140.041        -755.405          44.000    24785211.291    99799751.950        -578.838          47.000  
G03  21963578.171   115419400.281        2153.076          40.000    21963579.349    89937152.868        1677.710          37.000  
R23  18457402.908    98734806.413        1229.777          50.000                                                                  
R21  22228840.845   118951163.534       -3504.558          39.000    22228836.208    92517634.560       -2725.728          34.000  
R08  17420482.249    93285919.132         570.667          50.000    17420475.224    72555765.147         443.957          49.000  
G21  19586818.691   102929433.702        1758.756          48.000                                                                  
S33  37856867.228   198939268.189        -629.389          42.000  
S31  36903646.495   193930070.599        -630.479          44.000  
E36  23772075.373   124923101.627         876.257          45.000    23772077.788    95720365.607         671.370          47.000  
G10  20597733.189   108242008.554       -3680.032          43.000    20597731.729    84344420.907       -2867.618          42.000  
E11  21081975.602   110786573.578        -528.596          45.000    21081972.976    84888477.438        -405.042          48.000  
R01  20672608.316   110507113.295        3582.416          46.000    20672608.875    85949827.916        2786.324          40.000  
R22  18589085.737    99229919.066       -1760.689          53.000    18589081.429    77178877.414       -1369.330          50.000  
R07  18668938.431    99936312.103       -3361.579          53.000    18668932.075    77728314.110       -2614.557          50.000  
G27  18820368.622    98901737.109       -2446.679          48.000    18820367.324    77066296.204       -1906.568          47.000  
G08  18303245.767    96184292.527        -142.199          49.000    18303244.147    74948824.369        -110.902          46.000  
E04  22698826.074   119283191.954         136.457          49.000    22698825.182    91398844.321         104.515          49.000  
E25  24185604.362   127096151.617       -2779.802          42.000    24185606.650    97385385.230       -2129.931          44.000  
E09  23883406.014   125508203.790        2144.269          46.000    23883407.808    96168601.466        1642.987          50.000  
E19  25506206.624   134036017.982       -2557.980          33.000    25506207.418   102703028.844       -1960.022          42.000  
G32  19662871.454   103329144.792        -623.392          51.000    19662868.510    80516254.337        -485.763          48.000  
E12  24571081.042   129122024.796       -2040.368          38.000    24571080.014    98937739.987       -1563.582          39.000  
E10  22924507.485   120469310.380       -1434.711          49.000    22924507.203    92307857.188       -1099.269          50.000  
R14                                                                  23371266.996                3      -1296.919          17.000  
> 2024 04 16 10 05 00.4940000  0 24                     
G02  20603518.970   108272253.426        1944.416          45.000                                                                  
E02  24789558.203   130269996.666        -768.441          44.000    24789560.953    99817265.439        -588.888          47.000  
G03  21951305.405   115354912.282        2145.947          39.000    21951308.674    89886902.416        1672.388          38.000  
R23  18450524.673    98698011.273        1222.935          50.000                                                                  
R21  22248507.500   119056402.497       -3511.995          35.000    22248502.619                       -2732.154          30.000  
R08  17417356.510    93269183.491         544.601          50.000    17417349.261    72542748.613         423.513          49.000  
G21  19576788.734   102876723.938        1755.058          48.000                                                                  
S33  37860458.685   198958141.805        -629.159          42.000  
S31  36907241.884   193948964.734        -629.889          44.000  
E36  23767070.950   124896803.612         876.762          45.000    23767073.259    95700215.227         671.784          47.000  
G10  20618752.295   108352461.056       -3683.572          44.000    20618748.360    84430487.794       -2870.561          40.000  
E11  21084997.371   110802454.287        -530.652          45.000    21084995.203    84900645.770        -406.524          48.000  
R01  20652525.503   110399753.222        3574.752          46.000    20652525.329    85866325.612        2780.030          41.000  
R22  18599013.893    99282918.020       -1772.822          53.000    18599010.895    77220098.784       -1378.852          51.000  
R07  18687831.278   100037447.375       -3380.860          52.000    18687826.027    77806974.856       -2629.462          51.000  
G27  18834384.242    98975388.332       -2463.514          47.000    18834382.982    77123686.730       -1919.648          47.000  
G08  18304111.449    96188840.328        -161.054          49.000    18304109.837    74952368.139        -125.557          46.000  
E04  22698084.417   119279291.523         123.176          50.000    22698083.368    91395855.691          94.506          50.000  
E25  24201490.266   127179635.302       -2786.157          43.000    24201493.218    97449353.253       -2134.676          43.000  
E09  23871176.022   125443943.390        2139.462          44.000    23871179.852    96119362.967        1639.339          50.000  
E19  25520839.500   134112899.764       -2567.683          34.000    25520837.762   102761938.188       -1967.375          41.000  
G32  19666489.222   103348155.064        -644.136          51.000    19666486.112    80531067.541        -502.046          48.000  
E12  24582735.041   129183263.203       -2042.154          38.000    24582733.133    98984662.877       -1564.787          39.000  
E10  22932703.357   120512381.801       -1436.991          49.000    22932703.423    92340859.950       -1101.098          50.000  
> 2024 04 16 10 05 30.4940000  0 24                     
G02  20592423.768   108213949.858        1942.399          44.000                                                                  
E02  24793982.498   130293244.874        -781.672          45.000    24793984.737    99835078.974        -599.008          47.000  
G03  21939073.414   115290633.048        2138.898          38.000    21939076.942    89836814.720        1666.785          37.000  
R23  18443684.103    98661422.333        1216.022          49.000                                                                  
R21  22268212.757                       -3518.973          30.000    22268208.732                       -2736.847          27.000  
R08  17414377.719    93253231.590         518.525          50.000    17414370.546    72530341.593         403.207          49.000  
G21  19566779.723   102824125.083        1751.221          48.000                                                                  
S33  37864048.844   198977007.182        -628.919          42.000  
S31  36910835.356   193967849.344        -629.541          44.000  
E36  23762063.914   124870491.175         877.083          45.000    23762066.232    95680053.806         672.100          47.000  
G10  20639791.713   108463020.075       -3687.230          45.000    20639788.333    84516637.623       -2873.417          42.000  
E11  21088031.436   110818393.795        -532.530          45.000    21088028.032    84912859.173        -408.109          48.000  
R01  20632484.584   110292627.976        3566.828          45.000    20632484.914    85783005.931        2774.203          41.000  
R22  18609010.282    99336282.625       -1785.132          53.000    18609007.641    77261604.547       -1388.422          51.000  
R07  18706831.414   100139158.074       -3400.031          53.000    18706826.634    77886083.195       -2644.644          51.000  
G27  18848495.061    99049541.483       -2480.292          47.000    18848493.560    77181468.376       -1932.672          47.000  
G08  18305084.914    96193954.951        -180.030          50.000    18305083.133    74956353.623        -140.308          46.000  
E04  22697418.082   119275789.242         109.907          49.000    22697416.758    91393172.163          84.187          50.000  
E25  24217412.272   127263305.627       -2792.308          42.000    24217414.834    97513464.259       -2139.495          43.000  
E09  23858975.012   125379822.957        2134.947          45.000    23858978.158    96070231.723        1635.767          51.000  
E19  25535523.274   134190076.959       -2577.776          35.000    25535523.799   102821073.938       -1975.246          40.000  
G32  19670224.524   103367783.652        -664.711          51.000    19670221.643    80546362.547        -518.011          48.000  
E12  24594398.499   129244560.227       -2044.554          38.000    24594397.408    99031630.652       -1566.450          40.000  
E10  22940913.024   120555522.053       -1439.407          49.000    22940912.775    92373915.447       -1102.874          50.000  
> 2024 04 16 10 06 00.4940000  0 25                     
G02  20581342.491   108155718.536        1939.803          44.000                                                                  
E02  24798482.202   130316889.338        -795.015          46.000    24798483.325    99853196.143        -609.294          46.000  
G03  21926883.035   115226568.335        2132.135          40.000    21926884.858    89786894.027        1661.145          37.000  
R23  18436884.409    98625046.957        1208.747          50.000                                                                  
R21  22287958.871   119267517.044       -3525.593          32.000    22287958.125                1      -2741.879          25.000  
R08  17411545.654    93238069.645         491.952          49.000    17411539.821    72518549.047         382.744          49.000  
G21  19556792.531   102771643.597        1747.306          48.000                                                                  
S33  37867638.242   198995868.414        -628.632          42.000  
S31  36914428.437   193986730.801        -629.576          44.000  
E36  23757054.668   124844169.407         877.357          45.000    23757057.732    95659885.212         672.255          48.000  
G10  20660851.604   108573688.702       -3690.920          45.000    20660848.998    84602872.893       -2875.913          44.000  
E11  21091076.495   110834397.804        -534.575          45.000    21091073.191    84925121.994        -409.652          48.000  
R01  20612488.987   110185745.779        3558.399          44.000    20612489.550    85699875.332        2767.756          40.000  
R22  18619076.673    99390019.047       -1797.558          52.000    18619074.200    77303399.517       -1398.170          51.000  
R07  18725938.697   100241445.377       -3419.293          51.000    18725934.361    77965639.960       -2659.454          50.000  
G27  18862702.188    99124200.683       -2497.125          48.000    18862700.567    77239644.389       -1945.924          46.000  
G08  18306167.076    96199642.401        -199.342          49.000    18306165.844    74960785.345        -155.067          46.000  
E04  22696827.152   119272690.986          96.471          48.000    22696827.018    91390798.212          73.801          49.000  
E25  24233371.212   127347165.690       -2798.710          43.000    24233372.854    97577720.638       -2144.410          43.000  
E09  23846801.429   125315849.750        2129.860          45.000    23846804.225    96021213.274        1631.891          49.000  
E19  25550267.539   134267553.087       -2587.662          37.000    25550266.741   102880438.703       -1982.447          39.000  
G32  19674077.889   103388035.937        -685.651          51.000    19674075.979    80562143.561        -534.286          48.000  
E12  24606076.010   129305921.563       -2046.593          38.000    24606073.915    99078647.729       -1568.292          40.000  
E10  22949136.691   120598736.836       -1441.834          49.000    22949136.330    92407028.071       -1104.837          50.000  
R13                                                                  21429350.125                3      -2892.024          10.000  
> 2024 04 16 10 06 30.4940000  0 26                     
G02  20570276.402   108097565.301        1936.802          44.000                                                                  
E02  24803057.154   130340934.617        -808.300          45.000    24803058.905    99871620.433        -619.316          46.000  
G03  21914734.857   115162724.120        2124.280          40.000    21914735.741    89737145.274        1655.499          36.000  
R23  18430126.150    98588893.195        1201.195          50.000                                                                  
R21  22307746.920                       -3532.859          28.000    22307749.653                3      -2760.958          21.000  
R08  17408862.066    93223703.568         465.363          49.000    17408856.139    72507375.477         362.164          48.000  
G21  19546829.581   102719286.356        1743.070          48.000                                                                  
S33  37871227.401   199014730.571        -628.761          42.000  
S31  36918021.554   194005612.639        -629.672          44.000  
E36  23752044.970   124817843.577         877.491          44.000    23752048.386    95639713.528         672.300          48.000  
G10  20681933.096   108684469.845       -3694.724          47.000    20681928.142    84689195.853       -2878.839          42.000  
E11  21094135.097   110850471.854        -536.881          45.000    21094131.848    84937438.504        -411.519          48.000  
R01  20592542.331   110079115.536        3549.961          45.000    20592541.847    85616940.689        2761.172          40.000  
R22  18629214.781    99444133.543       -1810.260          52.000    18629212.027    77345488.540       -1408.026          51.000  
R07  18745155.572   100344310.913       -3438.532          53.000    18745150.363    78045646.465       -2674.402          51.000  
G27  18877006.778    99199369.644       -2514.123          48.000    18877004.846    77298217.561       -1959.150          47.000  
G08  18307359.450    96205909.277        -218.726          48.000    18307358.290    74965668.583        -170.328          46.000  
E04  22696315.822   119270002.551          82.512          48.000    22696315.278    91388738.264          63.278          49.000  
E25  24249365.367   127431218.546       -2805.043          42.000    24249367.608    97642124.773       -2149.433          44.000  
E09  23834656.778   125252030.675        2124.513          45.000    23834659.645    95972312.936        1627.973          50.000  
E19  25565068.868   134345331.835       -2597.834          38.000    25565067.346   102940035.336       -1990.568          38.000  
G32  19678051.771   103408917.279        -706.578          51.000    19678048.705    80578414.756        -550.649          48.000  
E12  24617765.133   129367352.804       -2048.657          37.000    24617764.006    99125718.411       -1569.894          40.000  
E10  22957375.220   120642031.821       -1444.703          49.000    22957375.151    92440202.129       -1106.950          50.000  
R14                                                                  23408587.371                3      -1377.135          17.000  
R13                                                                  21750199.201                3      -2910.562          13.000  
> 2024 04 16 10 07 00.4940000  0 25                     
G02  20559225.802   108039491.903        1934.411          44.000                                                                  
E02  24807709.256   130365380.737        -821.703          45.000    24807711.601    99890351.835        -629.427          47.000  
G03  21902627.899   115099101.539        2117.078          41.000    21902628.753    89687569.212        1649.731          35.000  
R23  18423408.536    98552963.882        1193.792          49.000                                                                  
R21  22327578.862                3      -3536.943          16.000    22327576.408                3      -2744.346          19.000  
R08  17406328.961    93210135.156         438.941          50.000    17406322.418    72496822.318         341.547          49.000  
G21  19536890.928   102667055.339        1738.916          49.000                                                                  
S33  37874816.840   199033594.757        -629.057          42.000  
S31  36921614.957   194024496.730        -629.536          43.000  
E36  23747034.967   124791514.126         877.746          44.000    23747037.692    95619539.033         672.521          48.000  
G10  20703034.753   108795361.748       -3698.171          48.000    20703030.768    84775605.099       -2881.466          42.000  
E11  21097207.234   110866616.977        -539.425          45.000    21097204.231    84949809.447        -413.330          48.000  
R01  20572641.886   109972741.183        3541.676          44.000    20572642.841    85534205.067        2754.400          41.000  
R22  18639422.819    99498627.588       -1822.877          51.000    18639420.788    77387872.773       -1417.786          52.000  
R07  18764479.225   100447751.157       -3457.525          53.000    18764473.576    78126100.003       -2689.203          50.000  
G27  18891407.599    99275047.787       -2531.055          47.000    18891406.775    77357187.453       -1972.400          47.000  
G08  18308662.614    96212757.080        -237.945          48.000    18308660.573    74971004.600        -185.439          45.000  
E04  22695882.609   119267725.055          69.103          48.000    22695881.708    91386993.192          52.860          49.000  
E25  24265396.839   127515462.684       -2811.331          42.000    24265399.140    97706675.433       -2154.144          44.000  
E09  23822542.506   125188368.111        2119.414          46.000    23822545.487    95923532.502        1624.035          51.000  
E19  25579927.602   134423412.440       -2607.770          39.000    25579925.678   102999863.284       -1998.038          38.000  
G32  19682145.572   103430428.363        -727.651          52.000    19682142.452    80595176.647        -566.906          48.000  
E12  24629469.408   129428855.111       -2051.159          37.000    24629467.430    99172843.520       -1571.791          41.000  
E10  22965629.559   120685408.016       -1447.153          49.000    22965629.390    92473438.423       -1109.000          50.000  
R14                                                                  22213732.302                3      -1395.022          11.000  
> 2024 04 16 10 07 30.4940000  0 24                     
G02  20548191.014   107981501.638        1931.106          45.000                                                                  
E02  24812438.019   130390229.735        -835.562          45.000    24812440.753    99909391.980        -640.189          48.000  
G03  21890564.136   115035704.047        2109.155          41.000    21890564.802    89638168.617        1643.286          35.000  
R23  18416735.277    98517263.982        1185.662          50.000                                                                  
R21  22347447.622                3      -3551.820          20.000    22347450.096                3      -2759.419          20.000  
R08  17403943.462    93197367.372         411.630          49.000    17403938.824    72486891.894         320.267          49.000  
G21  19526976.093   102614954.297        1734.048          48.000                                                                  
S33  37878407.636   199052462.716        -629.466          42.000  
S31  36925209.197   194043384.528        -630.024          44.000  
E36  23742024.030   124765183.855         877.168          45.000    23742026.902    95599363.969         672.280          48.000  
G10  20724157.671   108906364.938       -3702.209          47.000    20724155.012    84862101.096       -2885.060          44.000  
E11  21100293.324   110882836.178        -542.358          45.000    21100290.855    84962237.159        -415.658          48.000  
R01  20552792.222   109866628.710        3532.057          46.000    20552791.543    85451673.098        2747.446          41.000  
R22  18649703.886    99553504.718       -1836.111          52.000    18649701.200    77430554.935       -1428.104          51.000  
R07  18783909.597   100551764.459       -3477.036          53.000    18783903.217    78206999.271       -2704.422          48.000  
G27  18905906.154    99351236.548       -2548.480          47.000    18905905.089    77416555.252       -1985.913          48.000  
G08  18310077.369    96220189.360        -257.928          49.000    18310075.284    74976795.987        -200.950          46.000  
E04  22695528.149   119265861.816          54.716          48.000    22695527.260    91385565.517          41.981          49.000  
E25  24281464.921   127599898.593       -2818.301          43.000    24281467.053    97771373.044       -2159.424          45.000  
E09  23810459.342   125124866.494        2113.674          46.000    23810461.842    95874875.394        1619.471          49.000  
E19  25594844.004   134501795.798       -2618.428          39.000    25594841.961   103059923.196       -2006.284          38.000  
G32  19686358.869   103452571.921        -749.158          51.000    19686355.816    80612431.361        -583.667          47.000  
E12  24641186.615   129490431.359       -2054.349          36.000    24641185.546    99220025.263       -1574.190          41.000  
E10  22973900.196   120728868.575       -1450.477          49.000    22973899.730    92506739.338       -1111.461          51.000  
> 2024 04 16 10 08 00.4940000  0 25                     
G02  20537171.177   107923595.416        1928.790          44.000                                                                  
E02  24817243.362   130415480.489        -848.280          46.000    24817246.030    99928739.933        -649.955          49.000  
G03  21878542.326   114972531.759        2102.093          42.000    21878542.880    89588943.452        1637.880          34.000  
R23  18410105.022    98481795.494        1178.335          50.000                                                                  
R21  22367358.193                3      -3549.931          14.000    22367359.269                3      -2764.305          22.000  
R08  17401709.197    93185400.870         385.497          48.000    17401703.157    72477584.644         299.722          49.000  
G21  19517086.009   102562984.482        1730.135          48.000                                                                  
S33  37881999.015   199071334.334        -628.800          42.000  
S31  36928804.369   194062276.170        -629.780          43.000  
E36  23737012.141   124738852.057         877.741          44.000    23737015.853    95579187.744         672.615          47.000  
G10  20745301.746   109017476.731       -3705.518          46.000    20745297.401    84948681.688       -2887.545          42.000  
E11  21103394.890   110899129.404        -544.485          46.000    21103391.375    84974721.592        -417.251          48.000  
R01  20532991.085   109760781.308        3523.614          46.000    20532991.091    85369347.352        2740.561          43.000  
R22  18660056.024    99608765.379       -1848.525          51.000    18660052.916    77473535.410       -1437.673          51.000  
R07  18803446.871   100656346.742       -3495.510          53.000    18803440.054    78288341.061       -2718.672          49.000  
G27  18920501.540    99427934.123       -2565.070          48.000    18920500.085    77476319.529       -1998.761          47.000  
G08  18311603.081    96228206.688        -277.055          49.000    18311600.501    74983043.237        -215.823          45.000  
E04  22695253.276   119264412.855          41.350          48.000    22695251.943    91384455.277          31.783          50.000  
E25  24297568.895   127684523.665       -2823.931          43.000    24297571.206    97836215.614       -2163.809          45.000  
E09  23798405.862   125061527.244        2108.651          45.000    23798409.096    95826342.653        1615.584          50.000  
E19  25609816.276   134580479.893       -2627.738          39.000    25609814.900   103120213.542       -2013.566          38.000  
G32  19690692.877   103475347.524        -769.768          51.000    19690689.849    80630178.601        -599.850          48.000  
E12  24652918.649   129552081.515       -2055.949          37.000    24652916.525    99267263.672       -1575.473          40.000  
E10  22982185.712   120772413.494       -1452.906          48.000    22982186.085    92540104.900       -1113.276          51.000  
R14                                                                  23434725.345                3      -1441.257          12.000  
> 2024 04 16 10 08 30.4940000  0 26                     
G02  20526166.496   107865769.993        1926.000          43.000                                                                  
E02  24822124.129   130441128.472        -861.560          46.000    24822126.781    99948392.227        -660.150          49.000  
G03  21866562.904   114909581.369        2094.739          41.000    21866563.174    89539891.316        1631.765          33.000  
R23  18403517.241    98446556.997        1170.686          49.000                                                                  
R21  22387309.809                3      -3550.662          20.000                                                                  
R08  17399623.636    93174232.453         359.044          49.000    17399618.094    72468898.142         279.177          49.000  
G21  19507221.296   102511143.208        1725.819          47.000                                                                  
S33  37885589.746   199090205.291        -629.056          42.000  
S31  36932398.947   194081166.752        -629.697          44.000  
E36  23731999.860   124712514.936         877.953          43.000    23732004.102    95559007.435         672.711          47.000  
G10  20766465.669   109128691.016       -3708.881          47.000    20766461.750    85035342.132       -2890.158          42.000  
E11  21106508.984   110915493.155        -546.731          46.000    21106505.058    84987260.057        -418.820          48.000  
R01  20513239.687   109655198.170        3514.868          46.000    20513240.040    85287227.117        2733.991          43.000  
R22  18670479.309    99664406.433       -1861.166          52.000    18670476.549    77516811.767       -1447.512          51.000  
R07  18823087.892   100761489.852       -3514.138          52.000    18823082.088    78370119.026       -2733.137          49.000  
G27  18935192.628    99505135.516       -2581.824          48.000    18935190.540    77536476.534       -2011.786          48.000  
G08  18313239.666    96236806.213        -296.312          49.000    18313236.615    74989744.210        -230.968          45.000  
E04  22695054.819   119263374.785          27.672          47.000    22695054.271    91383659.908          21.246          50.000  
E25  24313707.367   127769331.889       -2830.026          42.000    24313710.142    97901198.509       -2168.440          46.000  
E09  23786382.853   124998348.377        2103.316          46.000    23786386.361    95777932.886        1611.543          51.000  
E19  25624845.934   134659459.136       -2637.625          39.000    25624844.643   103180730.028       -2020.946          39.000  
G32  19695146.425   103498751.316        -790.759          51.000    19695143.180    80648415.333        -616.039          47.000  
E12  24664662.747   129613802.278       -2058.628          36.000    24664661.275    99314556.191       -1577.417          40.000  
E10  22990487.769   120816039.330       -1455.574          49.000    22990488.049    92573532.465       -1115.319          51.000  
R14                                                                  23439398.530                3      -1455.875          13.000  
R13                                                                  21532209.704                3      -2946.135          11.000  
> 2024 04 16 10 09 00.4940000  0 24                     
G02  20515178.100   107808025.569        1923.685          43.000                                                                  
E02  24827079.483   130467172.324        -874.530          45.000    24827082.577    99968347.877        -670.125          48.000  
G03  21854626.345   114846852.795        2087.482          41.000    21854625.828    89491011.899        1626.453          32.000  
R23  18396972.724    98411549.852        1163.160          49.000                                                                  
R21  22407299.981                3      -3570.252          20.000                                                                  
R08  17397686.803    93163861.250         332.454          49.000    17397681.813    72460831.653         258.510          50.000  
G21  19497380.628   102459430.887        1721.710          47.000                                                                  
S33  37889180.670   199109076.114        -629.141          42.000  
S31  36935993.845   194100056.966        -629.241          44.000  
E36  23726987.094   124686171.651         878.292          43.000    23726991.099    95538822.393         673.047          47.000  
G10  20787647.581   109240004.788       -3712.040          48.000    20787643.806    85122080.135       -2892.530          42.000  
E11  21109635.884   110931927.069        -548.696          46.000    21109632.359    84999852.290        -420.317          48.000  
R01  20493537.537   109549881.812        3506.067          46.000    20493538.380    85205314.401        2727.023          43.000  
R22  18680974.886    99720427.823       -1873.547          52.000    18680971.076    77560383.946       -1457.387          51.000  
R07  18842832.773   100867188.627       -3532.411          52.000    18842827.809    78452329.189       -2747.401          49.000  
G27  18949978.717    99582838.176       -2598.413          48.000    18949976.828    77597024.032       -2024.719          48.000  
G08  18314986.722    96245987.914        -315.620          49.000    18314984.121    74996898.718        -246.111          46.000  
E04  22694935.666   119262747.401          14.188          47.000    22694935.067    91383179.212          10.812          50.000  
E25  24329880.420   127854320.366       -2835.643          42.000    24329882.825    97966319.521       -2172.829          46.000  
E09  23774390.981   124935330.742        2098.011          45.000    23774394.271    95729646.604        1607.526          49.000  
E19  25639931.711   134738731.426       -2647.182          39.000    25639929.698   103241471.048       -2028.543          39.000  
G32  19699719.319   103522782.492        -811.267          51.000    19699716.436    80667140.954        -632.288          47.000  
E12  24676421.215   129675593.280       -2061.189          35.000    24676419.738    99361902.484       -1578.974          40.000  
E10  22998804.872   120859745.799       -1458.086          48.000    22998805.197    92607021.821       -1117.210          51.000  
> 2024 04 16 10 09 30.4940000  0 23                     
G02  20504204.992   107750358.810        1920.878          44.000                                                                  
E02  24832110.342   130493607.293        -887.757          45.000    24832112.617    99988603.196        -680.106          48.000  
G03  21842730.829   114784342.525        2080.256          41.000    21842731.203    89442302.688        1620.741          32.000  
R23  18390471.974    98376772.625        1155.463          50.000                                                                  
R08  17395898.943    93154284.617         306.045          50.000    17395894.024    72453383.167         238.064          50.000  
G21  19487564.020   102407845.223        1717.438          47.000                                                                  
S33  37892770.802   199127940.629        -628.700          42.000  
S31  36939587.442   194118941.872        -629.312          44.000  
E36  23721972.904   124659818.119         878.633          44.000    23721976.047    95518629.496         673.216          47.000  
G10  20808847.573   109351411.852       -3715.024          48.000    20808844.017    85208890.815       -2894.851          43.000  
E11  21112775.746   110948427.504        -550.884          46.000    21112772.265    85012495.502        -422.248          48.000  
R01  20473885.744   109444831.565        3497.396          47.000    20473886.129    85123608.648        2720.101          42.000  
R22  18691539.532    99776826.486       -1886.169          52.000    18691536.068    77604249.518       -1467.072          51.000  
R07  18862681.377   100973434.978       -3550.581          52.000    18862676.639    78534965.250       -2761.653          50.000  
G27  18964859.157    99661036.728       -2614.795          46.000    18964857.596    77657957.900       -2037.488          47.000  
G08  18316844.241    96255748.764        -335.023          49.000    18316841.675    75004504.557        -261.097          46.000  
E04  22694892.575   119262527.172           0.639          46.000    22694893.117    91383010.471           0.456          50.000  
E25  24346086.064   127939482.856       -2841.575          42.000    24346088.602    98031573.866       -2177.329          46.000  
E09  23762430.310   124872472.235        2092.670          47.000    23762432.648    95681482.273        1603.382          51.000  
E19  25655071.566   134818290.947       -2656.796          39.000    25655069.581   103302432.144       -2035.771          39.000  
G32  19704410.994   103547437.017        -832.135          52.000    19704407.488    80686352.290        -648.347          47.000  
E12  24688193.390   129737450.666       -2063.003          37.000    24688191.933    99409299.707       -1580.674          41.000  
E10  23007136.448   120903529.305       -1460.701          48.000    23007137.109    92640570.200       -1119.295          51.000  
> 2024 04 16 10 10 00.4940000  0 24                     
G02  20493246.707   107692770.648        1918.018          44.000                                                                  
E02  24837214.955   130520432.371        -900.806          45.000    24837217.092   100009157.454        -690.226          47.000  
G03  21830877.113   114722050.923        2072.650          41.000    21830876.697    89393763.789        1615.660          31.000  
R23  18384013.460    98342227.513        1147.559          49.000                                                                  
R21  22447360.409                3      -3583.557          14.000                                                                  
R08  17394258.187    93145501.829         279.397          50.000    17394253.870    72446552.183         217.306          50.000  
G21  19477772.334   102356387.241        1712.957          47.000                                                                  
S33  37896359.199   199146800.005        -628.671          42.000  
S31  36943179.935   194137820.460        -628.987          44.000  
E36  23716956.273   124633454.052         878.700          44.000    23716959.144    95498428.493         673.406          48.000  
G10  20830064.872   109462909.746       -3718.037          47.000    20830062.154    85295772.250       -2897.274          43.000  
E11  21115928.004   110964994.647        -553.521          45.000    21115924.900    85025189.813        -424.210          48.000  
R01  20454284.847   109340050.558        3487.917          47.000    20454284.531    85042112.282        2713.071          42.000  
R22  18702175.531    99833602.812       -1898.938          52.000    18702172.165    77648408.855       -1477.040          51.000  
R07  18882630.018   101080224.368       -3568.745          52.000    18882625.737    78618023.645       -2775.740          49.000  
G27  18979833.646    99739729.816       -2631.500          47.000    18979832.770    77719277.208       -2050.604          47.000  
G08  18318811.457    96266089.295        -354.345          49.000    18318810.018    75012562.066        -276.267          46.000  
E04  22694928.019   119262714.289         -13.208          46.000    22694928.977    91383153.867         -10.064          51.000  
E25  24362323.022   128024816.890       -2847.167          40.000    24362327.188    98096959.672       -2181.809          47.000  
E09  23750499.925   124809774.295        2087.117          46.000    23750501.703    95633440.930        1599.219          50.000  
E19  25670265.263   134898135.646       -2666.342          38.000    25670263.421   103363611.756       -2042.877          38.000  
G32  19709221.787   103572714.520        -853.193          52.000    19709217.948    80706049.070        -664.706          47.000  
E12  24699977.419   129799374.744       -2065.625          38.000    24699974.998    99456747.965       -1582.493          40.000  
E10  23015483.579   120947390.075       -1463.486          48.000    23015483.530    92674177.776       -1121.374          51.000  
> 2024 04 16 10 10 30.4940000  0 24                     
G02  20482303.388   107635262.827        1915.339          45.000                                                                  
E02  24842393.552   130547647.607        -913.886          45.000    24842395.861   100030010.653        -700.175          47.000  
G03  21819064.070   114659979.121        2065.308          40.000    21819063.999    89345396.231        1609.018          34.000  
R23  18377599.731    98307917.381        1139.565          50.000                                                                  
R08  17392767.689    93137514.872         252.769          50.000    17392761.737    72440340.139         196.551          50.000  
G21  19468004.589   102305059.045        1708.585          48.000                                                                  
S33  37899947.135   199165653.286        -628.567          42.000  
S31  36946771.530   194156694.123        -629.230          44.000  
E36  23711938.387   124607080.217         879.104          45.000    23711940.390    95478220.036         673.614          48.000  
G10  20851298.242   109574496.939       -3721.304          46.000    20851296.786    85382723.308       -2899.678          44.000  
E11  21119093.194   110981629.629        -555.979          45.000    21119090.471    85037936.109        -426.046          48.000  
R01  20434735.031   109235542.636        3478.687          47.000    20434733.463    84960828.352        2705.647          41.000  
R22  18712882.453    99890758.437       -1911.740          51.000    18712879.637    77692863.182       -1486.830          51.000  
R07  18902680.578   101187553.648       -3586.682          50.000    18902675.227    78701501.986       -2789.649          49.000  
G27  18994902.363    99818916.551       -2647.955          47.000    18994901.410    77780981.121       -2063.287          47.000  
G08  18320889.056    96277011.234        -374.005          49.000    18320888.727    75021072.670        -291.467          46.000  
E04  22695041.881   119263309.921         -26.839          47.000    22695042.321    91383610.293         -20.603          51.000  
E25  24378593.713   128110321.165       -2853.248          39.000    24378598.082    98162475.867       -2186.101          47.000  
E09  23738600.142   124747239.505        2081.554          46.000    23738601.500    95585524.649        1594.952          49.000  
E19  25685513.115   134978264.582       -2676.037          37.000    25685511.858   103425009.189       -2050.335          39.000  
G32  19714150.007   103598615.589        -873.948          51.000    19714146.989    80726231.751        -681.128          47.000  
E12  24711774.898   129861366.679       -2067.884          40.000    24711771.070    99504248.263       -1584.375          39.000  
E10  23023844.470   120991329.244       -1466.043          48.000    23023844.500    92707845.434       -1123.375          51.000  
R14                                                                  22279308.639                3      -1552.065          14.000  
> 2024 04 16 10 11 00.4940000  0 24                     
G02  20471376.047   107577838.870        1912.685          46.000                                                                  
E02  24847647.011   130575254.690        -926.667          45.000    24847649.055   100051164.117        -710.159          47.000  
G03  21807294.784   114598130.241        2057.744          37.000    21807297.601    89297202.354        1603.689          37.000  
R23  18371230.527    98273847.393        1131.615          49.000                                                                  
R21  22487621.804                3      -3613.425          21.000                                                                  
R08  17391423.845    93130326.730         226.208          49.000    17391419.642    72434749.429         175.932          50.000  
G21  19458262.108   102253864.141        1704.230          47.000                                                                  
S33  37903534.250   199184504.401        -628.489          42.000  
S31  36950362.494   194175565.355        -628.861          44.000  
E36  23706919.073   124580699.019         879.392          45.000    23706920.258    95458005.948         673.781          48.000  
G10  20872550.196   109686173.727       -3724.150          46.000    20872546.582    85469744.173       -2901.934          41.000  
E11  21122272.171   110998335.131        -558.153          45.000    21122269.314    85050736.431        -427.697          47.000  
R01  20415236.538   109131313.619        3469.548          47.000    20415235.822    84879761.301        2698.534          42.000  
R22  18723661.988    99948296.465       -1924.298          52.000    18723659.247    77737614.947       -1496.716          52.000  
R07  18922830.266   101295421.109       -3604.608          50.000    18922825.865    78785398.884       -2803.436          49.000  
G27  19010065.387    99898597.875       -2664.209          48.000    19010063.844    77843070.443       -2076.111          46.000  
G08  18323079.137    96288517.694        -393.280          49.000    18323078.778    75030038.734        -306.464          47.000  
E04  22695233.831   119264316.983         -40.594          47.000    22695233.647    91384381.957         -31.101          50.000  
E25  24394897.572   128195995.767       -2858.651          40.000    24394901.257    98228122.637       -2190.450          47.000  
E09  23726731.264   124684872.023        2075.969          46.000    23726733.312    95537736.562        1590.663          50.000  
E19  25700815.150   135058678.619       -2685.038          37.000    25700814.517   103486625.075       -2057.664          39.000  
G32  19719197.035   103625142.507        -894.734          51.000    19719195.119    80746902.091        -697.177          48.000  
E12  24723584.051   129923429.307       -2069.930          39.000    24723581.529    99551802.757       -1586.383          39.000  
E10  23032221.478   121035349.738       -1468.803          48.000    23032221.328    92741575.390       -1125.484          50.000  
> 2024 04 16 10 11 30.4940000  0 24                     
G02  20460463.762   107520496.794        1910.061          45.000                                                                  
E02  24852974.836   130603250.041        -939.554          45.000    24852976.676   100072615.038        -719.874          47.000  
G03  21795567.156   114536502.082        2050.577          39.000    21795571.223    89249180.458        1598.276          37.000  
R23  18364906.297    98240016.694        1123.690          50.000                                                                  
R21  22507819.237                3      -3600.192          17.000                                                                  
R08  17390231.536    93123934.373         199.938          50.000    17390225.131    72429777.653         155.439          49.000  
G21  19448544.841   102202801.234        1700.083          47.000                                                                  
S33  37907120.378   199203349.444        -627.945          42.000  
S31  36953952.353   194194430.665        -628.794          44.000  
E36  23701896.094   124554307.490         879.910          44.000    23701898.280    95437783.933         674.133          48.000  
G10  20893817.894   109797935.078       -3726.712          47.000    20893814.805    85556830.910       -2903.754          42.000  
E11  21125464.400   111015108.944        -560.173          45.000    21125460.945    85063589.103        -429.138          47.000  
R01  20395789.833   109027364.055        3460.429          47.000    20395789.583    84798911.661        2691.489          41.000  
R22  18734512.742   100006214.867       -1936.910          52.000    18734509.301    77782662.553       -1506.478          52.000  
R07  18943079.907   101403819.387       -3622.046          50.000    18943075.603    78869708.625       -2817.108          49.000  
G27  19025321.570    99978769.451       -2680.341          47.000    19025320.256    77905541.759       -2088.617          46.000  
G08  18325379.460    96300606.562        -412.544          49.000    18325378.427    75039458.600        -321.549          46.000  
E04  22695503.908   119265733.028         -53.922          47.000    22695502.846    91385466.995         -41.300          50.000  
E25  24411232.760   128281835.742       -2863.769          40.000    24411236.494    98293896.127       -2194.555          47.000  
E09  23714895.043   124622670.881        2070.560          47.000    23714897.078    95490075.972        1586.572          51.000  
E19  25716170.191   135139373.492       -2694.582          36.000    25716170.319   103548456.148       -2064.660          39.000  
G32  19724364.233   103652292.271        -915.271          51.000    19724361.652    80768057.738        -712.993          48.000  
E12  24735406.740   129985560.127       -2072.077          39.000    24735405.132    99599409.411       -1587.814          39.000  
E10  23040612.932   121079449.162       -1471.310          48.000    23040612.935    92775365.826       -1127.314          50.000  
> 2024 04 16 10 12 00.4940000  0 24                     
G02  20449567.096   107463235.597        1907.354          44.000                                                                  
E02  24858376.464   130631631.104        -952.432          46.000    24858377.518   100094361.511        -729.801          47.000  
G03  21783883.217   114475093.103        2043.211          40.000    21783884.266    89201329.324        1592.160          38.000  
R23  18358627.047    98206426.106        1115.690          50.000                                                                  
R21  22528049.764                3      -3618.665          15.000                                                                  
R08  17389185.521    93118336.833         173.239          49.000    17389179.666    72425424.051         134.846          49.000  
G21  19438853.187   102151870.619        1695.628          47.000                                                                  
S33  37910705.063   199222187.016        -627.935          42.000  
S31  36957540.657   194213287.565        -628.376          44.000  
E36  23696871.217   124527903.807         880.411          44.000    23696873.876    95417552.599         674.528          49.000  
G10  20915101.398   109909777.002       -3729.347          47.000    20915095.190    85643980.498       -2906.053          40.000  
E11  21128669.694   111031949.524        -562.264          46.000    21128665.602    85076492.933        -430.919          47.000  
R01  20376396.788   108923695.369        3451.051          46.000    20376396.081    84718280.461        2684.050          42.000  
R22  18745433.153   100064512.491       -1949.549          52.000    18745430.294    77828005.086       -1516.217          52.000  
R07  18963429.165   101512742.642       -3639.453          51.000    18963422.390    78954426.706       -2830.652          49.000  
G27  19040670.505   100059428.069       -2696.570          47.000    19040669.157    77968392.587       -2101.196          47.000  
G08  18327791.161    96313276.891        -431.871          50.000    18327788.965    75049331.595        -336.565          46.000  
E04  22695851.198   119267556.678         -67.626          48.000    22695849.840    91386864.329         -51.735          50.000  
E25  24427597.795   128367837.113       -2869.471          39.000    24427601.858    98359793.249       -2198.659          47.000  
E09  23703089.645   124560635.786        2065.086          46.000    23703092.235    95442542.537        1582.379          50.000  
E19  25731579.187   135220345.402       -2703.595          37.000    25731578.752   103610499.511       -2071.342          38.000  
G32  19729648.255   103680062.864        -936.016          50.000    19729646.638    80789697.171        -729.285          48.000  
E12  24747243.584   130047757.660       -2074.434          41.000    24747241.572    99647067.199       -1589.608          40.000  
E10  23049019.114   121123626.133       -1473.867          47.000    23049019.368    92809215.693       -1129.294          50.000  
> 2024 04 16 10 12 30.4940000  0 24                     
G02  20438685.256   107406055.063        1904.600          45.000                                                                  
E02  24863849.335   130660395.767        -965.203          45.000    24863851.533   100116401.913        -739.631          48.000  
G03  21772238.389   114413902.663        2035.894          39.000    21772239.576    89153648.479        1586.307          37.000  
R23  18352393.487    98173076.802        1107.544          51.000                                                                  
R08  17388287.808    93113532.828         146.808          49.000    17388284.103    72421687.657         114.190          50.000  
G21  19429186.946   102101071.272        1691.026          48.000                                                                  
S33  37914287.860   199241015.277        -627.531          42.000  
S31  36961127.373   194232135.895        -628.307          44.000  
E36  23691843.996   124501486.719         880.669          44.000    23691847.027    95397310.972         674.803          49.000  
G10  20936398.879   110021696.126       -3732.024          47.000    20936395.162    85731190.100       -2907.954          40.000  
E11  21131886.857   111048855.991        -564.744          46.000    21131882.936    85089447.237        -432.661          47.000  
R01  20357056.248   108820309.728        3441.334          46.000    20357056.274    84637869.420        2676.730          43.000  
R22  18756425.565   100123188.735       -1962.331          52.000    18756422.494    77873642.149       -1526.259          52.000  
R07  18983873.045   101622185.783       -3656.848          50.000    18983867.284    79039549.177       -2844.177          49.000  
G27  19056111.752   100140570.707       -2712.799          47.000    19056110.532    78031620.573       -2113.867          48.000  
G08  18330312.878    96326528.125        -451.404          50.000    18330310.436    75059657.263        -351.684          46.000  
E04  22696275.529   119269786.961         -81.063          47.000    22696274.501    91388573.270         -62.266          50.000  
E25  24443992.801   128453996.329       -2874.417          38.000    24443997.249    98425811.344       -2202.775          48.000  
E09  23691316.897   124498767.364        2059.401          45.000    23691319.029    95395136.811        1577.939          48.000  
E19  25747039.621   135301591.590       -2713.235          36.000    25747039.894   103672753.031       -2078.883          39.000  
G32  19735050.286   103708452.653        -956.801          49.000    19735048.615    80811819.102        -745.571          48.000  
E12  24759092.153   130110021.057       -2076.684          41.000    24759089.137    99694775.437       -1591.134          38.000  
E10  23057440.173   121167879.810       -1476.575          47.000    23057440.855    92843124.321       -1131.396          50.000  
R14                                                                  22320354.865                3      -1630.306          14.000  
> 2024 04 16 10 13 00.4940000  0 24                     
G02  20427818.825   107348955.184        1902.128          45.000                                                                  
E02  24869395.167   130689542.341        -977.857          44.000    24869398.236   100138734.969        -749.330          48.000  
G03  21760635.455   114352930.347        2028.611          40.000    21760636.911    89106137.612        1580.539          38.000  
R23  18346203.688    98139970.428        1099.423          50.000                                                                  
R21  22568609.917                3      -3628.953          12.000                                                                  
R08  17387539.757    93109521.963         120.511          49.000    17387534.780    72418568.128          93.677          50.000  
G21  19419545.533   102050404.970        1686.636          47.000                                                                  
S33  37917868.868   199259832.795        -626.809          42.000  
S31  36964712.225   194250974.087        -627.930          44.000  
E36  23686814.894   124475055.356         881.200          44.000    23686817.586    95377058.423         675.272          49.000  
G10  20957709.635   110133689.294       -3734.326          46.000    20957705.867    85818457.547       -2909.873          41.000  
E11  21135116.872   111065827.850        -566.896          45.000    21135112.737    85102451.651        -434.372          48.000  
R01  20337768.820   108717209.274        3431.786          46.000    20337769.831    84557680.205        2669.042          43.000  
R22  18767488.374   100182243.427       -1974.708          52.000    18767485.196    77919573.524       -1535.865          51.000  
R07  19004412.182   101732142.960       -3673.822          49.000    19004407.914    79125071.410       -2857.343          47.000  
G27  19071643.955   100222195.139       -2728.833          47.000    19071643.441    78095224.018       -2126.306          48.000  
G08  18332945.217    96340359.891        -470.762          50.000    18332943.034    75070435.229        -366.807          46.000  
E04  22696777.089   119272423.409         -94.606          47.000    22696776.422    91390593.422         -72.636          51.000  
E25  24460416.508   128540310.323       -2879.624          37.000    24460422.408    98491948.000       -2206.438          48.000  
E09  23679575.133   124437066.543        2053.918          46.000    23679577.575    95347859.591        1573.711          49.000  
E19  25762552.607   135383109.403       -2721.710          37.000    25762551.750   103735214.679       -2085.460          38.000  
G32  19740571.218   103737460.559        -977.230          50.000    19740567.992    80834422.658        -761.332          47.000  
E12  24770952.062   130172349.852       -2078.834          41.000    24770948.438    99742533.817       -1592.571          36.000  
E10  23065877.258   121212209.731       -1478.895          48.000    23065876.900    92877091.374       -1133.161          50.000  
> 2024 04 16 10 13 30.4940000  0 23                     
G02  20416970.611   107291945.834        1898.900          45.000                                                                  
E02  24875015.384   130719078.668        -990.969          44.000    24875018.946   100161366.648        -759.292          48.000  
G03  21749075.806   114292185.350        2021.167          41.000    21749076.988    89058803.881        1574.729          39.000  
R23  18340062.482    98107118.224        1090.968          51.000                                                                  
R08  17386939.585    93106312.918          93.606          49.000    17386935.007    72416072.236          72.827          50.000  
G21  19409931.373   101999881.077        1681.860          48.000                                                                  
S33  37921449.472   199278649.226        -627.085          42.000  
S31  36968296.829   194269810.987        -627.701          44.000  
E36  23681783.721   124448618.268         881.579          44.000    23681786.799    95356801.508         675.270          50.000  
G10  20979037.418   110245763.106       -3737.208          47.000    20979033.415    85905787.768       -2912.133          41.000  
E11  21138360.557   111082874.246        -569.494          46.000    21138356.786    85115513.180        -436.386          48.000  
R01  20318537.271   108614406.090        3421.940          45.000    20318538.149    84477722.192        2661.566          43.000  
R22  18778624.164   100241686.070       -1987.885          52.000    18778620.952    77965806.675       -1546.082          51.000  
R07  19025050.895   101842619.099       -3691.077          51.000    19025045.758    79210997.247       -2870.893          49.000  
G27  19087269.790   100304308.331       -2745.147          47.000    19087268.808    78159208.294       -2139.075          47.000  
G08  18335689.729    96354781.730        -490.542          50.000    18335687.852    75081673.034        -382.178          47.000  
E04  22697357.655   119275475.041        -108.434          47.000    22697356.971    91392931.702         -83.135          51.000  
E25  24476872.130   128626785.624       -2885.325          37.000    24476878.031    98558208.258       -2210.738          48.000  
E09  23667867.363   124375543.566        2047.941          45.000    23667869.980    95300718.544        1569.169          48.000  
E19  25778118.077   135464905.737       -2731.031          36.000    25778117.231   103797889.733       -2092.655          39.000  
G32  19746210.833   103767094.917        -998.061          50.000    19746207.757    80857514.373        -777.739          47.000  
E12  24782827.376   130234752.961       -2081.369          41.000    24782822.407    99790349.124       -1594.508          35.000  
E10  23074328.752   121256625.084       -1481.828          48.000    23074328.963    92911123.889       -1135.474          50.000  
> 2024 04 16 10 14 00.4940000  0 23                     
G02  20406140.654   107235028.225        1895.740          46.000                                                                  
E02  24880709.625   130749004.145       -1004.020          44.000    24880713.652   100184296.512        -769.284          48.000  
G03  21737560.627   114231668.393        2013.480          42.000    21737561.161    89011647.789        1568.999          40.000  
R23  18333969.601    98074522.677        1082.234          50.000                                                                  
R08  17386489.589    93103906.237          66.929          49.000    17386485.686    72414200.397          52.115          50.000  
G21  19400344.566   101949501.724        1676.907          48.000                                                                  
S33  37925029.672   199297463.564        -626.964          42.000  
S31  36971880.838   194288645.356        -627.797          44.000  
E36  23676752.174   124422175.758         881.394          44.000    23676754.832    95336540.395         675.408          49.000  
G10  21000379.088   110357915.596       -3739.735          47.000    21000376.922    85993179.271       -2914.016          43.000  
E11  21141618.079   111099995.772        -572.136          46.000    21141614.978    85128632.270        -438.285          48.000  
R01  20299361.938   108511903.634        3411.733          47.000    20299362.528    84397998.091        2653.589          42.000  
R22  18789832.123   100301517.604       -2000.901          52.000    18789828.532    78012342.265       -1556.197          51.000  
R07  19045785.329   101953610.426       -3708.313          52.000    19045780.365    79297323.833       -2884.198          50.000  
G27  19102988.117   100386908.970       -2761.450          47.000    19102987.111    78223572.413       -2151.697          48.000  
G08  18338546.303    96369794.322        -510.267          50.000    18338544.126    75093371.142        -397.532          46.000  
E04  22698017.630   119278942.396        -122.491          47.000    22698016.671    91395588.518         -93.856          51.000  
E25  24493359.879   128713420.160       -2890.529          38.000    24493363.925    98624590.504       -2214.752          48.000  
E09  23656193.845   124314200.509        2041.870          45.000    23656196.847    95253715.408        1564.441          48.000  
E19  25793735.871   135546979.174       -2740.295          36.000    25793735.418   103860777.071       -2099.564          41.000  
G32  19751968.251   103797355.591       -1019.185          49.000    19751965.568    80881094.132        -794.009          46.000  
E12  24794716.076   130297231.141       -2084.010          41.000    24794714.759    99838221.960       -1596.662          39.000  
E10  23082797.474   121301126.454       -1484.775          48.000    23082797.470    92945222.318       -1137.691          50.000  
> 2024 04 16 10 14 30.4940000  0 24                     
G02  20395326.809   107178202.582        1892.686          46.000                                                                  
E02  24886478.169   130779317.359       -1016.909          44.000    24886481.853   100207523.477        -779.309          48.000  
G03  21726087.447   114171379.342        2005.569          42.000    21726088.763    88964669.321        1562.938          41.000  
R23  18327925.093    98042185.704        1073.495          51.000                                                                  
R08  17386190.823    93102301.600          40.098          49.000    17386185.657    72412952.373          31.167          50.000  
G21  19390784.703   101899267.225        1671.943          48.000                                                                  
S33  37928609.692   199316276.130        -627.048          42.000  
S31  36975464.313   194307478.043        -627.755          44.000  
E36  23671719.758   124395727.237         881.713          44.000    23671721.383    95316274.691         675.572          49.000  
G10  21021735.773   110470144.104       -3742.312          47.000    21021732.082    86080630.047       -2916.055          42.000  
E11  21144890.392   111117192.271        -574.303          45.000    21144887.510    85141808.808        -440.102          49.000  
R01  20280243.877   108409704.846        3401.628          47.000    20280242.852    84318510.177        2645.589          41.000  
R22  18801113.740   100361738.057       -2013.905          52.000    18801110.619    78059180.340       -1566.303          51.000  
R07  19066615.564   102065111.677       -3725.208          52.000    19066609.384    79384047.019       -2897.431          49.000  
G27  19118798.431   100469994.774       -2777.557          46.000    19118797.757    78288314.520       -2164.319          47.000  
G08  18341515.871    96385397.895        -530.032          50.000    18341513.305    75105529.771        -413.079          46.000  
E04  22698755.713   119282825.252        -136.337          46.000    22698755.424    91398563.700        -104.435          51.000  
E25  24509876.269   128800211.146       -2895.575          40.000    24509879.708    98691092.691       -2218.810          48.000  
E09  23644555.759   124253038.586        2035.478          47.000    23644558.219    95206851.063        1559.797          50.000  
E19  25809406.395   135629327.551       -2749.617          36.000    25809405.690   103923875.092       -2106.810          41.000  
G32  19757845.461   103828241.628       -1039.988          49.000    19757842.832    80905161.184        -810.250          46.000  
E12  24806618.268   130359784.230       -2086.293          39.000    24806618.551    99886152.171       -1598.585          39.000  
E10  23091281.298   121345713.809       -1487.826          47.000    23091282.259    92979386.621       -1139.899          50.000  
R14                                                                  23255862.047                3      -1710.763          15.000  
