     3.00           OBSERVATION DATA    M: Mixed            RINEX VERSION / TYPE
CONVBIN 2.4.3                           20240416 235942 UTC PGM / RUN BY / DATE 
format: u-blox UBX                                          COMMENT             
log: /home/regis/git/gnsspwv/obsdata/VERT00CHL/2024-04-16/VECOMMENT             
{self.marker}                                               MARKER NAME         
                                                            MARKER NUMBER       
GEODETIC                                                    MARKER TYPE         
{self.observer}     {self.institution}                      OBSERVER / AGENCY   
UNKNOWN             UBLOX-ZED-F9P                           REC # / TYPE / VERS 
UNKNOWN             TWIVSP6037L                             ANT # / TYPE        
  1713381.0000 -5047934.0000 -3490983.0000                  APPROX POSITION XYZ 
        0.0000        0.0000        0.0000                  ANTENNA: DELTA H/E/N
G    8 C1C L1C D1C S1C C2L L2L D2L S2L                      SYS / # / OBS TYPES 
R    8 C1C L1C D1C S1C C2C L2C D2C S2C                      SYS / # / OBS TYPES 
E    8 C1C L1C D1C S1C C7Q L7Q D7Q S7Q                      SYS / # / OBS TYPES 
S    4 C1C L1C D1C S1C                                      SYS / # / OBS TYPES 
  2024    04    16    23    45   00.0110000     GPS         TIME OF FIRST OBS   
  2024    04    16    23    59   30.0110000     GPS         TIME OF LAST OBS    
                                                            END OF HEADER       
> 2024 04 16 23 45 00.0110000  0 26                     
G13  26471543.166   139108711.6801      -4435.508          44.000                                                                  
G15  25184911.713   132347586.3511      -3390.647          47.000    25184915.848   103128016.5421      -2642.371          43.000  
G19  25577446.002   134410881.0461      -3383.624          43.000                                                                  
G24  23836445.354   125261565.9391        214.276          49.000    23836443.988    97606524.9161        167.048          45.000  
R09  23785406.608   127012824.6361        311.669          51.000    23785405.768    98788054.6411        242.480          51.000  
R08  26433005.690   141547486.6461       1842.791          39.000    26433009.981                        1433.332          32.000  
R16  24274676.873   129670979.8841      -2095.801          53.000    24274675.656   100855738.1211      -1630.017          48.000  
R06  25051086.272   133677235.1151      -4323.132          37.000                                                                  
G12  24602089.744   129285080.5891         34.485          49.000    24602086.132   100741929.3791         26.870          44.000  
E08  29171523.480   153297402.2891      -3669.075          46.000    29171537.140   117461674.3811      -2811.340          50.000  
S31  41975961.656   220585152.6061       -758.219          45.000  
S33  42928701.422   225591803.9941       -759.131          43.000  
G11  27707252.778   145602829.9011       1887.755          42.000    27707267.047   113456920.8581       1471.080          43.000  
R19  24478275.162   130942679.9841       2133.690          40.000    24478276.521   101844497.0741       1659.494          48.000  
R07  24193865.211   129511680.0761      -1291.119          49.000    24193864.823   100731331.3871      -1004.211          49.000  
R18  24343136.319   129945416.8111       -944.890          52.000    24343135.732   101068844.8941       -734.830          47.000  
E07  27118101.510   142506747.8791      -1622.601          49.000    27118106.181   109193526.3081      -1243.324          51.000  
E27  28376976.861   149122404.6961        432.908          46.000    28376982.563   114262836.7041        331.675          49.000  
E34  30091468.895   158131998.2891       1363.048          44.000    30091477.798   121166131.4711       1044.174          48.000  
G25  26274689.842   138074614.9191       1143.171          45.000    26274694.067   107590668.4101        891.081          40.000  
G17  27188544.543   142876721.9391      -4197.809          40.000    27188540.314   111333057.6481      -3271.057          34.000  
E30  27005964.167   141917771.9161      -1420.277          49.000    27005965.428   108742460.2941      -1088.344          50.000  
G06  26970612.262   141731692.8901        967.260          44.000    26970614.983   110440366.9781        753.470          44.000  
E02  29793842.270   156567974.0921      -2712.176          38.000    29793842.004   119967862.9361      -2077.920          43.000  
E18  28850986.663   151613432.2121      -5759.710          41.000                                                                  
E36                                                                  30871203.365   124305570.9461       -378.523          37.000  
> 2024 04 16 23 45 30.0110000  0 26                     
G13  26496876.333   139241834.928       -4439.815          44.000                                                                  
G15  25204296.320   132449452.930       -3400.425          46.000    25204299.633   103207392.807       -2649.677          41.000  
G19  25596796.078   134512563.501       -3396.091          42.000                                                                  
G24  23835251.146   125255290.796         203.740          49.000    23835249.909    97601635.221         158.664          46.000  
R09  23783664.408   127003520.480         308.221          51.000    23783662.866    98780818.143         239.653          51.000  
R08  26422739.157   141492490.612        1823.488          40.000    26422732.637                        1418.266          33.000  
R16  24286454.015   129733891.872       -2098.754          52.000    24286452.823   100904669.650       -1632.191          48.000  
R06  25075419.214   133807075.478       -4333.396          37.000                                                                  
G12  24601912.204   129284150.197          27.242          49.000    24601908.935   100741204.499          21.146          44.000  
E08  29192480.655   153407530.856       -3673.022          46.000    29192494.011   117546058.107       -2814.522          50.000  
S31  41980288.244   220607888.659        -757.499          45.000  
S33  42933032.064   225614562.593        -758.546          43.000  
G11  27696475.731   145546200.043        1887.152          44.000    27696489.799   113412795.107        1470.461          43.000  
E36  30874059.732                3       -506.453          25.000    30874061.727   124317083.612        -388.796          35.000  
R19  24466356.071   130878921.149        2116.624          41.000    24466356.235   101794907.107        1646.237          46.000  
R07  24201172.514   129550793.852       -1316.742          50.000    24201171.810   100761753.170       -1024.109          49.000  
R18  24348518.578   129974149.049        -971.118          51.000    24348516.534   101091192.251        -755.090          46.000  
E07  27127400.750   142555615.870       -1635.530          48.000    27127405.759   109230970.584       -1253.319          52.000  
E27  28374515.925   149109470.428         429.083          46.000    28374521.172   114252926.177         328.768          50.000  
E34  30083703.589   158091190.724        1357.188          44.000    30083711.928   121134863.608        1039.910          49.000  
G25  26268173.821   138040378.100        1138.742          43.000    26268179.242   107563990.666         887.564          41.000  
G17  27212528.583   143002760.774       -4204.730          39.000    27212525.406   111431269.809       -3276.978          34.000  
E30  27014079.576   141960415.382       -1422.972          50.000    27014080.061   108775135.193       -1090.397          50.000  
G06  26965121.308   141702838.598         956.060          44.000    26965122.863   110417883.282         744.921          43.000  
E02  29809318.128   156649302.981       -2709.951          38.000    29809317.987   120030179.873       -2076.751          42.000  
E18  28883860.776   151786190.588       -5757.997          40.000                                                                  
> 2024 04 16 23 46 00.0110000  0 26                     
G13  26522234.324   139375087.103       -4444.464          44.000                                                                  
G15  25223735.437   132551609.620       -3410.379          46.000    25223740.179   103286995.121       -2657.427          42.000  
G19  25616213.514   134614607.655       -3408.392          42.000                                                                  
G24  23834116.540   125249328.821         193.053          49.000    23834115.117    97596989.553         150.357          45.000  
R09  23781941.769   126994321.184         304.381          52.000    23781940.095    98773663.205         236.742          51.000  
R08  26412577.533                        1803.540          30.000    26412571.191   110007385.550        1402.581          38.000  
R16  24298246.673   129796890.714       -2101.897          51.000    24298244.628   100953668.774       -1634.938          48.000  
R06  25099807.607   133937213.709       -4343.607          36.000                                                                  
G12  24601775.482   129283433.667          19.834          48.000    24601772.519   100740646.243          15.342          45.000  
E08  29213459.660   153517775.171       -3677.082          46.000    29213473.639   117630530.514       -2817.564          50.000  
S31  41984610.901   220630606.209        -757.338          45.000  
S33  42937359.419   225637303.783        -758.439          43.000  
G11  27685704.524   145489597.722        1885.751          43.000    27685718.067   113368690.782        1469.155          43.000  
E36  30876987.887   162259639.5721       -520.816          33.000    30876994.426   124328890.702        -398.799          37.000  
R19  24454532.760   130815676.562        2098.985          41.000    24454533.661   101745717.092        1632.525          46.000  
R07  24208622.534   129590670.596       -1342.365          50.000    24208621.399   100792768.362       -1043.994          48.000  
R18  24354047.467   130003664.532        -997.395          51.000    24354047.300   101114148.798        -775.624          48.000  
E07  27136774.196   142604871.506       -1648.885          49.000    27136778.916   109268711.873       -1263.316          52.000  
E27  28372075.493   149096646.982         425.199          46.000    28372081.194   114243100.564         325.764          50.000  
E34  30075969.815   158050552.033        1351.250          44.000    30075979.082   121103725.171        1035.380          49.000  
G25  26261681.652   138006264.694        1134.536          44.000    26261688.591   107537409.110         884.093          42.000  
G17  27236552.365   143129007.138       -4211.926          38.000    27236550.146   111529643.636       -3282.880          34.000  
E30  27022208.858   142003135.905       -1425.687          50.000    27022209.647   108807869.128       -1092.436          50.000  
G06  26959694.015   141674320.627         944.401          43.000    26959696.311   110395661.678         735.806          44.000  
E02  29824782.822   156730580.962       -2708.727          35.000    29824784.621   120092457.777       -2075.549          41.000  
E18  28916723.862   151958887.540       -5756.050          40.000                                                                  
> 2024 04 16 23 46 30.0110000  0 26                     
G13  26547619.835   139508480.583       -4448.677          44.000                                                                  
G15  25243233.771   132654069.203       -3420.377          47.000    25243238.049   103366833.483       -2665.281          43.000  
G19  25635702.630   134717026.020       -3420.094          41.000                                                                  
G24  23833044.934   125243697.203         182.215          50.000    23833043.177    97592601.312         142.018          45.000  
R09  23780241.720   126985242.533         300.476          52.000    23780240.046    98766602.090         233.734          51.000  
R08  26402527.747   141384263.122        1783.781          38.000    26402523.405   109965530.687        1386.873          37.000  
R16  24310059.585   129859992.561       -2105.130          52.000    24310058.664   101002747.959       -1637.325          49.000  
R06  25124253.426   134067660.497       -4353.588          37.000                                                                  
G12  24601682.238   129282945.506          12.421          48.000    24601679.520   100740265.928           9.692          45.000  
E08  29234461.842   153628148.824       -3681.310          45.000    29234477.323   117715101.999       -2820.769          50.000  
S31  41988933.356   220653321.139        -757.092          45.000  
S33  42941686.100   225660040.895        -757.905          43.000  
G11  27674940.604   145433041.408        1884.449          45.000    27674953.446   113324622.234        1468.314          42.000  
E36  30879999.927   162275448.842        -533.436          37.000    30880002.588   124341004.393        -408.687          38.000  
R19  24442809.358   130752965.361        2081.319          41.000    24442810.201   101696941.943        1618.932          47.000  
R07  24216216.850   129631324.724       -1368.140          51.000    24216216.795   100824388.215       -1064.124          49.000  
R18  24359725.690   130033978.956       -1023.839          51.000    24359727.295   101137726.741        -796.316          48.000  
E07  27146223.428   142654529.571       -1661.971          48.000    27146228.683   109306761.530       -1273.491          52.000  
E27  28369659.310   149083949.194         421.159          46.000    28369664.777   114233371.250         322.563          50.000  
E34  30068272.844   158010099.811        1345.061          45.000    30068280.426   121072729.606        1030.698          49.000  
G25  26255216.384   137972289.705        1130.090          45.000    26255223.658   107510935.388         880.642          42.000  
G17  27260618.020   143255473.296       -4219.568          37.000    27260616.526   111628188.679       -3287.213          32.000  
E30  27030355.515   142045948.170       -1428.719          50.000    27030356.665   108840673.360       -1094.713          50.000  
G06  26954334.364   141646157.159         932.819          43.000    26954337.715   110373716.280         726.756          44.000  
E02  29840244.223   156811823.208       -2707.382          36.000    29840244.745   120154708.323       -2074.719          41.000  
E18  28949578.427   152131535.698       -5753.994          41.000                                                                  
> 2024 04 16 23 47 00.0110000  0 27                     
G13  26573030.947   139642011.522       -4453.586          43.000                                                                  
G15  25262788.241   132756828.031       -3430.229          47.000    25262793.202   103446904.981       -2673.040          43.000  
G19  25655262.184   134819814.664       -3433.144          39.000                                                                  
G24  23832036.441   125238396.386         170.970          50.000    23832034.681    97588470.833         133.313          45.000  
R09  23778563.714   126976283.182         296.495          51.000    23778562.081    98759633.812         230.651          51.000  
R08  26392592.859   141331051.473        1763.292          39.000    26392583.495   109924143.875        1371.684          37.000  
R16  24321892.009   129923196.347       -2108.741          52.000    24321890.853   101051906.421       -1639.986          49.000  
R06  25148756.045   134198410.038       -4363.498          36.000                                                                  
G12  24601632.179   129282683.610           4.755          49.000    24601629.833   100740061.955           3.744          45.000  
E08  29255490.107   153738648.698       -3685.635          45.000    29255504.580   117799770.192       -2824.026          49.000  
S31  41993254.809   220676030.929        -756.950          45.000  
S33  42946012.071   225682774.334        -757.891          43.000  
G11  27664186.184   145376532.770        1882.612          45.000    27664198.531   113280590.798        1466.831          41.000  
E36  30883084.268   162291657.545        -546.894          39.000    30883087.262   124353424.132        -419.052          39.000  
R19  24431185.861   130690791.074        2063.257          40.000    24431187.484   101648584.406        1604.833          48.000  
R07  24223956.199   129672753.202       -1394.049          50.000    24223956.109   100856610.321       -1084.168          49.000  
R18  24365554.318   130065091.000       -1050.640          51.000    24365553.944   101161925.072        -817.069          47.000  
E07  27155749.608   142704588.072       -1675.526          49.000    27155754.732   109345118.010       -1283.773          53.000  
E27  28367266.066   149071375.230         416.761          46.000    28367271.772   114223736.781         319.425          50.000  
E34  30060610.349   157969834.742        1338.803          46.000    30060618.129   121041877.424        1025.868          49.000  
G25  26248776.998   137938451.414        1125.509          46.000    26248783.853   107484568.201         877.115          43.000  
G17  27284724.266   143382154.861       -4226.756          35.000    27284723.973                       -3293.817          31.000  
E30  27038519.368   142088850.038       -1431.777          50.000    27038520.668   108873546.248       -1097.091          50.000  
G06  26949043.206   141618349.584         920.720          42.000    26949046.300   110352048.212         717.602          45.000  
E02  29855698.361   156893028.055       -2706.391          36.000    29855697.382   120216930.303       -2073.899          39.000  
E18  28982422.929   152304131.003       -5752.556          41.000                                                                  
R17                                                                  27110615.448                3      -3076.164          12.000  
> 2024 04 16 23 47 30.0110000  0 27                     
G13  26598467.697   139775677.961       -4457.932          44.000                                                                  
G15  25282399.361   132859883.830       -3440.137          47.000    25282404.402   103527207.883       -2680.631          43.000  
G19  25674893.229   134922971.995       -3444.798          42.000                                                                  
G24  23831091.288   125233428.948         159.830          50.000    23831088.820    97584600.121         124.540          44.000  
R09  23776908.109   126967444.032         292.572          51.000    23776906.665    98752758.968         227.532          51.000  
R08  26382764.140   141278446.275        1743.036          35.000    26382762.919   109883228.723        1355.920          38.000  
R16  24333743.535   129986503.207       -2112.114          52.000    24333741.343   101101145.099       -1642.612          49.000  
R06  25173315.351   134329458.496       -4373.098          37.000                                                                  
R10  26532137.830                3       1513.688          14.000                                                                  
G12  24601627.060   129282648.617          -2.720          49.000    24601623.853   100740034.801          -2.164          46.000  
E08  29276542.230   153849273.819       -3689.578          45.000    29276556.218   117884534.365       -2827.176          48.000  
S31  41997575.800   220698737.571        -756.960          45.000  
S33  42950337.592   225705503.711        -757.882          43.000  
G11  27653442.317   145320075.679        1880.963          46.000    27653454.026   113236599.516        1465.571          41.000  
E36  30886243.346   162308267.089        -560.337          38.000    30886248.114   124366151.031        -429.342          40.000  
R19  24419664.679   130629158.624        2045.120          42.000    24419666.505   101600648.298        1590.766          47.000  
R07  24231840.252   129714955.446       -1419.733          51.000    24231839.718   100889434.216       -1104.212          49.000  
R18  24371531.429   130097001.802       -1077.140          50.000    24371532.260   101186744.668        -837.876          47.000  
E07  27165351.403   142755047.141       -1688.575          48.000    27165356.428   109383781.437       -1293.888          52.000  
E27  28364897.171   149058925.313         412.815          46.000    28364902.291   114214197.353         316.323          50.000  
E34  30052983.805   157929759.758        1332.468          45.000    30052992.362   121011170.913        1020.970          50.000  
G25  26242364.353   137904750.261        1121.063          47.000    26242369.460   107458307.851         873.543          42.000  
G17  27308870.712   143509049.946       -4233.056          32.000    27308871.482                       -3298.516          29.000  
E30  27046700.557   142131841.606       -1434.706          49.000    27046701.753   108906487.857       -1099.202          50.000  
G06  26943819.095   141590901.424         908.843          42.000    26943823.332   110330660.237         708.061          45.000  
E02  29871143.399   156974196.154       -2705.547          32.000    29871144.518   120279124.110       -2072.864          40.000  
E18  29015257.782   152476671.414       -5750.522          42.000                                                                  
> 2024 04 16 23 48 00.0110000  0 26                     
G13  26623930.976   139909486.652       -4462.988          43.000                                                                  
G15  25302069.125   132963243.820       -3450.467          47.000    25302074.127   103607747.835       -2688.984          44.000  
G19  25694595.423   135026504.924       -3457.732          43.000                                                                  
G24  23830211.384   125228806.158         148.310          49.000    23830208.762    97580997.980         115.355          44.000  
R09  23775277.215   126958734.857         287.895          51.000    23775275.424    98745985.226         224.042          51.000  
R08  26373055.193   141226459.844        1721.981          35.000    26373055.681   109842794.861        1339.795          39.000  
R16  24345615.585   130049922.730       -2116.076          52.000    24345614.556   101150471.362       -1645.842          51.000  
R06  25197931.936   134460811.097       -4383.705          36.000                                                                  
G12  24601664.135   129282848.623         -10.646          48.000    24601662.002   100740190.739          -8.538          46.000  
E08  29297619.673   153960031.909       -3694.313          45.000    29297633.596   117969400.380       -2830.641          49.000  
S31  42001897.641   220721450.016        -757.289          44.000  
S33  42954663.492   225728238.276        -758.218          43.000  
G11  27642710.349   145263682.657        1878.439          46.000    27642722.510   113192658.084        1463.696          43.000  
E36  30889484.486   162325287.531        -574.374          40.000    30889487.278   124379192.709        -440.164          41.000  
R19  24408247.693   130568082.157        2026.391          41.000    24408247.430   101553144.646        1575.911          46.000  
R07  24239870.926   129757939.714       -1445.966          52.000    24239869.409   100922866.337       -1124.701          49.000  
R18  24377660.715   130129720.980       -1104.286          50.000    24377662.033   101212192.931        -858.867          47.000  
E07  27175031.304   142805915.662       -1702.546          48.000    27175036.169   109422758.606       -1304.576          52.000  
E27  28362552.854   149046608.399         408.221          46.000    28362558.183   114204759.827         312.778          49.000  
E34  30045396.337   157889886.498        1325.451          45.000    30045404.118   120980618.958        1015.655          49.000  
G25  26235978.760   137871195.357        1115.898          46.000    26235983.508   107432161.480         869.436          42.000  
G17  27333058.160                       -4241.536          30.000    27333057.967                       -3304.567          25.000  
E30  27054900.130   142174931.645       -1438.137          49.000    27054901.290   108939504.948       -1102.013          50.000  
G06  26938667.725   141563824.942         896.092          42.000    26938670.730   110309561.847         698.370          44.000  
E02  29886582.940   157055336.917       -2703.918          32.000    29886585.605   120341296.852       -2072.198          41.000  
E18  29048082.062   152649163.857       -5749.050          42.000                                                                  
> 2024 04 16 23 48 30.0110000  0 26                     
G13  26649422.836   140043443.033       -4467.821          43.000                                                                  
G15  25321796.911   133066912.947       -3460.990          46.000    25321801.925   103688528.639       -2696.699          44.000  
G19  25714369.175   135130418.258       -3470.061          43.000                                                                  
G24  23829398.792   125224537.987         136.187          49.000    23829397.034    97577672.131         106.041          45.000  
R09  23773671.484   126950163.936         283.158          50.000    23773669.746    98739319.052         220.287          51.000  
R08  26363467.439   141175103.179        1701.038          36.000    26363463.946   109802850.848        1322.887          37.000  
R16  24357510.340   130113464.042       -2120.186          52.000    24357509.429   101199892.323       -1649.076          50.000  
R06  25222606.067   134592471.114       -4393.733          36.000                                                                  
G12  24601747.974   129283290.631         -18.958          48.000    24601745.539   100740535.214         -14.639          46.000  
E08  29318723.728   154070929.211       -3698.856          47.000    29318737.375   118054373.099       -2834.227          49.000  
S31  42006222.240   220744176.024        -757.727          45.000  
S33  42958992.499   225750987.605        -758.666          43.000  
G11  27631991.914   145207364.882        1875.766          45.000    27632004.577   113148775.323        1461.516          43.000  
E36  30892800.710   162342727.444        -588.375          40.000    30892805.886   124392555.840        -451.153          41.000  
R19  24396936.328   130507574.368        2007.138          41.000    24396935.609   101506083.270        1561.132          47.000  
R07  24248048.035   129801712.540       -1472.302          52.000    24248046.086   100956911.782       -1145.123          48.000  
R18  24383943.264   130163256.763       -1131.713          50.000    24383943.588   101238276.391        -880.200          48.000  
E07  27184790.849   142857201.097       -1716.554          48.000    27184795.339   109462055.219       -1315.222          52.000  
E27  28360234.831   149034432.083         403.581          45.000    28360240.822   114195430.073         309.084          49.000  
E34  30037848.823   157850225.218        1318.495          45.000    30037856.268   120950229.418        1010.180          49.000  
G25  26229622.559   137837794.483        1110.566          46.000    26229626.810   107406135.103         865.536          41.000  
G17  27357289.352   143763506.093       -4248.449          29.000    27357270.483                3      -3313.982          23.000  
E30  27063120.134   142218127.539       -1441.756          49.000    27063121.109   108972603.131       -1104.722          50.000  
G06  26933587.391   141537130.906         883.306          43.000    26933591.189   110288761.505         688.330          44.000  
E02  29902021.359   157136458.074       -2703.951          37.000    29902021.677   120403454.662       -2071.843          39.000  
E18  29080896.719   152821613.662       -5747.679          40.000                                                                  
> 2024 04 16 23 49 00.0110000  0 26                     
G13  26674944.912   140177553.834       -4473.233          43.000                                                                  
G15  25341585.538   133170898.045       -3471.603          48.000    25341589.649   103769555.683       -2704.896          43.000  
G19  25734217.070   135234719.234       -3483.274          44.000                                                                  
G24  23828656.281   125220635.705         123.686          49.000    23828655.224    97574631.381          96.446          46.000  
R09  23772093.912   126941741.160         278.087          51.000    23772093.099    98732768.078         216.283          51.000  
R08  26353997.928   141124389.180        1679.407          39.000    26353993.606   109763406.707        1306.447          37.000  
R16  24369430.584   130177136.925       -2124.887          53.000    24369429.000   101249415.669       -1652.595          50.000  
R06  25247338.875   134724443.874       -4404.837          36.000                                                                  
G12  24601879.325   129283983.622         -27.432          48.000    24601877.407   100741075.302         -21.526          46.000  
E08  29339854.835   154181973.506       -3703.978          46.000    29339869.246   118139458.442       -2838.207          49.000  
S31  42010551.314   220766925.922        -758.833          45.000  
S33  42963325.590   225773760.244        -759.883          43.000  
G11  27621290.558   145151134.942        1872.700          45.000    27621302.598   113104960.940        1459.105          44.000  
E36  30896201.874   162360596.951        -603.169          40.000    30896206.525   124406248.074        -462.252          38.000  
R19  24385733.164   130447648.897        1987.348          41.000    24385734.509   101459474.814        1545.901          48.000  
R07  24256372.688   129846281.504       -1499.133          51.000    24256372.470   100991576.476       -1165.912          48.000  
R18  24390380.868   130197618.746       -1159.491          50.000    24390380.147   101265002.493        -901.795          47.000  
E07  27194631.164   142908912.264       -1730.913          48.000    27194635.274   109501678.037       -1326.291          51.000  
E27  28357947.565   149022405.372         398.151          46.000    28357952.024   114186214.941         305.136          49.000  
E34  30030343.320   157810787.508        1310.577          45.000    30030350.853   120920011.174        1004.251          48.000  
G25  26223297.227   137804556.734        1105.021          45.000    26223302.548   107380235.856         861.140          42.000  
G17  27381565.266   143891078.590       -4256.252          28.000    27381552.545                3      -3317.484          19.000  
E30  27071362.040   142261438.104       -1445.793          49.000    27071362.637   109005789.176       -1107.858          50.000  
G06  26928583.311   141510831.620         869.732          44.000    26928586.016   110268268.757         677.758          42.000  
E02  29917455.347   157217568.986       -2703.565          35.000    29917456.260   120465604.599       -2071.631          38.000  
E18  29113707.196   152994027.695       -5746.762          42.000                                                                  
> 2024 04 16 23 49 30.0110000  0 26                     
G13  26700494.905   140311812.462       -4477.792          42.000                                                                  
G15  25361431.929   133275192.126       -3481.530          48.000    25361436.651   103850823.475       -2712.979          43.000  
G19  25754137.533   135339401.045       -3495.898          45.000                                                                  
G24  23827982.841   125217097.076         111.844          50.000    23827982.109    97571874.019          87.168          46.000  
R09  23770544.186   126933462.429         273.538          52.000    23770542.947    98726329.116         212.729          51.000  
R08  26344648.779   141074317.065        1658.356          38.000    26344644.677   109724461.735        1289.577          36.000  
R16  24381373.590   130240937.874       -2128.806          52.000    24381373.576   101299038.599       -1655.696          49.000  
R06  25272127.655   134856720.480       -4414.418          37.000                                                                  
G12  24602057.826   129284922.820         -35.282          47.000    24602056.135   100741807.222         -27.482          45.000  
E08  29361013.452   154293159.035       -3708.351          45.000    29361027.681   118224651.981       -2841.462          49.000  
S31  42014884.322   220789695.628        -759.292          45.000  
S33  42967662.948   225796552.977        -759.949          43.000  
G11  27610606.400   145094991.948        1869.908          43.000    27610618.463   113061214.324        1457.091          45.000  
E36  30899683.276   162378892.570        -616.913          39.000    30899688.444   124420266.858        -472.704          37.000  
R19  24374639.192   130388306.488        1968.349          41.000    24374640.204   101413319.868        1530.929          48.000  
R07  24264845.925   129891641.241       -1525.171          51.000    24264846.269   101026856.199       -1186.206          48.000  
R18  24396971.565   130232802.881       -1186.540          50.000    24396971.345   101292368.011        -922.868          46.000  
E07  27204552.161   142961044.490       -1744.663          48.000    27204556.017   109541623.471       -1336.858          51.000  
E27  28355686.390   149010523.735         393.871          47.000    28355690.845   114177110.989         301.587          49.000  
E34  30022879.922   157771571.519        1303.576          44.000    30022888.417   120889962.839         998.728          49.000  
G25  26217002.202   137771477.795        1099.916          45.000    26217006.862   107354460.337         857.054          42.000  
G17  27405871.594                3      -4264.236          26.000    27405879.559                3      -3314.935          17.000  
E30  27079624.631   142304858.630       -1449.026          50.000    27079625.128   109039059.492       -1110.368          49.000  
G06  26923652.933   141484925.653         857.109          43.000    26923655.230   110248082.478         667.838          41.000  
E02  29932888.107   157298665.506       -2702.694          37.000    29932887.786   120527743.490       -2071.062          38.000  
E18  29146507.233   153166399.284       -5744.889          41.000                                                                  
> 2024 04 16 23 50 00.0110000  0 26                     
G13  26726068.555   140446196.461       -4481.409          42.000                                                                  
G15  25381332.672   133379773.156       -3490.692          48.000    25381337.922   103932314.895       -2719.950          44.000  
G19  25774125.574   135444441.331       -3507.442          44.000                                                                  
G24  23827375.782   125213904.313         100.800          50.000    23827373.844    97569386.166          78.435          46.000  
R09  23769016.587   126925307.688         269.712          51.000    23769015.006    98719986.580         209.856          51.000  
R08  26335411.831   141024869.414        1637.223          34.000    26335409.970   109686002.371        1273.559          35.000  
R16  24393337.305   130304847.326       -2132.072          52.000    24393336.763   101348745.946       -1658.333          49.000  
R06  25296969.367   134989276.648       -4423.168          35.000                                                                  
G12  24602279.856   129286088.436         -42.512          48.000    24602277.357   100742715.576         -33.169          45.000  
E08  29382193.761   154404464.350       -3712.069          45.000    29382209.051   118309937.312       -2844.410          49.000  
S31  42019216.981   220812464.701        -759.011          45.000  
S33  42971999.906   225819344.695        -759.395          43.000  
G11  27599934.892   145038919.307        1868.079          43.000    27599946.604   113017522.486        1455.399          44.000  
E36  30903242.139   162397595.134        -630.139          38.000    30903246.359   124434597.475        -482.699          35.000  
R19  24363650.615   130329530.738        1949.619          41.000    24363651.116   101367605.608        1516.426          47.000  
R07  24273463.416   129937770.177       -1550.397          52.000    24273463.960   101062734.212       -1205.756          49.000  
R18  24403712.937   130268789.016       -1212.816          49.000    24403713.499   101320357.300        -943.388          48.000  
E07  27214548.336   143013577.473       -1757.662          48.000    27214552.912   109581875.985       -1346.839          52.000  
E27  28353449.230   148998767.013         389.906          46.000    28353453.642   114168102.702         298.778          50.000  
E34  30015456.570   157732559.688        1297.095          45.000    30015464.401   120860070.900         993.874          48.000  
G25  26210734.325   137738537.627        1095.398          46.000    26210738.449   107328792.904         853.702          41.000  
G17  27430266.014   144146909.8101      -4269.745          28.000    27430242.771                3      -3329.134          21.000  
E30  27087904.116   142348368.772       -1451.810          49.000    27087904.637   109072398.471       -1112.476          49.000  
G06  26918793.641   141459396.164         844.762          42.000    26918797.269   110228189.586         658.232          41.000  
E02  29948313.330   157379727.650       -2701.360          37.000    29948313.597   120589856.110       -2070.100          38.000  
E18  29179296.257   153338706.184       -5742.283          42.000                                                                  
> 2024 04 16 23 50 30.0110000  0 26                     
G13  26751662.689   140580687.871       -4484.628          43.000                                                                  
G15  25401284.634   133484622.567       -3499.685          47.000    25401291.168   104014015.396       -2726.917          45.000  
G19  25794178.469   135549822.191       -3518.465          45.000                                                                  
G24  23826831.199   125211043.716          89.690          50.000    23826829.474    97567157.147          69.854          46.000  
R09  23767509.850   126917262.031         266.284          51.000    23767508.569    98713728.923         207.097          51.000  
R08  26326290.706   140976033.675        1617.467          35.000    26326290.141   109648019.067        1258.219          37.000  
R16  24405318.245   130368849.959       -2135.087          52.000    24405318.613   101398525.753       -1660.638          49.000  
R06  25321860.522   135122091.933       -4431.879          36.000                                                                  
G12  24602542.128   129287463.812         -49.489          48.000    24602538.719   100743787.377         -38.477          45.000  
E08  29403394.224   154515872.264       -3715.316          45.000    29403410.109   118395301.230       -2846.874          50.000  
S31  42023546.920   220835218.649        -758.314          44.000  
S33  42976333.986   225842120.673        -759.235          43.000  
G11  27589275.211   144982904.733        1865.906          43.000    27589285.384   112973875.826        1454.053          43.000  
E36  30906876.209   162416689.769        -643.056          37.000    30906878.948   124449228.472        -492.989          33.000  
R19  24352767.759   130271310.539        1931.274          42.000    24352768.429   101322323.488        1502.144          48.000  
R07  24282221.793   129984650.767       -1575.281          52.000    24282221.215   101099196.799       -1225.250          49.000  
R18  24410601.229   130305561.434       -1238.953          50.000    24410602.780   101348958.123        -963.539          48.000  
E07  27224618.109   143066494.997       -1770.390          48.000    27224622.898   109622423.160       -1356.476          52.000  
E27  28351232.637   148987119.231         386.332          46.000    28351237.178   114159177.905         296.088          50.000  
E34  30008067.382   157693738.725        1290.660          43.000    30008077.034   120830325.209         988.970          49.000  
G25  26204489.226   137705720.425        1091.830          46.000    26204493.174   107303221.335         850.689          41.000  
G17  27454654.114                       -4276.472          26.000    27454638.733                3      -3335.609          22.000  
E30  27096197.515   142391952.450       -1454.195          49.000    27096198.384   109105793.793       -1114.164          49.000  
G06  26914004.277   141434230.337         832.660          42.000    26914006.984   110208579.977         648.938          40.000  
E02  29963726.399   157460740.028       -2699.911          34.000    29963729.827   120651930.504       -2068.471          37.000  
E18  29212070.025   153510930.292       -5739.497          42.000                                                                  
> 2024 04 16 23 51 00.0110000  0 26                     
G13  26777276.373   140715282.698       -4488.092          44.000                                                                  
G15  25421287.568   133589736.370       -3508.264          47.000    25421294.304   104095921.908       -2733.640          45.000  
G19  25814296.059   135655539.379       -3529.408          46.000                                                                  
G24  23826349.907   125208515.761          78.802          50.000    23826348.623    97565187.320          61.333          46.000  
R09  23766023.020   126909323.836         262.803          51.000    23766021.453    98707554.830         204.399          50.000  
R08  26317275.265                3       1605.650          22.000    26317284.937   109610512.649        1242.088          39.000  
R16  24417317.728   130432944.570       -2138.046          52.000    24417316.632   101448377.120       -1662.866          49.000  
R06  25346797.232   135255160.214       -4439.505          33.000                                                                  
G12  24602842.951   129289046.553         -56.053          47.000    24602839.567   100745020.794         -43.970          45.000  
E08  29424613.897   154627379.624       -3718.506          45.000    29424629.759   118480741.325       -2849.233          50.000  
S31  42027873.471   220857955.118        -757.589          44.000  
S33  42980665.049   225864880.377        -758.353          43.000  
G11  27578626.241   144926949.919        1864.201          43.000    27578636.027   112930275.708        1452.652          43.000  
E36  30910583.620   162436175.554        -655.891          37.000    30910585.876   124464159.154        -502.882          31.000  
R19  24341988.566   130213648.755        1912.587          43.000    24341988.780   101277475.669        1487.800          48.000  
R07  24291119.486   130032279.556       -1600.011          52.000    24291118.791   101136241.352       -1244.439          48.000  
R18  24417636.785   130343118.354       -1265.020          49.000    24417638.305   101378169.157        -983.854          48.000  
E07  27234760.673   143119795.035       -1782.926          48.000    27234765.441   109663263.428       -1366.108          52.000  
E27  28349035.883   148975578.504         382.987          45.000    28349041.099   114150335.145         293.427          50.000  
E34  30000717.560   157655109.388        1284.535          43.000    30000726.145   120800726.346         984.245          49.000  
G25  26198267.094   137673024.475        1087.746          46.000    26198270.334   107277744.228         847.698          41.000  
E30  27104504.871   142435607.544       -1456.312          49.000    27104505.891   109139243.848       -1115.896          49.000  
G06  26909285.443   141409429.492         820.604          44.000    26909288.872   110189254.819         639.712          42.000  
E02  29979133.352   157541700.958       -2697.792          36.000    29979135.745   120713965.473       -2067.102          37.000  
E18  29244826.603   153683067.725       -5736.370          42.000                                                                  
G17                                                                  27479068.182                3      -3328.351          20.000  
> 2024 04 16 23 51 30.0110000  0 26                     
G13  26802910.219   140849982.705       -4491.975          44.000                                                                  
G15  25441341.893   133695116.451       -3517.110          48.000    25441347.556   104178035.926       -2740.658          45.000  
G19  25834478.377   135761594.518       -3540.882          46.000                                                                  
G24  23825932.779   125206326.883          67.144          49.000    23825932.002    97563481.708          52.368          46.000  
R09  23764558.010   126901497.930         258.887          52.000    23764555.717    98701468.077         201.293          51.000  
R08  26308401.614   140880332.5311       1576.650          35.000    26308394.514   109573489.322        1226.127          39.000  
R16  24429334.459   130497136.297       -2141.448          52.000    24429333.751   101498304.059       -1665.606          49.000  
R06  25371783.520   135388481.789       -4448.505          33.000                                                                  
G12  24603183.488   129290840.703         -63.530          46.000    24603180.546   100746418.949         -49.661          44.000  
E08  29445853.729   154738989.315       -3722.127          46.000    29445868.757   118566259.830       -2851.958          49.000  
S31  42032197.658   220880680.033        -757.420          44.000  
S33  42984993.761   225887628.122        -758.104          43.000  
G11  27567990.532   144871062.652        1861.644          43.000    27568000.212   112886728.230        1450.549          43.000  
E36  30914368.743   162456057.704        -669.590          39.000    30914370.044   124479393.447        -512.612          32.000  
R19  24331315.000   130156554.763        1893.322          42.000    24331315.316   101233069.488        1472.644          48.000  
R07  24300157.211   130080659.466       -1625.239          52.000    24300157.195   101173870.071       -1264.021          48.000  
R18  24424820.281   130381464.338       -1291.446          49.000    24424821.912   101407993.916       -1004.525          48.000  
E07  27244977.176   143173481.518       -1796.092          48.000    27244981.776   109704399.787       -1376.145          52.000  
E27  28346861.809   148964149.002         378.864          46.000    28346866.435   114141577.610         290.410          51.000  
E34  29993403.813   157616678.439        1277.579          43.000    29993412.834   120771279.516         978.989          49.000  
G25  26192068.651   137640454.092        1083.373          46.000    26192071.926   107252364.967         844.414          41.000  
E30  27112826.533   142479338.098       -1459.032          49.000    27112827.854   109172751.716       -1117.998          50.000  
G06  26904636.884   141385000.976         807.977          43.000    26904639.632   110170219.801         629.583          41.000  
E02  29994534.467   157622614.970       -2696.384          38.000    29994533.242   120775964.496       -2066.099          37.000  
E18  29277567.280   153855120.507       -5733.745          43.000                                                                  
G17                                                                  27503541.582                3      -3346.969          22.000  
> 2024 04 16 23 52 00.0110000  0 26                     
G13  26828565.535   140984795.005       -4495.773          45.000                                                                  
G15  25461447.397   133800770.314       -3526.445          47.000    25461452.384   104260363.270       -2747.671          44.000  
G19  25854726.073   135867995.876       -3552.519          45.000                                                                  
G24  23825583.674   125204489.005          55.444          50.000    23825582.311    97562049.611          43.083          46.000  
R09  23763115.922   126893794.952         254.558          52.000    23763113.468    98695476.956         197.978          51.000  
R08  26299630.463   140833365.556        1555.128          35.000    26299623.184   109536959.412        1209.574          39.000  
R16  24441372.051   130561436.202       -2145.246          52.000    24441371.321   101548315.066       -1668.380          49.000  
R06  25396815.938   135522062.310       -4457.109          33.000                                                                  
G12  24603567.186   129292856.062         -70.931          47.000    24603564.491   100747989.453         -55.199          45.000  
E08  29467114.347   154850709.715       -3725.828          46.000    29467128.717   118651863.170       -2854.841          49.000  
S31  42036521.641   220903402.234        -757.485          44.000  
S33  42989321.799   225910372.491        -758.278          43.000  
G11  27557370.443   144815256.214        1858.673          44.000    27557379.995   112843243.697        1448.378          43.000  
E36  30918230.364   162476346.713        -683.049          41.000    30918231.373   124494939.640        -523.082          34.000  
R19  24320750.479   130100042.667        1874.192          42.000    24320750.244   101189115.858        1457.515          47.000  
R07  24309336.794   130129799.178       -1650.723          52.000    24309335.757   101212089.734       -1283.855          47.000  
R18  24432154.569   130420609.354       -1318.228          51.000    24432154.862   101438440.125       -1025.229          48.000  
E07  27255268.232   143227563.853       -1809.375          48.000    27255273.395   109745839.467       -1386.337          52.000  
E27  28344709.437   148952840.333         374.943          46.000    28344714.523   114132912.670         287.239          51.000  
E34  29986131.514   157578458.141        1270.458          44.000    29986140.082   120741994.092         973.453          50.000  
G25  26185895.870   137608019.079        1078.905          46.000    26185899.201   107227091.204         840.646          41.000  
E30  27121164.285   142523153.610       -1461.961          49.000    27121165.809   109206324.670       -1120.269          50.000  
G06  26900062.028   141360957.578         794.859          44.000    26900063.453   110151484.825         619.439          41.000  
E02  30009918.883   157703492.131       -2695.497          34.000    30009923.623   120837935.263       -2065.272          36.000  
E18  29310292.323   154027096.284       -5731.171          42.000                                                                  
G17                                                                  27528040.596                3      -3341.151          20.000  
> 2024 04 16 23 52 30.0110000  0 26                     
G13  26854241.946   141119720.170       -4499.410          44.000                                                                  
G15  25481605.447   133906697.973       -3535.479          48.000    25481610.654   104342903.974       -2754.880          44.000  
G19  25875038.618   135974743.012       -3563.986          44.000                                                                  
G24  23825301.718   125203006.657          43.338          50.000    23825300.312    97560894.542          33.812          46.000  
R09  23761696.372   126886217.507         250.290          51.000    23761694.654    98689583.452         194.786          51.000  
R08  26290978.696   140787037.879        1533.598          38.000    26290972.527   109500926.828        1192.716          38.000  
R16  24453430.338   130625847.393       -2148.967          52.000    24453429.228   101598412.630       -1671.540          49.000  
R06  25421895.217                       -4465.395          30.000                                                                  
G12  24603993.410   129295094.269         -78.390          47.000    24603991.132   100749733.626         -61.218          46.000  
E08  29488395.666   154962541.790       -3729.638          46.000    29488410.474   118737552.066       -2857.699          49.000  
S31  42040845.626   220926125.551        -757.650          44.000  
S33  42993649.834   225933118.484        -758.369          43.000  
G11  27546766.507   144759536.366        1855.858          45.000    27546776.171   112799826.727        1445.946          44.000  
E36  30922167.659   162497045.851        -697.022          41.000    30922170.291   124510800.075        -534.236          37.000  
R19  24310296.148   130044119.459        1854.015          41.000    24310295.764   101145620.211        1441.925          47.000  
R07  24318658.732   130179699.334       -1676.062          52.000    24318657.767   101250900.911       -1303.751          48.000  
R18  24439638.310   130460556.099       -1344.949          51.000    24439637.404   101469509.884       -1046.204          46.000  
E07  27265635.654   143282044.017       -1822.647          48.000    27265640.443   109787583.972       -1396.658          52.000  
E27  28342580.780   148941654.748         370.858          46.000    28342586.058   114124342.025         284.104          51.000  
E34  29978900.219   157540453.370        1263.271          45.000    29978907.131   120712873.812         967.859          48.000  
G25  26179749.681   137575721.816        1074.225          46.000    26179752.955   107201924.740         836.840          42.000  
E30  27129519.057   142567056.119       -1464.939          49.000    27129519.875   109239964.284       -1122.536          50.000  
G06  26895560.385   141337304.650         781.938          42.000    26895562.064   110133054.148         609.271          41.000  
E02  30025306.335   157784335.024       -2694.537          38.000    30025307.597   120899879.768       -2064.416          37.000  
E18  29343004.200   154198995.212       -5728.781          43.000                                                                  
G17                                                                  27552559.410                3      -3357.644          19.000  
> 2024 04 16 23 53 00.0110000  0 26                     
G13  26879940.314   141254758.499       -4503.377          44.000                                                                  
G15  25501815.125   134012899.242       -3544.800          47.000    25501820.086   104425657.849       -2761.900          44.000  
G19  25895417.122   136081836.503       -3575.709          44.000                                                                  
G24  23825088.284   125201884.648          31.156          50.000    23825087.055    97560020.268          24.167          46.000  
R09  23760302.430   126878769.529         245.847          52.000    23760299.416    98683790.625         191.270          50.000  
R08  26282447.635   140741356.162        1511.634          41.000    26282442.755   109465396.611        1175.937          38.000  
R16  24465508.680   130690373.442       -2153.046          51.000    24465507.255   101648599.526       -1674.564          48.000  
R06  25447024.623   135789993.401       -4474.550          31.000                                                                  
G12  24604461.901   129297557.522         -86.138          47.000    24604460.209   100751653.131         -67.067          47.000  
E08  29509698.269   155074486.831       -3733.509          45.000    29509713.673   118823327.513       -2860.834          49.000  
S31  42045170.497   220948852.860        -757.946          44.000  
S33  42997979.099   225955867.452        -758.732          43.000  
G11  27536180.765   144703909.402        1852.489          46.000    27536190.818   112756482.032        1443.557          44.000  
E36  30926184.633   162518158.565        -710.872          41.000    30926188.910   124526977.374        -544.553          39.000  
R19  24299952.988   129988792.518        1833.793          41.000    24299953.932   101102588.370        1426.430          49.000  
R07  24328122.959   130230361.251       -1701.709          52.000    24328122.323   101290304.538       -1323.502          48.000  
R18  24447270.934   130501307.130       -1372.063          50.000    24447272.303   101501205.153       -1067.120          48.000  
E07  27276078.846   143336924.348       -1836.246          48.000    27276083.693   109829635.097       -1407.016          52.000  
E27  28340475.329   148930594.773         366.298          45.000    28340480.845   114115867.622         280.720          51.000  
E34  29971710.059   157502669.273        1255.544          45.000    29971716.071   120683922.589         962.034          47.000  
G25  26173631.075   137543564.977        1069.395          46.000    26173634.411   107176867.675         833.113          42.000  
E30  27137889.793   142611048.004       -1468.103          49.000    27137890.980   109273672.385       -1124.934          50.000  
G06  26891134.275   141314047.910         768.443          42.000    26891137.326   110114932.126         598.827          43.000  
E02  30040685.430   157865146.392       -2693.587          38.000    30040686.669   120961800.198       -2063.717          39.000  
E18  29375700.315   154370817.798       -5726.360          42.000                                                                  
G17                                                                  27577125.063                3      -3356.511          19.000  
> 2024 04 16 23 53 30.0110000  0 25                     
G13  26905658.303   141389903.810       -4506.672          45.000                                                                  
G15  25522075.151   134119368.141       -3553.381          47.000    25522080.835   104508620.309       -2769.010          44.000  
G19  25915860.345   136189269.877       -3586.743          44.000                                                                  
G24  23824942.668   125201121.188          19.544          49.000    23824941.575    97559425.372          15.179          46.000  
R09  23758930.054   126871447.436         241.907          50.000    23758927.827    98678095.751         188.202          50.000  
R08  26274034.986   140696319.292        1490.703          41.000    26274033.458   109430368.059        1159.929          37.000  
R16  24477609.883   130755011.035       -2156.528          51.000    24477607.967   101698873.198       -1677.340          49.000  
R06  25472199.670   135924334.301       -4482.022          29.000                                                                  
G12  24604972.490   129300241.649         -93.176          47.000    24604971.254   100753744.746         -72.484          47.000  
E08  29531021.009   155186539.511       -3736.806          45.000    29531036.955   118909185.421       -2863.333          49.000  
S31  42049495.405   220971580.095        -757.641          44.000  
S33  43002308.182   225978617.288        -758.506          43.000  
G11  27525612.372   144648374.847        1849.645          46.000    27525622.690   112713209.305        1441.242          43.000  
E36  30930279.608   162539681.783        -724.400          41.000    30930284.946   124543469.230        -555.226          41.000  
R19  24289721.829   129934062.405        1814.448          42.000    24289722.552   101060020.705        1410.988          48.000  
R07  24337728.357   130281779.107       -1726.506          52.000    24337727.665   101330296.112       -1342.846          47.000  
R18  24455054.130   130542858.493       -1398.479          49.000    24455055.308   101533522.972       -1087.710          47.000  
E07  27286597.826   143392200.512       -1849.226          48.000    27286602.576   109871989.523       -1416.878          52.000  
E27  28338394.177   148919656.361         362.666          46.000    28338398.749   114107486.381         277.840          50.000  
E34  29964560.730   157465104.447        1248.431          45.000    29964566.590   120655139.343         956.548          46.000  
G25  26167537.589   137511544.636        1065.039          46.000    26167541.438   107151916.978         829.927          43.000  
E30  27146276.684   142655125.105       -1470.550          48.000    27146278.547   109307445.787       -1126.873          50.000  
G06  26886783.661   141291186.412         755.524          43.000    26886787.410   110097118.111         588.555          43.000  
E02  30056055.982   157945922.794       -2692.195          38.000    30056057.418   121023693.771       -2062.736          38.000  
E18  29408381.887   154542558.030       -5723.453          43.000                                                                  
> 2024 04 16 23 54 00.0110000  0 25                     
G13  26931396.829   141525156.266       -4510.170          44.000                                                                  
G15  25542386.358   134226104.639       -3562.291          47.000    25542392.716   104591791.261       -2775.681          44.000  
G19  25936369.328   136297043.607       -3597.877          43.000                                                                  
G24  23824866.474   125200720.957           7.379          50.000    23824865.033    97559113.502           5.737          46.000  
R09  23757582.221   126864254.192         237.763          50.000    23757580.827    98672501.078         184.894          50.000  
R08  26265746.302   140651933.134        1468.741          44.000    26265743.380   109395845.558        1141.944          35.000  
R16  24489731.270   130819763.848       -2160.165          50.000    24489729.831   101749236.471       -1680.177          49.000  
R06  25497421.192   136058921.083       -4490.086          32.000                                                                  
G12  24605525.710   129303148.803        -100.474          46.000    24605524.786   100756010.162         -78.434          47.000  
E08  29552364.684   155298700.890       -3740.485          44.000    29552381.157   118995126.602       -2865.992          49.000  
S31  42053820.600   220994310.986        -757.769          45.000  
S33  43006637.916   226001370.631        -758.237          43.000  
G11  27515061.766   144592938.684        1846.335          45.000    27515071.886   112670013.207        1438.584          44.000  
E36  30934454.640   162561618.768        -737.950          41.000    30934459.364   124560278.117        -565.410          42.000  
R19  24279603.448   129879936.034        1794.147          42.000    24279603.730   101017922.586        1395.496          49.000  
R07  24347474.721   130333953.898       -1751.592          51.000    24347474.977   101370876.407       -1362.426          48.000  
R18  24462988.840   130585212.450       -1425.048          50.000    24462989.422   101566465.018       -1108.281          47.000  
E07  27297192.085   143447874.598       -1862.381          48.000    27297197.081   109914648.858       -1426.983          52.000  
E27  28336336.430   148908841.844         358.509          47.000    28336340.557   114099200.060         274.715          50.000  
E34  29957454.933   157427763.812        1241.179          44.000    29957461.289   120626527.905         950.791          46.000  
G25  26161470.459   137479663.298        1060.461          46.000    26161474.445   107127074.611         826.241          43.000  
E30  27154680.842   142699289.634       -1473.478          49.000    27154682.884   109341286.171       -1129.056          50.000  
G06  26882510.561   141268725.658         742.189          43.000    26882512.893   110079616.309         578.265          42.000  
E02  30071420.021   158026666.835       -2691.019          37.000    30071421.739   121085562.595       -2061.608          37.000  
E18  29441047.121   154714216.265       -5720.505          42.000                                                                  
> 2024 04 16 23 54 30.0110000  0 25                     
G13  26957156.625   141660516.966       -4513.685          44.000                                                                  
G15  25562748.481   134333109.895       -3571.123          46.000    25562755.293   104675171.594       -2782.713          43.000  
G19  25956943.928   136405158.720       -3609.473          43.000                                                                  
G24  23824860.373   125200689.578          -5.006          49.000    23824859.855    97559089.049          -3.920          47.000  
R09  23756259.976   126857194.123         233.264          50.000    23756258.691    98667009.969         181.383          50.000  
R08  26257578.760   140608204.015        1446.557          42.000    26257576.320   109361834.060        1125.381          34.000  
R16  24501875.536   130884636.043       -2164.331          50.000    24501874.364   101799692.592       -1683.312          49.000  
R06  25522690.212   136193752.860       -4498.563          33.000                                                                  
G12  24606121.388   129306282.856        -107.958          47.000    24606120.696   100758452.384         -84.310          46.000  
E08  29573729.892   155410973.075       -3744.170          44.000    29573746.315   119081152.668       -2868.834          48.000  
S31  42058147.271   221017048.066        -757.764          45.000  
S33  43010968.540   226024130.249        -758.654          43.000  
G11  27504531.488   144537607.867        1842.767          44.000    27504541.574   112626899.219        1435.847          45.000  
E36  30938708.628   162583973.803        -752.096          40.000    30938712.820   124577407.341        -576.303          41.000  
R19  24269599.838   129826421.473        1773.584          43.000    24269599.089   100976300.315        1379.590          48.000  
R07  24357363.646   130386887.586       -1776.989          52.000    24357363.422   101412046.969       -1381.945          48.000  
R18  24471074.396   130628372.669       -1451.946          50.000    24471076.121   101600034.155       -1129.397          48.000  
E07  27307863.010   143503949.635       -1875.713          48.000    27307868.075   109957615.410       -1437.239          52.000  
E27  28334302.020   148898154.579         354.223          46.000    28334306.937   114091011.245         271.484          50.000  
E34  29950391.134   157390653.332        1233.297          41.000    29950399.380   120598092.801         944.987          46.000  
G25  26155430.680   137447924.508        1055.706          46.000    26155434.418   107102343.331         822.328          44.000  
E30  27163102.479   142743544.855       -1476.567          49.000    27163104.552   109375196.052       -1131.462          50.000  
G06  26878313.867   141246672.066         728.350          42.000    26878315.285   110062431.838         567.670          42.000  
E02  30086779.620   158107382.349       -2689.885          36.000    30086782.821   121147409.500       -2061.194          37.000  
E18  29473697.728   154885793.929       -5717.966          42.000                                                                  
> 2024 04 16 23 55 00.0110000  0 25                     
G13  26982935.690   141795979.738       -4516.760          45.000                                                                  
G15  25583161.793   134440377.828       -3579.529          47.000    25583168.402   104758756.604       -2789.244          43.000  
G19  25977581.193   136513609.145       -3620.079          42.000                                                                  
G24  23824924.024   125201025.280         -16.914          50.000    23824924.136    97559350.637         -13.203          47.000  
R09  23754963.243   126850264.210         229.217          51.000    23754961.243    98661620.126         178.326          50.000  
R08  26249534.348   140565131.232        1424.975          40.000    26249534.783   109328333.073        1108.633          35.000  
R16  24514041.023   130949624.621       -2167.833          49.000    24514040.763   101850239.266       -1686.075          49.000  
R06  25548001.360   136328821.692       -4505.442          32.000                                                                  
G12  24606760.819   129309638.224        -115.055          47.000    24606758.192   100761067.037         -89.646          45.000  
E08  29595115.563   155523350.755       -3747.327          45.000    29595131.598   119167259.571       -2871.264          48.000  
S31  42062474.632   221039789.234        -757.566          45.000  
S33  43015300.507   226046894.292        -758.419          43.000  
G11  27494022.187   144482382.081        1839.517          45.000    27494032.018   112583867.053        1433.159          45.000  
E36  30943041.279   162606743.725        -765.479          40.000    30943045.991   124594854.491        -586.578          41.000  
R19  24259709.586   129773519.284        1753.650          42.000    24259709.508   100935154.361        1363.831          48.000  
R07  24367392.687   130440573.948       -1801.755          52.000    24367391.971   101453802.942       -1401.365          48.000  
R18  24479311.071   130672334.800       -1478.427          51.000    24479310.804   101634227.057       -1149.901          47.000  
E07  27318609.226   143560421.328       -1888.571          48.000    27318614.478   110000885.880       -1447.057          52.000  
E27  28332290.691   148887590.542         350.477          46.000    28332296.605   114082916.871         268.548          50.000  
E34  29943372.359   157353771.535        1226.132          41.000    29943381.020   120569832.974         939.324          47.000  
G25  26149416.655   137416324.406        1051.508          47.000    26149421.070   107077720.112         819.405          44.000  
E30  27171540.743   142787886.562       -1479.012          49.000    27171542.505   109409172.190       -1133.288          50.000  
G06  26874193.078   141225024.656         715.216          41.000    26874196.123   110045563.896         557.267          42.000  
E02  30102133.932   158188065.696       -2688.435          34.000    30102136.349   121209231.782       -2060.038          37.000  
E18  29506329.643   155057285.016       -5714.543          40.000                                                                  
> 2024 04 16 23 55 30.0110000  0 25                     
G13  27008730.307   141931527.269       -4519.684          44.000                                                                  
G15  25603621.347   134547890.655       -3587.885          47.000    25603627.222   104842532.468       -2795.830          43.000  
G19  25998278.865   136622377.162       -3630.869          42.000                                                                  
G24  23825055.722   125201715.360         -29.080          50.000    23825054.812    97559888.374         -22.739          47.000  
R09  23753687.214   126843449.520         224.973          51.000    23753685.484    98656319.877         175.016          50.000  
R08  26241609.838   140522702.613        1403.638          40.000    26241611.212   109295333.009        1091.086          34.000  
R16  24526226.906   131014715.480       -2171.463          49.000    24526226.661   101900865.429       -1689.051          49.000  
R06  25573353.706   136464108.459       -4512.807          33.000                                                                  
G12  24607438.526   129313199.770        -122.277          48.000    24607435.239   100763842.339         -95.416          45.000  
E08  29616518.001   155635817.677       -3750.516          46.000    29616533.986   119253434.854       -2873.629          48.000  
S31  42066800.346   221062519.789        -757.523          45.000  
S33  43019630.033   226069646.733        -758.514          43.000  
G11  27483530.798   144427249.919        1836.034          46.000    27483540.478   112540907.783        1430.667          46.000  
E36  30947451.469   162629914.458        -779.323          40.000    30947455.266   124612608.727        -596.889          41.000  
R19  24249932.892   129721219.079        1733.112          43.000    24249932.726   100894476.595        1348.114          49.000  
R07  24377561.021   130494996.604       -1826.488          53.000    24377559.287   101496131.591       -1420.630          48.000  
R18  24487693.666   130717083.633       -1504.844          51.000    24487692.291   101669031.741       -1170.432          45.000  
E07  27329428.024   143617274.380       -1901.507          48.000    27329433.409   110044448.571       -1456.947          52.000  
E27  28330301.215   148877134.727         346.696          46.000    28330306.802   114074905.421         265.629          50.000  
E34  29936396.179   157317106.139        1218.222          43.000    29936404.238   120541738.881         933.607          48.000  
G25  26143426.374   137384848.116        1047.063          45.000    26143431.083   107053193.360         815.866          44.000  
E30  27179991.713   142832299.668       -1481.687          49.000    27179993.862   109443203.046       -1135.399          50.000  
G06  26870149.691   141203771.586         701.792          44.000    26870150.646   110029003.219         546.787          40.000  
E02  30117479.054   158268702.336       -2687.447          34.000    30117479.799   121271018.200       -2059.115          34.000  
E18  29538943.184   155228672.640       -5711.273          39.000                                                                  
> 2024 04 16 23 56 00.0110000  0 25                     
G13  27034542.657   142067166.227       -4522.827          44.000                                                                  
G15  25624128.764   134655654.789       -3596.166          47.000    25624134.392   104926504.103       -2802.386          43.000  
G19  26019038.780   136731469.466       -3641.755          42.000                                                                  
G24  23825256.540   125202770.504         -41.268          50.000    23825255.683    97560710.553         -32.180          47.000  
R09  23752433.268   126836759.762         220.879          50.000    23752432.687    98651116.779         171.899          50.000  
R08  26233809.063   140480930.075        1381.496          39.000    26233809.326                        1074.552          31.000  
R16  24538432.128   131079918.157       -2175.163          48.000    24538430.407   101951578.611       -1691.828          47.000  
R06  25598748.566   136599617.595       -4520.678          34.000                                                                  
G12  24608156.939   129316976.130        -129.397          47.000    24608154.387   100766785.034        -100.957          45.000  
E08  29637938.661   155748381.043       -3753.676          46.000    29637955.028   119339684.045       -2876.226          48.000  
S31  42071125.170   221085247.860        -757.442          44.000  
S33  43023959.458   226092398.024        -758.344          43.000  
G11  27473059.750   144372223.520        1832.568          47.000    27473068.039   112498030.899        1428.043          45.000  
E36  30951939.734   162653495.295        -792.775          41.000    30951942.063   124630677.235        -607.331          41.000  
R19  24240270.463   129669533.533        1712.567          42.000    24240270.235   100854276.881        1332.147          49.000  
R07  24387865.910   130550162.525       -1851.135          52.000    24387862.703   101539038.342       -1439.819          46.000  
R18  24496224.863   130762627.677       -1531.313          50.000    24496224.543   101704454.932       -1190.916          47.000  
E07  27340320.671   143674516.943       -1914.532          48.000    27340326.165   110088309.704       -1466.918          52.000  
E27  28328333.976   148866795.618         342.711          46.000    28328338.974   114066983.372         262.610          50.000  
E34  29929463.232   157280668.143        1210.876          44.000    29929470.167   120513819.079         927.783          48.000  
G25  26137461.707   137353504.213        1042.700          46.000    26137465.420   107028769.749         812.392          43.000  
E30  27188458.460   142876792.520       -1484.363          49.000    27188460.595   109477294.996       -1137.392          50.000  
G06  26866182.015   141182924.417         688.201          43.000    26866183.282   110012758.753         536.087          40.000  
E02  30132817.081   158349301.007       -2686.299          33.000    30132816.109   121332775.593       -2058.125          32.000  
E18  29571539.568   155399963.316       -5708.102          40.000                                                                  
> 2024 04 16 23 56 30.0110000  0 25                     
G13  27060371.819   142202895.966       -4525.787          43.000                                                                  
G15  25644683.604   134763669.486       -3604.707          47.000    25644688.476   105010671.006       -2808.886          43.000  
G19  26039861.320   136840885.586       -3652.510          43.000                                                                  
G24  23825527.324   125204194.739         -53.577          50.000    23825526.549    97561820.355         -41.656          47.000  
R09  23751205.070   126830197.533         216.718          51.000    23751203.584    98646012.913         168.542          50.000  
R08  26226130.846   140439818.540        1359.444          42.000    26226122.845   109230867.791        1057.498          33.000  
R16  24550659.667   131145235.315       -2179.168          48.000    24550658.259   102002380.789       -1694.770          48.000  
R06  25624186.337   136735346.908       -4527.979          34.000                                                                  
G12  24608916.307   129320969.417        -136.771          47.000    24608914.655   100769896.782        -106.555          46.000  
E08  29659377.282   155861041.360       -3756.977          45.000    29659394.475   119426007.474       -2878.620          48.000  
S31  42075450.303   221107976.935        -757.771          44.000  
S33  43028288.737   226115149.318        -758.413          43.000  
G11  27462609.208   144317308.321        1828.703          47.000    27462616.226   112455240.658        1424.948          45.000  
E36  30956505.078   162677488.880        -806.591          41.000    30956508.461   124649061.977        -618.077          41.000  
R19  24230724.389   129618469.637        1692.017          41.000    24230724.897   100814560.720        1315.912          49.000  
R07  24398309.171   130606071.601       -1875.936          52.000    24398307.589   101582523.097       -1459.091          47.000  
R18  24504906.381   130808968.585       -1557.897          50.000    24504905.952   101740497.937       -1211.662          48.000  
E07  27351288.795   143732150.395       -1927.476          48.000    27351293.524   110132470.363       -1476.928          52.000  
E27  28326389.355   148856574.942         338.817          46.000    28326393.473   114059152.065         259.575          49.000  
E34  29922572.481   157244461.902        1203.089          42.000    29922580.149   120486076.812         921.779          48.000  
G25  26131522.594   137322294.603        1038.167          46.000    26131526.323   107004450.806         809.010          43.000  
E30  27196941.287   142921366.781       -1487.096          49.000    27196942.886   109511449.333       -1139.431          51.000  
G06  26862293.232   141162487.858         674.531          43.000    26862293.867   109996834.246         525.550          39.000  
E02  30148144.092   158429863.925       -2684.869          31.000    30148145.066                       -2057.074          30.000  
E18  29604117.164   155571156.867       -5704.395          39.000                                                                  
> 2024 04 16 23 57 00.0110000  0 25                     
G13  27086218.864   142338720.531       -4528.961          42.000                                                                  
G15  25665286.628   134871938.804       -3613.160          48.000    25665292.536   105095036.341       -2815.632          44.000  
G19  26060744.787   136950629.875       -3663.740          42.000                                                                  
G24  23825870.497   125205996.443         -66.421          49.000    23825869.387    97563224.288         -51.834          47.000  
R09  23750000.687   126823769.449         211.868          51.000    23749999.603    98641013.333         164.892          50.000  
R08  26218581.525   140399377.402        1336.785          44.000    26218576.919   109199413.664        1039.926          38.000  
R16  24562910.018   131210674.282       -2183.358          48.000    24562909.424   102053277.740       -1698.069          49.000  
R06  25649665.149   136871298.267       -4535.009          34.000                                                                  
G12  24609717.983   129325184.873        -144.227          47.000    24609716.316   100773181.644        -112.457          46.000  
E08  29680835.708   155973803.459       -3760.382          45.000    29680853.283   119512408.914       -2881.418          48.000  
S31  42079776.610   221130712.430        -757.820          44.000  
S33  43032619.524   226137907.037        -758.600          43.000  
G11  27452180.835   144262514.089        1824.372          46.000    27452187.893   112412544.674        1421.519          43.000  
E36  30961150.239   162701902.158        -820.906          42.000    30961153.898   124667768.308        -628.892          41.000  
R19  24221296.168   129568037.758        1670.435          42.000    24221296.847   100775336.095        1299.213          49.000  
R07  24408893.355   130662728.460       -1900.918          52.000    24408892.742   101626589.447       -1478.519          48.000  
R18  24513737.640   130856112.293       -1584.985          49.000    24513738.243   101777165.322       -1232.791          49.000  
E07  27362330.178   143790180.529       -1940.855          48.000    27362336.491   110176934.979       -1487.189          52.000  
E27  28324468.041   148846478.806         334.535          46.000    28324472.052   114051416.190         256.345          49.000  
E34  29915728.003   157208496.101        1195.123          42.000    29915735.487   120458518.756         915.535          48.000  
G25  26125611.319   137291225.601        1033.081          46.000    26125613.937   106980241.402         805.241          42.000  
E30  27205440.003   142966028.426       -1490.185          49.000    27205441.581   109545670.631       -1141.806          51.000  
G06  26858483.876   141142471.083         660.123          43.000    26858484.299   109981236.860         514.218          38.000  
E02  30163471.941   158510397.598       -2684.054          32.000    30163471.501                       -2056.548          30.000  
E18  29636676.792   155742257.592       -5701.702          41.000                                                                  
> 2024 04 16 23 57 30.0110000  0 27                     
G13  27112083.570   142474632.064       -4531.946          44.000                                                                  
G15  25685935.950   134980454.575       -3621.385          47.000    25685942.999   105179593.724       -2821.865          44.000  
G19  26081688.355   137060694.138       -3673.989          41.000                                                                  
G24  23826284.280   125208172.122         -78.933          49.000    23826283.919    97564919.645         -61.507          48.000  
R09  23748821.152   126817470.686         207.702          51.000    23748819.278    98636114.349         161.523          49.000  
R08  26211154.535   140359603.885        1314.566          44.000    26211151.847   109168478.761        1022.244          39.000  
R16  24575181.912   131276230.434       -2187.217          47.000    24575182.562   102104265.854       -1701.108          50.000  
R06  25675183.763   137007462.115       -4542.640          35.000                                                                  
R10  26362323.724                1       1506.702          26.000                                                                  
G12  24610561.775   129329616.639        -151.398          48.000    24610559.254   100776635.047        -117.947          45.000  
E08  29702312.045   156086660.412       -3763.521          45.000    29702329.845   119598883.021       -2883.764          48.000  
S31  42084103.200   221153450.313        -758.027          45.000  
S33  43036950.558   226160667.690        -758.971          43.000  
G11  27441775.581   144207838.804        1820.351          45.000    27441782.634   112369941.333        1418.385          43.000  
E36  30965874.816   162726730.300        -834.789          42.000    30965879.175   124686792.511        -639.310          42.000  
R19  24211987.004   129518236.168        1649.341          42.000    24211986.785   100736601.717        1282.874          49.000  
R07  24419614.519   130720125.256       -1925.580          51.000    24419615.734   101671231.323       -1497.638          49.000  
R18  24522718.474   130904052.785       -1611.395          49.000    24522720.005   101814452.398       -1253.361          49.000  
E07  27373448.086   143848601.330       -1953.978          48.000    27373453.724   110221698.920       -1497.165          52.000  
E27  28322568.708   148836501.536         330.407          46.000    28322573.382   114043771.397         253.203          50.000  
E34  29908928.127   157172767.704        1186.764          42.000    29908936.950   120431142.579         909.465          48.000  
G25  26119724.355   137260291.645        1028.720          45.000    26119726.611   106956137.202         801.736          41.000  
E30  27213954.527   143010771.698       -1492.888          50.000    27213956.016   109579954.477       -1143.958          51.000  
G06  26854754.616   141122871.417         646.522          42.000    26854755.168   109965964.496         503.606          40.000  
E15  31154981.467   163720561.0831       1957.740          36.000    31155017.472   125448344.1251       1500.528          38.000  
E18  29669216.848   155913257.909       -5698.451          40.000                                                                  
E02                                                                  30178791.161   121517894.442       -2054.875          33.000  
> 2024 04 16 23 58 00.0110000  0 27                     
G13  27137968.011   142610648.935       -4535.748          45.000                                                                  
G15  25706636.269   135089234.981       -3630.458          47.000    25706644.013   105264357.265       -2828.946          44.000  
G19  26102696.265   137171096.409       -3685.930          40.000                                                                  
G24  23826773.911   125210744.518         -92.446          49.000    23826773.338    97566924.146         -72.004          48.000  
R09  23747670.189   126811323.275         202.269          51.000    23747668.347    98631333.094         157.453          50.000  
R08  26203854.498   140320521.845        1291.219          40.000    26203853.785   109138081.710        1004.084          40.000  
R16  24587480.186   131341925.486       -2192.293          48.000    24587480.616   102155361.982       -1704.999          50.000  
R06  25700744.010   137143855.106       -4550.220          34.000                                                                  
R10  26353843.548                        1505.641          28.000                                                                  
G12  24611450.183   129334284.607        -159.631          49.000    24611447.593   100780272.494        -124.435          45.000  
E08  29723809.654   156199631.387       -3767.616          45.000    29723827.991   119685444.499       -2886.753          47.000  
S31  42088434.676   221176211.048        -759.113          45.000  
S33  43041286.253   226183450.729        -759.848          43.000  
G11  27431395.920   144153306.554        1815.178          43.000    27431404.627   112327449.445        1414.350          44.000  
E36  30970682.158   162751994.556        -849.627          43.000    30970686.524   124706150.892        -650.846          43.000  
R19  24202799.757   129469090.728        1626.868          43.000    24202799.380   100698377.622        1265.491          49.000  
R07  24430479.586   130778280.914       -1951.201          52.000    24430480.920   101716463.403       -1517.480          49.000  
R18  24531852.612   130952810.519       -1639.007          49.000    24531853.659   101852375.132       -1274.802          49.000  
E07  27384643.428   143907432.845       -1967.899          48.000    27384648.962   110266777.570       -1507.920          52.000  
E27  28320696.034   148826663.559         325.620          46.000    28320701.606   114036233.354         249.370          50.000  
E34  29902178.751   157137299.689        1177.804          41.000    29902187.334   120403965.930         902.419          48.000  
G25  26113867.597   137229513.307        1023.193          46.000    26113869.844   106932154.299         797.342          42.000  
E30  27222488.401   143055616.979       -1496.512          50.000    27222489.988   109614316.487       -1146.695          51.000  
G06  26851108.100   141103712.336         631.133          41.000    26851109.791   109951035.445         491.853          40.000  
E15  31143798.207   163661789.882        1959.909          38.000    31143834.690   125403310.868        1502.269          41.000  
E18  29701741.988   156084176.459       -5695.989          40.000                                                                  
E02                                                                  30194107.690   121579565.324       -2055.833          34.000  
> 2024 04 16 23 58 30.0110000  0 27                     
G13  27163871.255   142746770.749       -4539.117          44.000                                                                  
G15  25727387.699   135198279.673       -3639.169          48.000    25727395.112   105349326.753       -2835.675          44.000  
G19  26123770.218   137281836.384       -3696.831          41.000                                                                  
G24  23827339.378   125213717.707        -105.690          49.000    23827338.877    97569240.931         -82.332          47.000  
R09  23746548.483   126805329.704         197.177          52.000    23746546.410    98626671.505         153.385          50.000  
R08  26196687.057   140282136.256        1267.919          44.000    26196683.742   109108226.249         986.193          38.000  
R16  24599805.390   131407762.349       -2196.868          48.000    24599804.889   102206568.444       -1708.597          49.000  
R06  25726347.377   137280475.245       -4558.178          34.000                                                                  
R10  26345365.417                        1505.709          30.000                                                                  
G12  24612384.275   129339190.705        -167.488          49.000    24612381.147   100784095.494        -130.674          46.000  
E08  29745329.785   156312716.956       -3771.196          45.000    29745348.331   119772093.789       -2889.610          47.000  
S31  42092770.737   221198997.315        -759.697          45.000  
S33  43045626.269   226206258.737        -760.531          43.000  
G11  27421046.763   144098922.923        1810.309          43.000    27421054.897   112285073.310        1410.590          43.000  
E36  30975573.286   162777697.593        -863.803          43.000    30975577.853   124725845.510        -661.941          45.000  
R19  24193735.744   129420607.746        1605.078          42.000    24193735.533   100660668.793        1248.340          49.000  
R07  24441484.927   130837195.652       -1976.413          51.000    24441485.413   101762285.921       -1537.180          48.000  
R18  24541139.769   131002387.160       -1666.134          48.000    24541139.798   101890934.807       -1295.886          49.000  
E07  27395917.357   143966676.598       -1981.563          48.000    27395922.912   110312172.065       -1518.253          52.000  
E27  28318851.899   148816966.813         321.074          47.000    28318856.577   114028803.499         245.988          51.000  
E34  29895479.114   157102096.543        1169.397          38.000    29895487.878   120376992.193         895.790          48.000  
G25  26108040.471   137198892.601        1018.132          46.000    26108043.069   106908294.231         793.325          43.000  
E30  27231041.698   143100566.068       -1499.896          50.000    27231043.708   109648758.036       -1149.225          51.000  
G06  26847546.308   141084998.691         616.201          42.000    26847549.026   109936453.499         479.975          40.000  
E15  31132600.915   163602945.131        1962.972          41.000    31132637.707   125358221.406        1503.919          42.000  
E18  29734251.143   156255013.214       -5693.222          41.000                                                                  
E02                                                                  30209420.925   121641227.496       -2055.090          33.000  
> 2024 04 16 23 59 00.0110000  0 27                     
G13  27189792.968   142882983.399       -4542.047          44.000                                                                  
G15  25748186.275   135307574.210       -3647.411          48.000    25748193.910   105434490.890       -2842.120          45.000  
G19  26144905.504   137392899.619       -3707.535          43.000                                                                  
G24  23827980.335   125217081.716        -118.664          50.000    23827979.048    97571862.245         -92.524          47.000  
R09  23745452.991   126799478.702         192.738          52.000    23745450.464    98622120.834         149.816          50.000  
R08  26189649.257   140244437.777        1245.162          44.000    26189643.589   109078905.240         968.020          36.000  
R16  24612153.516   131473730.123       -2201.056          48.000    24612154.748   102257876.707       -1712.086          50.000  
R06  25751990.873   137417305.758       -4564.518          34.000                                                                  
R10  26336894.309   140390466.4841       1505.115          33.000                                                                  
G12  24613360.573   129344322.561        -174.895          49.000    24613357.605   100788094.402        -136.168          45.000  
E08  29766869.009   156425903.701       -3774.718          45.000    29766887.657   119858820.597       -2892.313          47.000  
S31  42097109.335   221221797.098        -760.059          45.000  
S33  43049968.865   226229080.924        -761.056          43.000  
G11  27410724.752   144044679.356        1805.481          45.000    27410732.873   112242806.289        1407.028          45.000  
E36  30980545.908   162803828.019        -878.352          44.000    30980549.881   124745867.582        -672.870          45.000  
R19  24184794.579   129372779.330        1583.191          42.000    24184793.910   100623469.065        1231.378          48.000  
R07  24452630.621   130896855.262       -2001.106          52.000    24452630.155   101808687.747       -1556.379          48.000  
R18  24550577.245   131052769.873       -1692.909          47.000    24550578.080   101930121.418       -1316.728          49.000  
E07  27407266.879   144026319.954       -1994.902          48.000    27407272.664   110357872.766       -1528.510          52.000  
E27  28317031.391   148807399.046         316.738          47.000    28317035.863   114021472.467         242.646          51.000  
E34  29888828.530   157067148.527        1160.526          40.000    29888837.273   120350214.018         889.184          48.000  
G25  26102240.609   137168417.484        1013.411          46.000    26102243.185   106884547.565         789.729          42.000  
E30  27239612.583   143145606.637       -1502.975          49.000    27239614.569   109683269.672       -1151.622          51.000  
G06  26844068.262   141066721.287         601.904          41.000    26844071.025   109922211.438         468.964          42.000  
E02  30224730.337   158831939.4741      -2681.612          33.000    30224729.556   121702872.108       -2054.826          33.000  
E15  31121385.866   163544017.119        1965.388          40.000    31121424.378   125313068.305        1506.133          43.000  
E18  29766740.762   156425754.214       -5689.757          38.000                                                                  
> 2024 04 16 23 59 30.0110000  0 27                     
G13  27215730.670   143019279.378       -4544.500          44.000                                                                  
G15  25769030.399   135417110.791       -3655.135          47.000    25769038.689   105519843.629       -2848.199          45.000  
G19  26166100.711   137504279.042       -3717.770          42.000                                                                  
G24  23828694.505   125220833.669        -131.359          50.000    23828693.017    97574785.873        -102.540          47.000  
R09  23744381.781   126793765.304         188.380          50.000    23744381.378    98617677.140         146.429          51.000  
R08  26182734.882   140207423.943        1222.227          40.000    26182733.718   109050116.737         951.002          39.000  
R16  24624527.295   131539824.107       -2205.126          49.000    24624527.985   102309283.095       -1715.132          50.000  
R06  25777671.387   137554337.925       -4570.870          35.000                                                                  
R10  26328426.251   140345320.357        1505.228          32.000                                                                  
G12  24614378.859   129349675.088        -181.952          49.000    24614375.810   100792265.276        -141.730          45.000  
E08  29788426.314   156539185.221       -3777.547          44.000    29788445.117   119945620.008       -2894.477          47.000  
S31  42101449.502   221244605.814        -760.388          45.000  
S33  43054313.472   226251912.670        -761.066          43.000  
G11  27400429.284   143990574.445        1801.254          46.000    27400436.206   112200647.341        1403.521          44.000  
E36  30985599.096   162830381.508        -892.170          44.000    30985603.015   124766213.814        -683.612          47.000  
R19  24175975.918   129325604.216        1561.334          42.000    24175975.142   100586777.502        1214.533          49.000  
R07  24463913.104   130957252.369       -2025.549          51.000    24463913.556   101855663.169       -1575.370          49.000  
R18  24560166.856   131103953.181       -1719.326          49.000    24560166.269   101969930.718       -1337.387          49.000  
E07  27418691.804   144086357.394       -2007.694          48.000    27418697.530   110403875.426       -1538.344          52.000  
E27  28315233.911   148797955.179         312.838          47.000    28315238.476   114014236.385         239.661          51.000  
E34  29882228.318   157032453.262        1152.412          43.000    29882234.707   120323629.466         882.941          48.000  
G25  26096467.215   137138083.029        1008.852          46.000    26096470.468   106860910.523         786.307          43.000  
E30  27248200.017   143190733.549       -1505.618          49.000    27248202.032   109717847.477       -1153.700          52.000  
G06  26840674.087   141048877.971         587.608          43.000    26840675.651   109908307.612         458.033          42.000  
E02  30240017.675                       -2679.672          27.000    30240034.316   121764495.484       -2053.615          34.000  
E15  31110155.346   163485003.214        1968.873          38.000    31110194.781   125267849.602        1508.492          43.000  
E18  29799213.193   156596392.506       -5685.972          40.000                                                                  
