     3.00           OBSERVATION DATA    M: Mixed            RINEX VERSION / TYPE
CONVBIN 2.4.3                           20240416 135942 UTC PGM / RUN BY / DATE 
format: u-blox UBX                                          COMMENT             
log: /home/regis/git/gnsspwv/obsdata/VERT00CHL/2024-04-16/VECOMMENT             
{self.marker}                                               MARKER NAME         
                                                            MARKER NUMBER       
GEODETIC                                                    MARKER TYPE         
{self.observer}     {self.institution}                      OBSERVER / AGENCY   
UNKNOWN             UBLOX-ZED-F9P                           REC # / TYPE / VERS 
UNKNOWN             TWIVSP6037L                             ANT # / TYPE        
  1713381.0000 -5047934.0000 -3490983.0000                  APPROX POSITION XYZ 
        0.0000        0.0000        0.0000                  ANTENNA: DELTA H/E/N
G    8 C1C L1C D1C S1C C2L L2L D2L S2L                      SYS / # / OBS TYPES 
R    8 C1C L1C D1C S1C C2C L2C D2C S2C                      SYS / # / OBS TYPES 
E    8 C1C L1C D1C S1C C7Q L7Q D7Q S7Q                      SYS / # / OBS TYPES 
S    4 C1C L1C D1C S1C                                      SYS / # / OBS TYPES 
  2024    04    16    13    45   00.5000000     GPS         TIME OF FIRST OBS   
  2024    04    16    13    59   30.0000000     GPS         TIME OF LAST OBS    
                                                            END OF HEADER       
> 2024 04 16 13 45 00.5000000  0 25                     
G31  23083851.089   121306511.1911      -1863.106          44.000    23083854.155    94524530.3211      -1451.798          38.000  
G02  21410395.723   112512342.8401      -3799.870          49.000                                                                  
G19  23285794.201   122367733.8821       -290.638          45.000                                                                  
G03  20778321.180   109190810.0941       -924.249          50.000    20778323.247    85083700.7571       -720.233          46.000  
G04  20003849.654   105120898.9591       -665.171          48.000    20003849.654    81912365.5161       -518.440          49.000  
R24  19921850.587   106530867.1811      -3549.638          51.000    19921851.347    82857434.7941      -2760.947          48.000  
R02  19942113.134   106414642.8031       -607.419          52.000    19942115.510    82767020.7311       -472.415          49.000  
R18  23402986.325   124926821.0381       3279.358          33.000    23403011.654                1       2550.139          29.000  
G21  22100776.010   116140241.1781      -4580.870          46.000                                                                  
S33  39651531.842   208370155.1831       -838.374          42.000  
S31  38699586.241   203367694.5951       -838.860          44.000  
E36  23411602.934   123028761.0171      -1707.792          46.000    23411609.425    94268845.1731      -1308.516          53.000  
G09  21978731.916   115499028.3051       1499.094          45.000    21978736.766    89999291.9431       1168.027          45.000  
E11  25607606.144   134568747.6771      -3506.713          40.000    25607614.895   103111135.6951      -2686.862          44.000  
R01  20821112.867   111300893.9081      -3098.132          48.000    20821116.844    86567196.7201      -2409.558          45.000  
R17  19876235.436   106361674.2031        773.121          51.000    19876235.301    82725739.7741        601.346          50.000  
R11  23087960.001   123375112.4931        890.934          43.000    23087968.894    95958337.0891        693.025          40.000  
R03  22893177.784   122548899.2351       1689.749          51.000    22893184.435    95315946.3871       1314.287          45.000  
E03  26944950.089   141596763.7181       1543.410          39.000    26944962.553   108496194.1871       1182.614          43.000  
E09  24415664.254   128305186.7081      -2595.661          46.000    24415670.382    98311729.2651      -1988.626          52.000  
E34  24357957.730   128001957.9141        948.747          47.000    24357964.235    98079405.2071        727.102          51.000  
E05  22039052.159   115815953.1071       -136.845          48.000    22039057.870    88742112.7951       -104.891          51.000  
G17  22063382.911   115943802.9671      -2075.466          46.000    22063384.843    90345819.2721      -1617.165          44.000  
E18  28785365.808   151268034.4741      -1673.157          44.000                                                                  
G28                                                                  24753443.583                3      -2700.620          22.000  
> 2024 04 16 13 45 30.5000000  0 26                     
G31  23094540.250   121362678.122       -1881.042          45.000    23094541.498    94568296.712       -1465.797          38.000  
G02  21432132.175   112626566.524       -3814.895          50.000                                                                  
G19  23287507.569   122376735.262        -309.149          45.000                                                                  
G03  20783616.467   109218640.540        -931.006          49.000    20783619.144    85105386.806        -725.494          46.000  
G04  20007696.662   105141113.892        -682.309          48.000    20007696.474    81928117.414        -531.681          49.000  
R24  19941829.515   106637702.000       -3572.370          52.000    19941830.596    82940528.401       -2778.531          49.000  
R02  19945566.389   106433066.950        -620.554          52.000    19945567.862    82781350.641        -482.690          49.000  
R18  23384578.273                1       3270.648          30.000    23384603.818    97088921.4921       2542.912          36.000  
G21  22126962.801   116277849.537       -4592.765          45.000                                                                  
S33  39656322.384   208395331.165        -839.762          41.000  
S31  38704380.071   203392884.784        -840.222          44.000  
E36  23421391.195   123080198.841       -1721.371          46.000    23421397.802    94308258.517       -1318.926          53.000  
G09  21970211.185   115454247.810        1486.653          46.000    21970215.586    89964398.116        1158.393          45.000  
E11  25627646.389   134674059.624       -3513.999          41.000    25627655.320   103191828.995       -2692.580          45.000  
R01  20838515.148   111393916.593       -3103.021          49.000    20838518.198    86639547.611       -2413.464          44.000  
R17  19871975.839   106338878.169         746.850          51.000    19871975.952    82708009.539         580.864          50.000  
R11  23083013.615   123348680.945         871.365          45.000    23083022.202    95937779.438         677.702          39.000  
R03  22883736.270   122498355.578        1680.072          51.000    22883741.852    95276634.755        1306.776          46.000  
E03  26936158.532   141550561.908        1536.870          40.000    26936170.662   108460792.887        1177.442          44.000  
E09  24430500.849   128383154.781       -2602.304          46.000    24430507.251    98371470.986       -1994.038          52.000  
E34  24352568.521   127973639.094         939.291          47.000    24352574.929    98057706.408         719.590          50.000  
E05  22039865.950   115820230.078        -148.123          48.000    22039871.503    88745389.943        -113.552          51.000  
G17  22075285.910   116006358.412       -2094.711          44.000    22075289.606    90394563.697       -1632.326          44.000  
E18  28794917.187   151318226.273       -1672.781          44.000                                                                  
G28                                                                  24773274.130                3      -2704.562          23.000  
R12                                                                  24060478.842                3       1987.101          17.000  
> 2024 04 16 13 46 00.5000000  0 25                     
G31  23105330.995   121419382.722       -1899.278          45.000    23105332.243    94612482.084       -1479.773          35.000  
G02  21453952.301   112741236.176       -3829.874          49.000                                                                  
G19  23289324.579   122386286.781        -327.766          44.000                                                                  
G03  20788950.533   109246671.499        -937.958          50.000    20788952.906    85127229.088        -730.768          46.000  
G04  20011639.645   105161837.185        -699.259          48.000    20011640.004    81944265.450        -544.971          49.000  
R24  19961935.660   106745215.692       -3595.123          51.000    19961936.353    83024150.056       -2796.244          49.000  
R02  19949092.108   106451883.279        -633.930          52.000    19949094.091    82795985.546        -492.983          49.000  
R18  23366234.534                        3259.841          30.000    23366252.097    97012731.043        2536.005          34.000  
G21  22153216.000   116415809.922       -4604.616          46.000                                                                  
S33  39661121.234   208420548.127        -841.450          42.000  
S31  38709181.336   203418115.954        -842.036          43.000  
E36  23431256.580   123132041.175       -1734.803          46.000    23431262.996    94347981.799       -1329.288          53.000  
G09  21961759.218   115409835.456        1474.272          45.000    21961764.197    89929791.202        1148.673          46.000  
E11  25647728.576   134779588.161       -3521.459          42.000    25647736.985   103272688.209       -2698.051          45.000  
R01  20855943.110   111487082.993       -3108.008          47.000    20855946.607    86712010.254       -2417.377          44.000  
R17  19867862.952   106316868.207         720.458          52.000    19867863.128    82690890.710         560.320          50.000  
R11  23078175.035   123322829.872         851.925          42.000    23078183.634    95917673.083         662.737          40.000  
R03  22874348.692   122448100.786        1670.233          51.000    22874354.429    95237547.792        1299.407          45.000  
E03  26927403.482   141504561.002        1529.437          38.000    26927416.708   108425545.550        1172.409          44.000  
E09  24445376.322   128461324.428       -2609.055          46.000    24445382.641    98431367.163       -1999.115          52.000  
E34  24347233.269   127945605.515         929.592          47.000    24347240.232    98036226.166         712.371          50.000  
E05  22040743.688   115824840.207        -159.324          48.000    22040748.979    88748922.377        -122.021          51.000  
G17  22087299.819   116069490.175       -2114.076          46.000    22087302.808    90443757.115       -1647.260          44.000  
E18  28804466.319   151368406.815       -1672.577          44.000                                                                  
G28                                                                  24793180.866                3      -2719.907          19.000  
> 2024 04 16 13 46 30.0000000  0 25                     
G31  23116042.708   121475672.632       -1917.114          44.000    23116042.241    94656344.295       -1493.870          34.000  
G02  21475493.077   112854434.803       -3844.672          48.000                                                                  
G19  23291216.247   122396222.577        -345.899          45.000                                                                  
G03  20794234.514   109274438.136        -944.604          49.000    20794235.961    85148865.397        -735.962          45.000  
G04  20015612.870   105182716.681        -716.097          48.000    20015612.978    81960535.191        -558.067          49.000  
R24  19981830.476   106851603.376       -3617.542          51.000    19981831.709    83106895.903       -2813.572          49.000  
R02  19952631.151   106470774.121        -646.874          51.000    19952634.721    82810678.423        -503.174          50.000  
R18  23348246.312                1       3250.701          32.000    23348253.516                        2528.739          29.000  
G21  22179097.994   116551818.166       -4616.285          47.000                                                                  
S33  39665849.153   208445391.810        -842.879          42.000  
S31  38713911.198   203442972.588        -843.151          44.000  
E36  23441033.476   123183420.882       -1748.394          46.000    23441040.315    94387350.600       -1339.656          53.000  
G09  21953518.755   115366529.850        1461.978          45.000    21953523.109    89896046.677        1138.829          45.000  
E11  25667517.466   134883575.082       -3528.872          43.000    25667525.103   103352366.205       -2703.711          44.000  
R01  20873108.555   111578841.986       -3112.958          46.000    20873111.313    86783378.268       -2421.063          44.000  
R17  19863963.182   106296001.043         694.236          51.000    19863962.165    82674660.694         540.016          48.000  
R11  23073524.777   123297986.325         832.392          41.000    23073533.750    95898350.465         647.450          40.000  
R03  22865170.019   122398972.732        1660.500          49.000    22865177.221    95199337.194        1291.455          46.000  
E03  26918836.538   141459530.109        1522.951          41.000    26918847.651   108391041.503        1166.959          45.000  
E09  24460041.911   128538393.294       -2615.936          47.000    24460048.470    98490419.879       -2004.369          52.000  
E34  24342041.935   127918325.784         919.984          47.000    24342049.046    98015323.552         704.923          50.000  
E05  22041669.752   115829704.824        -170.430          48.000    22041674.381    88752649.812        -130.588          51.000  
G17  22099221.838   116132135.557       -2133.007          46.000    22099223.572    90492571.593       -1662.201          43.000  
E18  28813856.037   151417746.340       -1672.238          44.000                                                                  
G28                                                                  24812822.134                3      -2732.754          22.000  
> 2024 04 16 13 47 00.0000000  0 25                     
G31  23127038.453   121533459.750       -1935.336          43.000    23127041.762    94701373.183       -1507.980          36.000  
G02  21497484.183   112970001.383       -3859.570          48.000                                                                  
G19  23293244.601   122406884.877        -364.736          45.000                                                                  
G03  20799647.509   109302886.709        -951.648          48.000    20799649.456    85171033.134        -741.541          46.000  
G04  20019751.597   105204463.686        -733.381          49.000    20019751.465    81977480.913        -571.404          49.000  
R24  20002189.296   106960472.914       -3640.224          52.000    20002190.592    83191572.119       -2831.337          49.000  
R02  19956307.353   106490382.408        -660.188          53.000    19956309.167    82825929.321        -513.397          50.000  
R18  23329997.401                        3242.381          28.000    23330009.146    96862260.975        2522.074          34.000  
G21  22205486.428   116690486.550       -4628.115          47.000                                                                  
S33  39670666.118   208470706.535        -844.644          42.000  
S31  38718731.479   203468302.261        -845.160          44.000  
E36  23451055.132   123236084.325       -1762.233          46.000    23451061.803    94427703.043       -1350.245          53.000  
G09  21945210.141   115322868.150        1449.239          46.000    21945213.727    89862024.631        1129.370          45.000  
E11  25687684.104   134989548.800       -3536.261          42.000    25687691.571   103433566.551       -2709.513          45.000  
R01  20890593.686   111672306.975       -3117.829          48.000    20890596.507    86856073.180       -2424.939          45.000  
R17  19860145.390   106275576.414         667.553          51.000    19860145.053    82658774.896         519.314          49.000  
R11  23068909.728   123273315.524         812.596          43.000    23068917.423    95879162.284         632.146          39.000  
R03  22855893.265   122349310.107        1650.500          49.000    22855900.861    95160710.798        1283.765          48.000  
E03  26910162.145   141413947.857        1515.602          41.000    26910173.675   108356114.954        1161.561          45.000  
E09  24474996.491   128616976.990       -2622.909          47.000    24475002.453    98550633.310       -2009.714          52.000  
E34  24336819.379   127890881.376         909.993          46.000    24336826.373    97994294.748         697.210          50.000  
E05  22042675.305   115834992.835        -181.824          48.000    22042680.335    88756701.674        -139.278          51.000  
G17  22111454.846   116196421.322       -2152.574          46.000    22111457.550    90542664.281       -1677.242          43.000  
E18  28823403.048   151467921.354       -1672.228          43.000                                                                  
G28                                                                  24832879.334                3      -2738.336          22.000  
> 2024 04 16 13 47 30.5000000  0 26                     
G31  23138325.358   121592770.124       -1954.095          44.000    23138328.694    94747589.077       -1522.655          38.000  
G02  21519932.392   113087956.597       -3875.002          50.000                                                                  
G19  23295417.008   122418301.096        -383.898          45.000                                                                  
G03  20805193.431   109332028.439        -959.100          49.000    20805195.847    85193740.945        -747.302          47.000  
G04  20024059.430   105227103.055        -751.018          48.000    20024059.251    81995121.983        -585.280          49.000  
R24  20023019.018   107071855.100       -3663.392          52.000    20023019.367    83278202.569       -2849.252          48.000  
R02  19960118.922   106510726.759        -673.779          52.000    19960121.942    82841752.671        -523.952          50.000  
R18  23311503.141                        3232.330          28.000    23311518.587                        2513.452          31.000  
R12  24003016.525                3       2557.786          15.000                                                                  
G21  22232382.625   116831829.987       -4640.174          47.000                                                                  
S33  39675574.439   208496498.132        -846.829          42.000  
S31  38723641.978   203494108.256        -846.932          44.000  
E36  23461325.175   123290052.431       -1776.521          46.000    23461331.805    94469055.168       -1361.176          53.000  
G09  21936837.180   115278870.006        1436.128          46.000    21936840.934    89827740.459        1118.909          45.000  
E11  25708228.691   135097519.597       -3543.608          40.000    25708237.818   103516297.123       -2715.267          44.000  
R01  20908397.656   111767483.614       -3123.096          47.000    20908401.846    86930099.342       -2428.925          44.000  
R17  19856419.471   106255637.353         640.113          51.000    19856419.724    82643266.748         497.821          49.000  
R11  23064332.758   123248851.164         791.697          46.000    23064337.148    95860134.520         615.989          40.000  
R03  22846518.777   122299128.493        1640.217          50.000    22846525.215    95121680.748        1275.646          47.000  
E03  26901385.903   141367825.502        1508.627          40.000    26901397.178   108320774.540        1156.004          46.000  
E09  24490240.303   128697084.576       -2629.940          47.000    24490246.582    98612014.402       -2015.162          52.000  
E34  24331569.539   127863289.002         899.697          46.000    24331575.627    97973152.577         689.289          50.000  
E05  22043765.563   115840720.956        -193.584          48.000    22043770.051    88761090.744        -148.319          50.000  
G17  22124005.644   116262374.140       -2172.251          47.000    22124008.096    90594056.017       -1692.656          44.000  
E18  28833110.488   151518931.205       -1672.370          44.000                                                                  
G28                                                                  24853344.458                3      -2749.811          16.000  
> 2024 04 16 13 48 00.5000000  0 24                     
G31  23149535.014   121651672.042       -1973.109          44.000    23149536.719    94793486.608       -1537.419          34.000  
G02  21542099.397   113204443.725       -3890.801          50.000                                                                  
G19  23297664.260   122430109.917        -403.422          45.000                                                                  
G03  20810692.522   109360921.362        -967.041          50.000    20810694.029    85216254.881        -753.473          47.000  
G04  20028398.582   105249904.578        -769.089          48.000    20028397.623    82012889.380        -599.244          48.000  
R24  20043638.055   107182108.282       -3686.811          53.000    20043637.501    83363954.911       -2867.511          48.000  
R02  19963946.378   106531151.443        -687.835          52.000    19963949.291    82857638.521        -535.022          49.000  
R18  23293358.513   124341597.8451       3222.156          35.000    23293360.646                1       2505.358          27.000  
G21  22258907.406   116971224.555       -4652.745          46.000                                                                  
S33  39680414.205   208521932.079        -848.749          42.000  
S31  38728484.699   203519556.645        -849.374          43.000  
E36  23471508.887   123343568.918       -1791.174          46.000    23471515.682    94510061.245       -1372.488          53.000  
G09  21928678.456   115235991.700        1422.610          47.000    21928682.386    89794328.871        1108.475          45.000  
E11  25728483.651   135203959.511       -3552.106          39.000    25728492.857   103597854.643       -2721.642          44.000  
R01  20925942.030   111861263.124       -3128.845          48.000    20925944.870    87003038.883       -2433.515          44.000  
R17  19852909.844   106236853.453         612.292          52.000    19852909.470    82628657.084         476.135          48.000  
R11  23059947.535   123225412.057         770.714          45.000    23059950.732    95841904.210         599.680          40.000  
R03  22837357.536   122250085.933        1629.309          51.000    22837363.708    95083536.601        1267.326          48.000  
E03  26892796.459   141322688.812        1500.494          41.000    26892807.500   108286189.412        1149.810          46.000  
E09  24505276.957   128776101.233       -2637.688          47.000    24505282.778    98672559.586       -2021.142          52.000  
E34  24326465.615   127836468.100         888.536          46.000    24326471.962    97952601.523         680.805          50.000  
E05  22044905.285   115846713.941        -205.879          48.000    22044911.110    88765682.765        -157.748          51.000  
G17  22136463.954   116327842.121       -2192.227          47.000    22136466.646    90645069.916       -1708.378          45.000  
E18  28842661.139   151569115.924       -1673.062          43.000                                                                  
> 2024 04 16 13 48 30.5000000  0 25                     
G31  23160851.260   121711144.805       -1992.085          40.000    23160853.878    94839829.002       -1552.033          36.000  
G02  21564355.753   113321403.170       -3906.497          49.000                                                                  
G19  23300023.670   122442506.151        -422.947          45.000                                                                  
G03  20816236.259   109390054.479        -975.043          50.000    20816238.137    85238956.000        -759.717          47.000  
G04  20032840.407   105273246.434        -786.917          47.000    20032839.455    82031077.808        -613.255          48.000  
R24  20064386.574   107293062.112       -3710.017          52.000    20064386.965    83450252.226       -2885.576          49.000  
R02  19967853.654   106551997.964        -701.812          53.000    19967855.991    82873852.479        -545.779          49.000  
R18  23275292.817   124245115.564        3210.303          33.000    23275315.903                        2497.224          30.000  
R12  23974293.184                1       2556.916          25.000    23974306.704                        1988.495          26.000  
G21  22285506.258   117110994.212       -4665.237          47.000                                                                  
S33  39685269.088   208547444.067        -851.707          42.000  
S31  38733341.768   203545082.711        -851.899          43.000  
E36  23481776.932   123397527.575       -1805.938          46.000    23481783.883    94551406.131       -1383.709          53.000  
G09  21920596.724   115193521.751        1408.781          47.000    21920600.372    89761235.507        1097.758          45.000  
E11  25748785.622   135310647.905       -3560.000          40.000    25748795.215   103679602.610       -2727.937          43.000  
R01  20943517.461   111955215.516       -3134.503          47.000    20943520.629    87076112.833       -2437.976          44.000  
R17  19849555.866   106218906.403         584.300          51.000    19849555.444    82614698.270         454.555          48.000  
R11  23055677.734   123202607.874         749.519          42.000    23055682.913    95824167.783         583.049          41.000  
R03  22828257.234   122201370.190        1618.558          51.000    22828263.669    95045646.653        1258.770          48.000  
E03  26884252.107   141277792.929        1492.750          41.000    26884264.428   108251788.786        1143.737          46.000  
E09  24520358.058   128855349.480       -2645.252          48.000    24520363.281    98733282.220       -2026.915          52.000  
E34  24321425.012   127809977.938         877.574          47.000    24321431.185    97932303.888         672.441          50.000  
E05  22046115.372   115853074.760        -217.911          48.000    22046121.727    88770556.636        -167.046          51.000  
G17  22149036.697   116393911.708       -2212.176          47.000    22149039.399    90696552.578       -1723.948          45.000  
E18  28852215.574   151619323.603       -1673.963          44.000                                                                  
> 2024 04 16 13 49 00.5000000  0 25                     
G31  23172275.965   121771185.008       -2010.658          41.000    23172281.122    94886613.512       -1566.720          37.000  
G02  21586701.113   113438830.356       -3921.935          49.000                                                                  
G19  23302493.218   122455487.332        -442.394          44.000                                                                  
G03  20821825.606   109419425.944        -982.843          50.000    20821827.211    85261842.839        -765.802          47.000  
G04  20037384.509   105297125.212        -804.822          47.000    20037384.017    82049684.661        -627.096          49.000  
R24  20085264.455   107404710.875       -3733.011          52.000    20085265.890    83537090.006       -2903.451          48.000  
R02  19971838.375   106573262.072        -715.636          53.000    19971840.920    82890391.204        -556.607          50.000  
R18  23257276.462   124148957.396        3200.432          32.000    23257308.774                        2488.336          29.000  
R12  23959944.538                1       2555.084          25.000    23959953.754                3       1990.606          23.000  
G21  22312173.565   117251133.660       -4677.316          46.000                                                                  
S33  39690138.166   208573031.561        -853.899          42.000  
S31  38738213.793   203570683.633        -854.583          45.000  
E36  23492128.914   123451926.095       -1820.427          46.000    23492135.604    94593088.061       -1394.892          53.000  
G09  21912591.993   115151458.357        1395.538          47.000    21912595.799    89728458.963        1087.583          45.000  
E11  25769135.318   135417581.394       -3568.251          40.000    25769144.486   103761538.364       -2733.970          43.000  
R01  20961124.190   112049336.639       -3140.051          45.000    20961127.673    87149318.071       -2442.242          43.000  
R17  19846359.247   106201796.259         556.476          52.000    19846357.048    82601390.378         432.815          48.000  
R11  23051529.762   123180440.121         728.531          39.000    23051536.296    95806926.306         566.548          43.000  
R03  22819217.119   122152978.806        1607.804          52.000    22819222.600    95008008.916        1250.585          47.000  
E03  26875753.116   141233136.007        1484.735          39.000    26875766.416   108217571.249        1137.707          47.000  
E09  24535481.041   128934825.508       -2652.770          47.000    24535487.426    98794179.376       -2032.668          52.000  
E34  24316446.509   127783817.762         866.832          47.000    24316453.119    97912259.116         663.979          50.000  
E05  22047395.464   115859800.531        -230.089          48.000    22047401.832    88775710.181        -176.304          52.000  
G17  22161723.137   116460578.330       -2232.054          47.000    22161726.076    90748500.462       -1739.092          45.000  
E18  28861773.034   151669551.256       -1674.406          43.000                                                                  
> 2024 04 16 13 49 30.0000000  0 26                     
G31  23183616.247   121830776.415       -2029.271          41.000    23183621.294    94933048.410       -1581.352          36.000  
G02  21608761.247   113554753.452       -3937.219          49.000                                                                  
G19  23305030.784   122468822.272        -461.577          44.000                                                                  
G03  20827365.305   109448540.307        -990.680          49.000    20827368.405    85284529.352        -772.089          47.000  
G04  20041952.398   105321128.027        -822.418          48.000    20041952.640    82068388.131        -640.788          50.000  
R24  20105922.085   107515172.984       -3755.661          52.000    20105922.177    83623004.871       -2921.109          48.000  
R02  19975832.044   106594576.715        -729.238          52.000    19975835.348    82906969.248        -567.234          49.000  
R18  23239628.266                        3188.652          29.000    23239628.318                3       2489.560          21.000  
R12  23945839.673                3       2552.852          24.000    23945849.962                3       1987.847          23.000  
G21  22338465.193   117389294.939       -4689.291          47.000                                                                  
S33  39694939.852   208598264.974        -856.468          42.000  
S31  38743018.162   203595931.584        -857.101          43.000  
E36  23502389.830   123505846.467       -1834.884          47.000    23502396.426    94634403.601       -1405.978          53.000  
G09  21904796.276   115110492.517        1382.011          46.000    21904800.110    89696537.630        1076.926          44.000  
E11  25789190.333   135522970.056       -3576.302          40.000    25789199.702   103842290.439       -2740.302          43.000  
R01  20978467.967   112142051.117       -3145.337          47.000    20978472.541    87221429.219       -2446.381          43.000  
R17  19843367.780   106185789.230         528.908          52.000    19843366.796    82588940.484         411.341          49.000  
R11  23047565.756   123159264.672         707.603          38.000    23047573.442    95790456.713         550.097          43.000  
R03  22810385.369   122105709.468        1597.133          51.000    22810392.656    94971243.907        1242.196          49.000  
E03  26867440.708   141189456.357        1476.767          40.000    26867454.668   108184102.527        1131.551          47.000  
E09  24550394.933   129013197.181       -2660.367          46.000    24550400.699    98854230.321       -2038.430          52.000  
E34  24311612.643   127758416.512         855.681          47.000    24311619.422    97892795.827         655.668          50.000  
E05  22048721.737   115866769.051        -242.123          48.000    22048727.553    88781049.720        -185.553          51.000  
G17  22174307.694   116526713.232       -2251.519          47.000    22174310.629    90800034.024       -1754.369          44.000  
E18  28871174.672   151718960.202       -1674.988          43.000                                                                  
G28                                                                  24934361.529                3      -2793.913          18.000  
> 2024 04 16 13 50 00.0000000  0 26                     
G31  23195254.328   121891930.127       -2047.287          42.000    23195259.071    94980700.533       -1595.377          35.000  
G02  21631280.021   113673091.627       -3951.667          49.000                                                                  
G19  23307719.681   122482954.568        -480.333          44.000                                                                  
G03  20833043.072   109478376.922        -997.974          49.000    20833046.173    85307778.613        -777.679          47.000  
G04  20046696.319   105346059.296        -839.383          48.000    20046696.137    82087815.118        -654.131          49.000  
R24  20127055.759   107628181.135       -3777.828          52.000    20127055.560    83710899.967       -2938.328          48.000  
R02  19979969.958   106616655.089        -742.232          52.000    19979972.073    82924141.298        -577.374          48.000  
R18  23221729.070   123959173.8471       3178.145          35.000    23221763.635                        2472.234          29.000  
R12  23931521.104                3       2552.976          19.000    23931524.005                3       1978.083          21.000  
G21  22365269.478   117530150.486       -4700.536          47.000                                                                  
S33  39699835.797   208623992.765        -858.590          43.000  
S31  38747917.197   203621673.225        -858.762          44.000  
E36  23512906.926   123561108.462       -1848.792          47.000    23512912.420    94676747.137       -1416.586          53.000  
G09  21896943.414   115069228.004        1369.127          47.000    21896947.439    89664383.598        1066.952          45.000  
E11  25809628.856   135630377.293       -3583.581          39.000    25809638.684   103924589.161       -2746.052          43.000  
R01  20996135.685   112236492.109       -3150.277          47.000    20996139.473    87294883.224       -2450.399          44.000  
R17  19840480.404   106170336.923         501.634          52.000    19840479.045    82576922.046         390.078          48.000  
R11  23043647.965                1        686.771          28.000    23043661.100    95774196.776         534.145          44.000  
R03  22801464.854   122057951.462        1587.133          51.000    22801471.199    94934098.868        1234.360          50.000  
E03  26859032.413   141145265.715        1469.411          41.000    26859045.507   108150242.267        1126.035          47.000  
E09  24565602.061   129093111.627       -2667.028          46.000    24565607.756    98915463.420       -2043.529          52.000  
E34  24306758.601   127732906.675         845.279          47.000    24306765.105    97873249.316         647.716          50.000  
E05  22050137.503   115874207.910        -253.494          48.000    22050143.050    88786749.661        -194.175          51.000  
G17  22187216.514   116594547.482       -2270.455          47.000    22187218.975    90852891.748       -1768.925          43.000  
E18  28880738.464   151769216.645       -1674.981          43.000                                                                  
G28                                                                  24954896.465                3      -2807.874          15.000  
> 2024 04 16 13 50 30.0000000  0 25                     
G31  23206994.369   121953629.807       -2065.712          40.000    23206999.103    95028778.129       -1610.119          35.000  
G02  21653882.863   113791871.796       -3966.831          49.000                                                                  
G19  23310516.596   122497653.003        -499.634          43.000                                                                  
G03  20838762.189   109508434.610       -1005.896          48.000    20838765.539    85331200.163        -783.881          47.000  
G04  20051538.174   105371505.299        -857.096          48.000    20051538.404    82107643.144        -667.748          49.000  
R24  20148312.523   107741855.014       -3800.459          52.000    20148313.297    83799312.857       -2955.860          49.000  
R02  19984181.130   106639126.923        -755.991          52.000    19984183.029    82941619.366        -587.993          48.000  
R18  23203900.874   123863979.244        3167.203          38.000    23203938.642                3       2468.324          22.000  
R12  23917186.194                3       2550.348          24.000    23917189.335                3       1990.545          22.000  
G21  22392138.096   117671348.722       -4712.543          46.000                                                                  
S33  39704742.435   208649777.148        -860.324          42.000  
S31  38752826.083   203647470.911        -861.186          43.000  
E36  23523501.764   123616791.586       -1863.449          46.000    23523508.713    94719413.380       -1427.769          54.000  
G09  21889164.898   115028352.835        1355.783          47.000    21889169.226    89632532.911        1056.533          45.000  
E11  25830110.073   135738007.453       -3591.374          39.000    25830120.344   104007058.710       -2751.912          43.000  
R01  21013830.580   112331077.611       -3155.464          48.000    21013833.999    87368449.625       -2454.308          43.000  
R17  19837746.049   106155709.520         473.582          53.000    19837744.475    82565545.169         368.344          47.000  
R11  23039856.961   123118026.6871        665.170          40.000    23039866.692    95758424.149         517.371          44.000  
R03  22792599.432   122010498.339        1576.422          51.000    22792606.032    94897190.911        1226.186          49.000  
E03  26850665.861   141101296.685        1461.500          42.000    26850678.677   108116551.794        1119.960          47.000  
E09  24580847.432   129173230.743       -2674.293          45.000    24580853.849    98976853.332       -2049.142          52.000  
E34  24301964.855   127707712.887         834.186          48.000    24301970.908    97853945.000         639.140          50.000  
E05  22051619.121   115881991.246        -265.458          48.000    22051624.004    88792713.525        -203.399          51.000  
G17  22200234.422   116662952.687       -2289.857          48.000    22200236.005    90906194.397       -1784.508          43.000  
E18  28890302.197   151819472.432       -1675.410          44.000                                                                  
> 2024 04 16 13 51 00.5000000  0 25                     
G31  23219038.915   122016927.665       -2084.707          40.000    23219043.655    95078101.062       -1624.418          33.000  
G02  21676949.597   113913093.331       -3981.998          48.000                                                                  
G19  23313474.280   122513187.625        -519.133          45.000                                                                  
G03  20844622.360   109539231.664       -1013.684          48.000    20844626.061    85355197.838        -789.874          47.000  
G04  20056563.185   105397913.200        -874.783          48.000    20056563.517    82128220.722        -681.529          49.000  
R24  20170053.897   107858114.181       -3823.131          52.000    20170054.727    83889736.532       -2973.457          49.000  
R02  19988540.647   106662386.438        -769.428          53.000    19988542.241    82959710.073        -598.316          49.000  
R18  23185836.388   123767538.981        3156.219          41.000    23185885.766                3       2479.670          16.000  
R12  23902619.174                        2548.175          27.000    23902618.657                        1981.897          26.000  
G21  22419523.943   117815259.759       -4724.235          47.000                                                                  
S33  39709743.785   208676059.478        -862.530          41.000  
S31  38757830.317   203673768.821        -863.400          43.000  
E36  23534358.036   123673845.754       -1878.009          45.000    23534365.897    94763130.153       -1438.881          54.000  
G09  21881335.549   114987207.256        1342.430          47.000    21881339.656    89600471.526        1046.085          45.000  
E11  25850978.148   135847670.093       -3599.385          39.000    25850988.596   104091085.576       -2757.961          43.000  
R01  21031849.833   112427397.284       -3160.623          48.000    21031852.468    87443364.828       -2458.218          43.000  
R17  19835127.586   106141697.929         445.197          52.000    19835125.866    82554647.260         346.353          47.000  
R11  23036123.477   123098066.282         643.678          42.000    23036130.033    95742899.503         500.425          43.000  
R03  22783647.993   121962577.900        1565.888          50.000    22783654.104    94859919.529        1217.992          48.000  
E03  26842204.288   141056833.737        1453.966          42.000    26842217.197   108082482.861        1114.055          46.000  
E09  24596389.811   129254904.788       -2681.383          45.000    24596396.012    99039434.650       -2054.530          52.000  
E34  24297154.248   127682436.170         823.320          48.000    24297160.989    97834577.128         630.864          51.000  
E05  22053193.653   115890268.075        -277.281          48.000    22053199.108    88799055.513        -212.480          51.000  
G17  22213581.356   116733091.839       -2309.342          48.000    22213583.668    90960848.169       -1799.352          44.000  
E18  28900026.929   151870575.744       -1675.643          45.000                                                                  
> 2024 04 16 13 51 30.5000000  0 25                     
G31  23230992.156   122079739.861       -2103.003          40.000    23230993.657                       -1638.034          30.000  
G02  21699724.603   114032771.889       -3996.638          49.000                                                                  
G19  23316491.257   122529041.400        -537.963          45.000                                                                  
G03  20850430.191   109569751.562       -1021.002          48.000    20850433.196    85378979.527        -795.459          47.000  
G04  20061605.868   105424408.595        -891.635          48.000    20061604.860    82148866.469        -694.867          49.000  
R24  20191563.153   107973135.841       -3844.974          51.000    20191564.158    83979197.669       -2990.561          49.000  
R02  19992902.209   106685661.901        -782.405          53.000    19992904.183    82977813.193        -608.433          49.000  
R18  23168127.557   123673011.799        3145.669          37.000    23168156.193                2       2447.058          25.000  
R12  23888314.992   127607020.6801       2546.484          33.000    23888329.107                        1981.323          32.000  
G21  22446526.482   117957154.922       -4735.394          46.000                                                                  
S33  39714674.890   208701972.664        -864.665          42.000  
S31  38762764.275   203699695.213        -865.027          45.000  
E36  23545119.124   123730392.974       -1891.988          46.000    23545126.264    94806458.492       -1449.747          53.000  
G09  21873709.699   114947133.457        1329.304          46.000    21873713.444    89569245.273        1035.843          45.000  
E11  25871548.619   135955761.147       -3606.950          41.000    25871557.921   104173908.244       -2763.319          43.000  
R01  21049600.040   112522283.761       -3165.194          48.000    21049602.906    87517165.305       -2461.831          43.000  
R17  19832709.987   106128756.247         417.578          53.000    19832708.079    82544581.489         324.832          48.000  
R11  23032569.156   123079075.381         622.188          37.000    23032575.704    95728128.929         483.967          42.000  
R03  22774899.948   121915753.820        1555.739          49.000    22774905.748    94823500.859        1210.085          46.000  
E03  26833923.721   141013327.789        1446.513          41.000    26833937.642   108049147.225        1108.471          46.000  
E09  24611717.214   129335447.095       -2687.987          45.000    24611723.023    99101148.777       -2059.691          52.000  
E34  24292485.677   127657899.568         812.507          48.000    24292491.710    97815776.380         622.577          51.000  
E05  22054809.069   115898759.098        -288.789          47.000    22054815.319    88805561.605        -221.344          52.000  
G17  22226819.050   116802655.529       -2328.227          47.000    22226821.984    91015053.488       -1814.071          44.000  
E18  28909593.182   151920843.071       -1675.538          45.000                                                                  
> 2024 04 16 13 52 00.5000000  0 26                     
G31  23243046.573   122143084.433       -2120.170          40.000    23243044.874    95176404.719       -1652.296          30.000  
G02  21722579.533   114152874.567       -4010.479          49.000                                                                  
G19  23319613.599   122545449.466        -556.123          46.000                                                                  
G03  20856278.590   109600483.530       -1027.954          48.000    20856281.595    85402926.479        -801.038          47.000  
G04  20066743.315   105451404.627        -908.124          48.000    20066742.147    82169902.313        -707.688          49.000  
R24  20213194.243   108088802.071       -3866.250          52.000    20213195.017    84069160.155       -3007.101          49.000  
R02  19997333.995   106709315.074        -794.786          52.000    19997337.801    82996210.080        -618.106          50.000  
R18  23150479.473   123578803.613        3134.783          38.000    23150509.756                        2437.882          30.000  
R12  23874014.097   127530641.828        2545.337          36.000    23874028.395    99190631.5771       1979.755          38.000  
G21  22473590.282   118099373.384       -4745.990          47.000                                                                  
S33  39719614.777   208727930.430        -866.186          42.000  
S31  38767706.927   203725667.748        -866.807          44.000  
E36  23555957.170   123787350.670       -1905.400          45.000    23555964.914    94850101.337       -1459.957          53.000  
G09  21866155.704   114907439.786        1316.644          46.000    21866160.114    89538315.267        1025.931          45.000  
E11  25892157.645   136064061.123       -3613.683          41.000    25892166.657   104256891.019       -2768.889          42.000  
R01  21067375.699   112617298.932       -3169.396          48.000    21067378.005    87591065.891       -2464.902          42.000  
R17  19830444.665   106116635.886         390.310          53.000    19830442.802    82535154.538         303.547          48.000  
R11  23029133.395   123060709.629         601.649          41.000    23029137.395    95713844.495         468.078          42.000  
R03  22766208.184   121869223.195        1546.163          49.000    22766213.080    94787310.473        1202.505          46.000  
E03  26825686.270   140970034.205        1439.564          41.000    26825699.120   108015974.329        1102.996          46.000  
E09  24627080.584   129416179.116       -2694.346          45.000    24627085.760    99163008.289       -2064.331          52.000  
E34  24287875.170   127633673.343         802.319          48.000    24287881.581    97797213.449         614.795          51.000  
E05  22056487.825   115907582.160        -299.617          47.000    22056494.283    88812322.141        -229.615          52.000  
G17  22240161.137   116872771.473       -2346.346          46.000    22240164.161    91069689.162       -1828.386          44.000  
E18  28919155.940   151971097.243       -1674.811          45.000                                                                  
G06                                                                  24223193.465                3       2081.623          27.000  
> 2024 04 16 13 52 30.0000000  0 26                     
G31  23254998.052   122205889.530       -2137.733          41.000    23255000.338    95225343.707       -1664.981          32.000  
G02  21745131.589   114271385.032       -4024.018          48.000                                                                  
G19  23322786.171   122562122.384        -573.963          46.000                                                                  
G03  20862068.355   109630908.734       -1034.607          48.000    20862071.017    85426634.375        -806.268          47.000  
G04  20071886.909   105478435.911        -924.266          47.000    20071886.142    82190965.628        -720.231          49.000  
R24  20234580.355   108203164.145       -3886.879          52.000    20234581.629    84158108.282       -3023.253          48.000  
R02  20001761.752   106732938.807        -806.678          52.000    20001764.597    83014584.092        -627.412          50.000  
R18  23133185.248   123486478.840        3124.470          38.000    23133207.048    96045171.8521       2430.772          32.000  
R12  23859960.521   127455579.239        2543.988          43.000    23859975.646    99132249.943        1978.497          43.000  
G21  22500261.826   118239532.244       -4756.111          48.000                                                                  
S33  39724480.255   208753499.085        -867.205          42.000  
S31  38772574.969   203751250.349        -867.728          44.000  
E36  23566691.713   123843757.489       -1918.519          46.000    23566698.828    94893322.095       -1470.082          53.000  
G09  21858798.643   114868776.965        1304.725          46.000    21858802.646    89508188.526        1016.622          44.000  
E11  25912460.892   136170756.777       -3619.885          40.000    25912470.212   104338644.529       -2773.688          41.000  
R01  21084876.627   112710852.408       -3173.078          48.000    21084878.621    87663829.640       -2467.915          42.000  
R17  19828367.575   106105518.430         363.539          53.000    19828365.656    82526507.637         282.773          49.000  
R11  23025868.255   123043260.809         581.300          43.000    23025872.853    95700273.309         452.200          42.000  
R03  22757713.429   121823752.275        1536.900          50.000    22757718.957    94751944.364        1195.270          46.000  
E03  26817624.537   140927667.887        1432.993          41.000    26817636.748   107983511.925        1097.972          45.000  
E09  24642221.074   129495747.372       -2700.083          45.000    24642227.301    99223976.093       -2068.924          52.000  
E34  24283398.995   127610153.237         792.516          48.000    24283405.884    97779191.595         607.111          51.000  
E05  22058200.806   115916579.598        -310.164          47.000    22058206.359    88819216.282        -237.725          51.000  
G17  22253383.314   116942253.758       -2364.034          47.000    22253385.860    91123831.086       -1842.349          43.000  
E18  28928556.184   152020498.576       -1674.157          45.000                                                                  
G06                                                                  24208214.162                        2077.952          29.000  
> 2024 04 16 13 53 00.0000000  0 26                     
G31  23267250.493   122270277.016       -2154.653          39.000    23267250.698                       -1678.319          31.000  
G02  21768143.867   114392311.744       -4037.279          50.000                                                                  
G19  23326115.326   122579619.624        -592.062          45.000                                                                  
G03  20867995.119   109662052.892       -1041.217          48.000    20867997.324    85450902.522        -811.389          46.000  
G04  20077209.591   105506411.286        -940.449          47.000    20077209.517    82212764.634        -732.842          49.000  
R24  20256445.642   108320088.884       -3907.563          51.000    20256447.341    84249049.619       -3039.234          48.000  
R02  20006331.110   106757326.000        -818.679          52.000    20006333.387    83033551.868        -636.596          49.000  
R18  23115656.121   123392905.568        3114.228          37.000    23115674.460    95972392.823        2422.173          33.000  
R12  23845678.994   127379286.127        2542.700          49.000    23845693.736    99072911.229        1977.649          47.000  
G21  22527443.387   118382373.608       -4766.121          47.000                                                                  
S33  39729435.332   208779537.837        -868.271          42.000  
S31  38777532.721   203777303.366        -868.840          44.000  
E36  23577683.363   123901519.213       -1931.719          46.000    23577690.660    94937581.024       -1480.205          53.000  
G09  21851386.671   114829828.619        1292.463          47.000    21851390.545    89477839.271        1007.100          44.000  
E11  25933145.488   136279457.628       -3626.307          39.000    25933155.615   104421934.479       -2778.445          41.000  
R01  21102695.260   112806107.703       -3176.845          47.000    21102698.432    87737916.953       -2470.711          43.000  
R17  19826405.032   106095023.014         336.640          52.000    19826404.979    82518344.491         261.860          49.000  
R11  23022664.247   123026134.183         560.883          44.000    23022668.775    95686952.670         436.344          43.000  
R03  22749127.668   121777793.360        1527.542          49.000    22749134.052    94716198.687        1188.104          46.000  
E03  26809463.711   140884786.823        1426.586          40.000    26809476.444   107950655.120        1092.812          44.000  
E09  24657652.042   129576841.389       -2705.698          44.000    24657659.265    99286112.965       -2073.225          53.000  
E34  24278905.298   127586537.354         782.336          49.000    24278911.872    97761096.329         599.471          51.000  
E05  22060003.055   115926049.517        -320.711          48.000    22060008.259    88826472.467        -245.745          51.000  
G17  22266931.693   117013448.743       -2381.783          47.000    22266934.381    91179307.570       -1855.969          44.000  
E18  28938111.333   152070714.777       -1673.120          44.000                                                                  
G06                                                                  24192993.003                        2075.022          28.000  
> 2024 04 16 13 53 30.0000000  0 26                     
G31  23279599.773   122335172.393       -2171.429          38.000    23279601.369    95326083.481       -1692.320          35.000  
G02  21791231.084   114513634.274       -4050.267          50.000                                                                  
G19  23329546.038   122597649.530        -609.612          45.000                                                                  
G03  20873958.541   109693389.603       -1047.754          49.000    20873960.251    85475320.696        -816.266          46.000  
G04  20082623.625   105534862.534        -956.081          47.000    20082623.925    82234934.446        -744.981          49.000  
R24  20278425.938   108437626.729       -3927.931          51.000    20278427.788    84340467.810       -3055.060          49.000  
R02  20010967.705   106782064.188        -830.206          53.000    20010969.451    83052792.655        -645.677          49.000  
R18  23098184.670   123299641.985        3103.870          39.000    23098198.937    95899854.703        2414.135          34.000  
R12  23831403.714   127303025.615        2541.504          48.000    23831416.941    99013597.904        1976.880          46.000  
G21  22554681.614   118525508.663       -4775.864          47.000                                                                  
S33  39734395.038   208805601.620        -868.912          42.000  
S31  38782495.176   203803380.737        -869.419          44.000  
E36  23588749.045   123959670.168       -1944.587          46.000    23588756.584    94982138.170       -1490.029          53.000  
G09  21844043.914   114791240.635        1280.270          47.000    21844047.566    89447770.781         997.714          44.000  
E11  25953866.945   136388342.757       -3632.151          40.000    25953876.749   104505365.603       -2783.127          42.000  
R01  21120533.880   112901465.132       -3180.177          48.000    21120537.065    87812083.749       -2473.215          43.000  
R17  19824594.182   106085333.705         309.669          52.000    19824594.043    82510808.350         240.999          48.000  
R11  23019573.367   123009620.636         540.369          43.000    23019578.947    95674108.887         420.394          43.000  
R03  22740592.081   121732105.524        1518.740          49.000    22740598.439    94680663.900        1181.133          46.000  
E03  26801341.045   140842098.374        1419.837          40.000    26801352.522   107917945.852        1087.974          43.000  
E09  24673114.974   129658099.758       -2711.139          44.000    24673122.222    99348375.765       -2077.378          53.000  
E34  24274467.034   127563215.511         772.623          48.000    24274473.885    97743226.358         592.034          51.000  
E05  22061864.475   115935828.576        -330.950          48.000    22061869.063    88833965.504        -253.411          51.000  
G17  22280579.129   117085167.554       -2399.187          47.000    22280582.915    91235192.219       -1869.441          44.000  
E18  28947660.462   152120894.802       -1671.791          44.000                                                                  
G06                                                                  24177803.312                        2072.327          28.000  
> 2024 04 16 13 54 00.5000000  0 26                     
G31  23292252.546   122401662.008       -2188.301          38.000    23292254.283    95377893.410       -1704.723          34.000  
G02  21814778.068   114637374.832       -4063.348          50.000                                                                  
G19  23333136.603   122616518.252        -627.368          46.000                                                                  
G03  20880058.128   109725439.367       -1053.809          48.000    20880059.576    85500294.480        -821.014          47.000  
G04  20088220.368   105564267.399        -971.759          48.000    20088219.698    82257847.303        -757.283          49.000  
R24  20300888.621   108557740.816       -3948.121          52.000    20300890.786    84433889.747       -3070.752          50.000  
R02  20015746.424   106807565.732        -841.705          53.000    20015749.649    83072627.186        -654.645          50.000  
R18  23080481.045   123205138.801        3093.468          38.000    23080488.540    95826352.350        2405.920          33.000  
R12  23816895.251   127225524.632        2540.613          48.000    23816908.197    98953319.707        1976.019          46.000  
G21  22582428.553   118671320.352       -4785.237          46.000                                                                  
S33  39739440.894   208832117.952        -869.773          42.000  
S31  38787543.711   203829911.613        -870.078          44.000  
E36  23600074.125   124019182.057       -1957.576          47.000    23600081.351    95027738.108       -1499.947          53.000  
G09  21836647.878   114752372.179        1268.650          47.000    21836651.564    89417483.767         988.454          44.000  
E11  25974967.658   136499223.257       -3638.509          39.000    25974977.517   104590325.632       -2787.734          43.000  
R01  21138688.734   112998507.737       -3183.052          48.000    21138690.742    87887561.197       -2475.595          42.000  
R17  19822907.237   106076304.266         282.664          53.000    19822906.567    82503785.475         219.815          48.000  
R11  23016547.822   122993455.855         519.715          42.000    23016554.268    95661536.340         404.272          44.000  
R03  22731965.292   121685926.991        1509.761          49.000    22731972.868    94644747.536        1174.301          48.000  
E03  26793117.620   140798889.093        1413.713          39.000    26793130.382   107884837.550        1083.239          44.000  
E09  24688867.444   129740872.269       -2716.320          46.000    24688873.311    99411798.758       -2081.306          53.000  
E34  24270011.236   127539800.897         762.920          48.000    24270018.062    97725285.303         584.633          51.000  
E05  22063814.131   115946079.718        -341.000          47.000    22063820.162    88841820.285        -261.203          52.000  
G17  22294554.471   117158608.964       -2416.394          47.000    22294557.883    91292419.165       -1882.896          43.000  
E18  28957360.159   152171866.309       -1670.337          43.000                                                                  
G06                                                                  24162384.519                        2068.620          25.000  
> 2024 04 16 13 54 30.5000000  0 26                     
G31  23304792.132   122467556.838       -2204.316          37.000    23304794.554    95429239.942       -1717.769          37.000  
G02  21838010.695   114759466.529       -4075.852          49.000                                                                  
G19  23336767.935   122635599.318        -644.515          45.000                                                                  
G03  20886091.119   109757144.219       -1059.662          48.000    20886092.635    85524999.529        -825.775          46.000  
G04  20093812.763   105593652.766        -987.033          49.000    20093811.862    82280744.968        -769.025          50.000  
R24  20323093.824   108676481.606       -3967.610          52.000    20323094.910    84526243.537       -3085.946          48.000  
R02  20020510.217   106832984.765        -852.650          53.000    20020513.563    83092397.527        -663.224          50.000  
R18  23063123.887   123112490.482        3082.972          35.000    23063126.574                        2397.976          30.000  
R12  23802628.815   127149320.583        2539.899          48.000    23802640.854    98894050.278        1975.397          46.000  
G21  22609772.651   118815017.167       -4794.208          45.000                                                                  
S33  39744406.248   208858209.373        -869.859          43.000  
S31  38792511.266   203856017.012        -870.055          44.000  
E36  23611286.042   124078095.853       -1969.893          47.000    23611292.246    95072879.776       -1509.267          53.000  
G09  21829438.759   114714490.332        1257.043          47.000    21829442.594    89387965.497         979.523          45.000  
E11  25995754.100   136608454.734       -3643.748          40.000    25995763.613   104674022.123       -2791.767          42.000  
R01  21156560.409   113094044.077       -3185.876          48.000    21156562.700    87961867.127       -2477.812          41.000  
R17  19821398.445   106068224.858         256.172          53.000    19821395.796    82497501.476         199.383          46.000  
R11  23013685.089   122978165.603         499.584          41.000    23013692.433    95649644.083         388.765          43.000  
R03  22723529.297   121640763.280        1501.438          50.000    22723535.392    94609620.428        1167.869          48.000  
E03  26785064.822   140756568.459        1407.865          40.000    26785077.013   107852410.135        1078.848          44.000  
E09  24704388.984   129822435.892       -2721.063          46.000    24704394.305    99474295.467       -2084.982          52.000  
E34  24265682.865   127517055.108         753.639          48.000    24265689.712    97707856.724         577.464          51.000  
E05  22065789.506   115956458.499        -350.691          48.000    22065795.163    88849772.854        -268.714          52.000  
G17  22308397.699   117231354.553       -2433.068          47.000    22308400.515    91349103.902       -1896.066          42.000  
E18  28966891.162   152221949.655       -1668.370          43.000                                                                  
G06                                                                  24147243.489                1       2066.488          25.000  
> 2024 04 16 13 55 00.5000000  0 26                     
G31  23317424.963   122533944.718       -2221.266          39.000    23317429.133    95480970.582       -1731.252          38.000  
G02  21861316.018   114881934.965       -4088.710          49.000                                                                  
G19  23340497.862   122655200.136        -662.120          46.000                                                                  
G03  20892158.437   109789031.420       -1066.235          48.000    20892160.874    85549846.667        -830.829          47.000  
G04  20099491.379   105623498.371       -1002.655          48.000    20099491.118    82304001.274        -781.312          50.000  
R24  20345409.469   108795812.441       -3987.789          52.000    20345410.159    84619056.255       -3101.539          48.000  
R02  20025336.731   106858737.711        -864.206          53.000    20025338.842    83112427.601        -672.159          49.000  
R18  23045825.631   123020152.818        3072.044          35.000    23045827.898    95682474.738        2389.478          36.000  
R12  23788368.535   127073149.955        2538.300          46.000    23788380.601    98834806.773        1974.078          44.000  
G21  22637169.160   118958987.372       -4803.786          44.000                                                                  
S33  39749373.642   208884312.931        -870.682          42.000  
S31  38797481.133   203882134.935        -871.143          44.000  
E36  23622568.300   124137386.737       -1982.844          47.000    23622575.069    95118310.401       -1519.362          53.000  
G09  21822296.088   114676958.191        1244.998          46.000    21822299.564    89358719.766         970.237          43.000  
E11  26016573.040   136717855.110       -3650.013          41.000    26016582.013   104757848.045       -2796.495          42.000  
R01  21174448.483   113189665.689       -3189.140          47.000    21174451.562    88036239.380       -2480.118          44.000  
R17  19820038.053   106060945.848         229.031          53.000    19820035.682    82491840.006         178.095          48.000  
R11  23010937.680   122963484.908         478.740          38.000    23010943.767    95638225.862         372.512          41.000  
R03  22715141.314   121595858.315        1492.264          51.000    22715146.392    94574694.568        1160.785          47.000  
E03  26777046.990   140714429.828        1401.250          41.000    26777058.382   107820122.176        1073.770          44.000  
E09  24719938.226   129904147.690       -2726.472          47.000    24719943.814    99536905.698       -2089.071          53.000  
E34  24261408.893   127494596.354         743.544          48.000    24261416.051    97690648.078         569.744          51.000  
E05  22067820.832   115967132.637        -360.953          48.000    22067826.127    88857951.741        -276.571          51.000  
G17  22322337.199   117304604.399       -2450.176          47.000    22322339.855    91406181.589       -1909.255          43.000  
E18  28976412.418   152271983.093       -1667.176          44.000                                                                  
G06                                                                  24132108.918                        2063.426          27.000  
> 2024 04 16 13 55 30.5000000  0 25                     
G31  23330151.990   122600824.459       -2237.276          38.000    23330155.934    95533084.603       -1743.475          39.000  
G02  21884691.646   115004777.897       -4100.958          49.000                                                                  
G19  23344326.941   122675320.500        -679.263          45.000                                                                  
G03  20898261.152   109821101.825       -1072.095          47.000    20898263.789    85574836.570        -835.223          46.000  
G04  20105257.290   105653803.237       -1017.711          47.000    20105258.092    82327615.416        -793.021          50.000  
R24  20367834.615   108915729.981       -4006.882          52.000    20367835.487    84712325.315       -3116.596          49.000  
R02  20030225.281   106884823.025        -874.944          52.000    20030227.463    83132716.154        -680.503          50.000  
R18  23028583.558   122928129.498        3062.393          31.000    23028592.044    95610901.402        2382.145          36.000  
R12  23774115.153   126997016.887        2537.213          45.000    23774128.643    98775592.538        1973.108          45.000  
G21  22664618.129   119103227.859       -4812.438          46.000                                                                  
S33  39754343.511   208910429.864        -870.837          42.000  
S31  38802454.316   203908266.249        -871.116          45.000  
E36  23633922.523   124197054.867       -1995.067          47.000    23633929.571    95164030.065       -1528.652          53.000  
G09  21815220.072   114639776.420        1233.569          46.000    21815223.784    89329747.042         961.135          44.000  
E11  26037423.028   136827423.468       -3654.683          41.000    26037432.884   104841802.717       -2800.422          43.000  
R01  21192352.335   113285371.381       -3191.400          48.000    21192356.023    88110677.050       -2482.246          44.000  
R17  19818827.875   106054469.319         202.612          53.000    19818826.106    82486802.693         157.627          48.000  
R11  23008306.796   122949417.600         458.860          41.000    23008313.041    95627284.692         356.971          43.000  
R03  22706799.568   121551211.829        1484.117          50.000    22706805.472    94539969.703        1154.245          46.000  
E03  26769063.950   140672473.873        1395.481          42.000    26769074.708   107787974.210        1069.474          44.000  
E09  24735515.518   129986006.500       -2731.001          47.000    24735521.375    99599628.583       -2092.546          53.000  
E34  24257190.383   127472426.462         734.407          49.000    24257197.271    97673660.789         562.608          51.000  
E05  22069907.834   115978101.737        -370.295          48.000    22069912.902    88866356.626        -283.794          50.000  
G17  22336371.320   117378356.193       -2466.641          46.000    22336374.638    91463650.359       -1921.977          43.000  
E18  28985923.651   152321966.209       -1665.239          44.000                                                                  
> 2024 04 16 13 56 00.0000000  0 25                     
G31  23342755.908   122667055.919       -2252.832          42.000    23342757.386    95584693.369       -1755.328          36.000  
G02  21907745.621   115125923.846       -4112.367          49.000                                                                  
G19  23348185.352   122695599.369        -695.588          44.000                                                                  
G03  20904294.149   109852804.755       -1077.325          48.000    20904296.430    85599540.102        -839.502          46.000  
G04  20111010.069   105684037.418       -1031.944          46.000    20111011.494    82351174.493        -804.238          50.000  
R24  20389989.746   109034205.209       -4025.238          52.000    20389991.391    84804472.595       -3130.830          49.000  
R02  20035089.883   106910784.056        -885.114          52.000    20035092.373    83152908.047        -688.389          50.000  
R18  23011689.755   122837938.694        3052.307          34.000    23011697.231    95540753.192        2374.148          34.000  
R12  23760105.204   126922181.392        2536.554          44.000    23760118.996    98717387.492        1972.754          45.000  
G21  22691656.250   119245312.862       -4820.443          46.000                                                                  
S33  39759230.199   208936112.046        -870.125          42.000  
S31  38807343.891   203933961.504        -870.780          45.000  
E36  23645154.278   124256084.116       -2006.877          46.000    23645162.649    95209260.218       -1537.728          53.000  
G09  21808325.369   114603544.211        1222.778          47.000    21808329.158    89301514.223         952.836          44.000  
E11  26057953.871   136935316.212       -3659.979          40.000    26057964.258   104924473.412       -2804.384          43.000  
R01  21209970.686   113379550.401       -3193.580          47.000    21209974.074    88183927.292       -2483.823          44.000  
R17  19817781.212   106048872.967         176.879          53.000    19817780.702    82482449.949         137.559          48.000  
R11  23005826.030   122936173.316         439.048          34.000    23005834.927    95616983.538         341.568          44.000  
R03  22698642.310   121507548.935        1476.249          49.000    22698648.539    94506009.821        1147.946          46.000  
E03  26761243.241   140631383.551        1390.311          41.000    26761255.256   107756489.542        1065.229          44.000  
E09  24750858.242   130066630.832       -2735.130          48.000    24750863.420    99661405.581       -2095.711          53.000  
E34  24253092.970   127450897.211         725.345          47.000    24253100.274    97657164.351         555.743          51.000  
E05  22072012.941   115989162.925        -379.503          48.000    22072018.173    88874832.053        -290.724          51.000  
G17  22350261.427   117451353.061       -2482.180          46.000    22350265.757    91520530.900       -1934.214          43.000  
E18  28995265.666   152371054.428       -1662.928          44.000                                                                  
> 2024 04 16 13 56 30.0000000  0 25                     
G31  23355663.099   122734878.257       -2268.679          42.000    23355664.240    95637541.743       -1767.352          38.000  
G02  21931256.759   115249472.447       -4124.264          49.000                                                                  
G19  23352204.670   122716719.090        -712.523          45.000                                                                  
G03  20910460.539   109885210.409       -1082.959          47.000    20910463.349    85624791.235        -844.067          47.000  
G04  20116944.975   105715219.528       -1046.772          48.000    20116945.422    82375472.204        -815.695          50.000  
R24  20412624.893   109155245.501       -4044.161          51.000    20412626.541    84898614.888       -3145.485          48.000  
R02  20040095.181   106937493.615        -895.591          52.000    20040097.918    83173682.152        -696.541          50.000  
R18  22994570.000   122746521.697        3042.147          34.000    22994571.490    95469651.338        2365.993          36.000  
R12  23745864.864   126846105.465        2535.150          48.000    23745877.873    98658217.689        1971.900          45.000  
G21  22719199.349   119390051.733       -4828.836          47.000                                                                  
S33  39764199.615   208962224.165        -870.685          42.000  
S31  38812315.387   203960087.954        -870.956          44.000  
E36  23656645.320   124316470.255       -2019.014          46.000    23656653.809    95255530.061       -1546.977          53.000  
G09  21801376.995   114567028.644        1211.646          46.000    21801380.581    89273060.606         944.022          44.000  
E11  26078861.428   137045184.375       -3665.077          40.000    26078871.687   105008657.744       -2808.239          43.000  
R01  21227899.030   113475388.085       -3195.773          47.000    21227902.458    88258467.563       -2485.447          43.000  
R17  19816864.289   106043963.956         150.417          53.000    19816862.954    82478631.825         117.058          48.000  
R11  23003414.505                1        419.496          31.000    23003425.597    95606971.368         325.731          44.000  
R03  22690391.877   121463384.156        1468.058          50.000    22690397.666    94471659.580        1141.791          46.000  
E03  26753321.275   140589761.286        1384.636          40.000    26753335.084   107724597.293        1060.810          44.000  
E09  24766483.778   130148747.246       -2739.477          47.000    24766489.962    99724325.876       -2099.075          53.000  
E34  24248978.305   127429275.214         715.977          47.000    24248985.597    97640596.881         548.649          51.000  
E05  22074206.154   116000685.384        -388.866          48.000    22074211.075    88883660.942        -297.873          51.000  
G17  22364478.780   117526062.062       -2498.307          46.000    22364482.108    91578745.580       -1946.826          43.000  
E18  29004751.849   152420906.049       -1660.733          44.000                                                                  
> 2024 04 16 13 57 00.0000000  0 26                     
G31  23368658.307   122803179.056       -2284.742          42.000    23368661.023    95690763.103       -1780.678          39.000  
G02  21954835.286   115373377.840       -4136.273          49.000                                                                  
G19  23356320.336   122738346.667        -729.677          45.000                                                                  
G03  20916660.254   109917790.510       -1088.971          48.000    20916663.804    85650178.288        -848.651          48.000  
G04  20122964.246   105746846.565       -1061.708          48.000    20122963.643    82400116.614        -827.359          49.000  
R24  20435366.378   109276851.126       -4062.977          51.000    20435368.654    84993196.877       -3160.096          49.000  
R02  20045160.382   106964520.135        -906.234          53.000    20045162.803    83194702.754        -704.937          50.000  
R18  22977506.101                        3031.242          28.000    22977501.029    95398795.668        2357.543          34.000  
R12  23731630.886   126770069.379        2533.698          50.000    23731643.784    98599078.786        1970.575          45.000  
G21  22746789.735   119535042.111       -4837.317          46.000                                                                  
S33  39769169.318   208988338.704        -870.635          43.000  
S31  38817287.427   203986216.869        -871.218          44.000  
E36  23668206.708   124377222.853       -2031.289          46.000    23668214.763    95302080.695       -1556.486          53.000  
G09  21794492.866   114530854.138        1199.911          46.000    21794495.964    89244872.737         934.875          43.000  
E11  26099797.120   137155206.612       -3670.575          39.000    26099808.481   105092960.143       -2812.083          43.000  
R01  21245840.316   113571294.804       -3198.290          47.000    21245844.386    88333061.575       -2487.454          44.000  
R17  19816096.096   106039852.390         123.671          53.000    19816094.979    82475433.926          96.130          49.000  
R11  23001117.635   122911031.8191        398.342          39.000    23001130.173    95597434.562         309.780          44.000  
R03  22682187.407   121419466.377        1459.712          49.000    22682194.301    94437501.481        1135.280          48.000  
G06  24072051.668                3       2632.610          26.000                                                                  
E03  26745434.045   140548312.507        1378.762          40.000    26745447.728   107692837.965        1056.377          43.000  
E09  24782135.329   130230996.081       -2743.861          47.000    24782141.425    99787347.621       -2102.547          53.000  
E34  24244918.733   127407936.463         706.348          48.000    24244924.964    97624246.420         541.262          51.000  
E05  22076452.716   116012490.468        -398.287          48.000    22076457.724    88892706.388        -305.218          51.000  
G17  22378787.360   117601254.712       -2514.628          46.000    22378791.372    91637337.101       -1959.419          44.000  
E18  29014226.976   152470695.063       -1658.723          45.000                                                                  
> 2024 04 16 13 57 30.5000000  0 25                     
G31  23381966.768   122873106.361       -2300.777          45.000    23381968.782    95745251.790       -1792.564          40.000  
G02  21978875.196   115499710.957       -4148.056          48.000                                                                  
G19  23360603.268   122760854.108        -746.386          45.000                                                                  
G03  20922997.820   109951092.544       -1094.904          48.000    20923001.363    85676127.901        -853.290          48.000  
G04  20129168.875   105779454.922       -1076.582          48.000    20129168.773    82425525.715        -838.929          50.000  
R24  20458593.379   109401058.774       -4081.887          51.000    20458596.302    85089802.649       -3174.720          49.000  
R02  20050369.052   106992319.109        -916.763          52.000    20050371.722    83216324.155        -712.971          49.000  
R18  22960233.586                3       3028.404          22.000    22960210.567    95327014.413        2348.823          34.000  
R12  23717167.639   126692810.615        2532.276          50.000    23717180.690    98538988.966        1969.409          46.000  
G21  22774889.801   119682703.307       -4845.532          45.000                                                                  
S33  39774222.038   209014890.978        -870.535          43.000  
S31  38822342.858   204012782.511        -871.150          44.000  
E36  23680031.832   124439362.864       -2043.695          47.000    23680039.679    95349694.423       -1565.968          53.000  
G09  21787559.919   114494426.075        1188.447          46.000    21787564.857    89216487.297         926.158          44.000  
E11  26121113.261   137267218.560       -3675.052          40.000    26121123.944   105178787.117       -2815.934          43.000  
R01  21264093.463   113668868.320       -3200.422          48.000    21264096.896    88408951.961       -2489.213          43.000  
R17  19815467.120   106036491.467          96.533          52.000    19815467.268    82472819.881          75.080          49.000  
R11  22998908.326   122899194.575         377.629          43.000    22998915.415    95588227.927         293.860          43.000  
R03  22673894.096   121375068.762        1451.420          49.000    22673900.587    94402970.137        1128.807          47.000  
E03  26737449.610   140506350.576        1372.773          40.000    26737461.549   107660685.391        1051.899          42.000  
E09  24798072.984   130314749.451       -2748.310          47.000    24798079.192    99851522.190       -2105.843          53.000  
E34  24240845.782   127386533.434         696.841          48.000    24240852.224    97607846.726         533.879          51.000  
E05  22078790.855   116024780.771        -407.768          48.000    22078796.293    88902123.615        -312.457          51.000  
G17  22393428.529   117678192.571       -2530.811          46.000    22393432.709    91697288.526       -1971.895          43.000  
E18  29023847.094   152521248.448       -1656.437          45.000                                                                  
> 2024 04 16 13 58 00.5000000  0 26                     
G31  23395145.525   122942358.844       -2315.965          46.000    23395148.655    95799214.619       -1804.749          42.000  
G02  22002587.522   115624319.757       -4159.204          48.000                                                                  
G19  23364911.999   122783495.398        -762.947          45.000                                                                  
G03  20929263.052   109984017.797       -1100.214          48.000    20929266.293    85701783.888        -857.251          47.000  
G04  20135355.619   105811966.685       -1090.958          47.000    20135355.749    82450859.536        -849.988          49.000  
R24  20481543.934   109523784.604       -4099.934          52.000    20481546.548    85185255.926       -3188.813          49.000  
R02  20055551.310   107019970.305        -926.672          52.000    20055553.900    83237830.644        -720.733          50.000  
R18  22943288.413                        3009.908          27.000    22943264.978    95256658.387        2341.012          35.000  
R12  23702949.714   126616859.048        2531.085          50.000    23702962.348    98479915.864        1968.646          46.000  
G21  22802573.898   119828183.151       -4853.302          45.000                                                                  
S33  39779190.804   209041001.085        -870.382          43.000  
S31  38827313.946   204038907.713        -870.686          43.000  
E36  23691732.454   124500845.347       -2055.229          47.000    23691739.291    95396804.317       -1574.845          53.000  
G09  21780806.527   114458931.815        1177.747          46.000    21780811.449    89188829.483         917.633          45.000  
E11  26142107.036   137377539.046       -3679.325          39.000    26142117.618   105263318.052       -2819.417          43.000  
R01  21282058.772   113764900.596       -3201.823          47.000    21282061.675    88483643.611       -2490.260          44.000  
R17  19814999.435   106033985.519          70.458          53.000    19814999.453    82470870.793          54.752          49.000  
R11  22996843.671   122888165.212         357.553          41.000    22996850.233    95579649.653         278.075          44.000  
R03  22665780.612   121331639.660        1443.799          49.000    22665787.341    94369192.104        1122.887          47.000  
G06  24041791.556   126340403.2031       2625.049          29.000    24041839.979                3       2046.215          25.000  
E03  26729625.976   140465244.220        1367.457          39.000    26729639.499   107629188.389        1047.921          42.000  
E09  24813773.158   130397252.488       -2751.944          48.000    24813778.987    99914738.724       -2108.678          53.000  
E34  24236892.741   127365762.089         687.795          48.000    24236899.591    97591931.039         526.958          51.000  
E05  22081143.607   116037145.216        -416.612          48.000    22081149.178    88911597.658        -319.251          51.000  
G17  22407919.607   117754342.699       -2546.014          46.000    22407923.020    91756626.157       -1983.982          42.000  
E18  29033295.880   152570900.658       -1653.789          45.000                                                                  
> 2024 04 16 13 58 30.5000000  0 26                     
G31  23408411.604   123012070.925       -2331.261          45.000    23408413.699    95853535.597       -1816.331          41.000  
G02  22026363.750   115749263.053       -4170.360          49.000                                                                  
G19  23369314.366   122806628.192        -779.366          46.000                                                                  
G03  20935558.928   110017104.536       -1105.493          47.000    20935561.707    85727565.730        -861.487          47.000  
G04  20141623.270   105844904.540       -1104.875          47.000    20141624.050    82476525.378        -860.948          50.000  
R24  20504595.583   109647049.585       -4117.663          52.000    20504596.775    85281128.533       -3202.698          48.000  
R02  20060788.514   107047918.137        -936.425          52.000    20060791.240    83259567.819        -728.238          50.000  
R18  22926391.135   122382802.2181       2999.522          35.000    22926380.813    95186546.656        2333.195          37.000  
R12  23688738.147   126540945.134        2529.816          48.000    23688750.432    98420871.996        1967.621          46.000  
G21  22830300.899   119973890.710       -4860.534          46.000                                                                  
S33  39784157.091   209067099.771        -869.581          42.000  
S31  38832282.968   204065019.796        -870.219          45.000  
E36  23703499.466   124562678.944       -2066.978          48.000    23703505.884    95444183.232       -1583.690          53.000  
G09  21774114.123   114423764.807        1166.881          46.000    21774119.042    89161426.668         909.047          44.000  
E11  26163126.306   137487995.134       -3683.821          39.000    26163136.974   105347952.881       -2822.716          42.000  
R01  21300032.224   113860982.312       -3203.433          46.000    21300036.219    88558373.685       -2491.559          44.000  
R17  19814678.836   106032267.677          44.214          53.000    19814678.151    82469534.674          34.401          48.000  
R11  22994892.493   122877740.439         337.327          43.000    22994900.282    95571541.556         262.394          45.000  
R03  22657711.651   121288441.986        1436.040          49.000    22657717.484    94335594.065        1116.998          47.000  
G06  24026814.601   126261695.632        2621.559          29.000    24026832.938                        2043.599          25.000  
E03  26721834.663   140424297.735        1362.156          39.000    26721847.148   107597813.862        1043.920          41.000  
E09  24829493.774   130479868.918       -2755.641          48.000    24829500.486    99978042.143       -2111.575          53.000  
E34  24232991.854   127345263.949         678.766          48.000    24232998.848    97576224.689         520.131          51.000  
E05  22083547.154   116049775.458        -425.385          48.000    22083552.558    88921275.365        -325.924          51.000  
G17  22422498.723   117830953.226       -2561.163          47.000    22422502.028    91816322.519       -1995.987          42.000  
E18  29042728.518   152620473.496       -1651.218          45.000                                                                  
> 2024 04 16 13 59 00.0000000  0 26                     
G31  23421540.004   123081063.703       -2346.161          45.000    23421544.065    95907296.117       -1828.341          43.000  
G02  22049805.244   115872443.173       -4180.902          50.000                                                                  
G19  23373733.023   122829849.751        -795.125          46.000                                                                  
G03  20941780.446   110049793.355       -1110.730          47.000    20941781.956    85753037.483        -865.436          46.000  
G04  20147864.036   105877703.133       -1118.673          47.000    20147864.770    82502082.715        -871.762          49.000  
R24  20527359.191   109768777.777       -4135.035          51.000    20527361.153    85375805.881       -3215.978          48.000  
R02  20065991.886   107075682.965        -945.850          52.000    20065994.424    83281162.692        -735.644          50.000  
R18  22909834.677   122294466.336        2989.808          35.000    22909835.104    95117841.285        2324.662          38.000  
R12  23674769.844   126466332.522        2528.404          46.000    23674782.113    98362840.288        1966.730          46.000  
G21  22857607.319   120117385.137       -4867.925          45.000                                                                  
S33  39789037.710   209092746.229        -868.966          42.000  
S31  38837166.059   204090680.022        -869.813          44.000  
E36  23715133.747   124623819.615       -2078.236          48.000    23715140.885    95491031.228       -1592.439          53.000  
G09  21767593.584   114389498.730        1156.184          47.000    21767598.374    89134725.862         900.927          45.000  
E11  26183818.749   137596736.745       -3688.413          38.000    26183830.302   105431274.002       -2825.823          42.000  
R01  21317714.645   113955504.722       -3204.976          46.000    21317719.260    88631890.979       -2492.665          44.000  
R17  19814505.888   106031343.880          18.417          53.000    19814504.634    82468816.167          14.341          47.000  
R11  22993084.260   122868077.306         317.616          42.000    22993091.202    95564025.814         247.230          43.000  
R03  22649817.746   121246184.769        1428.718          49.000    22649823.536    94302727.441        1111.315          47.000  
G06  24012101.870   126184402.785        2618.075          28.000    24012123.918                3       2030.975          25.000  
E03  26714200.630   140384185.272        1357.251          38.000    26714214.314   107567078.381        1039.922          42.000  
E09  24844972.888   130561213.057       -2759.191          47.000    24844979.928   100040370.685       -2114.125          53.000  
E34  24229206.461   127325370.825         669.866          47.000    24229213.208    97560981.928         513.320          51.000  
E05  22085958.969   116062449.150        -433.832          48.000    22085964.185    88930986.358        -332.455          51.000  
G17  22436918.336   117906728.591       -2575.965          46.000    22436921.551    91875368.110       -2007.252          42.000  
E18  29051988.601   152669137.537       -1648.281          45.000                                                                  
> 2024 04 16 13 59 30.0000000  0 26                     
G31  23434975.844   123151668.539       -2361.017          46.000    23434977.633    95962312.719       -1839.605          40.000  
G02  22073702.796   115998027.268       -4191.514          49.000                                                                  
G19  23378317.255   122853940.578        -811.157          46.000                                                                  
G03  20948135.084   110083186.737       -1115.747          47.000    20948136.893    85779058.280        -869.318          47.000  
G04  20154289.552   105911466.800       -1132.572          46.000    20154289.649    82528392.012        -882.373          49.000  
R24  20550605.168   109893085.378       -4152.338          51.000    20550607.322    85472489.416       -3229.652          48.000  
R02  20071335.074   107104198.033        -955.398          52.000    20071338.590    83303341.056        -743.074          50.000  
R18  22893057.493   122204942.146        2978.913          36.000    22893064.962    95048211.500        2316.963          40.000  
R12  23660570.518   126390489.996        2527.400          47.000    23660583.724    98303851.886        1965.643          46.000  
G21  22885416.326   120263521.677       -4874.823          46.000                                                                  
S33  39793996.412   209118804.129        -868.604          43.000  
S31  38842127.328   204116752.438        -868.904          44.000  
E36  23727031.049   124686333.626       -2089.641          49.000    23727037.288    95538931.491       -1601.219          53.000  
G09  21761021.849   114354966.234        1145.564          46.000    21761027.359    89107817.477         892.629          45.000  
E11  26204886.074   137707442.677       -3692.577          39.000    26204897.642   105516100.279       -2829.404          42.000  
R01  21335703.688   114051664.310       -3206.146          47.000    21335707.957    88706681.637       -2493.506          44.000  
R17  19814474.302   106031178.254          -7.562          52.000    19814473.553    82468687.352          -5.916          48.000  
R11  22991356.592   122858844.187         297.555          46.000    22991362.878    95556844.565         231.432          44.000  
R03  22641829.683   121203428.681        1421.393          50.000    22641835.933    94269472.815        1105.472          48.000  
G06  23997162.442                        2615.013          30.000    23997182.772                        2037.659          26.000  
E03  26706466.152   140343541.381        1352.016          38.000    26706480.272   107535935.714        1036.109          42.000  
E09  24860733.649   130644034.865       -2762.657          47.000    24860740.762   100103831.458       -2116.816          53.000  
E34  24225407.094   127305403.799         660.896          47.000    24225413.335    97545682.539         506.335          51.000  
E05  22088459.306   116075589.099        -442.534          48.000    22088464.628    88941054.599        -338.925          51.000  
G17  22451665.578   117984228.591       -2591.020          45.000    22451670.284    91935757.554       -2018.768          43.000  
E18  29061388.725   152718535.694       -1645.279          45.000                                                                  
