     3.00           OBSERVATION DATA    M: Mixed            RINEX VERSION / TYPE
CONVBIN 2.4.3                           20240416 004442 UTC PGM / RUN BY / DATE 
format: u-blox UBX                                          COMMENT             
log: /home/regis/git/gnsspwv/obsdata/VERT00CHL/2024-04-16/VECOMMENT             
{self.marker}                                               MARKER NAME         
                                                            MARKER NUMBER       
GEODETIC                                                    MARKER TYPE         
{self.observer}     {self.institution}                      OBSERVER / AGENCY   
UNKNOWN             UBLOX-ZED-F9P                           REC # / TYPE / VERS 
UNKNOWN             TWIVSP6037L                             ANT # / TYPE        
  1713381.0000 -5047934.0000 -3490983.0000                  APPROX POSITION XYZ 
        0.0000        0.0000        0.0000                  ANTENNA: DELTA H/E/N
G    8 C1C L1C D1C S1C C2L L2L D2L S2L                      SYS / # / OBS TYPES 
R    8 C1C L1C D1C S1C C2C L2C D2C S2C                      SYS / # / OBS TYPES 
E    8 C1C L1C D1C S1C C7Q L7Q D7Q S7Q                      SYS / # / OBS TYPES 
S    4 C1C L1C D1C S1C                                      SYS / # / OBS TYPES 
  2024    04    16    00    30   00.0000000     GPS         TIME OF FIRST OBS   
  2024    04    16    00    44   30.5000000     GPS         TIME OF LAST OBS    
                                                            END OF HEADER       
> 2024 04 16 00 30 00.0000000  0 26                     
G25  22287793.007   117123155.2691        805.455          46.000    22287796.176    91264807.2511        627.737          45.000  
E19  25617414.772   134620320.4621      -3501.945          38.000    25617430.440   103150623.7391      -2683.194          45.000  
G24  20436174.546   107392815.3731       -864.980          49.000    20436175.286    83682704.1091       -673.927          48.000  
G32  23789102.328                1       1225.983          31.000    23789111.516    97412390.6961        955.158          31.000  
E09  27525110.790                        1242.981          27.000    27525097.612   110832221.3061        952.601          28.000  
R16  20297869.227   108427569.7401       -176.504          51.000    20297867.420    84332550.9831       -137.270          50.000  
R17  21496170.153   115030346.1831      -2866.261          51.000    21496166.286    89468031.9231      -2229.435          47.000  
R09  22727117.855   121361521.6301       1697.979          41.000    22727120.149    94392380.3641       1320.896          43.000  
R06  21900542.909   116865434.9181      -2982.663          40.000                                                                  
R15  21754330.407   116248512.4101      -2476.188          48.000    21754329.520    90415505.2981      -1926.066          43.000  
G29  24090375.932   126595779.8413       2842.198          31.000    24090391.706                3       2214.326          23.000  
G19  23816166.404   125154800.8911      -4119.269          47.000                                                                  
S31  38790646.989   203846165.3461       -752.648          44.000  
S33  39743034.693   208851008.9111       -753.690          43.000  
G06  23245290.597   122154844.3691       -252.361          44.000    23245293.050    95185600.2301       -196.671          43.000  
G11  23366486.140   122791857.5561       1429.447          47.000    23366489.815    95682043.7481       1113.761          44.000  
R07  22618767.125   121080029.0511        219.615          36.000    22618757.123    94173326.9761        170.969          39.000  
R18  20180779.514   107726403.7701        937.167          50.000    20180781.898    83787222.0061        728.941          51.000  
R19  22070200.896   118060750.8191       3378.572          41.000    22070213.417    91825137.2131       2627.500          44.000  
E04  24751907.536   130072136.6191       -995.131          46.000    24751912.628    99665667.9801       -762.522          51.000  
G12  21181424.825   111309139.3781       -509.700          49.000    21181422.518    86734387.0211       -397.156          45.000  
E31  26729092.382   140462369.7811        848.187          40.000    26729104.388   107627056.9181        649.864          47.000  
G15  23377423.390   122848935.0281      -3917.723          45.000    23377444.977    95726399.6361      -3052.909          41.000  
E13  26450205.476   138996780.0241       -241.941          38.000    26450210.426   106504046.5491       -185.486          44.000  
E26  26172999.313   137540220.7731       1714.317          48.000    26173010.148   105388110.1321       1313.449          50.000  
E21  25222355.978   132544365.5001      -2139.353          47.000    25222358.936   101559973.5621      -1639.209          50.000  
> 2024 04 16 00 30 30.5000000  0 26                     
G25  22283128.310   117098646.421         802.003          45.000    22283131.562    91245709.488         624.911          44.000  
E19  25637756.342   134727213.538       -3507.103          39.000    25637772.649   103232527.954       -2687.199          46.000  
G24  20441240.221   107419433.870        -880.041          49.000    20441240.734    83703445.729        -685.871          48.000  
G32  23782038.732   124975449.4301       1209.851          35.000    23782045.354    97383449.000         943.683          32.000  
E09  27517928.403                        1233.130          26.000    27517915.670                         945.072          28.000  
R16  20298892.377   108433034.924        -181.446          52.000    20298890.575    84336801.662        -141.132          49.000  
R17  21512574.517   115118137.273       -2890.100          52.000    21512571.796    89536313.902       -2247.896          47.000  
R09  22717420.399   121309728.114        1698.638          42.000    22717421.110    94352096.611        1321.053          42.000  
R06  21917645.927   116956692.601       -3000.989          41.000                                                                  
R15  21768478.023   116324121.314       -2481.291          48.000    21768478.187    90474312.117       -1929.735          43.000  
G29  24073900.552   126509197.766        2835.845          45.000    24073922.503    98578675.9091       2209.545          43.000  
G19  23840090.667   125280527.919       -4124.683          46.000                                                                  
S31  38795017.366   203869127.821        -752.772          44.000  
S33  39747410.287   208874001.795        -753.617          43.000  
G06  23246807.464   122162817.016        -270.159          43.000    23246808.914    95191812.688        -210.388          42.000  
G11  23358219.663   122748419.333        1419.426          46.000    23358222.353    95648196.036        1106.111          43.000  
R07  22617580.284   121073703.341         195.384          37.000    22617575.306    94168406.964         151.792          38.000  
R18  20175497.743   107698211.924         911.843          50.000    20175501.095    83765295.080         709.320          51.000  
R19  22050960.259   117957836.877        3370.281          40.000    22050973.852    91745094.267        2621.181          44.000  
E04  24757726.065   130102711.702       -1009.429          47.000    24757730.867    99689095.471        -773.383          51.000  
G12  21184400.757   111324776.603        -515.333          49.000    21184398.227    86746571.846        -401.618          45.000  
E31  26724178.804   140436541.224         846.042          42.000    26724189.439   107607266.264         648.123          47.000  
G15  23400171.108   122968474.862       -3920.386          45.000    23400192.774    95819548.443       -3054.748          42.000  
E13  26451653.909   139004380.213        -256.033          39.000    26451656.423   106509870.102        -196.008          44.000  
E26  26163063.816   137488016.088        1709.348          47.000    26163075.232   105348109.608        1309.836          50.000  
E21  25234775.906   132609625.694       -2139.665          48.000    25234777.747   101609978.061       -1639.490          50.000  
> 2024 04 16 00 31 00.5000000  0 26                     
G25  22278561.395   117074645.017         798.606          46.000    22278563.889    91227007.124         622.479          43.000  
E19  25657795.406   134832507.426       -3512.106          41.000    25657810.126   103313206.811       -2691.179          46.000  
G24  20446309.628   107446070.363        -895.165          50.000    20446309.949    83724201.358        -697.502          48.000  
G32  23775179.378   124939401.443        1194.073          36.000    23775182.295                         930.414          30.000  
R16  20299925.810   108438557.182        -186.302          52.000    20299924.349    84341096.712        -144.951          49.000  
R17  21528845.072   115205195.053       -2913.438          51.000    21528840.502    89604025.520       -2266.010          48.000  
R09  22707875.895   121258762.355        1699.305          43.000    22707876.161    94312456.660        1321.831          42.000  
R06  21934569.498   117046997.970       -3018.811          40.000                                                                  
R15  21782424.702   116398641.147       -2486.301          48.000    21782424.378    90532271.900       -1933.654          43.000  
G29  24057727.908   126424213.8473       2830.312          29.000    24057752.587    98512472.928        2205.611          35.000  
G19  23863652.853   125404348.839       -4129.700          46.000                                                                  
S31  38799314.787   203891708.382        -752.470          44.000  
S33  39751712.686   208896612.243        -753.447          43.000  
G06  23248400.207   122171187.619        -287.567          43.000    23248403.543    95198335.283        -224.101          43.000  
G11  23350146.103   122705990.668        1409.542          46.000    23350148.782    95615134.975        1098.259          44.000  
R07  22616553.716   121068220.343         171.027          34.000    22616550.111    94164142.335         132.880          38.000  
R18  20170443.673   107671233.312         887.111          50.000    20170446.601    83744311.777         689.954          50.000  
R19  22032082.991   117856858.865        3361.871          41.000    22032096.143    91666556.982        2614.812          44.000  
E04  24763529.418   130133206.742       -1023.408          46.000    24763533.828    99712461.632        -784.088          50.000  
G12  21187359.842   111340325.059        -520.932          49.000    21187356.741    86758687.492        -405.855          45.000  
E31  26719356.436   140411195.790         843.735          43.000    26719366.122   107587845.778         646.685          47.000  
G15  23422558.587   123086125.040       -3922.613          46.000    23422580.423    95911224.820       -3056.500          42.000  
E13  26453153.295   139012263.966        -269.681          37.000    26453157.226   106515910.911        -206.467          45.000  
E26  26153317.813   137436808.715        1704.539          45.000    26153330.420   105308873.268        1306.194          50.000  
E21  25246991.510   132673828.252       -2140.236          47.000    25246995.340   101659172.182       -1639.945          50.000  
E09                                                                  27510907.765                         936.973          28.000  
> 2024 04 16 00 31 30.5000000  0 26                     
G25  22274014.395   117050745.847         794.932          47.000    22274015.394    91208384.406         619.284          43.000  
E19  25677861.260   134937949.174       -3517.277          42.000    25677875.500   103393998.951       -2694.970          45.000  
G24  20451464.295   107473156.380        -910.502          51.000    20451464.572    83745307.271        -709.395          49.000  
G32  23768410.916   124903834.079        1177.826          36.000    23768410.741                         918.347          31.000  
R16  20300986.310   108444223.765        -191.380          51.000    20300984.808    84345504.017        -148.869          49.000  
R17  21545243.108   115292948.101       -2936.787          52.000    21545240.355    89672277.908       -2284.011          48.000  
R09  22698326.116   121207773.581        1699.891          42.000    22698327.789    94272798.810        1322.324          42.000  
R06  21951592.912   117137836.311       -3036.772          39.000                                                                  
R15  21796396.534   116473308.379       -2491.392          48.000    21796397.307    90590346.338       -1937.644          41.000  
G19  23887244.220   125528318.749       -4134.839          46.000                                                                  
S31  38803610.582   203914282.379        -752.205          44.000  
S33  39756013.757   208919215.185        -753.112          42.000  
G06  23250093.411   122180081.651        -305.322          42.000    23250094.993    95205265.765        -238.237          41.000  
G11  23342128.357   122663857.887        1399.385          46.000    23342131.588    95582304.486        1090.519          44.000  
R07  22615664.756   121063468.285         146.144          39.000    22615663.126    94160446.085         113.374          39.000  
R18  20165529.227   107644999.963         861.859          50.000    20165532.209    83723908.144         670.394          51.000  
R19  22013251.998   117756130.310        3353.371          41.000    22013265.295    91588213.711        2608.310          44.000  
E04  24769412.226   130164117.003       -1037.390          46.000    24769416.222    99736145.932        -794.785          50.000  
G12  21190350.041   111356036.648        -526.500          49.000    21190346.675    86770930.252        -410.087          44.000  
E31  26714544.211   140385906.850         842.121          43.000    26714553.202   107568468.612         645.200          46.000  
G15  23444957.659   123203839.530       -3925.009          46.000    23444979.637    96002951.376       -3058.412          42.000  
E13  26454726.757   139020551.061        -283.265          35.000    26454734.444   106522260.832        -216.888          45.000  
E26  26143599.100   137385741.736        1699.909          44.000    26143612.450   105269744.511        1302.484          50.000  
E21  25259210.286   132738040.613       -2140.700          46.000    25259214.740   101708373.789       -1640.209          50.000  
E09                                                                  27503958.203   110747081.720         929.658          31.000  
G29                                                                  24041605.126    98446358.4011       2200.556          37.000  
> 2024 04 16 00 32 00.5000000  0 26                     
G25  22269487.420   117026956.430         790.924          47.000    22269488.350    91189847.200         616.379          42.000  
E19  25697956.494   135043544.856       -3522.503          42.000    25697970.548   103474909.050       -2699.032          45.000  
G24  20456705.885   107500700.817        -925.837          51.000    20456706.225    83766770.408        -721.455          49.000  
G32  23761735.234   124868756.824        1160.791          37.000    23761735.153    97300311.669         904.913          33.000  
R16  20302075.655   108450043.490        -196.689          51.000    20302074.224    84350030.454        -152.882          49.000  
R17  21561771.956   115381401.391       -2960.237          51.000    21561769.842    89741074.879       -2302.285          48.000  
R09  22688775.139   121156769.823        1700.285          44.000    22688776.658    94233129.281        1322.141          41.000  
R06  21968716.764   117229211.812       -3054.944          39.000                                                                  
R15  21810399.386   116548131.780       -2496.849          49.000    21810399.285    90648542.172       -1942.037          41.000  
G29  24025475.417   126254724.4823       2818.395          34.000    24025498.476                1       2195.573          25.000  
G19  23910864.613   125652443.109       -4140.057          46.000                                                                  
S31  38807907.018   203936856.508        -752.520          44.000  
S33  39760314.985   208941819.243        -753.636          42.000  
G06  23251886.605   122189508.249        -323.464          44.000    23251887.456    95212611.207        -251.578          40.000  
G11  23334167.808   122622031.813        1389.038          44.000    23334172.633    95549713.011        1082.155          45.000  
R07  22614914.934   121059455.922         121.639          37.000    22614912.930    94157325.248          94.370          38.000  
R18  20160757.312   107619522.574         836.495          51.000    20160758.978    83704092.477         650.545          50.000  
R19  21994470.184   117655663.716        3344.204          41.000    21994483.475    91510074.168        2601.160          45.000  
E04  24775374.450   130195450.071       -1051.721          46.000    24775378.801    99760154.225        -805.815          50.000  
G12  21193371.960   111371918.621        -532.350          49.000    21193368.274    86783305.813        -414.986          44.000  
E31  26709744.411   140360682.005         839.519          43.000    26709753.390   107549140.522         643.349          46.000  
G15  23467370.067   123321623.442       -3927.499          45.000    23467392.285    96094732.025       -3060.224          42.000  
E13  26456385.113   139029250.329        -297.020          37.000    26456389.619   106528926.537        -227.564          45.000  
E26  26133910.648   137334825.273        1694.609          46.000    26133923.028   105230731.067        1298.388          50.000  
E21  25271432.722   132802270.496       -2141.398          45.000    25271437.776   101757588.855       -1640.849          50.000  
E09                                                                  27497065.736   110719315.731         921.640          33.000  
> 2024 04 16 00 32 30.0000000  0 26                     
G25  22265055.997   117003673.381         787.634          46.000    22265058.414    91171704.566         613.685          43.000  
E19  25717744.996   135147531.988       -3527.369          42.000    25717759.405   103554586.607       -2702.689          45.000  
G24  20461945.360   107528237.402        -940.882          50.000    20461946.427    83788227.406        -733.204          49.000  
G32  23755265.401   124834747.132        1144.879          41.000    23755265.972    97273810.477         892.731          34.000  
R16  20303175.906   108455919.588        -201.631          51.000    20303175.059    84354600.756        -156.861          49.000  
R17  21578153.389   115469063.573       -2982.778          50.000    21578150.074    89809256.567       -2320.007          46.000  
R09  22679381.243   121106604.952        1700.653          43.000    22679382.430    94194112.162        1323.075          42.000  
R06  21985654.199   117319587.554       -3072.352          39.000                                                                  
R15  21824197.310   116621864.177       -2501.811          48.000    21824196.280    90705889.432       -1945.573          40.000  
G29  24009669.037   126171673.9822       2812.658          42.000    24009692.675    98315667.7181       2191.328          35.000  
G19  23934119.522   125774649.920       -4144.824          45.000                                                                  
S31  38812132.278   203959057.802        -752.523          44.000  
S33  39764545.063   208964049.680        -753.612          43.000  
G06  23253750.369   122199301.526        -340.720          43.000    23253750.948    95220242.375        -265.271          41.000  
G11  23326398.689   122581208.108        1378.801          45.000    23326404.053    95517902.599        1074.501          46.000  
R07  22614311.994   121056235.860          97.177          41.000    22614310.628    94154820.700          75.533          39.000  
R18  20156202.266   107595212.840         811.742          50.000    20156204.897    83685184.968         631.434          51.000  
R19  21976051.180   117557134.905        3335.956          41.000    21976063.943    91433441.777        2594.434          45.000  
E04  24781316.604   130226676.067       -1065.374          46.000    24781321.039    99784080.463        -816.290          50.000  
G12  21196375.512   111387704.189        -537.672          48.000    21196372.078    86795606.256        -419.030          44.000  
E31  26705035.863   140335942.712         837.820          42.000    26705045.585   107530184.532         641.866          46.000  
G15  23489422.384   123437512.406       -3929.486          45.000    23489444.336    96185036.185       -3061.606          41.000  
E13  26458090.128   139038210.303        -310.497          37.000    26458094.691   106535792.021        -237.945          46.000  
E26  26124411.978   137284909.442        1689.663          46.000    26124423.643   105192484.307        1294.634          50.000  
E21  25283455.804   132865450.041       -2141.971          46.000    25283460.548   101805999.104       -1641.218          50.000  
E09                                                                  27490343.776   110692241.391         913.790          35.000  
> 2024 04 16 00 33 00.0000000  0 26                     
G25  22260569.513   116980100.675         783.914          45.000    22260573.251    91153336.225         610.878          44.000  
E19  25737897.052   135253426.967       -3532.275          42.000    25737911.071   103635726.010       -2706.316          44.000  
G24  20467361.330   107556694.106        -956.154          51.000    20467361.198    83810401.370        -745.003          48.000  
G32  23748775.752   124800647.356        1128.320          41.000    23748778.761    97247239.184         879.401          36.000  
R16  20304321.420   108462045.744        -206.766          50.000    20304322.666    84359365.532        -160.863          50.000  
R17  21594940.316   115558897.077       -3005.894          50.000    21594937.776    89879127.034       -2337.950          47.000  
R09  22669824.894   121055572.194        1701.414          46.000    22669825.086    94154420.102        1323.358          44.000  
R06  22002974.992   117412016.611       -3089.856          38.000                                                                  
R15  21838256.348   116696999.472       -2507.104          48.000    21838255.401    90764327.854       -1949.682          39.000  
G29  23993627.715   126087362.6481       2807.493          37.000    23993647.765    98249993.2381       2187.427          32.000  
G19  23957796.769   125899073.091       -4149.841          45.000                                                                  
S31  38816428.627   203981633.333        -752.363          44.000  
S33  39768847.015   208986654.589        -753.607          43.000  
G06  23255745.872   122209788.255        -358.471          43.000    23255747.410    95228413.898        -279.411          42.000  
G11  23318556.871   122539999.342        1368.359          45.000    23318561.455    95485792.123        1066.298          45.000  
R07  22613837.150   121053692.820          72.514          41.000    22613834.666    94152842.656          56.620          40.000  
R18  20151712.034   107571242.604         786.329          51.000    20151714.812    83666541.506         611.617          51.000  
R19  21957368.224   117457201.605        3326.732          41.000    21957381.294    91355716.980        2587.135          45.000  
E04  24787439.365   130258846.740       -1079.403          47.000    24787443.152    99808730.525        -827.042          50.000  
G12  21199461.406   111403922.009        -543.380          48.000    21199459.102    86808243.508        -423.483          45.000  
E31  26700258.942   140310843.532         835.578          42.000    26700269.048   107510952.789         640.322          46.000  
G15  23511859.565   123555426.196       -3931.515          46.000    23511881.009    96276918.506       -3063.262          40.000  
E13  26459900.301   139047729.065        -324.138          36.000    26459905.935   106543085.640        -248.202          46.000  
E26  26114779.254   137234297.847        1684.503          45.000    26114792.077   105153704.417        1290.715          50.000  
E21  25295685.638   132929714.300       -2142.422          46.000    25295689.506   101855240.491       -1641.436          50.000  
E09                                                                  27483565.266   110664937.144         906.128          36.000  
> 2024 04 16 00 33 30.0000000  0 26                     
G25  22256105.594   116956638.980         780.107          45.000    22256108.854    91135054.389         607.897          44.000  
E19  25758076.470   135359472.346       -3537.524          41.000    25758091.875   103716980.635       -2710.484          44.000  
G24  20472864.568   107585614.462        -971.858          50.000    20472864.689    83832936.643        -757.270          48.000  
G32  23742381.316   124767045.311        1111.749          40.000    23742383.670    97221055.674         866.235          35.000  
R16  20305498.484   108468330.076        -212.127          51.000    20305498.387    84364253.311        -165.079          51.000  
R17  21611858.249   115649424.205       -3029.254          49.000    21611853.785    89949536.996       -2355.938          44.000  
R09  22660265.572   121004527.071        1701.584          46.000    22660266.938    94114718.402        1323.233          45.000  
R06  22020395.946   117504973.036       -3107.546          40.000                                                                  
R15  21852349.763   116772295.240       -2512.646          50.000    21852347.337    90822891.108       -1954.097          40.000  
G29  23977619.510   126003229.6683       2802.429          31.000    23977643.363                1       2182.300          30.000  
G19  23981501.730   126023645.212       -4155.047          44.000                                                                  
S31  38820725.401   204004211.242        -752.701          44.000  
S33  39773148.677   209009261.752        -753.832          43.000  
G06  23257844.530   122220813.554        -376.626          44.000    23257845.696    95237005.026        -293.387          42.000  
G11  23310775.990   122499108.504        1357.634          46.000    23310780.114    95453929.396        1057.816          45.000  
R07  22613501.662   121051893.656          47.658          45.000    22613500.002    94151443.169          36.940          42.000  
R18  20147365.340   107548038.313         760.661          51.000    20147368.356    83648493.786         591.549          52.000  
R19  21938737.270   117357546.286        3317.436          40.000    21938751.096    91278208.336        2579.777          46.000  
E04  24793642.472   130291441.454       -1093.684          48.000    24793646.015    99833705.510        -837.999          51.000  
G12  21202579.709   111420310.402        -549.131          48.000    21202578.033    86821013.657        -427.990          45.000  
E31  26695495.509   140285809.318         833.333          43.000    26695505.435   107491770.810         638.542          47.000  
G15  23534308.859   123673403.759       -3933.735          46.000    23534329.589    96368850.866       -3065.323          39.000  
E13  26461790.610   139057664.399        -338.291          35.000    26461796.231   106550698.430        -259.188          45.000  
E26  26105177.211   137183845.369        1678.928          44.000    26105191.026   105115046.458        1286.544          50.000  
E21  25307918.247   132993997.911       -2143.196          45.000    25307921.955   101904496.716       -1642.194          49.000  
E09                                                                  27476840.651   110637869.058         898.338          36.000  
> 2024 04 16 00 34 00.5000000  0 26                     
G25  22251589.989   116932904.739         776.664          47.000    22251591.918    91116560.206         605.184          44.000  
E19  25778623.709   135467442.320       -3542.296          41.000    25778638.778   103799709.917       -2714.258          44.000  
G24  20478551.463   107615498.345        -987.361          50.000    20478551.967    83856222.707        -769.380          49.000  
G32  23735979.074   124733400.345        1095.044          42.000    23735980.413    97194838.714         853.656          34.000  
R16  20306726.337   108474887.268        -217.464          52.000    20306725.357    84369353.317        -169.074          49.000  
R17  21629190.686   115742173.680       -3052.335          48.000    21629187.969    90021675.434       -2374.103          46.000  
R09  22650543.981   120952624.257        1702.413          44.000    22650547.488    94074349.577        1323.984          45.000  
R06  22038208.459   117600020.672       -3124.756          39.000                                                                  
R15  21866707.372   116849016.263       -2517.872          50.000    21866705.295    90882562.910       -1958.321          42.000  
G29  23961378.014   125917901.7903       2796.277          36.000    23961396.091                        2178.040          37.000  
G19  24005632.274   126150448.712       -4159.553          42.000                                                                  
S31  38825095.715   204027173.064        -752.518          44.000  
S33  39777523.785   209032253.713        -753.961          43.000  
G06  23260083.619   122232581.037        -394.531          43.000    23260086.026    95246174.562        -307.626          43.000  
G11  23302927.758   122457870.257        1346.868          46.000    23302931.485    95421795.982        1049.635          44.000  
R07  22613301.959   121050832.801          22.252          42.000    22613303.443    94150617.926          17.535          41.000  
R18  20143094.290   107525240.426         734.765          51.000    20143097.019    83630762.166         571.495          51.000  
R19  21919851.596   117256524.940        3307.643          40.000    21919864.324    91199637.297        2572.549          45.000  
E04  24800032.059   130325018.951       -1107.812          48.000    24800035.952    99859433.538        -848.879          51.000  
G12  21205784.615   111437151.590        -554.840          48.000    21205782.538    86834136.634        -432.418          45.000  
E31  26690665.940   140260429.160         831.289          43.000    26690675.536   107472323.743         636.868          47.000  
G15  23557144.540   123793415.189       -3935.460          44.000    23557165.045    96462368.422       -3066.613          39.000  
E13  26463793.794   139068198.241        -351.932          34.000    26463800.451   106558769.845        -269.828          46.000  
E26  26095448.681   137132722.587        1673.657          44.000    26095462.254   105075874.917        1282.346          50.000  
E21  25320359.328   133059377.806       -2143.659          45.000    25320363.265   101954592.958       -1642.602          49.000  
E09                                                                  27470065.588   110610597.083         890.500          34.000  
> 2024 04 16 00 34 30.5000000  0 26                     
G25  22247165.129   116909654.719         773.634          47.000    22247167.304    91098443.346         602.888          43.000  
E19  25798858.283   135573773.734       -3546.387          41.000    25798873.859   103881183.671       -2717.243          43.000  
G24  20484230.709   107645345.805       -1002.105          50.000    20484231.521    83879480.390        -780.846          48.000  
G32  23729775.040   124700796.209        1079.138          41.000    23729775.664    97169432.801         840.515          34.000  
R16  20307961.467   108481481.961        -221.965          52.000    20307960.381    84374482.487        -172.706          51.000  
R17  21646365.304   115834079.625       -3074.421          48.000    21646361.662    90093157.818       -2391.256          44.000  
R09  22640977.961   120901544.186        1703.383          44.000    22640980.412    94034620.673        1324.769          45.000  
R06  22055823.982   117694017.654       -3140.776          39.000                                                                  
R15  21880855.034   116924626.803       -2522.396          48.000    21880854.004    90941370.948       -1962.119          38.000  
G19  24029390.384   126275302.366       -4163.459          39.000                                                                  
S31  38829391.293   204049745.867        -751.735          44.000  
S33  39781824.602   209054855.808        -752.904          43.000  
G06  23262386.641   122244685.004        -411.806          44.000    23262389.044    95255606.306        -321.027          42.000  
G11  23295267.963   122417618.598        1336.860          45.000    23295272.675    95390431.331        1041.749          44.000  
R07  22613243.299   121050524.227          -1.630          43.000    22613242.964    94150377.788          -1.241          39.000  
R18  20139037.118   107503577.393         709.722          52.000    20139038.985    83613913.215         551.970          52.000  
R19  21901326.895   117157433.274        3298.793          40.000    21901338.866    91122567.141        2565.837          45.000  
E04  24806394.987   130358456.789       -1121.038          48.000    24806399.315    99885054.548        -858.989          51.000  
G12  21208966.328   111453871.653        -559.507          48.000    21208964.410    86847165.236        -436.024          45.000  
E31  26685924.405   140235513.632         829.912          43.000    26685933.781   107453232.645         636.041          46.000  
G15  23579614.353   123911501.745       -3936.504          44.000    23579633.186    96554386.412       -3067.517          36.000  
E13  26465842.431   139078964.804        -365.578          35.000    26465848.839   106567019.584        -279.968          45.000  
E26  26085909.312   137082586.753        1669.020          45.000    26085921.147   105037459.556        1278.731          50.000  
E21  25332597.766   133123689.151       -2143.411          45.000    25332601.147   102003870.420       -1642.417          49.000  
E09                                                                  27463458.996   110584000.376         882.485          33.000  
G29                                                                  23945456.959    98052646.0581       2173.999          33.000  
> 2024 04 16 00 35 00.5000000  0 26                     
G25  22242759.908   116886507.885         770.072          47.000    22242762.660    91080406.910         599.939          44.000  
E19  25819119.834   135680242.805       -3551.108          42.000    25819135.290   103962762.903       -2720.835          44.000  
G24  20489997.854   107675653.088       -1017.749          50.000    20489998.552    83903096.367        -793.054          48.000  
G32  23723664.464   124668688.137        1062.317          39.000    23723666.081    97144413.459         827.637          37.000  
R16  20309224.466   108488230.751        -227.355          52.000    20309224.206    84379731.502        -176.793          51.000  
R17  21663667.603   115926663.501       -3097.199          46.000    21663664.050    90165167.526       -2408.892          45.000  
R09  22631409.840   120850445.782        1703.661          44.000    22631411.380    93994877.542        1325.162          43.000  
R06  22073534.562   117788523.053       -3158.518          39.000                                                                  
R15  21895035.571   117000393.107       -2527.938          49.000    21895034.391    91000300.217       -1966.230          43.000  
G29  23929535.393   125750553.573        2783.765          42.000    23929553.950    97987509.6661       2169.269          34.000  
G19  24053174.661   126400290.149       -4167.769          37.000                                                                  
S31  38833686.626   204072313.954        -752.015          44.000  
S33  39786124.602   209077453.112        -752.970          43.000  
G06  23264791.285   122257324.354        -430.234          42.000    23264793.100    95265455.167        -334.835          42.000  
G11  23287669.247   122377687.002        1325.810          47.000    23287673.660    95359316.105        1033.029          45.000  
R07  22613324.504   121050954.328         -26.545          45.000    22613322.302    94150712.173         -20.582          41.000  
R18  20135123.283   107482680.963         683.928          52.000    20135124.840    83597660.509         531.876          52.000  
R19  21882855.105   117058626.826        3289.260          40.000    21882864.775    91045718.827        2558.017          43.000  
E04  24812836.495   130392310.810       -1135.223          47.000    24812841.765    99910994.443        -869.822          52.000  
G12  21212179.313   111470753.800        -565.287          47.000    21212176.918    86860320.156        -440.515          45.000  
E31  26681192.900   140210654.962         827.930          41.000    26681203.653   107434185.157         634.239          47.000  
G15  23602092.669   124029636.468       -3938.507          44.000    23602110.612    96646442.237       -3069.022          37.000  
E13  26467971.401   139090143.295        -379.254          36.000    26467976.495   106575584.930        -290.685          46.000  
E26  26076399.774   137032609.816        1663.343          47.000    26076410.153   104999165.952        1274.480          50.000  
E21  25344838.586   133188012.728       -2144.089          45.000    25344841.505   102053157.246       -1643.020          49.000  
E09                                                                  27456912.366   110557638.000         874.817          34.000  
> 2024 04 16 00 35 30.0000000  0 26                     
G25  22238449.191   116863854.327         766.267          47.000    22238451.650    91062754.812         597.175          44.000  
E19  25839068.826   135785076.968       -3555.779          41.000    25839085.905   104043089.406       -2724.297          44.000  
G24  20495755.938   107705911.711       -1033.203          50.000    20495756.641    83926674.447        -805.035          48.000  
G32  23717749.522   124637607.726        1045.648          37.000    23717752.120    97120194.896         814.563          38.000  
R16  20310496.188   108495025.617        -232.886          52.000    20310496.325    84385016.330        -180.979          50.000  
R17  21680804.012   116018369.526       -3119.442          46.000    21680801.093    90236494.369       -2426.396          43.000  
R09  22621998.701   120800188.803        1704.056          45.000    22622000.215    93955788.864        1325.484          44.000  
R06  22091044.193   117881952.682       -3175.317          41.000                                                                  
R15  21909007.448   117075056.533       -2533.399          48.000    21909006.327    91058371.603       -1970.549          42.000  
G29  23913928.798   125668547.6653       2776.868          39.000    23913942.969                3       2165.377          29.000  
G19  24076589.282   126523330.979       -4173.027          33.000                                                                  
S31  38837910.973   204094510.372        -752.351          45.000  
S33  39790353.462   209099677.598        -753.205          43.000  
G06  23267257.453   122270283.356        -448.055          43.000    23267259.611    95275553.127        -349.079          42.000  
G11  23280258.564   122338743.076        1314.893          48.000    23280263.875    95328970.482        1024.466          46.000  
R07  22613539.552   121052105.411         -51.206          43.000    22613538.091    94151607.320         -39.774          39.000  
R18  20131414.285   107462889.907         658.436          51.000    20131417.134    83582267.522         512.122          52.000  
R19  21864745.509   116961756.606        3278.689          40.000    21864755.907    90970376.344        2550.422          44.000  
E04  24819249.745   130426013.203       -1149.179          46.000    24819255.227    99936818.149        -880.438          51.000  
G12  21215369.498   111487518.903        -570.775          48.000    21215367.084    86873383.877        -444.806          45.000  
E31  26676551.843   140186272.824         825.631          40.000    26676564.171   107415502.803         632.646          48.000  
G15  23624204.842   124145853.330       -3940.148          43.000    23624223.640    96737003.647       -3070.230          38.000  
E13  26470143.637   139101544.942        -393.220          39.000    26470146.247   106584321.282        -301.253          46.000  
E26  26067079.455   136983630.107        1657.780          47.000    26067089.130   104961636.427        1270.237          49.000  
E21  25356878.448   133251283.269       -2144.938          45.000    25356881.287   102101637.200       -1643.479          48.000  
E09                                                                  27450533.665   110531950.164         867.029          35.000  
> 2024 04 16 00 36 00.0000000  0 26                     
G25  22234086.077   116840922.494         762.885          48.000    22234087.635    91044885.867         594.528          44.000  
E19  25859382.498   135891824.723       -3560.271          41.000    25859400.279   104124882.146       -2728.045          45.000  
G24  20501699.702   107737145.114       -1048.701          49.000    20501700.405    83951012.086        -817.170          48.000  
G32  23711830.930   124606499.855        1028.656          37.000    23711832.012    97095954.907         801.648          37.000  
R16  20311819.797   108502094.466        -238.039          52.000    20311819.090    84390514.296        -185.139          49.000  
R17  21698355.837   116112300.142       -3141.792          43.000    21698354.151    90309551.575       -2443.842          45.000  
R09  22612424.598   120749066.349        1704.328          44.000    22612425.183    93916027.033        1325.918          42.000  
R06  22108944.116   117977466.273       -3192.087          41.000                                                                  
R15  21923246.952   117151145.266       -2538.854          47.000    21923246.097    91117551.582       -1974.579          44.000  
G29  23898094.481   125585331.1672       2771.234          39.000    23898106.157                        2159.271          26.000  
G19  24100425.312   126648589.583       -4176.965          33.000                                                                  
S31  38842206.689   204117082.569        -752.092          44.000  
S33  39794653.921   209122277.728        -753.139          43.000  
G06  23269867.746   122283999.110        -465.907          43.000    23269869.225    95286240.753        -363.058          41.000  
G11  23272785.263   122299466.431        1303.967          48.000    23272788.233    95298365.575        1015.938          46.000  
R07  22613897.288   121054013.052         -75.859          45.000    22613895.135    94153090.833         -58.840          42.000  
R18  20127787.364   107443532.455         632.479          51.000    20127790.289    83567211.776         491.959          51.000  
R19  21846384.337   116863540.214        3268.884          41.000    21846394.472    90893986.863        2542.517          45.000  
E04  24825851.486   130460702.788       -1163.126          46.000    24825856.587    99963398.286        -891.205          51.000  
G12  21218644.806   111504731.978        -576.331          47.000    21218642.358    86886796.634        -448.997          45.000  
E31  26671844.948   140161537.062         823.600          40.000    26671857.112   107396549.483         631.245          48.000  
G15  23646701.907   124264085.812       -3941.590          44.000    23646720.458    96829135.704       -3071.620          39.000  
E13  26472429.027   139113553.728        -407.021          39.000    26472431.626   106593522.834        -311.880          47.000  
E26  26057631.872   136933986.158        1652.199          46.000    26057642.015   104923597.958        1265.921          50.000  
E21  25369125.427   133315642.219       -2145.354          45.000    25369128.781   102150951.138       -1643.864          49.000  
E09                                                                  27444105.455   110506064.640         858.988          36.000  
> 2024 04 16 00 36 30.0000000  0 25                     
G25  22229741.470   116818093.431         759.132          48.000    22229743.893    91027097.017         591.692          44.000  
E19  25879722.448   135998705.041       -3564.866          42.000    25879739.938   104206776.439       -2731.469          45.000  
G24  20507731.447   107768841.602       -1064.394          49.000    20507731.966    83975710.580        -829.543          48.000  
G32  23706007.749   124575893.512        1011.737          38.000    23706008.696    97072105.721         788.495          39.000  
R16  20313173.647   108509320.678        -243.494          52.000    20313171.670    84396134.653        -189.443          49.000  
R17  21716036.727   116206899.660       -3164.567          45.000    21716033.492    90383128.913       -2461.281          45.000  
R09  22602848.604   120697927.232        1704.703          45.000    22602848.029    93876252.262        1325.911          42.000  
R06  22126936.484   118073476.639       -3208.374          40.000                                                                  
R15  21937514.935   117227392.696       -2544.347          47.000    21937514.008    91176855.002       -1979.072          43.000  
G29  23882290.328   125502249.2163       2763.678          37.000    23882315.974                        2152.185          31.000  
S31  38846502.055   204139651.058        -752.309          44.000  
S33  39798953.920   209144874.807        -753.139          43.000  
G06  23272580.888   122298254.090        -484.268          43.000    23272581.294    95297348.591        -377.259          40.000  
G11  23265372.938   122260519.207        1292.656          48.000    23265376.995    95268017.362        1007.261          46.000  
R07  22614391.380   121056660.971        -100.691          40.000    22614388.239    94155150.194         -78.270          42.000  
R18  20124306.924   107424949.073         606.497          52.000    20124309.141    83552758.113         471.596          51.000  
R19  21828078.564   116765623.414        3258.695          41.000    21828089.938    90817830.378        2534.623          46.000  
E04  24832531.328   130495807.831       -1177.103          45.000    24832536.811    99990296.778        -901.992          51.000  
G12  21221951.807   111522105.865        -581.911          48.000    21221948.522    86900334.700        -453.374          45.000  
E31  26667149.093   140136857.440         821.711          42.000    26667160.868   107377639.197         629.566          48.000  
G15  23669206.802   124382359.064       -3943.189          44.000    23669223.830    96921299.920       -3072.619          39.000  
E13  26474793.240   139125976.984        -421.129          40.000    26474796.040   106603041.950        -322.609          47.000  
E26  26048216.216   136884508.117        1646.414          46.000    26048226.195   104885686.630        1261.551          50.000  
E21  25381374.177   133380013.690       -2145.960          44.000    25381378.006   102200274.680       -1644.350          49.000  
E09                                                                  27437734.766   110480417.171         850.978          35.000  
> 2024 04 16 00 37 00.5000000  0 25                     
G25  22225345.398   116794993.379         755.452          47.000    22225348.519    91009096.979         588.761          44.000  
E19  25900426.892   136107504.945       -3569.620          42.000    25900445.237   104290141.542       -2735.091          45.000  
G24  20513954.529   107801546.606       -1080.212          48.000    20513956.125    84001194.915        -841.853          49.000  
G32  23700184.301   124545297.415         994.293          38.000    23700187.296    97048264.580         774.738          40.000  
E09  27431336.077                3       1098.702          25.000    27431320.446   110454590.928         842.756          35.000  
R16  20314580.603   108516834.993        -249.183          52.000    20314578.558    84401979.093        -193.899          48.000  
R17  21734138.789   116303763.225       -3187.204          45.000    21734134.807    90458467.246       -2479.010          46.000  
R09  22593109.590   120645923.154        1705.108          45.000    22593110.265    93835804.726        1326.075          42.000  
R06  22145324.112   118171596.839       -3225.530          40.000                                                                  
R15  21952052.987   117305078.643       -2549.906          48.000    21952052.434    91237277.283       -1983.318          45.000  
S31  38850869.336   204162596.963        -752.299          44.000  
S33  39803325.909   209167848.322        -753.547          41.000  
G06  23275443.511   122313305.025        -502.916          40.000    23275446.041    95309076.618        -391.767          40.000  
G11  23257903.242   122221268.116        1281.103          48.000    23257907.243    95237432.389         998.160          45.000  
R07  22615036.005   121060117.037        -126.222          38.000    22615035.292    94157838.190         -98.024          45.000  
R18  20120918.150   107406856.590         579.825          52.000    20120919.742    83538686.246         450.967          51.000  
R19  21809528.403   116666390.796        3248.104          42.000    21809538.622    90740650.477        2526.268          46.000  
E04  24839404.102   130531927.950       -1191.500          45.000    24839410.434   100017973.059        -913.021          51.000  
G12  21225345.206   111539938.063        -587.535          48.000    21225342.392    86914229.935        -457.936          46.000  
E31  26662387.558   140111828.233         819.586          43.000    26662397.781   107358461.011         627.985          48.000  
G15  23692093.739   124502648.324       -3944.659          44.000    23692110.015    97015036.288       -3074.054          39.000  
E13  26477278.278   139139037.380        -435.347          39.000    26477281.361   106613049.277        -333.671          47.000  
E26  26038676.664   136834382.276        1640.415          46.000    26038687.572   104847278.940        1256.975          50.000  
E21  25393832.043   133445475.288       -2146.547          45.000    25393835.304   102250433.524       -1644.819          49.000  
G29                                                                  23866300.372    97728519.6681       2148.456          39.000  
> 2024 04 16 00 37 30.5000000  0 26                     
G25  22221043.434   116772386.700         751.820          48.000    22221047.253    90991481.410         585.816          45.000  
E19  25920819.029   136214662.477       -3573.956          42.000    25920837.345   104372248.209       -2738.550          45.000  
G24  20520167.468   107834195.938       -1096.077          48.000    20520168.770    84026635.859        -854.011          48.000  
G32  23694553.229   124515723.666         977.350          36.000    23694559.872    97025219.984         761.572          41.000  
R16  20315995.982   108524398.878        -254.824          52.000    20315995.007    84407862.087        -198.195          51.000  
R17  21752069.811   116399719.031       -3209.518          42.000    21752065.994    90533099.528       -2496.386          44.000  
R09  22583530.403   120594766.974        1705.512          47.000    22583532.821    93796016.631        1326.466          43.000  
R06  22163504.609   118268613.379       -3241.962          39.000                                                                  
R15  21966384.660   117381664.143       -2555.519          48.000    21966385.739    91296843.568       -1987.552          46.000  
G19  24172487.279                1      -4190.866          30.000                                                                  
S31  38855165.961   204185175.050        -752.510          45.000  
S33  39807628.301   209190453.706        -753.606          42.000  
G06  23278367.157   122328666.752        -520.892          39.000    23278369.786    95321046.846        -406.088          40.000  
G11  23250622.911   122183010.281        1269.651          48.000    23250626.394    95207621.346         989.311          45.000  
R07  22615815.060   121064275.463        -150.989          40.000    22615813.237    94161072.408        -117.668          45.000  
R18  20117733.024   107389857.934         553.610          52.000    20117735.350    83525465.140         430.569          51.000  
R19  21791341.477   116569107.775        3237.491          41.000    21791351.273    90664986.868        2518.000          45.000  
E04  24846246.478   130567885.674       -1205.524          45.000    24846253.282   100045524.897        -923.692          51.000  
G12  21228715.707   111557650.562        -593.040          48.000    21228712.874    86928031.887        -462.085          45.000  
E31  26657716.444   140087276.780         817.375          44.000    26657725.650   107339648.922         626.466          48.000  
G15  23714610.219   124621118.2593      -3946.100          46.000    23714623.895    97107429.3871      -3073.065          29.000  
E13  26479802.739   139152314.462        -449.463          38.000    26479807.452   106623222.668        -344.304          46.000  
E26  26029328.510   136785261.510        1634.493          46.000    26029340.106   104809641.366        1252.368          51.000  
E21  25406088.631   133509887.895       -2147.258          44.000    25406093.099   102299788.592       -1645.330          50.000  
E09                                                                  27425073.782   110429439.324         833.913          34.000  
G29                                                                  23850573.598                1       2142.303          32.000  
> 2024 04 16 00 38 00.5000000  0 26                     
G25  22216761.133   116749881.003         748.440          49.000    22216763.849    90973944.511         583.105          44.000  
E19  25941235.031   136321945.847       -3578.132          41.000    25941253.628   104454451.272       -2741.831          44.000  
G24  20526468.571   107867310.227       -1111.622          48.000    20526470.011    84052439.133        -866.132          48.000  
G32  23689022.461   124486655.554         960.291          37.000    23689027.915    97002569.377         748.401          40.000  
R16  20317441.607   108532122.489        -260.232          52.000    20317440.810    84413869.344        -202.413          50.000  
R17  21770124.579   116496333.429       -3231.365          44.000    21770119.193    90608244.111       -2513.466          45.000  
R09  22573947.283   120543593.928        1705.953          45.000    22573949.157    93756215.471        1326.886          44.000  
R06  22181777.407   118366113.462       -3257.945          40.000                                                                  
R15  21980747.790   117458409.331       -2561.003          48.000    21980747.228    91356534.187       -1991.911          44.000  
G29  23834860.699   125253009.0582       2743.921          35.000    23834883.826    97599858.4751       2137.756          37.000  
G19  24196410.238   127153090.3221      -4194.545          35.000                                                                  
S31  38859462.535   204207748.466        -752.707          45.000  
S33  39811929.144   209213053.951        -753.452          42.000  
G06  23281393.239   122344570.053        -539.316          41.000    23281395.384    95333439.049        -420.287          40.000  
G11  23243406.164   122145089.846        1258.343          48.000    23243408.739    95178073.240         980.517          44.000  
R07  22616730.655   121069174.149        -175.436          42.000    22616728.227    94164882.364        -136.655          44.000  
R18  20114694.843   107373639.210         527.523          52.000    20114696.885    83512850.642         410.262          51.000  
R19  21773213.626   116472137.294        3226.931          42.000    21773222.625    90589566.279        2509.848          45.000  
E04  24853169.000   130604256.742       -1219.325          46.000    24853174.751   100073393.444        -934.321          51.000  
G12  21232116.110   111575521.410        -598.479          48.000    21232113.083    86941957.251        -466.435          45.000  
E31  26653054.492   140062779.397         815.663          43.000    26653063.375   107320878.294         624.841          48.000  
G15  23737139.042   124739513.6131      -3948.029          43.000    23737148.032                1      -3076.764          38.000  
E13  26482406.968   139166007.079        -463.432          39.000    26482413.174   106633714.461        -355.162          46.000  
E26  26020013.865   136736312.385        1628.787          46.000    26020025.265   104772135.269        1247.952          51.000  
E21  25418348.104   133574311.997       -2147.660          44.000    25418352.895   102349152.464       -1645.607          51.000  
E09                                                                  27418884.967                         826.291          31.000  
> 2024 04 16 00 38 30.5000000  0 26                     
G25  22212498.408   116727479.021         745.071          48.000    22212500.196    90956488.418         580.478          43.000  
E19  25961676.215   136429356.095       -3582.530          41.000    25961693.994   104536751.530       -2744.972          44.000  
G24  20532859.508   107900893.384       -1127.254          48.000    20532861.120    84078607.743        -878.291          49.000  
G32  23683590.436   124458097.635         943.480          38.000    23683593.676    96980316.372         735.092          41.000  
R16  20318918.362   108540009.945        -265.552          52.000    20318917.227    84420003.979        -206.506          50.000  
R17  21788302.154   116593606.288       -3253.222          46.000    21788298.872    90683900.788       -2530.299          47.000  
R09  22564361.053   120492407.475        1706.738          44.000    22564362.328    93716403.919        1327.200          42.000  
R06  22200139.565   118464096.289       -3273.754          40.000                                                                  
R15  21995139.139   117535318.115       -2566.374          47.000    21995140.531    91416351.984       -1995.870          45.000  
G29  23819213.853   125170826.3383       2737.335          46.000    23819238.566                        2132.740          27.000  
G19  24220367.799   127278980.593       -4198.460          34.000                                                                  
S31  38863758.580   204230321.556        -752.142          44.000  
S33  39816229.369   209235653.091        -752.878          43.000  
G06  23284524.672   122361018.830        -557.281          42.000    23284524.539    95346256.307        -434.212          39.000  
G11  23236255.978   122107512.793        1246.817          49.000    23236258.361    95148792.704         971.587          45.000  
R07  22617785.098   121074816.354        -200.220          42.000    22617783.416    94169270.587        -155.730          44.000  
R18  20111803.386   107358205.839         501.463          52.000    20111806.144    83500846.980         390.063          52.000  
R19  21755144.431   116375487.344        3216.150          41.000    21755154.900    90514395.006        2501.559          46.000  
E04  24860169.353   130641043.641       -1232.959          46.000    24860175.126   100101580.613        -944.758          51.000  
G12  21235547.048   111593552.624        -603.555          48.000    21235544.175    86956007.562        -470.560          45.000  
E31  26648402.697   140038338.658         813.764          42.000    26648412.344   107302151.026         623.581          47.000  
G15  23759664.177   124857873.8943      -3948.395          44.000    23759673.170                       -3075.653          35.000  
E13  26485091.840   139180118.812        -477.137          39.000    26485098.540   106644527.372        -365.708          46.000  
E26  26010732.355   136687540.050        1622.804          46.000    26010743.430   104734764.621        1243.527          51.000  
E21  25430610.511   133638750.511       -2148.218          44.000    25430615.180   102398527.354       -1645.916          51.000  
E09                                                                  27412758.191   110379861.738         818.353          30.000  
> 2024 04 16 00 39 00.0000000  0 26                     
G25  22208325.944   116705554.960         741.517          48.000    22208327.384    90939404.719         578.015          42.000  
E19  25981799.851   136535101.874       -3586.700          42.000    25981817.597   104617776.432       -2748.017          44.000  
G24  20539232.195   107934378.563       -1142.756          49.000    20539233.174    84104700.000        -890.603          48.000  
G32  23678342.517   124430518.395         926.414          39.000    23678345.676    96958826.023         722.108          40.000  
R16  20320400.726   108547930.796        -271.201          52.000    20320399.919    84426164.585        -210.941          50.000  
R17  21806294.396   116689901.005       -3274.811          44.000    21806292.847    90758796.682       -2547.135          47.000  
R09  22554933.047   120442064.904        1706.660          44.000    22554934.294    93677248.635        1327.278          43.000  
R06  22218283.664   118560916.275       -3289.451          39.000                                                                  
R15  22009320.806   117611108.990       -2571.870          46.000    22009321.225    91475300.359       -2000.392          42.000  
G29  23803870.127   125090159.6133       2730.859          42.000    23803888.337    97472962.331        2129.004          31.000  
G19  24243947.451   127402890.805       -4202.384          33.000                                                                  
S31  38867983.387   204252520.190        -752.512          44.000  
S33  39820459.266   209257877.447        -753.661          41.000  
G06  23287704.443   122377730.121        -575.454          41.000    23287704.696    95359278.121        -448.218          39.000  
G11  23229289.574   122070903.421        1235.330          49.000    23229292.148    95120266.174         962.540          45.000  
R07  22618955.189   121081093.506        -225.072          43.000    22618955.461    94174152.661        -174.760          43.000  
R18  20109104.225   107343801.380         475.418          52.000    20109107.165    83489643.575         369.767          51.000  
R19  21737436.980   116280767.979        3205.484          41.000    21737446.676    90440725.291        2493.042          46.000  
E04  24867130.923   130677626.233       -1246.900          46.000    24867136.396   100129611.232        -955.453          50.000  
G12  21238951.472   111611443.429        -609.019          47.000    21238948.537    86969948.461        -474.846          45.000  
E31  26643839.656   140014363.869         811.779          42.000    26643849.974   107283780.829         621.963          47.000  
G15  23781831.494   124974364.3181      -3948.883          43.000    23781841.012    97382666.6581      -3076.837          38.000  
E13  26487812.193   139194408.391        -491.261          41.000    26487817.575   106655476.550        -376.428          46.000  
E26  26001638.332   136639758.835        1616.746          45.000    26001650.621   104698153.398        1238.871          50.000  
E21  25442671.633   133702132.809       -2148.758          44.000    25442676.256   102447092.959       -1646.408          51.000  
E09                                                                  27406794.691                         810.147          29.000  
> 2024 04 16 00 39 30.0000000  0 26                     
G25  22204102.706   116683361.395         737.794          48.000    22204103.983    90922111.040         575.114          42.000  
E19  26002288.351   136642761.675       -3590.861          42.000    26002305.774   104700267.916       -2751.383          44.000  
G24  20545800.635   107968897.670       -1158.650          49.000    20545801.986    84131597.938        -902.852          48.000  
G32  23673102.634   124402980.540         909.485          41.000    23673105.108    96937367.898         708.482          40.000  
R16  20321939.310   108556150.366        -276.882          52.000    20321939.189    84432557.553        -215.365          51.000  
R17  21824716.097   116788474.122       -3296.678          45.000    21824714.358    90835464.676       -2564.258          48.000  
R09  22545342.965   120390856.254        1707.219          43.000    22545344.481    93637419.740        1327.879          43.000  
R06  22236824.543   118659847.627       -3305.837          39.000                                                                  
R15  22023777.492   117688347.937       -2577.524          47.000    22023776.029    91535375.012       -2004.639          44.000  
G19  24267946.312   127529014.597       -4206.096          35.000                                                                  
S31  38872279.960   204275093.766        -752.704          44.000  
S33  39824760.468   209280477.598        -753.176          42.000  
G06  23291041.698   122395267.368        -593.761          37.000    23291042.037    95372943.553        -462.646          39.000  
G11  23222270.773   122034019.610        1223.440          49.000    23222273.638    95091525.808         953.267          46.000  
R07  22620286.645   121088214.591        -249.891          45.000    22620285.410    94179691.213        -194.294          44.000  
R18  20106506.873   107329935.481         448.830          52.000    20106508.771    83478859.042         349.168          50.000  
R19  21719490.613   116184769.761        3194.143          41.000    21719500.250    90366060.916        2484.342          46.000  
E04  24874288.332   130715240.116       -1260.809          46.000    24874293.989   100158432.058        -966.009          50.000  
G12  21242443.326   111629795.287        -614.534          47.000    21242440.907    86984248.595        -478.841          45.000  
E31  26639211.651   139990037.895         809.817          43.000    26639220.641   107265141.509         620.652          47.000  
G15  23804377.195   125092846.2903      -3947.284          31.000    23804386.137    97474983.977       -3078.510          35.000  
E13  26490657.944   139209356.773        -505.324          41.000    26490662.085   106666930.529        -387.206          46.000  
E26  25992426.215   136591347.143        1610.738          44.000    25992437.540   104661059.093        1233.963          50.000  
E21  25454941.383   133766603.439       -2149.278          45.000    25454944.358   102496492.482       -1646.879          50.000  
E09                                                                  27400790.707                         801.709          29.000  
G29                                                                  23788316.162    97409167.5541       2121.436          31.000  
> 2024 04 16 00 40 00.5000000  0 26                     
G25  22199829.358   116660901.964         734.818          47.000    22199829.877    90904610.220         572.520          42.000  
E19  26023141.328   136752338.577       -3594.786          42.000    26023158.817   104784228.284       -2754.195          44.000  
G24  20552571.456   108004473.819       -1174.065          50.000    20552571.827    84159319.515        -915.009          48.000  
G32  23667875.616   124375510.082         891.954          42.000    23667877.634    96915962.245         695.208          40.000  
R16  20323535.255   108564676.473        -282.235          51.000    20323535.530    84439188.928        -219.427          50.000  
R17  21843567.680   116889353.640       -3318.243          47.000    21843566.402    90913926.530       -2580.791          49.000  
R09  22535591.676   120338779.647        1707.757          45.000    22535592.301    93596915.816        1328.108          43.000  
R06  22255763.603   118760908.515       -3321.128          39.000                                                                  
R15  22038504.210   117767042.789       -2582.784          48.000    22038504.029    91596581.968       -2008.728          44.000  
G19  24292368.708   127657354.140       -4209.382          37.000                                                                  
S31  38876647.188   204298041.624        -752.213          45.000  
S33  39829132.479   209303451.483        -753.115          44.000  
G06  23294539.867   122413657.643        -612.119          38.000    23294541.204    95387273.676        -476.985          40.000  
G11  23215203.172   121996880.544        1211.839          48.000    23215205.091    95062586.524         944.222          45.000  
R07  22621780.648   121096215.799        -274.827          43.000    22621781.160    94185914.240        -213.721          43.000  
R18  20104018.755   107316648.468         422.448          53.000    20104019.982    83468524.740         328.607          51.000  
R19  21701308.760   116087512.241        3183.185          41.000    21701318.041    90290417.100        2475.868          45.000  
E04  24881645.665   130753904.256       -1274.571          45.000    24881651.974   100188057.628        -976.614          51.000  
G12  21246025.223   111648614.690        -619.512          47.000    21246022.798    86998913.054        -482.785          46.000  
E31  26634515.215   139965361.877         808.275          42.000    26634525.371   107246233.983         619.295          48.000  
G15  23827302.829                3      -3950.281          40.000    23827312.786                1      -3072.833          28.000  
E13  26493633.565   139224984.335        -519.294          43.000    26493636.324   106678904.916        -397.881          46.000  
E26  25983096.400   136542315.038        1604.620          46.000    25983106.863   104623489.389        1229.520          50.000  
E21  25467416.906   133832161.799       -2149.523          46.000    25467420.116   102546725.479       -1647.065          51.000  
E09                                                                  27394749.468   110307344.728         793.127          29.000  
G29                                                                  23772519.621    97344508.872        2117.389          38.000  
> 2024 04 16 00 40 30.5000000  0 26                     
G25  22195644.186   116638909.065         731.169          48.000    22195645.324    90887472.894         569.839          43.000  
E19  26043673.332   136860233.996       -3598.589          41.000    26043691.400   104866900.288       -2757.323          44.000  
G24  20559319.909   108039937.751       -1190.096          50.000    20559319.979    84186953.665        -927.327          47.000  
G32  23662831.054   124349005.496         874.810          40.000    23662833.958    96895309.243         681.595          40.000  
R16  20325135.180   108573227.450        -288.011          51.000    20325135.016    84445839.650        -223.848          48.000  
R17  21862232.526   116989225.098       -3339.922          49.000    21862229.911    90991604.323       -2597.802          48.000  
R09  22525997.006   120287539.779        1708.102          45.000    22525995.879    93557062.617        1328.537          42.000  
R06  22274478.757   118860777.595       -3337.113          37.000                                                                  
R15  22053020.518   117844610.246       -2588.477          47.000    22053020.028    91656912.115       -2013.175          44.000  
G29  23757016.378                3       2708.625          33.000    23757026.855    97281057.953        2111.981          41.000  
G19  24316410.629   127783695.416       -4213.499          37.000                                                                  
S31  38880941.934   204320607.215        -752.349          44.000  
S33  39833432.041   209326044.588        -753.540          41.000  
G06  23298086.351   122432295.295        -630.338          38.000    23298089.204    95401796.540        -491.382          40.000  
G11  23208317.720   121960703.134        1199.806          47.000    23208320.560    95034396.603         934.983          45.000  
R07  22623391.193   121104830.634        -299.535          46.000    22623390.107    94192614.535        -232.959          43.000  
R18  20101719.340   107304374.280         395.735          52.000    20101720.914    83458978.206         307.814          51.000  
R19  21683488.250   115992185.653        3171.492          42.000    21683496.910    90216275.041        2466.721          45.000  
E04  24888960.725   130792346.789       -1288.520          45.000    24888968.027   100217513.390        -987.199          51.000  
G12  21249577.190   111667280.500        -624.919          48.000    21249575.570    87013457.835        -486.981          46.000  
E31  26629906.034   139941140.792         806.313          42.000    26629916.032   107227675.046         617.739          48.000  
G15  23849854.391   125331830.9703      -3950.122          50.000    23849865.813    97661215.7141      -3079.578          37.000  
E13  26496638.298   139240775.596        -533.482          44.000    26496641.819   106691004.714        -408.765          46.000  
E26  25973954.139   136494268.674        1598.288          47.000    25973963.143   104586674.990        1224.674          50.000  
E21  25479688.823   133896654.777       -2150.220          45.000    25479692.613   102596142.120       -1647.508          51.000  
E09                                                                  27388869.093                         784.858          30.000  
> 2024 04 16 00 41 00.5000000  0 26                     
G25  22191477.585   116617016.942         727.939          47.000    22191479.867    90870414.102         567.171          43.000  
E19  26064227.431   136968245.462       -3602.419          40.000    26064246.271   104949661.193       -2760.111          44.000  
G24  20566157.824   108075873.119       -1205.635          49.000    20566158.591    84214955.167        -939.515          48.000  
G32  23657886.190   124323017.268         857.714          40.000    23657888.539    96875058.588         668.236          40.000  
E09  27383055.105                        1014.092          31.000    27383050.446                         776.516          30.000  
R16  20326768.431   108581946.077        -293.416          51.000    20326767.184    84452620.836        -228.255          49.000  
R17  21881015.863   117089737.094       -3361.007          50.000    21881012.670    91069780.370       -2614.229          49.000  
R09  22516396.787   120236286.749        1708.679          44.000    22516398.037    93517199.187        1329.083          44.000  
R06  22293280.468   118961106.949       -3352.007          37.000                                                                  
R15  22067565.703   117922343.520       -2593.890          47.000    22067567.550    91717371.179       -2017.504          45.000  
G19  24340471.202   127910142.514       -4217.092          36.000                                                                  
S31  38885236.359   204343170.191        -751.993          45.000  
S33  39837730.089   209348690.0691       -753.202          40.000  
G06  23301738.041   122451481.675        -648.752          38.000    23301738.467    95416746.998        -505.484          40.000  
G11  23201501.227   121924882.076        1188.096          48.000    23201503.582    95006484.387         925.811          45.000  
R07  22625137.474   121114188.001        -323.972          41.000    22625137.519    94199892.426        -252.102          41.000  
R18  20099568.494   107292894.154         369.337          52.000    20099570.540    83450049.276         287.327          52.000  
R19  21665731.363   115897200.454        3160.484          42.000    21665738.560    90142398.396        2458.116          45.000  
E04  24896355.191   130831201.133       -1302.019          46.000    24896362.065   100247284.729        -997.642          52.000  
G12  21253158.929   111686102.946        -629.879          48.000    21253157.076    87028124.679        -490.869          47.000  
E31  26625306.404   139916972.806         804.581          41.000    26625316.834   107209156.813         616.621          47.000  
G15  23872410.797   125450361.175       -3951.379          39.000    23872424.024                3      -3078.091          29.000  
E13  26499721.728   139256987.349        -547.176          42.000    26499726.307   106703426.703        -419.333          45.000  
E26  25964845.518   136446408.427        1592.252          47.000    25964855.450   104550003.211        1219.926          50.000  
E21  25491964.199   133961160.546       -2150.595          45.000    25491967.895   102645568.560       -1647.660          51.000  
G29                                                                  23741572.455    97217768.3761       2105.237          27.000  
> 2024 04 16 00 41 30.5000000  0 26                     
G25  22187332.186   116595234.947         724.504          45.000    22187334.838    90853441.130         564.642          43.000  
E19  26084804.478   137076380.223       -3606.498          39.000    26084825.048   105032516.578       -2763.454          45.000  
G24  20573087.369   108112290.176       -1221.808          48.000    20573088.621    84243332.024        -952.088          48.000  
G32  23653041.470   124297556.355         840.027          41.000    23653043.494    96855218.835         654.584          39.000  
E09  27377290.441   143868688.7911       1002.378          32.000    27377294.320                         768.339          29.000  
R16  20328434.083   108590843.534        -299.567          51.000    20328433.184    84459541.074        -233.090          50.000  
R17  21899918.492   117190896.272       -3382.710          49.000    21899916.802    91148459.706       -2630.870          49.000  
R09  22506797.492   120185030.674        1708.520          43.000    22506799.920    93477333.386        1329.083          45.000  
R06  22312170.055   119061901.964       -3367.619          39.000                                                                  
R15  22082146.019   118000252.707       -2599.827          46.000    22082147.059    91777967.128       -2022.114          45.000  
G29  23726141.244   124681935.4261       2696.466          33.000    23726158.812    97154655.0601       2100.714          42.000  
G19  24364554.835   128036702.647       -4220.483          39.000                                                                  
S31  38889531.379   204365739.914        -752.280          45.000  
S33  39842030.185   209371285.912        -753.162          39.000  
G06  23305496.678   122471227.170        -667.521          36.000    23305496.119    95432133.154        -520.349          41.000  
G11  23194755.307   121889429.825        1175.647          48.000    23194757.080    94978859.474         916.201          45.000  
R07  22627022.898   121124297.555        -349.201          40.000    22627026.203    94207755.287        -271.665          41.000  
R18  20097568.175   107282219.642         342.368          52.000    20097570.836    83441746.914         266.263          52.000  
R19  21648039.795   115802571.485        3148.477          42.000    21648049.139    90068798.882        2448.709          45.000  
E04  24903829.611   130870476.317       -1316.183          46.000    24903835.952   100277378.496       -1008.494          52.000  
G12  21256772.395   111705090.602        -635.555          48.000    21256770.159    87042920.271        -495.198          46.000  
E31  26620719.618   139892867.092         802.491          42.000    26620729.475   107190686.296         614.994          47.000  
G15  23894967.797   125568904.3911      -3951.471          47.000    23894979.320    97845931.8421      -3078.955          42.000  
E13  26502887.258   139273629.577        -561.789          43.000    26502893.260   106716178.573        -430.527          45.000  
E26  25955774.958   136398746.001        1585.570          46.000    25955785.009   104513482.992        1214.850          49.000  
E21  25504243.081   134025688.594       -2151.161          45.000    25504247.183   102695012.092       -1648.417          51.000  
> 2024 04 16 00 42 00.0000000  0 26                     
G25  22183276.283   116573921.855         720.709          46.000    22183278.673    90836833.538         561.431          43.000  
E19  26105061.796   137182830.014       -3610.462          39.000    26105083.388   105114080.867       -2766.331          46.000  
G24  20579990.734   108148569.538       -1237.850          48.000    20579993.072    84271601.576        -964.503          48.000  
G32  23648375.610   124273034.197         822.779          42.000    23648376.245    96836110.559         641.235          38.000  
E09  27371696.306                         990.944          31.000    27371696.189   110214513.751         759.751          29.000  
R16  20330104.719   108599766.451        -305.414          51.000    20330103.886    84466481.116        -237.563          50.000  
R17  21918625.780   117290995.851       -3403.732          49.000    21918623.934    91226314.918       -2647.353          49.000  
R09  22497359.749   120134625.100        1708.715          44.000    22497359.945    93438129.117        1329.110          44.000  
R06  22330828.874   119161466.090       -3382.367          39.000    22330338.430                3      -2247.891          14.000  
R15  22096515.010   118077034.536       -2605.660          48.000    22096516.119    91837686.186       -2026.491          46.000  
G29  23711030.160   124602310.8491       2687.415          27.000    23711043.951    97092761.030        2095.428          39.000  
G19  24388258.511   128161259.834       -4224.120          43.000                                                                  
S31  38893757.014   204388073.6733       -752.780          50.000  
S33  39846259.580   209393500.2491       -753.475          36.000  
G06  23309291.925   122491188.241        -686.235          35.000    23309295.443    95447687.307        -534.432          42.000  
G11  23188189.635   121854929.558        1163.364          47.000    23188192.179    94951976.397         906.492          45.000  
R07  22629020.595   121134970.784        -374.027          46.000    22629020.437    94216056.487        -291.035          42.000  
R18  20095749.485   107272509.255         315.903          53.000    20095752.233    83434194.468         245.657          52.000  
R19  21630709.647   115709870.225        3136.342          41.000    21630719.431    89996698.671        2439.485          46.000  
E04  24911257.723   130909505.496       -1329.899          47.000    24911263.001   100307283.773       -1019.039          52.000  
G12  21260355.431   111723921.261        -641.141          48.000    21260352.879    87057593.511        -499.576          46.000  
E31  26616221.232   139869222.206         800.584          43.000    26616229.662   107172568.879         613.369          47.000  
G15  23917154.146   125685481.639       -3951.391          38.000    23917166.465                3      -3083.669          25.000  
E13  26506082.085   139290413.580        -575.885          43.000    26506086.513   106729039.069        -441.389          45.000  
E26  25946893.415   136352071.691        1578.873          46.000    25946902.566   104477719.899        1209.802          49.000  
E21  25516323.115   134089161.670       -2151.933          46.000    25516325.707   102743647.247       -1648.901          51.000  
> 2024 04 16 00 42 30.0000000  0 26                     
G25  22179172.315   116552355.890         716.971          46.000    22179174.917    90820028.880         558.838          43.000  
E19  26125685.097   137291202.209       -3614.429          39.000    26125707.154   105197118.163       -2769.429          46.000  
G24  20587103.308   108185942.684       -1253.821          48.000    20587105.237    84300723.415        -977.014          48.000  
G32  23643729.700   124248621.917         804.876          43.000    23643730.541    96817087.936         627.062          39.000  
E09  27366071.957   143809692.471         980.317          29.000    27366066.732                         751.128          28.000  
R16  20331837.500   108609019.668        -311.401          52.000    20331836.166    84473678.089        -242.219          50.000  
R17  21937767.878   117393426.355       -3424.912          50.000    21937763.878    91305983.129       -2663.917          48.000  
R09  22487759.878   120083362.713        1708.719          43.000    22487759.922    93398258.434        1329.292          44.000  
R06  22349888.374   119263172.109       -3397.412          37.000                                                                  
R15  22111161.065   118155293.643       -2611.547          48.000    22111160.261    91898554.287       -2031.260          44.000  
G19  24412383.583   128288035.071       -4227.523          45.000                                                                  
S31  38898052.657   204410652.6922       -753.179          43.000  
S33  39850562.813   209416107.790        -753.842          44.000  
G06  23313259.186   122512043.528        -704.657          35.000    23313264.601    95463938.200        -549.006          42.000  
G11  23181583.823   121820215.587        1150.978          47.000    23181586.415    94924926.771         896.793          47.000  
R07  22631188.805   121146570.739        -399.127          46.000    22631189.453    94225078.498        -310.517          44.000  
R18  20094049.137   107263436.616         288.957          52.000    20094051.636    83427138.012         224.786          51.000  
R19  21613153.853   115615959.703        3124.370          41.000    21613162.507    89923657.921        2429.957          47.000  
E04  24918890.780   130949612.096       -1343.729          48.000    24918895.145   100338014.606       -1029.579          51.000  
G12  21264030.205   111743233.817        -646.418          48.000    21264027.577    87072642.253        -503.778          45.000  
E31  26611657.299   139845237.207         798.610          44.000    26611665.340   107154190.848         611.949          47.000  
G15  23939723.225   125804082.9073      -3951.984          37.000    23939735.214    98029209.9451      -3080.347          41.000  
E13  26509411.220   139307909.745        -590.466          42.000    26509416.724   106742445.207        -452.272          46.000  
E26  25937898.768   136304806.416        1572.268          46.000    25937908.437   104441504.024        1204.598          50.000  
E21  25528609.520   134153732.359       -2152.584          45.000    25528613.157   102793123.445       -1649.441          51.000  
G29                                                                  23695716.992    97029994.7851       2089.990          36.000  
> 2024 04 16 00 43 00.0000000  0 26                     
G25  22175087.740   116530890.265         713.684          47.000    22175089.972    90803302.455         556.146          43.000  
E19  26146330.051   137399682.899       -3617.798          40.000    26146351.277   105280238.595       -2772.063          46.000  
G24  20594306.125   108223790.786       -1269.607          49.000    20594307.509    84330215.350        -989.340          48.000  
G32  23639184.321   124224732.301         787.373          44.000    23639185.287    96798472.542         613.596          40.000  
E09  27360494.748                3        969.910          26.000    27360499.413                         742.502          28.000  
R16  20333601.121   108618445.758        -317.199          51.000    20333600.393    84481009.434        -246.708          49.000  
R17  21957024.910   117496484.761       -3445.678          50.000    21957023.270    91386139.664       -2679.975          48.000  
R09  22478156.528   120032089.287        1709.235          41.000    22478157.872    93358379.219        1329.436          46.000  
R06  22369030.676   119365324.217       -3412.267          39.000                                                                  
R15  22125837.918   118233721.977       -2617.051          48.000    22125837.338    91959553.970       -2035.477          44.000  
G29  23680412.861   124441414.5941       2673.566          33.000    23680428.509    96967401.969        2083.896          35.000  
G19  24436527.536   128414907.163       -4230.609          46.000                                                                  
S31  38902347.227   204433216.1881       -754.026          33.000  
S33  39854864.778   209438712.622        -753.820          42.000  
G06  23317336.203   122533451.355        -722.867          39.000    23317338.353    95480619.676        -563.233          41.000  
G11  23175047.349   121785869.938        1138.501          47.000    23175050.922    94898164.181         887.378          46.000  
R07  22633494.604   121158913.181        -423.929          46.000    22633495.949    94234678.024        -329.524          44.000  
R18  20092499.300   107255166.014         262.245          52.000    20092502.289    83420705.380         203.995          51.000  
R19  21595664.807   115522409.810        3112.501          41.000    21595673.647    89850897.697        2420.593          46.000  
E04  24926599.668   130990128.852       -1357.518          47.000    24926605.364   100369059.713       -1040.111          51.000  
G12  21267734.567   111762701.744        -651.521          48.000    21267732.370    87087812.058        -507.526          45.000  
E31  26607102.570   139821304.298         796.660          44.000    26607111.070   107135852.740         610.502          47.000  
G15  23962287.669   125922665.810       -3952.814          39.000    23962298.712                       -3080.597          30.000  
E13  26512819.835   139325828.949        -604.477          42.000    26512826.720   106756175.532        -463.200          45.000  
E26  25928941.385   136257736.461        1565.785          46.000    25928951.230   104405437.809        1199.706          50.000  
E21  25540900.767   134218316.421       -2153.001          46.000    25540903.158   102842609.876       -1649.680          51.000  
> 2024 04 16 00 43 30.5000000  0 26                     
G25  22170955.623   116509173.481         710.463          47.000    22170957.455    90786380.295         553.575          43.000  
E19  26167340.612   137510085.085       -3621.725          41.000    26167361.034   105364831.309       -2774.680          46.000  
G24  20601722.765   108262761.293       -1285.613          50.000    20601723.500    84360581.928       -1001.769          48.000  
G32  23634665.438   124200985.658         770.021          42.000    23634667.641    96779968.572         600.106          40.000  
R16  20335429.231   108628211.213        -323.033          52.000    20335428.465    84488604.750        -251.270          49.000  
R17  21976725.435   117601904.679       -3466.768          49.000    21976723.739    91468132.938       -2696.404          49.000  
R09  22468394.150   119979954.694        1709.489          41.000    22468394.896    93317830.157        1329.777          46.000  
R06  22388577.841   119469732.0891      -3427.146          34.000                                                                  
R15  22140792.398   118313635.614       -2622.836          48.000    22140792.872    92021708.855       -2039.732          43.000  
G29  23664915.682   124359969.5551       2666.596          42.000    23664929.879    96903933.6361       2077.877          44.000  
G19  24461092.338   128543994.534       -4234.145          46.000                                                                  
S31  38906716.296   204456176.6781       -753.027          40.000  
S33  39859238.877   209461698.956        -753.410          42.000  
G06  23321588.110   122555787.244        -741.787          39.000    23321587.487    95498024.274        -578.088          40.000  
G11  23168475.671   121751336.256        1126.063          47.000    23168477.808    94871255.067         877.454          45.000  
R07  22635980.378   121172226.349        -449.152          47.000    22635980.475    94245032.571        -349.296          42.000  
R18  20091080.407   107247585.449         234.985          52.000    20091081.780    83414809.441         182.812          51.000  
R19  21577955.388   115427679.392        3099.821          41.000    21577963.087    89777219.237        2410.933          46.000  
E04  24934518.585   131031744.674       -1371.345          47.000    24934524.668   100400946.966       -1050.777          51.000  
G12  21271532.221   111782656.227        -656.702          48.000    21271529.757    87103361.001        -511.529          45.000  
E31  26602483.586   139797029.535         794.836          44.000    26602491.553   107117252.650         609.338          47.000  
G15  23985231.273   126043229.125       -3953.034          40.000    23985243.450    98215555.462       -3079.467          34.000  
E13  26516371.789   139344485.031        -618.780          43.000    26516377.158   106770470.445        -474.139          46.000  
E26  25919874.180   136210088.408        1558.958          46.000    25919883.657   104368928.627        1194.509          50.000  
E21  25553399.085   134283994.539       -2153.615          46.000    25553401.148   102892934.602       -1650.223          51.000  
E09                                                                  27354907.411                         734.383          29.000  
> 2024 04 16 00 44 00.5000000  0 25                     
G25  22166910.495   116487916.270         706.898          46.000    22166913.079    90769816.269         550.448          43.000  
E19  26188026.405   137618785.789       -3625.171          41.000    26188047.211   105448120.346       -2777.631          46.000  
G24  20609108.255   108301576.071       -1301.881          49.000    20609109.659    84390827.135       -1014.349          48.000  
G32  23630321.195   124178160.933         751.946          43.000    23630323.986    96762182.989         585.713          40.000  
R16  20337260.919   108637996.159        -329.275          52.000    20337260.675    84496215.216        -256.068          50.000  
R17  21996220.268   117706225.002       -3487.822          49.000    21996218.772    91549270.985       -2712.624          49.000  
R09  22458787.895   119928667.738        1709.504          39.000    22458790.286    93277940.392        1329.787          46.000  
R06  22407887.724   119572766.1901      -3442.200          42.000                                                                  
R15  22155534.154   118392414.055       -2628.926          48.000    22155533.208    92082980.893       -2044.701          40.000  
G19  24485272.500   128671061.313       -4237.195          45.000                                                                  
S33  39863541.117   209484307.676        -753.718          47.000  
G06  23325875.807   122578318.473        -760.553          39.000    23325875.706    95515581.097        -592.505          41.000  
G11  23162083.816   121717748.623        1113.250          48.000    23162085.873    94845083.120         867.369          45.000  
R07  22638567.837   121186072.483        -474.086          46.000    22638565.470    94255801.702        -368.717          43.000  
R18  20089835.403   107240944.218         207.772          52.000    20089837.993    83409644.108         161.613          51.000  
R19  21560606.471   115334878.024        3086.897          40.000    21560615.274    89705041.163        2400.929          47.000  
E04  24942387.509   131073093.418       -1385.172          47.000    24942393.245   100432629.564       -1061.391          51.000  
G12  21275296.799   111802441.571        -662.211          48.000    21275295.214    87118778.164        -516.065          46.000  
E31  26597949.963   139773207.251         792.935          44.000    26597958.572   107098999.284         607.663          48.000  
G15  24007799.117   126161824.8511      -3953.203          41.000    24007815.780    98307977.3711      -3080.265          37.000  
E13  26519943.931   139363265.613        -633.245          41.000    26519950.692   106784860.775        -485.173          46.000  
E26  25910993.319   136163425.513        1551.883          45.000    25911003.142   104333174.297        1189.088          49.000  
E21  25565694.823   134348612.186       -2154.245          45.000    25565697.705   102942446.776       -1650.671          52.000  
E09                                                                  27349471.051                         725.588          31.000  
G29                                                                  23649727.201    96841669.791        2071.144          31.000  
> 2024 04 16 00 44 30.5000000  0 26                     
G25  22162884.176   116466757.550         703.856          47.000    22162886.879    90753328.977         548.292          43.000  
E19  26208731.230   137727588.322       -3628.118          41.000    26208752.650   105531487.396       -2780.080          46.000  
G24  20616585.364   108340866.819       -1317.554          49.000    20616586.073    84421443.234       -1026.710          48.000  
G32  23626078.145   124155861.898         734.515          44.000    23626080.382    96744807.028         572.343          40.000  
R16  20339125.459   108647956.274        -334.976          51.000    20339124.916    84503961.940        -260.494          50.000  
R17  22015831.816   117811161.541       -3508.132          50.000    22015828.532    91630888.296       -2728.498          48.000  
R09  22449181.957   119877370.283        1710.240          43.000    22449183.571    93238042.430        1330.225          45.000  
R06  22427274.281   119676241.932       -3456.729          40.000                                                                  
R15  22170307.324   118471362.763       -2634.413          46.000    22170308.602    92144385.320       -2048.951          41.000  
G29  23634552.520   124200411.3971       2651.251          42.000    23634567.227    96779609.582        2067.289          43.000  
G19  24509469.040   128798216.746       -4239.854          45.000                                                                  
S31  38915309.823   204501335.6961       -751.483          32.000  
S33  39867842.865   209506914.577        -753.487          41.000  
G06  23330268.087   122601403.449        -778.832          39.000    23330269.156    95533569.422        -606.653          42.000  
G11  23155763.412   121684536.788        1100.810          47.000    23155766.057    94819203.998         857.987          46.000  
R07  22641292.197   121200659.896        -498.665          46.000    22641291.103    94267147.276        -387.697          43.000  
R18  20088742.904   107235109.138         181.021          52.000    20088744.660    83405105.759         140.829          51.000  
R19  21543326.714   115242449.995        3074.462          40.000    21543336.133    89633153.431        2391.434          47.000  
E04  24950333.349   131114849.396       -1398.770          47.000    24950339.390   100464624.194       -1071.611          51.000  
G12  21279090.874   111822379.411        -666.999          48.000    21279088.708    87134314.122        -519.729          45.000  
E31  26593425.826   139749434.798         791.770          44.000    26593435.179   107080784.095         606.581          48.000  
G15  24030367.403   126280410.697       -3952.680          43.000    24030381.983    98400380.034       -3079.432          36.000  
E13  26523600.006   139382469.590        -647.155          43.000    26523604.790   106799575.519        -495.953          46.000  
E26  25902150.785   136116963.273        1545.434          45.000    25902161.439   104297573.733        1184.156          50.000  
E21  25577993.276   134413242.181       -2154.601          45.000    25577996.471   102991968.375       -1650.845          51.000  
E09                                                                  27344098.327                         717.066          32.000  
