     3.00           OBSERVATION DATA    M: Mixed            RINEX VERSION / TYPE
CONVBIN 2.4.3                           20240416 112942 UTC PGM / RUN BY / DATE 
format: u-blox UBX                                          COMMENT             
log: /home/regis/git/gnsspwv/obsdata/VERT00CHL/2024-04-16/VECOMMENT             
{self.marker}                                               MARKER NAME         
                                                            MARKER NUMBER       
GEODETIC                                                    MARKER TYPE         
{self.observer}     {self.institution}                      OBSERVER / AGENCY   
UNKNOWN             UBLOX-ZED-F9P                           REC # / TYPE / VERS 
UNKNOWN             TWIVSP6037L                             ANT # / TYPE        
  1713381.0000 -5047934.0000 -3490983.0000                  APPROX POSITION XYZ 
        0.0000        0.0000        0.0000                  ANTENNA: DELTA H/E/N
G    8 C1C L1C D1C S1C C2L L2L D2L S2L                      SYS / # / OBS TYPES 
R    8 C1C L1C D1C S1C C2C L2C D2C S2C                      SYS / # / OBS TYPES 
E    8 C1C L1C D1C S1C C7Q L7Q D7Q S7Q                      SYS / # / OBS TYPES 
S    4 C1C L1C D1C S1C                                      SYS / # / OBS TYPES 
  2024    04    16    11    15   00.4950000     GPS         TIME OF FIRST OBS   
  2024    04    16    11    29   30.4960000     GPS         TIME OF LAST OBS    
                                                            END OF HEADER       
> 2024 04 16 11 15 00.4950000  0 24                     
G31  23655857.416   124312405.0841       1634.619          44.000    23655859.990    96866781.4201       1273.819          41.000  
G02  19297678.570   101410023.1821       1149.390          49.000                                                                  
G03  20676563.632   108656102.2891       1027.629          47.000    20676563.635    84667052.5221        800.679          43.000  
G04  22745828.914   119530108.5991       3189.290          43.000    22745828.654    93140323.8941       2485.036          43.000  
R23  18103879.262    96843675.9911       -622.539          51.000                                                                  
R24  19867862.203   106242227.8801       2614.542          49.000    19867859.159    82632954.0231       2033.498          49.000  
R08  18396523.008    98512574.7121      -2845.973          50.000    18396517.799    76620939.7701      -2213.493          50.000  
G21  18544208.520    97450475.6011        612.676          47.000                                                                  
S33  38358087.443   201573183.1661       -616.604          42.000  
S31  37405328.413   196566416.7081       -617.070          44.000  
E36  23072767.207   121248226.2051        809.604          45.000    23072771.252    92904553.6751        620.257          52.000  
E11  21684441.699   113952527.3151      -1049.448          46.000    21684440.081    87314331.5751       -804.197          49.000  
R01  18558284.964    99204842.8221       1462.672          50.000    18558285.348    77159172.1041       1137.434          43.000  
R22  20722695.169   110619205.6541      -3623.806          51.000    20722696.458    86037193.9371      -2818.621          49.000  
R07  22057466.439   118075292.3901      -4775.866          35.000    22057467.362    91836391.2831      -3714.347          32.000  
G27  21599092.878   113503978.7421      -4210.932          44.000    21599094.619    88444654.0551      -3281.339          44.000  
G08  19527332.215   102616881.0471      -2834.284          49.000    19527331.774    79961224.6341      -2208.652          45.000  
E04  23372384.548   122822741.9881      -1781.164          48.000    23372384.505    94110961.5441      -1364.806          48.000  
G28  22991994.696   120823718.9121       1264.552          42.000    22991996.956    94148360.7031        985.317          45.000  
E09  22588824.880   118705132.7141        898.789          48.000    22588827.329    90955857.7571        688.735          53.000  
E05  24299933.184   127696976.8011       2430.367          44.000    24299937.958    97845758.0981       1862.260          48.000  
G32  21286704.839   111862413.2681      -3244.899          47.000    21286704.188    87165545.9141      -2528.568          44.000  
E12  26378921.599   138622185.7281      -2499.188          40.000    26378926.860   106217055.5621      -1914.830          41.000  
E10  24273534.960   127558446.0211      -1984.572          46.000    24273537.351    97739779.4131      -1520.714          50.000  
> 2024 04 16 11 15 30.4950000  0 24                     
G31  23646521.742   124263348.595        1635.459          43.000    23646524.962    96828555.591        1274.753          41.000  
G02  19291143.037   101375680.223        1139.825          49.000                                                                  
G03  20670718.687   108625388.592        1019.762          46.000    20670719.281    84643119.728         794.541          43.000  
G04  22727627.623   119434457.793        3187.489          43.000    22727626.983    93065790.523        2483.733          43.000  
R23  18107422.695    96862627.563        -641.228          51.000                                                                  
R24  19853210.344   106163875.538        2608.555          50.000    19853206.732    82572013.239        2028.894          49.000  
R08  18412517.633    98598222.187       -2864.077          50.000    18412512.023    76687554.369       -2227.716          50.000  
G21  18540748.171    97432290.386         599.539          47.000                                                                  
S33  38361606.743   201591677.848        -616.691          42.000  
S31  37408850.899   196584928.206        -617.361          44.000  
E36  23068151.087   121223964.719         807.708          46.000    23068154.535    92885963.648         618.858          52.000  
E11  21690447.870   113984090.628       -1055.071          46.000    21690446.467    87338516.334        -808.383          49.000  
R01  18550132.864    99161264.369        1442.373          50.000    18550132.772    77125277.721        1121.867          44.000  
R22  20743094.658   110728099.322       -3636.093          51.000    20743095.477    86121888.727       -2828.027          49.000  
R07  22084237.674   118218586.616       -4777.292          34.000    22084236.270                       -3715.979          31.000  
G27  21623151.367   113630405.674       -4217.547          44.000    21623152.225    88543168.275       -3286.171          43.000  
G08  19543557.685   102702148.454       -2850.459          49.000    19543557.939    80027666.640       -2221.029          46.000  
E04  23382586.902   122876353.966       -1793.293          48.000    23382586.500    94152040.734       -1373.988          48.000  
G28  22984798.342   120785902.057        1256.483          44.000    22984800.353    94118892.970         978.956          42.000  
E09  22583726.979   118678342.917         886.883          48.000    22583729.397    90935330.484         679.564          53.000  
E05  24286063.304   127624090.306        2428.419          44.000    24286068.333    97789909.811        1860.777          48.000  
G32  21305267.915   111959963.018       -3258.745          47.000    21305266.717    87241558.523       -2539.357          44.000  
E12  26393199.002   138697210.428       -2502.817          40.000    26393204.294   106274541.720       -1917.928          41.000  
E10  24284877.914   127618060.376       -1989.705          45.000    24284882.019    97785457.752       -1524.654          50.000  
> 2024 04 16 11 16 00.4950000  0 24                     
G31  23637183.988   124214275.615        1636.033          44.000    23637186.999    96790316.909        1274.592          40.000  
G02  19284664.913   101341638.909        1129.724          48.000                                                                  
G03  20664920.912   108594917.536        1011.764          45.000    20664920.185    84619375.957         788.372          42.000  
G04  22709439.967   119338879.084        3184.937          43.000    22709438.928    92991313.409        2481.582          43.000  
R23  18111071.581    96882152.314        -660.311          50.000                                                                  
R24  19838594.166   106085715.526        2602.195          51.000    19838590.258    82511222.066        2023.875          49.000  
R08  18428614.463    98684422.446       -2882.435          50.000    18428609.436    76754598.950       -2241.962          50.000  
G21  18537363.587    97414504.364         586.261          47.000                                                                  
S33  38365126.841   201610177.053        -616.582          42.000  
S31  37412374.266   196603442.627        -617.036          44.000  
E36  23063546.854   121199767.774         805.615          46.000    23063550.002    92867423.073         617.280          52.000  
E11  21696486.996   114015826.633       -1060.820          45.000    21696485.571    87362833.424        -812.827          49.000  
R01  18542095.938    99118302.758        1421.701          51.000    18542095.701    77091863.107        1105.860          43.000  
R22  20763564.293   110837365.874       -3648.509          51.000    20763564.509    86206873.561       -2837.659          48.000  
R07  22111013.148   118361919.109       -4778.395          31.000    22111010.043                       -3716.705          31.000  
G27  21647248.692   113757036.992       -4224.331          44.000    21647249.632    88641841.799       -3291.678          43.000  
G08  19559877.588   102787910.103       -2866.896          49.000    19559878.219    80094493.795       -2233.981          46.000  
E04  23392859.943   122930338.690       -1805.687          48.000    23392859.698    94193405.547       -1383.518          48.000  
G28  22977650.492   120748338.350        1247.853          45.000    22977652.025    94089622.457         972.224          42.000  
E09  22578699.691   118651922.281         874.572          48.000    22578701.758    90915086.062         670.168          53.000  
E05  24272206.977   127551273.910        2426.195          44.000    24272212.344    97734115.263        1859.029          48.000  
G32  21323911.511   112057935.434       -3272.667          49.000    21323912.152    87317900.497       -2550.203          45.000  
E12  26407500.555   138772364.355       -2507.230          40.000    26407505.905   106332126.857       -1921.082          42.000  
E10  24296253.112   127677839.539       -1995.234          44.000    24296258.128    97831262.353       -1528.932          50.000  
> 2024 04 16 11 16 30.4950000  0 24                     
G31  23627843.292   124165188.544        1636.535          44.000    23627845.693    96752067.230        1275.001          41.000  
G02  19278245.161   101307900.475        1119.714          48.000                                                                  
G03  20659168.054   108564688.199        1003.838          45.000    20659167.453    84595820.593         782.188          42.000  
G04  22691266.528   119243374.489        3182.290          43.000    22691265.495    92916894.052        2479.835          43.000  
R23  18114829.118    96902250.938        -679.421          50.000                                                                  
R24  19824014.172   106007750.327        2595.618          51.000    19824010.036    82450582.395        2018.801          48.000  
R08  18444814.469    98771171.126       -2900.544          51.000    18444809.393    76822070.052       -2255.977          50.000  
G21  18534055.495    97397119.048         572.960          47.000                                                                  
S33  38368647.718   201628678.164        -616.556          42.000  
S31  37415898.273   196621960.633        -617.284          44.000  
E36  23058955.663   121175635.742         803.439          47.000    23058957.659    92848932.229         615.625          52.000  
E11  21702559.996   114047735.601       -1066.294          46.000    21702558.006    87387283.043        -817.067          50.000  
R01  18534174.179    99075958.514        1401.227          50.000    18534173.996    77058928.690        1089.976          43.000  
R22  20784103.953   110947003.613       -3660.581          50.000    20784104.028    86292147.096       -2847.188          48.000  
R07  22137795.290   118505286.178       -4779.081          32.000    22137794.002                       -3717.268          28.000  
G27  21671384.484   113883869.358       -4230.960          44.000    21671384.640    88740671.961       -3296.970          42.000  
G08  19576291.973   102874163.097       -2883.268          49.000    19576291.955    80161703.762       -2246.698          46.000  
E04  23403203.102   122984694.492       -1817.876          48.000    23403203.247    94235054.691       -1392.920          49.000  
G28  22970550.692   120711030.081        1239.252          44.000    22970552.312    94060551.034         965.227          41.000  
E09  22573742.912   118625871.156         862.318          49.000    22573744.354    90895124.751         660.760          53.000  
E05  24258364.530   127478528.689        2423.677          44.000    24258369.653    97678375.225        1857.209          48.000  
G32  21342635.922   112156327.329       -3286.664          49.000    21342635.542    87394569.323       -2561.112          45.000  
E12  26421827.414   138847647.193       -2511.395          41.000    26421832.140   106389810.767       -1924.383          41.000  
E10  24307661.377   127737783.417       -2000.782          45.000    24307665.017    97877193.193       -1533.095          50.000  
> 2024 04 16 11 17 00.4950000  0 24                     
G31  23618498.542   124116087.119        1636.911          42.000    23618501.409    96713806.377        1275.390          41.000  
G02  19271882.671   101274464.317        1109.454          48.000                                                                  
G03  20653461.389   108534697.340         995.555          46.000    20653461.282    84572451.027         776.099          43.000  
G04  22673106.787   119147943.619        3179.784          43.000    22673105.672    92842532.184        2477.881          43.000  
R23  18118694.246    96922922.763        -698.684          51.000                                                                  
R24  19809471.293   105929980.307        2589.150          52.000    19809466.698    82390094.517        2013.900          48.000  
R08  18461115.600    98858461.504       -2918.617          51.000    18461111.259    76889962.498       -2270.028          50.000  
G21  18530823.737    97380134.023         559.512          47.000                                                                  
S33  38372168.814   201647181.037        -616.750          42.000  
S31  37419422.215   196640479.901        -617.010          44.000  
E36  23054374.997   121151566.633         801.171          47.000    23054377.571    92830489.605         613.898          52.000  
E11  21708664.276   114079815.442       -1072.147          46.000    21708662.741    87411863.589        -821.529          50.000  
R01  18526368.167    99034229.664        1380.751          50.000    18526367.541    77026472.974        1073.866          44.000  
R22  20804711.340   111057008.250       -3672.910          50.000    20804710.373    86377705.987       -2856.573          46.000  
R07  22164582.455                       -4780.738          31.000    22164583.835                       -3717.987          28.000  
G27  21695556.716   114010897.036       -4237.369          44.000    21695557.712    88839654.322       -3301.897          42.000  
G08  19592797.773   102960902.358       -2899.172          49.000    19592798.389    80229292.690       -2259.333          47.000  
E04  23413616.265   123039417.278       -1830.278          48.000    23413617.122    94276985.018       -1402.427          49.000  
G28  22963499.574   120673977.198        1230.902          43.000    22963501.535    94031678.643         959.075          41.000  
E09  22568854.913   118600187.501         849.901          48.000    22568857.010    90875445.019         651.292          53.000  
E05  24244535.163   127405853.327        2421.390          44.000    24244539.960    97622688.726        1855.279          48.000  
G32  21361438.688   112255133.031       -3300.263          47.000    21361438.164    87471560.566       -2571.684          45.000  
E12  26436177.217   138923056.159       -2515.692          40.000    26436181.664   106447591.305       -1927.498          40.000  
E10  24319099.065   127797889.519       -2006.280          46.000    24319102.984    97923248.336       -1537.260          50.000  
> 2024 04 16 11 17 30.4950000  0 24                     
G31  23609152.911   124066975.988        1637.544          40.000    23609155.585    96675537.907        1276.197          40.000  
G02  19265578.464   101241334.411        1099.554          48.000                                                                  
G03  20647799.999   108504946.757         987.891          47.000    20647800.288    84549268.720         769.979          44.000  
G04  22654961.956   119052591.124        3177.390          43.000    22654961.079    92768231.307        2475.913          42.000  
R23  18122666.757    96944171.601        -717.703          51.000                                                                  
R24  19794965.180   105852411.061        2582.655          51.000    19794961.192    82329762.822        2008.702          48.000  
R08  18477517.376    98946292.055       -2936.287          51.000    18477512.899    76958275.052       -2283.811          50.000  
G21  18527668.600    97363553.281         546.426          47.000                                                                  
S33  38375690.142   201665685.204        -616.512          42.000  
S31  37422946.824   196659000.467        -617.113          44.000  
E36  23049807.166   121127563.559         799.257          47.000    23049809.913    92812097.572         612.526          51.000  
E11  21714802.056   114112069.239       -1077.602          46.000    21714800.716    87436577.429        -825.710          50.000  
R01  18518677.879    98993119.220        1360.397          50.000    18518676.637    76994498.225        1057.991          44.000  
R22  20825388.539   111167380.903       -3684.912          50.000    20825387.739    86463551.115       -2865.968          47.000  
G27  21719766.101   114138119.456       -4243.547          44.000    21719767.585    88938788.442       -3306.937          42.000  
G08  19609396.664   103048127.731       -2915.262          49.000    19609396.929    80297260.353       -2271.761          47.000  
E04  23424099.733   123094508.074       -1842.203          48.000    23424100.509    94319197.326       -1411.626          49.000  
G28  22956498.050   120637184.738        1222.241          44.000    22956499.543    94003009.152         952.380          41.000  
E09  22564037.815   118574874.418         837.841          48.000    22564040.154    90856049.253         641.978          53.000  
E05  24230719.860   127333251.616        2418.950          44.000    24230724.275    97567058.650        1853.619          47.000  
G32  21380318.346   112354351.978       -3313.758          46.000    21380318.268    87548873.886       -2582.331          45.000  
E12  26450550.804   138998593.639       -2519.835          39.000    26450556.156   106505470.350       -1930.837          39.000  
E10  24330569.031   127858160.571       -2011.402          46.000    24330572.527    97969429.850       -1541.269          50.000  
R07                                                                  22191376.825                3      -3718.270          26.000  
> 2024 04 16 11 18 00.4950000  0 23                     
G31  23599804.696   124017852.367        1637.761          40.000    23599808.935    96637259.800        1275.994          42.000  
G02  19259331.257   101208507.488        1089.398          48.000                                                                  
G03  20642183.704   108475430.513         980.309          47.000    20642184.256    84526269.026         763.655          45.000  
G04  22636831.266   118957314.104        3174.864          43.000    22636830.773    92693989.210        2474.020          42.000  
R23  18126746.332    96965993.618        -736.632          51.000                                                                  
R24  19780496.650   105775040.397        2575.893          52.000    19780492.835    82269585.557        2003.488          48.000  
R08  18494017.931    99034653.557       -2953.897          50.000    18494013.218    77027000.553       -2297.464          49.000  
G21  18524589.955    97347373.779         532.821          47.000                                                                  
S33  38379210.808   201684187.107        -616.357          42.000  
S31  37426470.582   196677518.842        -617.101          44.000  
E36  23045251.088   121103621.969         797.248          46.000    23045253.960    92793752.663         610.840          51.000  
E11  21720971.516   114144492.204       -1083.327          45.000    21720970.623    87461420.900        -830.133          50.000  
R01  18511102.533    98952622.643        1339.920          50.000    18511101.240    76963000.883        1042.215          44.000  
R22  20846132.391   111278114.552       -3696.854          50.000    20846133.535    86549677.017       -2875.279          48.000  
G27  21744011.310   114265528.248       -4249.728          44.000    21744013.572    89038067.768       -3311.461          42.000  
G08  19626086.129   103135831.399       -2931.336          49.000    19626085.884    80365600.726       -2283.972          46.000  
E04  23434652.057   123149960.257       -1854.182          48.000    23434653.242    94361686.540       -1420.815          50.000  
G28  22949546.752   120600650.132        1213.800          45.000    22949547.929    93974540.603         945.939          43.000  
E09  22559290.269   118549927.291         825.792          48.000    22559292.870    90836933.884         632.597          53.000  
E05  24216918.126   127260719.627        2416.847          44.000    24216922.455    97511482.015        1851.800          48.000  
G32  21399275.626   112453976.045       -3327.240          46.000    21399276.334    87626502.829       -2592.651          44.000  
E12  26464948.322   139074254.301       -2523.741          38.000    26464954.519   106563443.748       -1933.918          39.000  
E10  24342067.602   127918591.516       -2016.941          45.000    24342071.869    98015733.871       -1545.381          50.000  
> 2024 04 16 11 18 30.4950000  0 24                     
G31  23590456.007   123968720.645        1637.431          43.000    23590459.744    96598975.357        1276.333          40.000  
G02  19253142.229   101175987.024        1078.882          47.000                                                                  
G03  20636611.801   108446149.627         972.158          47.000    20636611.818    84503452.744         757.282          43.000  
G04  22618715.965   118862116.622        3171.975          43.000    22618715.512    92619809.093        2471.641          42.000  
R23  18130933.528    96988392.067        -756.262          52.000                                                                  
R24  19766066.299   105697872.756        2568.776          52.000    19766062.196    82209566.210        1997.935          48.000  
R08  18510617.734    99123543.743       -2971.864          51.000    18510612.637    77096137.266       -2311.368          49.000  
G21  18521587.415    97331598.862         519.057          46.000                                                                  
S33  38382731.564   201702687.125        -616.573          42.000  
S31  37429994.549   196696035.782        -617.147          44.000  
E36  23040708.002   121079744.202         794.880          46.000    23040710.215    92775456.640         609.093          51.000  
E11  21727174.503   114177086.628       -1089.521          45.000    21727173.027    87486395.740        -834.911          49.000  
R01  18503642.080    98912742.498        1319.007          50.000    18503641.285    76931983.004        1025.982          44.000  
R22  20866944.694   111389209.395       -3709.136          50.000    20866945.430    86636083.855       -2884.848          48.000  
G27  21768291.819   114393122.022       -4256.078          43.000    21768294.282    89137491.232       -3316.464          41.000  
G08  19642866.935   103224012.394       -2947.355          50.000    19642865.555    80434313.032       -2296.417          45.000  
E04  23445273.478   123205774.007       -1866.521          49.000    23445274.344    94404452.800       -1430.164          50.000  
G28  22942643.670   120564377.593        1204.642          44.000    22942645.793    93946276.267         938.712          43.000  
E09  22554613.267   118525348.397         813.032          48.000    22554616.139    90818100.660         623.060          53.000  
E05  24203129.644   127188260.421        2414.008          44.000    24203133.763    97455961.157        1849.647          47.000  
G32  21418310.435   112554003.898       -3340.974          47.000    21418310.471    87704446.451       -2603.379          45.000  
E12  26479369.779   139150039.778       -2528.280          39.000    26479375.468   106621512.803       -1937.314          38.000  
E10  24353598.418   127979184.254       -2022.356          44.000    24353602.704    98062161.876       -1549.717          50.000  
R07                                                                  22244988.507                       -3719.250          27.000  
> 2024 04 16 11 19 00.4950000  0 24                     
G31  23581105.036   123919584.589        1638.024          42.000    23581109.219    96560687.562        1276.292          41.000  
G02  19247012.885   101143776.308        1068.677          48.000                                                                  
G03  20631084.737   108417105.212         964.390          46.000    20631084.254    84480820.680         751.461          44.000  
G04  22600616.153   118767002.729        3169.423          43.000    22600615.910    92545694.156        2469.272          43.000  
R23  18135228.721    97011370.008        -775.448          51.000                                                                  
R24  19751674.649   105620913.229        2561.983          52.000    19751670.344    82149708.731        1992.593          48.000  
R08  18527316.184    99212960.567       -2989.044          51.000    18527310.484    77165683.555       -2324.804          49.000  
G21  18518663.441    97316232.146         505.679          47.000                                                                  
S33  38386252.050   201721187.372        -616.328          42.000  
S31  37433517.896   196714552.131        -616.919          44.000  
E36  23036176.918   121055932.696         792.792          47.000    23036179.152    92757211.388         607.401          51.000  
E11  21733410.142   114209854.857       -1095.095          45.000    21733408.714    87511503.759        -839.146          49.000  
R01  18496297.153    98873481.422        1298.578          50.000    18496296.645    76901446.593        1010.011          44.000  
R22  20887824.203   111500665.623       -3720.968          50.000    20887825.704    86722771.763       -2894.183          49.000  
G27  21792607.599   114520899.456       -4262.129          43.000    21792610.541    89237057.796       -3321.312          43.000  
G08  19659737.837   103312669.921       -2962.998          49.000    19659736.882    80503396.702       -2308.786          45.000  
E04  23455963.692   123261949.642       -1878.342          49.000    23455964.069    94447496.344       -1439.296          49.000  
G28  22935792.418   120528371.466        1195.947          46.000    22935794.523    93918219.524         931.909          44.000  
E09  22550006.849   118501140.070         800.926          48.000    22550009.755    90799551.380         613.648          54.000  
E05  24189355.089   127115877.054        2411.824          43.000    24189359.396    97400498.419        1847.848          46.000  
G32  21437422.086   112654434.264       -3354.126          45.000    21437421.183    87782703.682       -2613.622          44.000  
E12  26493816.121   139225951.639       -2532.453          39.000    26493820.875   106679678.752       -1940.125          39.000  
E10  24365158.611   128039940.711       -2027.562          43.000    24365164.472    98108715.345       -1553.802          50.000  
R07                                                                  22271784.402                3      -3719.183          23.000  
> 2024 04 16 11 19 30.4950000  0 24                     
G31  23571754.376   123870443.667        1638.349          43.000    23571758.401    96522396.009        1276.378          42.000  
G02  19240942.239   101111873.854        1058.313          47.000                                                                  
G03  20625601.362   108388293.306         956.613          46.000    20625601.752    84458369.833         745.380          44.000  
G04  22582532.538   118671971.566        3166.344          44.000    22582532.354    92471643.652        2467.373          43.000  
R23  18139632.325    97034925.473        -794.791          51.000                                                                  
R24  19737322.369   105544161.420        2554.868          52.000    19737317.064    82090012.826        1987.165          47.000  
R08  18544110.435    99302896.721       -3006.355          50.000    18544105.319    77235633.842       -2338.262          48.000  
G21  18515816.649    97301272.371         491.933          47.000                                                                  
S33  38389771.839   201739684.131        -616.464          42.000  
S31  37437041.289   196733065.646        -616.799          44.000  
E36  23031657.252   121032184.895         790.469          47.000    23031660.163    92739014.961         605.760          51.000  
E11  21739678.008   114242794.097       -1100.699          45.000    21739676.888    87536742.803        -843.464          49.000  
R01  18489067.646    98834836.505        1277.872          50.000    18489067.643    76871389.441         994.117          45.000  
R22  20908769.241   111612478.399       -3733.144          48.000    20908772.773    86809736.980       -2903.435          50.000  
G27  21816956.798   114648854.198       -4267.741          42.000    21816959.490    89336762.501       -3325.648          43.000  
G08  19676697.769   103401798.132       -2978.703          48.000    19676696.991    80572847.134       -2321.020          44.000  
E04  23466721.843   123318482.468       -1890.303          49.000    23466721.810    94490813.569       -1448.411          49.000  
G28  22928991.599   120492631.104        1186.920          46.000    22928993.426    93890369.858         924.921          46.000  
E09  22545470.626   118477299.651         788.523          48.000    22545473.306    90781284.003         604.214          54.000  
E05  24175594.545   127043567.619        2409.183          43.000    24175599.442    97345092.320        1845.901          45.000  
G32  21456608.411   112755260.912       -3367.364          43.000    21456609.321    87861269.672       -2623.780          45.000  
E12  26508286.119   139301986.646       -2536.428          39.000    26508291.111   106737939.012       -1943.256          41.000  
E10  24376752.807   128100857.861       -2033.313          44.000    24376756.203    98155391.898       -1557.898          49.000  
R07                                                                  22298703.952                3      -3717.021          14.000  
> 2024 04 16 11 20 00.4950000  0 24                     
G31  23562403.473   123821301.131        1638.105          44.000    23562406.780    96484103.135        1276.123          42.000  
G02  19234930.891   101080282.464        1047.821          48.000                                                                  
G03  20620162.711   108359714.023         948.833          45.000    20620163.795    84436100.257         739.236          45.000  
G04  22564465.599   118577026.179        3163.213          44.000    22564465.333    92397660.016        2464.935          43.000  
R23  18144143.135    97059060.853        -814.280          50.000                                                                  
R24  19723008.314   105467621.213        2547.655          52.000    19723003.674    82030481.496        1981.567          47.000  
R08  18561002.214    99393348.607       -3023.616          50.000    18560996.586    77305985.203       -2351.661          48.000  
G21  18513048.419    97286722.239         478.090          48.000                                                                  
S33  38393291.319   201758177.495        -616.641          42.000  
S31  37440563.251   196751575.664        -617.148          44.000  
E36  23027150.824   121008502.275         788.393          46.000    23027153.688    92720868.470         604.082          51.000  
E11  21745979.661   114275905.768       -1106.498          46.000    21745977.907    87562113.962        -847.793          49.000  
R01  18481953.683    98796809.443        1257.235          49.000    18481953.825    76841812.853         977.893          45.000  
R22  20929783.334   111724646.903       -3744.968          49.000    20929785.807    86896978.875       -2912.716          48.000  
G27  21841339.487   114776984.019       -4274.007          42.000    21841342.077    89436603.644       -3330.186          43.000  
G08  19693747.902   103491395.160       -2994.439          49.000    19693747.200    80642662.879       -2333.467          45.000  
E04  23477546.753   123375371.776       -1902.059          48.000    23477547.566    94534403.964       -1457.506          49.000  
G28  22922241.911   120457159.844        1177.986          46.000    22922243.333    93862729.880         917.694          46.000  
E09  22541003.633   118453828.494         776.277          47.000    22541006.977    90763299.561         594.763          54.000  
E05  24161849.709   126971334.258        2406.359          43.000    24161853.813    97289744.500        1843.906          44.000  
G32  21475869.469   112856481.659       -3380.618          41.000    21475870.168    87940142.816       -2634.202          44.000  
E12  26522778.750   139378145.363       -2540.678          40.000    26522784.335   106796294.118       -1946.812          42.000  
E10  24388376.814   128161936.712       -2038.773          45.000    24388379.177    98202192.392       -1562.149          49.000  
R07                                                                  22325381.823                       -3719.922          26.000  
> 2024 04 16 11 20 30.4960000  0 23                     
G31  23553050.707   123772158.669        1638.129          43.000    23553055.046    96445810.311        1276.600          41.000  
G02  19228979.521   101049003.942        1037.376          48.000                                                                  
G03  20614768.556   108331366.741         941.080          46.000    20614769.981    84414011.442         733.311          46.000  
G04  22546414.748   118482166.652        3160.541          44.000    22546414.693    92323743.288        2462.805          44.000  
R23  18148763.865    97083779.188        -833.431          50.000                                                                  
R24  19708733.730   105391294.295        2540.594          51.000    19708729.545    81971116.058        1976.074          48.000  
R08  18577990.382    99484316.569       -3040.606          50.000    18577985.602    77376737.933       -2365.014          50.000  
G21  18510358.228    97272584.090         464.556          48.000                                                                  
S33  38396810.357   201776671.357        -616.089          42.000  
S31  37444085.709   196770084.156        -616.695          44.000  
E36  23022656.551   120984885.723         786.257          47.000    23022659.604    92702772.606         602.446          51.000  
E11  21752313.890   114309192.472       -1112.143          45.000    21752312.494    87587619.243        -852.152          49.000  
R01  18474955.925    98759400.192        1236.834          50.000    18474954.869    76812716.780         961.824          44.000  
R22  20950865.185   111837174.263       -3756.580          50.000    20950865.487    86984499.878       -2921.872          47.000  
G27  21865755.653   114905291.031       -4279.624          42.000    21865758.185    89536582.852       -3334.714          42.000  
G08  19710886.524   103581462.253       -3009.686          48.000    19710886.715    80712844.906       -2345.367          45.000  
E04  23488441.293   123432619.001       -1913.835          49.000    23488441.625    94578268.592       -1466.448          49.000  
G28  22915543.486   120421960.026        1168.907          44.000    22915545.418    93835301.402         910.832          46.000  
E09  22536606.630   118430727.355         764.102          46.000    22536610.797    90745598.637         585.407          54.000  
E05  24148119.221   126899176.846        2404.173          43.000    24148122.764    97234454.885        1842.190          44.000  
G32  21495207.185   112958097.820       -3393.498          42.000    21495208.528    88019324.016       -2644.338          45.000  
E12  26537295.833   139454431.212       -2544.795          40.000    26537301.971   106854746.594       -1949.795          44.000  
E10  24400029.758   128223180.441       -2043.896          45.000    24400034.121    98249119.215       -1566.081          49.000  
> 2024 04 16 11 21 00.4960000  0 23                     
G31  23543701.326   123723024.926        1637.763          43.000    23543704.706    96407524.300        1276.155          42.000  
G02  19223088.487   101018045.044        1026.757          48.000                                                                  
G03  20609419.921   108303255.682         933.095          47.000    20609420.280    84392106.710         727.177          46.000  
G04  22528382.169   118387404.654        3157.172          44.000    22528382.529    92249902.595        2460.144          45.000  
R23  18153495.613    97109083.057        -853.124          51.000                                                                  
R24  19694501.226   105315191.860        2533.081          50.000    19694498.579    81911925.220        1970.123          47.000  
R08  18595072.872    99575793.551       -3057.704          49.000    18595069.220    77447886.584       -2378.223          50.000  
G21  18507747.213    97258863.672         450.370          48.000                                                                  
S33  38400329.115   201795161.454        -616.305          42.000  
S31  37447607.715   196788592.682        -616.788          44.000  
E36  23018176.198   120961340.609         783.630          47.000    23018179.121    92684731.452         600.626          51.000  
E11  21758680.872   114342655.664       -1118.524          45.000    21758680.413    87613259.776        -857.029          49.000  
R01  18468075.294    98722615.418        1215.812          50.000    18468073.117    76784106.388         945.637          44.000  
R22  20972011.313   111950054.404       -3768.480          49.000    20972012.764    87072295.265       -2931.040          48.000  
G27  21890204.254   115033766.656       -4285.293          42.000    21890205.650    89636693.445       -3339.244          41.000  
G08  19728114.426   103671993.917       -3025.348          49.000    19728113.520    80783388.928       -2357.361          44.000  
E04  23499402.154   123490221.838       -1925.863          48.000    23499403.459    94622405.719       -1475.754          49.000  
G28  22908897.712   120387039.586        1159.435          45.000    22908900.601    93808090.649         903.419          46.000  
E09  22532282.443   118408001.385         751.363          47.000    22532286.124    90728185.175         575.751          54.000  
E05  24134404.691   126827104.644        2401.100          43.000    24134408.215    97179230.558        1839.738          44.000  
G32  21514619.030   113060102.767       -3406.547          42.000    21514618.261    88098808.173       -2654.388          43.000  
E12  26551836.688   139530842.008       -2549.001          40.000    26551842.587   106913294.843       -1953.206          44.000  
E10  24411716.699   128284588.222       -2049.507          46.000    24411719.894    98296171.705       -1570.426          49.000  
> 2024 04 16 11 21 30.4960000  0 23                     
G31  23534354.586   123673904.125        1637.478          43.000    23534357.460    96369248.340        1275.831          41.000  
G02  19217258.588   100987409.734        1015.948          47.000                                                                  
G03  20604115.291   108275382.419         925.252          47.000    20604116.145    84370387.292         721.067          46.000  
G04  22510368.578   118292742.659        3153.906          45.000    22510369.020    92176139.835        2457.587          45.000  
R23  18158337.094    97134978.160        -872.874          51.000                                                                  
R24  19680312.326   105239317.681        2525.488          51.000    19680310.310    81852911.879        1964.325          48.000  
R08  18612250.512    99667782.010       -3074.582          50.000    18612246.662    77519433.047       -2391.348          50.000  
G21  18505216.435    97245565.657         436.338          48.000                                                                  
S33  38403848.959   201813657.803        -616.503          42.000  
S31  37451130.808   196807104.922        -617.102          44.000  
E36  23013709.998   120937870.021         781.199          47.000    23013712.903    92666747.433         598.656          51.000  
E11  21765083.694   114376300.174       -1124.477          45.000    21765082.764    87639039.216        -861.574          49.000  
R01  18461310.557    98686457.343        1194.999          49.000    18461309.574    76755983.449         929.500          45.000  
R22  20993223.429   112063292.785       -3780.439          48.000    20993226.126    87160369.221       -2940.331          48.000  
G27  21914685.646   115162415.260       -4291.007          43.000    21914686.302    89736938.862       -3343.729          41.000  
G08  19745431.892   103762993.593       -3040.869          49.000    19745431.807    80854297.608       -2369.416          46.000  
E04  23510431.829   123548183.974       -1937.874          48.000    23510433.578    94666818.141       -1484.957          49.000  
G28  22902306.205   120352403.213        1149.850          44.000    22902309.205    93781101.236         895.889          45.000  
E09  22528029.813   118385653.564         738.787          47.000    22528033.201    90711061.457         566.055          53.000  
E05  24120706.214   126755119.720        2398.132          42.000    24120710.362    97124073.114        1837.503          44.000  
G32  21534105.024   113162499.944       -3419.549          42.000    21534103.525    88178597.922       -2664.635          42.000  
E12  26566401.278   139607383.452       -2553.517          39.000    26566408.085   106971943.172       -1956.476          43.000  
E10  24423434.600   128346165.506       -2055.283          46.000    24423437.586    98343354.086       -1574.740          49.000  
> 2024 04 16 11 22 00.4960000  0 23                     
G31  23525009.142   123624791.373        1636.641          44.000    23525011.061    96330978.620        1275.380          40.000  
G02  19211489.023   100957092.563        1005.082          48.000                                                                  
G03  20598855.093   108247739.164         917.492          46.000    20598854.979    84348847.104         714.871          45.000  
G04  22492373.678   118198175.811        3150.403          46.000    22492373.641    92102451.201        2454.779          45.000  
R23  18163287.387    97161458.384        -892.513          52.000                                                                  
R24  19666165.836   105163667.676        2517.761          51.000    19666163.543    81794072.893        1958.258          48.000  
R08  18629522.829    99760270.433       -3091.299          50.000    18629516.719    77591368.355       -2404.323          47.000  
G21  18502765.740    97232684.895         422.443          49.000                                                                  
S33  38407367.707   201832149.327        -616.433          42.000  
S31  37454652.741   196825612.957        -616.835          44.000  
E36  23009256.655   120914467.543         778.842          47.000    23009259.691    92648815.586         596.740          52.000  
E11  21771518.946   114410119.372       -1130.499          45.000    21771518.572    87664952.521        -866.165          49.000  
R01  18454661.462    98650919.342        1174.148          49.000    18454661.221    76728342.746         913.285          44.000  
R22  21014503.116   112176880.393       -3792.157          50.000    21014505.604    87248714.837       -2949.496          49.000  
G27  21939197.851   115291226.669       -4296.517          43.000    21939198.936    89837311.098       -3347.813          41.000  
G08  19762835.518   103854451.477       -3056.342          48.000    19762835.896    80925563.338       -2381.458          46.000  
E04  23521528.785   123606496.735       -1949.638          49.000    23521529.873    94711499.218       -1493.864          48.000  
G28  22895768.197   120318046.225        1140.376          43.000    22895770.044    93754329.516         888.603          43.000  
E09  22523847.909   118363677.268         726.215          47.000    22523851.342    90694222.409         556.485          53.000  
E05  24107022.957   126683216.282        2395.088          41.000    24107027.409    97068978.099        1835.315          44.000  
G32  21553664.635   113265279.193       -3432.735          43.000    21553663.571    88258685.425       -2674.598          44.000  
E12  26580990.192   139684048.287       -2557.326          39.000    26580997.566   107030686.038       -1959.706          44.000  
E10  24435184.220   128407905.341       -2060.909          46.000    24435186.069    98390661.060       -1579.143          49.000  
> 2024 04 16 11 22 30.4960000  0 24                     
G31  23515666.300   123575688.051        1636.568          45.000    23515666.701    96292716.281        1275.297          41.000  
G02  19205780.443   100927093.940         994.621          47.000                                                                  
G03  20593637.970   108220323.777         909.927          45.000    20593637.689    84327484.444         709.172          45.000  
G04  22474396.426   118103705.100        3147.282          45.000    22474396.787    92028837.470        2452.439          45.000  
R23  18168347.193    97188523.937        -912.035          51.000                                                                  
R24  19652061.939   105088243.662        2510.291          52.000    19652059.238    81735409.687        1952.423          48.000  
R08  18646887.644    99853253.718       -3107.739          51.000    18646880.727    77663688.611       -2417.183          49.000  
G21  18500394.214    97220221.800         408.409          48.000                                                                  
S33  38410885.664   201850635.636        -616.196          42.000  
S31  37458173.534   196844115.527        -616.764          44.000  
E36  23004816.559   120891132.588         776.667          47.000    23004819.308    92630935.480         595.155          52.000  
E11  21777987.906   114444112.515       -1135.909          45.000    21777987.393    87690999.116        -870.375          49.000  
R01  18448129.454    98616000.347        1153.594          49.000    18448128.523    76701183.484         897.255          43.000  
R22  21035847.095   112290814.117       -3803.659          49.000    21035848.667    87337329.663       -2958.413          48.000  
G27  21963740.708   115420196.461       -4301.812          42.000    21963741.949    89937806.729       -3351.706          42.000  
G08  19780326.541   103946363.483       -3071.210          49.000    19780325.811    80997182.967       -2393.177          46.000  
E04  23532692.266   123665157.268       -1961.059          49.000    23532692.146    94756446.791       -1502.665          47.000  
G28  22889284.097   120283969.910        1131.088          44.000    22889285.293    93727776.456         881.375          43.000  
E09  22519736.958   118342071.653         714.072          47.000    22519740.195    90677667.408         547.013          54.000  
E05  24093355.737   126611394.321        2392.751          41.000    24093360.578    97013945.549        1833.182          44.000  
G32  21573295.372   113368436.114       -3444.817          45.000    21573293.345    88339067.289       -2684.271          43.000  
E12  26595602.784   139760835.020       -2561.637          39.000    26595610.016   107089522.331       -1962.727          43.000  
E10  24446961.007   128469806.512       -2066.015          44.000    24446965.475    98438091.653       -1583.129          48.000  
R07                                                                  22459438.517                3      -3719.719          11.000  
> 2024 04 16 11 23 00.4960000  0 24                     
G31  23506326.373   123526605.775        1635.649          45.000    23506327.453    96254470.335        1274.631          42.000  
G02  19200134.753   100897424.827         983.484          47.000                                                                  
G03  20588465.978   108193144.574         902.101          46.000    20588465.926    84306305.863         702.772          45.000  
G04  22456439.363   118009341.834        3143.677          44.000    22456439.385    91955307.475        2449.703          44.000  
R23  18173518.163    97216184.933        -932.037          51.000                                                                  
R24  19638002.149   105013058.036        2502.173          53.000    19637999.285    81676931.900        1946.161          48.000  
R02  22273294.239   118854627.3461       3384.962          34.000    22273272.421                3       2633.386          26.000  
R08  18664344.680    99946736.746       -3124.502          50.000    18664338.659    77736397.513       -2430.124          49.000  
G21  18498104.278    97208187.235         393.981          48.000                                                                  
S33  38414404.033   201869124.577        -616.435          42.000  
S31  37461695.276   196862621.730        -616.833          44.000  
E36  23000390.890   120867874.883         773.884          47.000    23000393.557    92613114.576         592.931          52.000  
E11  21784491.905   114478289.167       -1142.068          45.000    21784491.073    87717186.314        -875.213          49.000  
R01  18441714.785    98581710.425        1132.517          48.000    18441714.422    76674513.535         880.834          44.000  
R22  21057256.614   112405101.486       -3815.423          48.000    21057259.344    87426219.566       -2967.693          49.000  
G27  21988314.255   115549330.507       -4307.365          42.000    21988315.778    90038430.355       -3356.177          43.000  
G08  19797903.400   104038735.916       -3086.849          48.000    19797904.655    81069161.361       -2405.353          46.000  
E04  23543922.963   123724173.130       -1973.170          49.000    23543922.154    94801666.622       -1512.008          46.000  
G28  22882856.049   120250185.832        1121.151          43.000    22882857.349    93701451.167         873.470          44.000  
E09  22515698.186   118320846.268         701.134          47.000    22515701.027    90661403.737         537.212          54.000  
E05  24079706.435   126539664.268        2389.365          42.000    24079711.094    96958983.390        1830.790          44.000  
G32  21592997.589   113471976.777       -3457.647          45.000    21592998.365    88419748.097       -2694.320          43.000  
E12  26610240.471   139837752.508       -2566.240          40.000    26610246.547   107148458.766       -1966.222          42.000  
E10  24458774.421   128531878.254       -2072.032          45.000    24458777.634    98485652.875       -1587.556          49.000  
> 2024 04 16 11 23 30.4960000  0 24                     
G31  23496988.800   123477544.553        1635.214          44.000    23496992.070    96216240.803        1274.327          42.000  
G02  19194551.397   100868084.729         972.526          47.000                                                                  
G03  20583338.704   108166198.887         894.357          46.000    20583338.660    84285309.198         696.910          46.000  
G04  22438503.575   117915086.347        3140.185          44.000    22438503.026    91881861.479        2446.973          43.000  
R23  18178799.555    97244440.669        -951.639          51.000                                                                  
R24  19623987.055   104938111.799        2494.312          52.000    19623983.714    81618640.303        1940.069          48.000  
R02  22254276.738   118753171.405        3378.215          34.000    22254263.507                1       2627.306          32.000  
R08  18681893.938   100040713.563       -3140.555          49.000    18681888.277    77809490.483       -2442.566          49.000  
G21  18495895.485    97196580.937         379.850          48.000                                                                  
S33  38417922.755   201887615.141        -616.442          42.000  
S31  37465217.097   196881128.515        -616.723          44.000  
E36  22995979.596   120844693.118         771.712          47.000    22995982.197    92595351.849         591.269          52.000  
E11  21791030.808   114512647.901       -1148.190          45.000    21791029.594    87743512.999        -879.651          49.000  
R01  18435417.806    98548047.799        1111.693          49.000    18435417.140    76648331.502         864.685          44.000  
R22  21078731.640   112519738.838       -3826.933          47.000    21078735.111    87515381.656       -2976.424          48.000  
G27  22012917.914   115678623.744       -4312.370          42.000    22012919.850    90139178.050       -3360.074          42.000  
G08  19815568.053   104131564.026       -3101.849          48.000    19815568.820    81141494.821       -2416.965          45.000  
E04  23555220.271   123783540.679       -1984.540          49.000    23555219.314    94847155.930       -1520.433          46.000  
G28  22876482.714   120216694.366        1111.580          43.000    22876484.091    93675353.898         866.287          43.000  
E09  22511731.277   118299999.551         688.758          47.000    22511734.125    90645430.224         527.773          54.000  
E05  24066074.077   126468025.317        2386.721          41.000    24066079.194    96904091.047        1828.776          45.000  
G32  21612772.055   113575896.106       -3470.048          45.000    21612774.292    88500724.028       -2703.798          43.000  
E12  26624901.857   139914798.634       -2570.276          41.000    26624907.130   107207493.763       -1969.180          40.000  
E10  24470617.973   128594118.704       -2077.312          45.000    24470621.998    98533343.434       -1591.697          49.000  
> 2024 04 16 11 24 00.4960000  0 24                     
G31  23487657.789   123428508.259        1634.154          44.000    23487660.445    96178030.695        1273.381          42.000  
G02  19189031.614   100839076.565         961.377          47.000                                                                  
G03  20578255.875   108139487.007         886.938          46.000    20578255.604    84264494.720         690.976          46.000  
G04  22420588.533   117820941.993        3136.409          44.000    22420587.989    91808502.072        2443.898          43.000  
R23  18184193.209    97273293.398        -971.761          51.000                                                                  
R24  19610017.338   104863409.242        2485.980          53.000    19610013.581    81560538.213        1933.533          48.000  
R02  22235302.061   118651936.377        3370.549          37.000    22235296.826                        2621.846          29.000  
R08  18699534.809   100135181.016       -3156.979          49.000    18699529.630    77882965.038       -2455.469          49.000  
G21  18493768.849    97185405.919         365.226          48.000                                                                  
S33  38421441.882   201906107.153        -616.515          42.000  
S31  37468739.297   196899637.827        -616.993          44.000  
E36  22991582.857   120821589.104         768.885          47.000    22991585.555    92577648.697         589.108          52.000  
E11  21797603.879   114547190.236       -1154.634          45.000    21797602.454    87769980.403        -884.777          48.000  
R01  18429238.672    98515013.521        1090.610          49.000    18429237.067    76622638.151         848.467          43.000  
R22  21100271.440   112634725.493       -3838.730          47.000    21100276.005    87604815.439       -2985.664          48.000  
G27  22037551.229   115808074.136       -4317.644          40.000    22037553.580    90240048.197       -3364.505          42.000  
G08  19833318.895   104224846.037       -3116.923          48.000    19833319.067    81214181.999       -2428.855          44.000  
E04  23566583.809   123843259.484       -1996.450          49.000    23566583.623    94892914.405       -1529.779          46.000  
G28  22870165.602   120183499.156        1101.667          44.000    22870167.655    93649487.508         858.224          43.000  
E09  22507837.551   118279533.041         675.853          48.000    22507839.520    90629748.040         517.874          54.000  
E05  24052459.998   126396479.899        2383.211          42.000    24052465.285    96849270.352        1826.143          45.000  
G32  21632618.813   113680192.074       -3482.780          44.000    21632620.736    88581993.428       -2713.956          42.000  
E12  26639588.005   139991974.265       -2574.727          40.000    26639593.955   107266628.050       -1972.706          41.000  
E10  24482494.379   128656529.085       -2083.186          45.000    24482498.945    98581164.187       -1596.131          50.000  
> 2024 04 16 11 24 30.4960000  0 24                     
G31  23478332.344   123379501.783        1633.024          44.000    23478334.715    96139843.818        1272.726          41.000  
G02  19183575.164   100810405.152         950.126          47.000                                                                  
G03  20573217.936   108113010.856         878.650          47.000    20573217.512    84243863.923         684.564          46.000  
G04  22402695.913   117726913.696        3132.323          43.000    22402695.113    91735233.079        2440.746          43.000  
R23  18189699.473    97302746.978        -991.839          51.000                                                                  
R24  19596093.805   104788956.042        2477.600          52.000    19596090.569    81502630.091        1926.947          48.000  
R02  22216374.008   118550927.226        3363.410          37.000    22216377.515                        2615.171          31.000  
R08  18717266.959   100230137.608       -3173.285          49.000    18717262.279    77956820.038       -2468.131          49.000  
G21  18491725.151    97174666.428         350.641          47.000                                                                  
S33  38424961.557   201924603.893        -616.514          42.000  
S31  37472262.300   196918150.786        -617.137          44.000  
E36  22987201.748   120798566.176         766.153          47.000    22987204.490    92560007.655         587.042          52.000  
E11  21804212.772   114581919.321       -1160.824          45.000    21804211.000    87796590.890        -889.554          48.000  
R01  18423176.424    98482611.107        1069.529          48.000    18423175.524    76597436.246         831.899          44.000  
R22  21121879.787   112750062.185       -3850.393          49.000    21121882.550    87694521.463       -2994.757          48.000  
G27  22062214.566   115937681.179       -4322.788          39.000    22062217.354    90341040.368       -3368.282          42.000  
G08  19851156.488   104318581.827       -3132.105          48.000    19851156.806    81287222.741       -2440.515          46.000  
E04  23578014.827   123903330.547       -2008.139          49.000    23578015.174    94938942.783       -1538.835          46.000  
G28  22863906.412   120150605.268        1091.429          44.000    22863908.759    93623855.880         850.530          44.000  
E09  22504015.499   118259449.774         663.135          48.000    22504017.899    90614359.505         508.032          54.000  
E05  24038863.065   126325031.899        2379.758          41.000    24038869.215    96794524.287        1823.770          45.000  
G32  21652537.526   113784864.222       -3495.364          47.000    21652539.484    88663555.957       -2723.719          42.000  
E12  26654299.575   140069281.887       -2579.059          40.000    26654305.379   107325863.401       -1976.145          40.000  
E10  24494403.965   128719112.083       -2088.963          46.000    24494408.647    98629117.227       -1600.608          51.000  
> 2024 04 16 11 25 00.4960000  0 24                     
G31  23469011.528   123330526.128        1631.978          42.000    23469014.691    96101680.934        1271.773          41.000  
G02  19178183.184   100782070.559         938.878          47.000                                                                  
G03  20568223.271   108086768.321         870.736          45.000    20568224.014    84223415.138         678.579          47.000  
G04  22384824.916   117633002.415        3128.571          43.000    22384824.974    91662055.304        2437.725          43.000  
R23  18195317.488    97332800.943       -1011.765          51.000                                                                  
R24  19582217.862   104714754.049        2469.250          53.000    19582214.719    81444917.361        1920.508          47.000  
R02  22197485.320   118450144.889        3355.683          32.000    22197488.742    92127677.0891       2609.944          32.000  
R08  18735090.128   100325578.061       -3189.333          49.000    18735085.811    78031051.368       -2480.492          50.000  
G21  18489764.911    97164362.922         336.272          48.000                                                                  
S33  38428481.936   201943103.220        -616.712          42.000  
S31  37475785.742   196936666.274        -617.373          44.000  
E36  22982835.968   120775623.736         763.434          47.000    22982838.859    92542428.300         585.028          52.000  
E11  21810857.265   114616834.368       -1167.030          44.000    21810855.286    87823343.860        -894.048          47.000  
R01  18417232.474    98450839.176        1048.561          48.000    18417232.982    76572724.765         815.690          44.000  
R22  21143552.637   112865745.923       -3861.892          50.000    21143554.472    87784497.422       -3003.765          48.000  
G27  22086907.038   116067440.427       -4327.684          40.000    22086910.026    90442151.149       -3372.180          42.000  
G08  19869079.749   104412767.270       -3147.188          48.000    19869080.378    81360613.841       -2452.142          46.000  
E04  23589513.226   123963751.022       -2019.851          49.000    23589513.088    94985238.876       -1547.627          47.000  
G28  22857704.090   120118013.888        1081.299          44.000    22857707.031    93598459.973         842.531          44.000  
E09  22500265.776   118239748.862         650.231          47.000    22500268.948    90599263.947         498.354          53.000  
E05  24025285.230   126253681.274        2376.741          42.000    24025291.961    96739852.899        1821.124          46.000  
G32  21672526.442   113889908.199       -3507.656          46.000    21672527.537    88745408.171       -2733.060          41.000  
E12  26669035.554   140146719.854       -2583.130          40.000    26669041.816   107385198.689       -1979.490          41.000  
E10  24506345.511   128781866.618       -2094.664          46.000    24506351.060    98677201.676       -1604.925          52.000  
> 2024 04 16 11 25 30.4960000  0 24                     
G31  23459697.289   123281578.491        1631.276          42.000    23459699.863    96063539.848        1271.136          41.000  
G02  19172855.481   100754068.967         927.945          48.000                                                                  
G03  20563273.194   108060753.119         863.500          46.000    20563274.223    84203143.471         672.831          47.000  
G04  22366976.000   117539204.951        3124.638          43.000    22366976.178    91588966.219        2434.733          43.000  
R23  18201047.631    97363450.880       -1031.471          51.000                                                                  
R24  19568388.076   104640800.910        2461.011          52.000    19568385.050    81387398.171        1914.172          48.000  
R02  22178621.708   118349209.9711       3348.768          32.000    22178647.536    92049464.432        2604.278          35.000  
R08  18753002.158   100421492.725       -3204.787          49.000    18752997.373    78105651.545       -2492.686          50.000  
G21  18487886.328    97154491.676         321.886          48.000                                                                  
S33  38432001.577   201961598.882        -616.294          42.000  
S31  37479308.913   196955178.841        -616.937          44.000  
E36  22978484.548   120752757.040         761.032          47.000    22978487.600    92524906.972         583.170          52.000  
E11  21817535.251   114651930.351       -1172.724          44.000    21817533.942    87850235.482        -898.559          47.000  
R01  18411406.864    98419692.834        1027.894          49.000    18411406.309    76548499.825         799.399          44.000  
R22  21165287.291   112981769.252       -3872.973          48.000    21165289.129    87874737.487       -3012.291          47.000  
G27  22111627.694   116197343.303       -4332.412          42.000    22111629.743    90543373.857       -3375.968          42.000  
G08  19887085.722   104507393.953       -3161.444          47.000    19887087.050    81434348.795       -2463.497          46.000  
E04  23601076.271   124024513.809       -2031.022          50.000    23601075.933    95031797.263       -1556.162          47.000  
G28  22851559.846   120085721.949        1071.523          44.000    22851562.091    93573297.390         834.661          43.000  
E09  22496589.174   118220425.206         637.941          48.000    22496591.834    90584457.461         488.793          53.000  
E05  24011725.382   126182423.864        2373.808          42.000    24011732.450    96685252.918        1818.872          47.000  
G32  21692585.248   113995315.312       -3519.185          46.000    21692586.084    88827543.380       -2742.565          40.000  
E12  26683794.868   140224282.603       -2587.465          39.000    26683801.839   107444629.560       -1982.704          40.000  
E10  24518318.342   128844787.222       -2100.002          46.000    24518324.549    98725413.376       -1609.096          52.000  
> 2024 04 16 11 26 00.4960000  0 24                     
G31  23450388.712   123232659.999        1629.823          42.000    23450391.072    96025421.556        1269.784          41.000  
G02  19167590.501   100726400.822         916.527          48.000                                                                  
G03  20558365.547   108034963.087         855.530          46.000    20558366.239    84183047.280         666.708          47.000  
G04  22349149.510   117445522.194        3120.518          44.000    22349148.983    91515966.494        2431.868          42.000  
R23  18206889.523    97394696.814       -1051.654          52.000                                                                  
R24  19554605.592   104567098.231        2452.399          52.000    19554602.558    81330073.790        1907.379          48.000  
R02  22159830.085   118248875.216        3340.667          36.000    22159847.357                        2598.769          31.000  
R08  18771001.231   100517875.744       -3220.708          50.000    18770996.695    78180615.999       -2505.033          50.000  
G21  18486090.143    97145053.399         307.119          48.000                                                                  
S33  38435520.349   201980089.785        -616.410          42.000  
S31  37482830.661   196973686.112        -617.079          44.000  
E36  22974147.876   120729965.348         758.208          47.000    22974150.747    92507443.114         580.997          52.000  
E11  21824247.709   114687206.428       -1179.073          43.000    21824247.023    87877265.082        -903.367          48.000  
R01  18405697.408    98389170.404        1006.812          49.000    18405696.020    76524760.164         782.922          44.000  
R22  21187085.142   113098128.944       -3884.431          49.000    21187087.863    87965239.165       -3021.311          48.000  
G27  22136374.938   116327385.166       -4337.209          43.000    22136375.871    90644704.873       -3379.782          41.000  
G08  19905175.909   104602457.681       -3176.327          48.000    19905177.334    81508424.281       -2474.902          47.000  
E04  23612703.512   124085615.842       -2042.592          50.000    23612703.345    95078615.597       -1565.108          47.000  
G28  22845471.729   120053730.494        1061.036          43.000    22845472.867    93548368.975         826.654          42.000  
E09  22492982.767   118201477.753         625.151          47.000    22492986.575    90569939.234         478.990          54.000  
E05  23998183.016   126111259.490        2370.413          42.000    23998190.343    96630724.230        1816.277          47.000  
G32  21712711.951   114101081.115       -3531.775          46.000    21712713.131    88909958.076       -2751.980          42.000  
E12  26698577.728   140301968.485       -2591.825          38.000    26698584.503   107504154.802       -1986.005          39.000  
E10  24530323.743   128907872.637       -2105.865          46.000    24530329.215    98773751.355       -1613.513          51.000  
> 2024 04 16 11 26 30.4960000  0 24                     
G31  23441086.840   123183781.799        1628.571          44.000    23441090.116    95987334.635        1268.930          41.000  
G02  19162390.998   100699076.684         905.079          48.000                                                                  
G03  20553501.933   108009406.215         847.922          47.000    20553502.416    84163132.816         660.684          46.000  
G04  22331345.954   117351965.156        3116.431          43.000    22331346.147    91443064.762        2428.474          42.000  
R23  18212844.093    97426548.020       -1071.810          52.000                                                                  
R24  19540872.089   104493658.162        2443.597          53.000    19540869.247    81272953.658        1900.500          48.000  
R02  22141076.142   118148776.332        3332.908          35.000    22141085.520    91893571.362        2591.920          32.000  
R08  18789089.123   100614732.467       -3236.453          50.000    18789084.090    78255948.866       -2517.188          50.000  
G21  18484378.985    97136058.496         292.464          48.000                                                                  
S33  38439039.930   201998583.839        -616.333          42.000  
S31  37486353.427   196992196.954        -617.018          44.000  
E36  22969826.381   120707258.116         755.432          47.000    22969829.908    92490043.987         578.833          52.000  
E11  21830996.485   114722671.819       -1185.546          43.000    21830996.109    87904439.760        -908.384          48.000  
R01  18400104.767    98359281.308         985.677          47.000    18400105.194    76501513.070         766.698          44.000  
R22  21208948.295   113214832.014       -3895.750          49.000    21208950.820    88056007.897       -3029.919          48.000  
G27  22161148.692   116457571.690       -4341.882          43.000    22161149.889    90746148.622       -3383.151          40.000  
G08  19923351.048   104697964.186       -3190.924          49.000    19923352.134    81582844.752       -2486.324          47.000  
E04  23624396.391   124147064.264       -2054.037          49.000    23624396.888    95125699.337       -1573.952          47.000  
G28  22839442.797   120022050.670        1050.874          43.000    22839444.474    93523683.358         818.952          42.000  
E09  22489450.333   118182915.616         612.391          47.000    22489454.374    90555716.269         469.143          54.000  
E05  23984660.288   126040198.168        2366.744          41.000    23984667.560    96576274.512        1813.643          47.000  
G32  21732908.150   114207211.221       -3543.556          46.000    21732908.238    88992656.645       -2761.129          41.000  
E12  26713385.688   140379785.946       -2595.887          38.000    26713393.068   107563780.894       -1989.019          39.000  
E10  24542362.301   128971131.638       -2111.596          47.000    24542367.076    98822222.359       -1617.992          51.000  
> 2024 04 16 11 27 00.4960000  0 24                     
G31  23431794.036   123134946.353        1627.166          44.000    23431797.832    95949280.988        1267.978          41.000  
G02  19157257.734   100672098.074         893.651          49.000                                                                  
G03  20548683.330   107984081.746         840.212          47.000    20548683.172    84143399.467         654.707          46.000  
G04  22313566.744   117258536.053        3112.328          41.000    22313567.199    91370262.712        2425.221          42.000  
R23  18218911.150    97459005.662       -1091.899          51.000                                                                  
R24  19527188.317   104420483.876        2434.796          52.000    19527185.652    81216040.252        1893.756          49.000  
R02  22122366.828   118048915.006        3324.673          40.000    22122372.186    91815901.295        2585.961          36.000  
R08  18807263.332   100712058.320       -3251.900          49.000    18807258.812    78331646.624       -2529.138          50.000  
G21  18482752.422    97127508.451         277.606          48.000                                                                  
S33  38442560.182   202017081.384        -616.688          42.000  
S31  37489876.519   197010711.213        -617.051          44.000  
E36  22965521.714   120684636.097         752.645          47.000    22965525.359    92472710.132         576.750          52.000  
E11  21837780.440   114758326.931       -1191.724          42.000    21837780.872    87931759.781        -913.108          47.000  
R01  18394631.572    98330025.615         964.655          48.000    18394631.742    76478758.663         750.341          44.000  
R22  21230874.998   113331876.566       -3907.157          48.000    21230877.456    88147042.286       -3038.643          49.000  
G27  22185949.760   116587899.710       -4346.639          43.000    22185950.970    90847702.610       -3386.842          42.000  
G08  19941609.771   104793910.631       -3205.338          48.000    19941610.354    81657608.003       -2497.578          47.000  
E04  23636155.621   124208857.431       -2065.432          49.000    23636156.126    95173047.225       -1582.665          48.000  
G28  22833474.214   119990684.939        1040.185          42.000    22833475.999    93499242.492         810.713          42.000  
E09  22485991.210   118164739.147         599.551          47.000    22485995.802    90541788.795         459.381          54.000  
E05  23971157.760   125969241.136        2363.612          42.000    23971165.012    96521904.706        1811.046          47.000  
G32  21753173.401   114313702.503       -3555.605          48.000    21753173.536    89075636.658       -2770.543          42.000  
E12  26728220.510   140457734.917       -2600.146          38.000    26728227.791   107623507.757       -1992.346          41.000  
E10  24554433.106   129034564.341       -2117.193          46.000    24554438.037    98870826.461       -1622.265          51.000  
> 2024 04 16 11 27 30.4960000  0 24                     
G31  23422509.382   123086153.313        1625.487          44.000    23422512.998    95911260.407        1266.529          43.000  
G02  19152189.055   100645464.482         881.734          48.000                                                                  
G03  20543907.553   107958986.448         832.388          48.000    20543907.370    84123844.682         648.571          45.000  
G04  22295812.093   117165234.880        3107.622          41.000    22295812.664    91297560.340        2421.556          41.000  
R23  18225091.263    97492068.466       -1112.472          50.000                                                                  
R24  19513553.735   104347576.385        2425.458          52.000    19513551.735    81159334.348        1886.456          49.000  
R02  22103700.283   117949291.246        3316.400          42.000    22103699.685    91738416.091        2579.364          38.000  
R08  18825524.626   100809846.944       -3267.543          50.000    18825520.237    78407704.338       -2541.564          50.000  
G21  18481210.138    97119402.621         262.515          48.000                                                                  
S33  38446079.933   202035579.259        -616.982          42.000  
S31  37493399.768   197029226.152        -617.487          44.000  
E36  22961233.388   120662097.648         749.642          47.000    22961236.598    92455440.321         574.403          52.000  
E11  21844602.157   114794169.904       -1198.239          43.000    21844601.584    87959223.754        -918.127          47.000  
R01  18389277.283    98301401.021         943.419          49.000    18389276.971    76456495.070         733.705          44.000  
R22  21252865.847   113449258.430       -3918.529          50.000    21252867.421    88238338.975       -3047.807          48.000  
G27  22210776.570   116718363.729       -4351.191          43.000    22210778.210    90949362.560       -3390.449          42.000  
G08  19959950.838   104890291.804       -3220.158          48.000    19959950.579    81732710.094       -2509.301          47.000  
E04  23647979.390   124270991.331       -2076.979          49.000    23647980.264    95220656.191       -1591.513          48.000  
G28  22827564.456   119959633.294        1029.389          41.000    22827566.800    93475046.419         802.105          42.000  
E09  22482604.924   118146946.315         586.445          46.000    22482610.048    90528155.281         449.355          54.000  
E05  23957675.132   125898387.330        2359.847          42.000    23957682.166    96467614.009        1808.151          47.000  
G32  21773505.276   114420549.441       -3567.630          47.000    21773505.114    89158893.821       -2780.192          41.000  
E12  26743077.744   140535812.698       -2605.190          38.000    26743085.849   107683333.245       -1996.055          42.000  
E10  24566536.421   129098168.487       -2123.283          46.000    24566541.612    98919561.919       -1626.891          51.000  
> 2024 04 16 11 28 00.4960000  0 24                     
G31  23413233.069   123037407.627        1624.132          44.000    23413236.988    95873276.776        1265.629          43.000  
G02  19147187.717   100619179.999         870.382          49.000                                                                  
G03  20539176.188   107934121.847         825.016          49.000    20539176.131    84104469.659         642.741          45.000  
G04  22278083.036   117072066.160        3103.443          41.000    22278082.617    91224961.222        2418.109          41.000  
R23  18231386.047    97525739.602       -1132.540          50.000                                                                  
R24  19499970.332   104274940.824        2416.583          51.000    19499968.506    81102839.935        1879.590          49.000  
R02  22085075.829   117849910.059        3308.736          41.000    22085075.492    91661119.544        2573.313          40.000  
R08  18843871.343   100908096.298       -3282.524          50.000    18843868.004    78484120.387       -2553.111          50.000  
G21  18479753.137    97111745.076         247.907          49.000                                                                  
S33  38449600.784   202054080.375        -616.554          42.000  
S31  37496923.502   197047743.568        -617.495          44.000  
E36  22956960.862   120639645.767         747.034          47.000    22956964.163    92438236.847         572.282          52.000  
E11  21851460.726   114830203.573       -1204.328          44.000    21851458.453    87986833.855        -922.688          47.000  
R01  18384040.833    98273409.779         922.487          49.000    18384041.261    76434724.098         717.430          44.000  
R22  21274918.729   113566977.901       -3929.571          50.000    21274920.733    88329898.254       -3056.294          48.000  
G27  22235629.031   116848962.927       -4355.616          43.000    22235630.561    91051127.839       -3393.852          42.000  
G08  19978374.134   104987107.065       -3234.434          48.000    19978374.833    81808150.411       -2520.243          47.000  
E04  23659867.499   124333466.626       -2088.283          49.000    23659869.061    95268526.742       -1600.112          48.000  
G28  22821716.501   119928900.453        1019.132          43.000    22821718.306    93451098.730         794.025          41.000  
E09  22479293.556   118129539.755         573.722          47.000    22479297.612    90514817.739         439.619          54.000  
E05  23944212.309   125827640.291        2356.430          43.000    23944219.389    96413405.128        1805.556          47.000  
G32  21793905.590   114527751.227       -3579.220          47.000    21793905.899    89242427.462       -2789.058          42.000  
E12  26757959.916   140614021.267       -2609.100          38.000    26757968.846   107743258.987       -1999.172          42.000  
E10  24578672.649   129161946.435       -2128.872          45.000    24578677.910    98968430.537       -1631.250          50.000  
> 2024 04 16 11 28 30.4960000  0 24                     
G31  23403966.764   122988711.359        1622.444          44.000    23403970.702    95835331.619        1264.224          43.000  
G02  19142252.599   100593245.689         858.807          49.000                                                                  
G03  20534488.421   107909486.442         817.449          49.000    20534488.733    84085273.137         636.984          46.000  
G04  22260379.548   116979031.624        3099.183          41.000    22260378.096    91152466.627        2414.751          39.000  
R23  18237793.960    97560019.396       -1152.659          49.000                                                                  
R24  19486438.640   104202580.013        2407.593          52.000    19486436.568    81046559.214        1872.503          49.000  
R02  22066497.519   117750772.675        3300.540          40.000    22066498.545    91584012.665        2567.372          41.000  
R08  18862304.892   101006801.842       -3297.578          49.000    18862301.015    78560891.257       -2564.804          50.000  
G21  18478381.752    97104536.861         232.934          48.000                                                                  
S33  38453121.762   202072582.913        -616.193          42.000  
S31  37500447.795   197066262.346        -617.006          44.000  
E36  22952705.147   120617280.662         744.231          47.000    22952708.323    92421099.858         570.250          52.000  
E11  21858353.588   114866427.762       -1210.198          44.000    21858351.799    88014589.966        -927.383          47.000  
R01  18378924.117    98246051.821         901.622          50.000    18378923.030    76413445.696         701.138          44.000  
R22  21297034.298   113685032.594       -3940.593          49.000    21297036.318    88421718.247       -3064.846          47.000  
G27  22260505.765   116979693.551       -4359.575          42.000    22260507.730    91152995.519       -3397.039          41.000  
G08  19996879.371   105084352.903       -3248.473          48.000    19996880.721    81883926.251       -2531.327          47.000  
E04  23671821.116   124396281.109       -2099.209          49.000    23671822.456    95316657.199       -1608.638          48.000  
G28  22815929.067   119898488.273        1008.429          43.000    22815931.399    93427400.943         785.900          43.000  
E09  22476055.542   118112519.222         561.113          48.000    22476058.739    90501775.977         429.845          54.000  
E05  23930770.402   125757000.682        2353.030          43.000    23930776.601    96359278.572        1802.910          46.000  
G32  21814372.847   114635304.175       -3590.765          47.000    21814372.902    89326234.712       -2798.043          43.000  
E12  26772868.430   140692359.959       -2613.626          38.000    26772876.466   107803284.410       -2002.382          43.000  
E10  24590844.975   129225897.699       -2134.405          46.000    24590847.601    99017431.982       -1635.457          50.000  
> 2024 04 16 11 29 00.4960000  0 24                     
G31  23394710.624   122940063.099        1620.455          44.000    23394713.332    95797423.881        1262.564          43.000  
G02  19137383.786   100567659.443         846.732          49.000                                                                  
G03  20529843.163   107885075.755         809.633          48.000    20529843.684    84066251.722         630.859          46.000  
G04  22242700.970   116886129.744        3094.034          42.000    22242699.628    91080075.406        2411.324          39.000  
R23  18244314.996    97594904.777       -1173.364          49.000                                                                  
R24  19472958.041   104130493.297        2397.941          51.000    19472955.621    80990491.704        1865.081          48.000  
R02  22047964.161   117651877.699        3292.201          39.000    22047965.952    91507094.252        2560.512          42.000  
R08  18880822.055   101105955.405       -3312.781          50.000    18880816.283    78638010.556       -2576.668          49.000  
G21  18477094.675    97097776.000         217.667          48.000                                                                  
S33  38456642.281   202091082.201        -616.784          42.000  
S31  37503971.622   197084779.299        -617.310          44.000  
E36  22948464.939   120594999.256         740.990          47.000    22948468.419    92404027.024         567.757          52.000  
E11  21865281.885   114902839.235       -1217.056          43.000    21865281.106    88042489.553        -932.553          47.000  
R01  18373924.133    98219323.002         880.082          50.000    18373922.770    76392656.574         684.574          43.000  
R22  21319211.377   113803416.669       -3951.935          48.000    21319214.166    88513794.401       -3073.809          47.000  
G27  22285406.316   117110548.738       -4364.210          42.000    22285408.440    91254960.298       -3400.932          40.000  
G08  20015464.975   105182022.517       -3263.031          47.000    20015466.936    81960032.284       -2542.595          47.000  
E04  23683837.802   124459429.306       -2110.852          49.000    23683839.268    95365043.358       -1617.368          48.000  
G28  22810203.408   119868395.283         997.565          45.000    22810205.659    93403951.902         777.098          44.000  
E09  22472889.427   118095881.197         547.890          47.000    22472892.657    90489027.305         419.795          54.000  
E05  23917348.544   125686466.023        2349.078          43.000    23917354.297    96305232.416        1799.928          46.000  
G32  21834905.299   114743201.357       -3602.502          48.000    21834905.132    89410310.169       -2807.097          42.000  
E12  26787799.717   140770824.671       -2617.939          38.000    26787807.879   107863406.435       -2006.062          43.000  
E10  24603045.275   129290018.519       -2140.587          45.000    24603049.817    99066563.356       -1640.159          50.000  
> 2024 04 16 11 29 30.4960000  0 24                     
G31  23385463.163   122891472.517        1619.071          43.000    23385465.859    95759561.085        1261.802          41.000  
G02  19132582.320   100542430.273         835.339          48.000                                                                  
G03  20525241.512   107860896.153         802.557          47.000    20525242.863    84047410.393         625.540          46.000  
G04  22225049.602   116793369.971        3089.959          41.000    22225048.543    91007794.949        2407.849          40.000  
R23  18250952.478    97630404.274       -1193.146          51.000                                                                  
R24  19459530.497   104058691.243        2388.915          50.000    19459527.926    80934645.576        1858.130          48.000  
R02  22029479.592   117553234.656        3283.993          40.000    22029481.242    91430371.790        2554.500          43.000  
R08  18899422.169   101205560.276       -3327.322          51.000    18899416.699    78715480.902       -2587.829          50.000  
G21  18475894.889    97091471.524         202.841          48.000                                                                  
S33  38460163.576   202109587.151        -616.499          42.000  
S31  37507496.109   197103300.379        -617.228          44.000  
E36  22944242.599   120572809.556         738.378          47.000    22944246.011    92387024.442         565.760          52.000  
E11  21872248.346   114939445.614       -1223.134          43.000    21872247.396    88070538.486        -937.243          48.000  
R01  18369042.365    98193230.988         859.456          50.000    18369041.214    76372362.755         668.507          43.000  
R22  21341450.957   113922135.532       -3962.499          47.000    21341454.832    88606130.967       -3081.832          48.000  
G27  22310331.594   117241532.523       -4367.859          41.000    22310334.223    91357025.247       -3403.437          39.000  
G08  20034132.761   105280120.174       -3276.652          48.000    20034134.590    82036471.869       -2553.191          48.000  
E04  23695919.000   124522916.745       -2121.434          49.000    23695920.435    95413689.461       -1625.573          48.000  
G28  22804540.097   119838631.166         986.972          46.000    22804541.042    93380759.060         769.145          43.000  
E09  22469798.027   118079633.179         535.414          48.000    22469800.897    90476577.485         410.338          54.000  
E05  23903948.097   125616044.765        2345.735          44.000    23903953.847    96251273.156        1797.563          46.000  
G32  21855504.054   114851446.822       -3613.459          48.000    21855504.784    89494657.075       -2815.818          45.000  
E12  26802755.478   140849422.391       -2621.607          37.000    26802764.868   107923630.378       -2008.782          43.000  
E10  24615280.047   129354316.263       -2145.815          44.000    24615284.941    99115830.286       -1644.180          50.000  
