     3.00           OBSERVATION DATA    M: Mixed            RINEX VERSION / TYPE
CONVBIN 2.4.3                           20240416 154442 UTC PGM / RUN BY / DATE 
format: u-blox UBX                                          COMMENT             
log: /home/regis/git/gnsspwv/obsdata/VERT00CHL/2024-04-16/VECOMMENT             
{self.marker}                                               MARKER NAME         
                                                            MARKER NUMBER       
GEODETIC                                                    MARKER TYPE         
{self.observer}     {self.institution}                      OBSERVER / AGENCY   
UNKNOWN             UBLOX-ZED-F9P                           REC # / TYPE / VERS 
UNKNOWN             TWIVSP6037L                             ANT # / TYPE        
  1713381.0000 -5047934.0000 -3490983.0000                  APPROX POSITION XYZ 
        0.0000        0.0000        0.0000                  ANTENNA: DELTA H/E/N
G    8 C1C L1C D1C S1C C2L L2L D2L S2L                      SYS / # / OBS TYPES 
R    8 C1C L1C D1C S1C C2C L2C D2C S2C                      SYS / # / OBS TYPES 
E    8 C1C L1C D1C S1C C7Q L7Q D7Q S7Q                      SYS / # / OBS TYPES 
S    4 C1C L1C D1C S1C                                      SYS / # / OBS TYPES 
  2024    04    16    15    30   00.4950000     GPS         TIME OF FIRST OBS   
  2024    04    16    15    44   30.4960000     GPS         TIME OF LAST OBS    
                                                            END OF HEADER       
> 2024 04 16 15 30 00.4950000  0 25                     
G03  20486619.330   107657861.1791      -2502.705          46.000    20486624.989    83889242.2101      -1950.200          43.000  
G04  20069957.103   105468306.9061      -2776.578          46.000    20069960.050    82183090.5711      -2163.739          48.000  
G06  19907866.258   104616573.4071        434.454          46.000    19907871.321    81519438.4101        338.563          47.000  
G07  20404097.560   107224349.0531       2590.480          48.000    20404100.867    83551496.4271       2018.604          44.000  
G09  19307906.244   101463730.1321       -683.435          51.000    19307907.249    79062660.1181       -532.593          46.000  
R02  19400492.905   103524715.0541      -1972.589          51.000    19400496.554    80519230.8631      -1534.180          49.000  
R18  19311046.773   103083690.2701       -910.174          51.000    19311051.587    80176227.4971       -708.044          50.000  
R12  19795880.518   105746085.9461       -109.631          51.000    19795885.312    82247001.3341        -85.287          47.000  
R01  22323463.738                       -3152.661          29.000    22323474.998                3      -2452.425          25.000  
G11  22860896.497                3       2211.162          29.000    22860907.087                1       1723.972          31.000  
S31  37439328.724   196744983.6731       -800.540          44.000  
S33  38390740.778   201744670.3381       -800.379          43.000  
E03  23569817.755   123860264.8171        360.093          46.000    23569825.468    94905965.0311        275.959          51.000  
R17  19919272.559   106591967.8691      -4258.293          50.000    19919273.158    82904847.7431      -3312.023          47.000  
R03  19536138.831   104578510.6551        360.439          52.000    19536138.452    81338867.0061        280.441          47.000  
R13  20351502.806   108676066.0901       2629.673          39.000    20351510.427    84525799.5961       2045.019          38.000  
E05  20944676.868   110065002.7671      -1556.140          49.000    20944681.367    84335539.4471      -1192.344          50.000  
E09  25581051.558   134429244.5021      -2855.300          38.000    25581064.490   103004240.3911      -2187.757          43.000  
E15  24371886.072   128075116.8801       1076.063          45.000    24371895.074    98135541.6531        824.827          46.000  
G30  23178545.496   121804068.9171       3037.470          39.000    23178560.960    94912329.8231       2366.699          37.000  
E34  22384548.416   117631581.8631      -1626.414          48.000    22384556.065    90133309.9601      -1246.096          52.000  
E36  24585715.124   129198717.4551      -3747.754          45.000    24585728.456    98996428.1641      -2871.688          49.000  
E24  26151951.710   137429480.0671       1189.639          43.000    26151967.522   105303196.0701        911.457          46.000  
R11                                                                  22503729.655                3      -2874.920          18.000  
R19                                                                  21560403.483                1       1593.332          29.000  
> 2024 04 16 15 30 30.4960000  0 25                     
G03  20500936.334   107733095.733       -2512.305          46.000    20500941.878    83947866.390       -1957.403          43.000  
G04  20085824.303   105551683.978       -2781.029          47.000    20085826.508    82248059.612       -2167.102          49.000  
G06  19905441.690   104603831.238         415.066          46.000    19905446.587    81509509.455         323.451          47.000  
G07  20389340.799   107146803.429        2579.269          47.000    20389344.426    83491071.416        2009.961          44.000  
G09  19311832.242   101484362.243        -691.573          51.000    19311833.286    79078737.103        -538.844          45.000  
R02  19411592.065   103583945.877       -1975.745          52.000    19411596.612    80565299.212       -1536.658          49.000  
R18  19316239.084   103111411.910        -937.484          51.000    19316244.426    80197788.748        -729.109          50.000  
R12  19796566.949   105749754.827        -134.693          51.000    19796571.904    82249854.915        -104.850          47.000  
R01  22341154.920                       -3151.443          32.000    22341166.196                       -2451.771          29.000  
S31  37443900.152   196769003.956        -800.293          44.000  
S33  38395309.753   201768679.083        -799.929          43.000  
E03  23567776.128   123849536.659         355.369          47.000    23567784.022    94897744.822         272.339          51.000  
R17  19943185.411   106719933.948       -4272.180          50.000    19943187.411    83004376.663       -3322.816          47.000  
R03  19534130.167   104567758.960         356.512          51.000    19534130.926    81330504.618         277.332          48.000  
R13  20336763.056   108597357.913        2618.021          39.000    20336771.345    84464582.377        2035.887          39.000  
R19  21548991.816                3       2033.049          22.000    21548980.207                3       1593.017          18.000  
E05  20953570.600   110111742.025       -1559.469          48.000    20953575.800    84371352.608       -1194.877          50.000  
E09  25597349.234   134514888.065       -2853.950          37.000    25597361.738   103069863.125       -2186.507          42.000  
E15  24365772.268   128042988.255        1065.741          45.000    24365780.843    98110923.720         816.722          46.000  
G30  23161211.690   121712983.572        3035.383          39.000    23161227.444    94841354.557        2365.033          35.000  
E34  22393873.446   117680586.459       -1640.274          48.000    22393881.139    90170858.909       -1256.844          52.000  
E36  24607126.177   129311236.624       -3752.916          44.000    24607140.551    99082643.889       -2875.581          49.000  
E24  26145176.475   137393872.013        1184.523          44.000    26145190.482   105275912.084         907.748          45.000  
G11                                                                  22848303.342                        1716.374          31.000  
R11                                                                  22524488.071                3      -2879.328          22.000  
> 2024 04 16 15 31 00.4960000  0 26                     
G03  20515306.199   107808603.906       -2521.473          48.000    20515310.699    84006703.800       -1964.720          43.000  
G04  20101711.376   105635173.562       -2784.949          47.000    20101714.630    82313116.357       -2170.004          49.000  
G06  19903125.805   104591659.455         396.389          46.000    19903130.110    81500024.973         308.864          46.000  
G07  20374647.215   107069587.834        2568.593          48.000    20374649.566    83430903.606        2001.486          43.000  
G09  19315801.476   101505223.390        -699.127          50.000    19315803.266    79094992.567        -544.794          45.000  
R02  19422707.553   103643260.941       -1978.662          50.000    19422711.745    80611433.107       -1538.885          49.000  
R18  19321583.163   103139936.624        -964.099          52.000    19321587.946    80219974.606        -749.835          49.000  
R12  19797392.549   105754163.429        -159.212          51.000    19797396.981    82253283.855        -123.958          46.000  
R01  22358844.745   119520839.011       -3151.524          32.000    22358861.086                       -2451.435          27.000  
G11  22835755.165                        2192.385          30.000    22835757.497    93508603.8511       1708.698          32.000  
S31  37448466.883   196793004.587        -799.472          43.000  
S33  38399874.237   201792666.937        -798.910          42.000  
E03  23565759.022   123838939.360         351.226          47.000    23565767.394    94889624.904         269.065          51.000  
R17  19967173.236   106848298.739       -4285.386          50.000    19967175.653    83104215.758       -3333.038          46.000  
R03  19532141.381   104557116.638         353.052          51.000    19532143.458    81322227.275         274.615          48.000  
R13  20322087.646   108518991.714        2606.547          40.000    20322095.297    84403631.075        2027.528          39.000  
R19  21537641.340                3       2009.245          23.000    21537664.851                1       1564.604          28.000  
E05  20962482.295   110158570.613       -1562.356          49.000    20962487.183    84407234.234       -1197.123          50.000  
E09  25613633.169   134600472.604       -2851.752          37.000    25613648.524   103135440.737       -2185.151          43.000  
E15  24359715.036   128011165.806        1055.797          44.000    24359725.038    98086540.399         809.029          46.000  
G30  23143887.237   121621946.472        3034.081          37.000    23143903.392    94770416.951        2364.167          35.000  
E34  22403276.577   117729996.856       -1653.730          48.000    22403283.824    90208718.754       -1267.091          52.000  
E36  24628564.287   129423891.986       -3757.276          44.000    24628578.295    99168963.951       -2879.021          49.000  
G16  23804270.703                1        351.363          34.000                                                                  
E24  26138424.920   137358398.596        1180.306          42.000    26138440.002   105248731.284         904.390          45.000  
R11                                                                  22545331.183                3      -2898.609          11.000  
> 2024 04 16 15 31 30.4960000  0 26                     
G03  20529727.874   107884395.939       -2531.052          46.000    20529732.942    84065762.396       -1972.228          42.000  
G04  20117622.036   105718784.570       -2789.011          48.000    20117624.546    82378267.701       -2173.262          48.000  
G06  19900919.035   104580066.584         376.773          45.000    19900923.830    81490991.596         293.666          47.000  
G07  20360017.325   106992710.091        2557.042          48.000    20360019.649    83370998.983        1992.585          44.000  
G09  19319815.935   101526320.691        -707.032          50.000    19319818.203    79111432.048        -550.947          46.000  
R02  19433840.734   103702669.723       -1981.782          50.000    19433845.354    80657639.841       -1541.370          49.000  
R18  19327079.890   103169272.228        -991.292          52.000    19327083.164    80242791.175        -770.954          49.000  
R12  19798358.168   105759321.005        -184.413          52.000    19798362.695    82257295.357        -143.541          47.000  
R01  22376531.556   119615391.688       -3152.018          34.000    22376546.865                1      -2450.824          27.000  
S31  37453032.061   196816992.824        -799.449          43.000  
S33  38404436.882   201816643.324        -798.964          43.000  
E03  23563769.569   123828479.479         346.430          47.000    23563777.235    94881610.256         265.460          52.000  
R17  19991237.441   106977069.832       -4299.121          52.000    19991239.094    83204370.841       -3343.724          47.000  
R03  19530175.941   104546590.191         349.042          52.000    19530175.848    81314040.099         271.368          48.000  
R13  20307477.830   108440976.747        2594.357          40.000    20307484.995    84342952.994        2018.284          39.000  
R19  21526403.247                1       1991.754          27.000    21526441.979                3       1544.608          22.000  
E05  20971411.665   110205496.669       -1565.828          49.000    20971417.192    84443190.550       -1199.683          50.000  
E09  25629910.772   134686008.249       -2850.642          37.000    25629925.461   103200980.765       -2183.978          43.000  
E15  24353719.533   127979657.531        1044.899          44.000    24353729.777    98062397.775         800.752          47.000  
G30  23126574.310   121530964.422        3032.045          36.000    23126589.688    94699522.185        2363.063          33.000  
E34  22412759.045   117779821.554       -1667.764          49.000    22412764.778    90246896.087       -1277.840          52.000  
E36  24650030.390   129536692.938       -3762.355          44.000    24650043.745    99255395.560       -2882.868          49.000  
G16  23802295.312   125081898.9541        339.677          31.000                                                                  
E24  26131701.817   137323068.033        1175.223          43.000    26131717.759   105221659.971         900.591          46.000  
G11                                                                  22823271.885    93457468.521        1701.273          36.000  
R11                                                                  22566266.973                3      -2901.063          19.000  
> 2024 04 16 15 32 00.4960000  0 25                     
G03  20544202.623   107960462.439       -2540.153          47.000    20544208.022    84125034.842       -1979.177          42.000  
G04  20133553.959   105802506.157       -2792.416          48.000    20133555.990    82443505.220       -2175.939          48.000  
G06  19898821.310   104569044.507         357.959          45.000    19898826.277    81482402.987         279.056          47.000  
G07  20345451.096   106916163.615        2546.024          48.000    20345454.043    83311352.510        1983.987          44.000  
G09  19323873.939   101547643.693        -714.411          50.000    19323875.649    79128047.386        -556.727          46.000  
R02  19444989.368   103762162.453       -1984.345          50.000    19444994.277    80703911.890       -1543.335          50.000  
R18  19332723.734   103199408.314       -1017.751          50.000    19332728.971    80266230.320        -791.517          50.000  
R12  19799461.652   105765219.380        -208.899          52.000    19799466.027    82261882.996        -162.469          46.000  
R01  22394213.817                3      -3152.077          24.000    22394217.141                3      -2451.311          21.000  
G11  22810830.851                3       2173.205          30.000    22810837.951    93406553.024        1693.193          35.000  
S31  37457592.779   196840960.775        -798.605          44.000  
S33  38408995.497   201840599.446        -798.621          42.000  
E03  23561803.367   123818146.920         342.371          47.000    23561811.152    94873693.161         262.407          52.000  
R17  20015374.113   107106232.289       -4311.742          49.000    20015377.142    83304830.314       -3353.617          46.000  
R03  19528229.020   104536169.583         345.813          52.000    19528229.422    81305935.255         268.866          48.000  
R13  20292932.870   108363307.773        2583.513          39.000    20292940.060    84282544.059        2009.267          39.000  
R19  21515287.105                        1973.052          28.000    21515323.930                1       1534.623          29.000  
E05  20980358.244   110252509.779       -1568.426          49.000    20980363.374    84479213.576       -1201.843          50.000  
E09  25646177.886   134771484.979       -2848.180          38.000    25646191.006   103266475.734       -2182.409          43.000  
E15  24347782.048   127948455.390        1035.024          44.000    24347792.388    98038489.728         793.063          47.000  
G30  23109270.405   121440030.282        3030.479          39.000    23109285.066                        2360.895          32.000  
E34  22422316.796   117830050.565       -1681.004          49.000    22422323.220    90285383.201       -1287.969          52.000  
E36  24671521.076   129649628.112       -3766.637          44.000    24671535.032    99341930.027       -2886.135          49.000  
G16  23800376.669                         331.202          32.000                                                                  
E24  26125004.647   137287872.769        1171.081          43.000    26125020.704   105194692.355         897.317          47.000  
> 2024 04 16 15 32 30.4960000  0 26                     
G03  20558728.532   108036794.909       -2549.020          46.000    20558734.125    84184514.547       -1986.251          43.000  
G04  20149504.620   105886328.266       -2796.027          47.000    20149506.726    82508821.059       -2178.689          47.000  
G06  19896831.317   104558585.903         339.060          46.000    19896835.895    81474253.485         264.290          47.000  
G07  20330946.390   106839942.314        2535.063          48.000    20330950.120    83251959.450        1975.247          45.000  
G09  19327972.603   101569182.709        -721.766          51.000    19327973.863    79144831.075        -562.403          45.000  
R02  19456153.856   103821729.924       -1986.938          49.000    19456157.175    80750242.106       -1545.514          48.000  
R18  19338517.559   103230335.468       -1044.190          51.000    19338522.387    80290284.747        -812.208          49.000  
R12  19800704.323   105771851.289        -233.537          52.000    19800707.453    82267041.224        -181.650          45.000  
R11  22609025.647                3      -3766.231          10.000                                                                  
R01  22411901.201   119804406.2171      -3150.695          33.000    22411897.657                3      -2446.325          20.000  
G11  22798443.386                2       2165.545          29.000    22798454.553    93355852.673        1685.481          33.000  
S31  37462148.087   196864898.271        -797.498          44.000  
S33  38413548.345   201864525.196        -797.118          43.000  
E03  23559859.086   123807932.422         338.368          47.000    23559867.167    94865866.562         259.332          52.000  
R17  20039582.012   107235773.038       -4324.428          48.000    20039585.248    83405584.015       -3363.528          46.000  
R03  19526301.219   104525845.673         342.377          53.000    19526300.674    81297905.581         266.351          48.000  
R13  20278451.051   108285980.797        2571.389          38.000    20278458.946    84222401.105        2000.048          39.000  
R19  21504278.106   115033364.3301       1954.492          31.000    21504291.085                3       1524.740          20.000  
E05  20989319.025   110299600.430       -1571.153          49.000    20989324.250    84515296.019       -1203.924          50.000  
E09  25662427.574   134856893.852       -2845.920          35.000    25662443.712   103331918.686       -2180.756          42.000  
E15  24341900.863   127917552.343        1024.824          44.000    24341911.608    98014810.846         785.365          47.000  
G30  23091973.715   121349137.667        3028.715          38.000    23091988.871    94557839.842        2360.284          33.000  
E34  22431950.720   117880674.674       -1694.267          49.000    22431956.722    90324173.049       -1298.130          52.000  
E36  24693035.999   129762687.027       -3770.725          44.000    24693049.838    99428559.310       -2889.339          49.000  
G16  23798510.327   125062011.3711        321.905          35.000                                                                  
E24  26118331.076   137252806.247        1166.539          43.000    26118347.279   105167823.385         893.923          47.000  
> 2024 04 16 15 33 00.4960000  0 25                     
G03  20573308.046   108113409.053       -2558.843          47.000    20573312.821    84244213.695       -1993.722          42.000  
G04  20165477.500   105970264.945       -2799.973          49.000    20165479.535    82574226.188       -2181.830          48.000  
G06  19894951.605   104548707.671         319.377          46.000    19894955.982    81466556.186         248.852          46.000  
G07  20316507.358   106764064.643        2523.206          48.000    20316510.375    83192834.147        1966.222          45.000  
G09  19332115.327   101590952.321        -729.767          50.000    19332116.304    79161794.415        -568.468          45.000  
R02  19467332.316   103881388.188       -1990.222          49.000    19467338.449    80796642.914       -1547.961          50.000  
R18  19344462.969   103262068.301       -1071.332          53.000    19344467.291    80314965.844        -833.332          50.000  
R12  19802086.158   105779234.011        -258.856          52.000    19802090.424    82272783.374        -201.498          46.000  
R01  22429585.166                3      -3150.685          27.000    22429586.176                3      -2449.913          25.000  
S31  37466700.876   196888822.047        -797.723          45.000  
S33  38418098.647   201888436.793        -797.101          42.000  
E03  23557941.115   123797850.973         333.584          47.000    23557948.501    94858141.891         255.656          52.000  
R17  20063862.742   107365703.119       -4337.681          50.000    20063865.159    83506640.539       -3373.629          44.000  
R03  19524392.568   104515634.015         338.348          52.000    19524392.573    81289963.247         263.086          48.000  
R13  20264038.466   108209015.858        2559.156          40.000    20264045.189    84162539.726        1990.498          39.000  
R19  21493376.234                        1934.163          30.000    21493387.349                3       1512.182          19.000  
E05  20998297.646   110346783.233       -1574.466          48.000    20998302.763    84551449.065       -1206.382          50.000  
E09  25678674.802   134942250.076       -2844.364          38.000    25678687.061   103397321.213       -2179.621          42.000  
E15  24336080.343   127886965.318        1014.250          44.000    24336090.719    97991374.157         777.063          48.000  
G30  23074687.375   121258304.470        3026.859          36.000    23074704.020    94487061.072        2358.244          36.000  
E34  22441661.811   117931708.784       -1708.171          49.000    22441668.321    90363277.088       -1308.901          52.000  
E36  24714576.558   129875883.383       -3775.747          44.000    24714590.967    99515293.891       -2893.108          50.000  
G16  23796706.040   125052507.181         311.461          38.000                                                                  
E24  26111686.951   137217885.877        1161.260          43.000    26111701.618   105141066.410         889.794          47.000  
G11                                                                  22786130.073    93305381.422        1678.649          35.000  
> 2024 04 16 15 33 30.4960000  0 27                     
G03  20587946.543   108190331.663       -2569.542          47.000    20587950.223    84304153.253       -2002.396          42.000  
G04  20181477.132   106054341.693       -2805.237          49.000    20181478.968    82639740.458       -2185.858          48.000  
G06  19893187.148   104539437.787         298.589          46.000    19893192.665    81459332.973         232.687          46.000  
G07  20302139.582   106688559.958        2510.266          49.000    20302141.815    83133999.498        1956.093          45.000  
G09  19336306.577   101612978.176        -738.753          50.000    19336307.319    79178957.476        -575.680          44.000  
R02  19478533.378   103941163.758       -1994.796          49.000    19478539.527    80843134.973       -1551.422          48.000  
R18  19350563.555   103294633.311       -1099.661          52.000    19350567.755    80340294.150        -855.281          49.000  
R12  19803613.596   105787396.195        -285.376          51.000    19803617.558    82279131.776        -222.018          46.000  
R11  22650876.007                3      -3789.817          16.000    22650888.069                3      -2951.846          20.000  
R01  22447268.321                3      -3145.530          18.000    22447262.741                3      -2455.685          22.000  
R04  22691080.394                3       1836.758          11.000                                                                  
S31  37471256.096   196912757.565        -798.213          44.000  
S33  38422650.919   201912360.484        -797.841          42.000  
E03  23556052.251   123787928.638         327.772          46.000    23556060.347    94850539.145         251.253          52.000  
R17  20088219.983   107496045.161       -4351.777          50.000    20088223.782    83608017.506       -3384.762          45.000  
R03  19522510.954   104505561.333         333.136          51.000    19522511.223    81282128.970         259.070          48.000  
R13  20249699.096   108132444.743        2545.376          40.000    20249705.215    84102984.648        1980.081          38.000  
R19  21482586.629                1       1913.554          29.000    21482577.964                3       1491.924          18.000  
E05  21007298.863   110394083.968       -1578.904          48.000    21007303.671    84587692.501       -1209.843          50.000  
E09  25694911.343   135027579.781       -2844.149          38.000    25694924.052   103462703.502       -2179.179          42.000  
E15  24330325.624   127856722.667        1002.225          45.000    24330335.271    97968201.315         767.829          47.000  
G30  23057418.844   121167559.788        3023.171          37.000    23057435.691    94416351.315        2355.767          36.000  
E34  22451456.199   117983179.045       -1723.208          49.000    22451462.625    90402715.299       -1320.339          52.000  
E36  24736149.045   129989241.994       -3781.454          45.000    24736162.246    99602152.779       -2897.579          49.000  
G16  23794957.553   125043330.568         300.150          35.000                                                                  
E24  26105073.804   137183140.231        1155.096          42.000    26105089.708   105114443.319         885.127          47.000  
G11                                                                  22773866.002    93255162.234        1669.287          34.000  
> 2024 04 16 15 34 00.4960000  0 26                     
G03  20602642.121   108267561.866       -2579.645          47.000    20602647.760    84364332.508       -2010.209          43.000  
G04  20197502.254   106138555.982       -2809.385          48.000    20197504.594    82705361.915       -2189.257          48.000  
G06  19891539.881   104530776.516         278.473          45.000    19891544.081    81452583.926         217.131          46.000  
G07  20287842.847   106613429.889        2497.971          49.000    20287844.975    83075456.742        1946.394          45.000  
G09  19340546.408   101635258.268        -747.048          50.000    19340547.373    79196318.590        -581.940          45.000  
R02  19489757.498   104001055.525       -1998.425          50.000    19489763.074    80889717.362       -1554.297          49.000  
R18  19356820.280   103328028.289       -1127.145          52.000    19356824.367    80366267.979        -876.564          50.000  
R12  19805287.640   105796337.917        -311.063          50.000    19805291.497    82286086.471        -242.137          47.000  
R01  22464972.216                1      -3152.217          27.000    22464968.052                3      -2452.037          26.000  
S31  37475812.550   196936704.144        -798.546          44.000  
S33  38427205.643   201936295.030        -798.104          42.000  
E03  23554194.053   123778163.802         322.788          46.000    23554202.123    94843057.075         247.255          51.000  
R17  20112653.367   107626792.994       -4365.149          48.000    20112657.039    83709710.011       -3395.266          44.000  
R03  19520655.233   104495626.021         328.864          52.000    19520655.571    81274401.529         255.713          47.000  
R13  20235433.892   108056270.661        2532.521          41.000    20235440.319    84043738.404        1969.563          40.000  
R19  21471911.235   114860257.9201       1892.732          29.000    21471916.113                2       1472.615          26.000  
E05  21016321.710   110441500.733       -1582.632          48.000    21016326.696    84624024.805       -1212.721          49.000  
E09  25711142.902   135112881.641       -2843.194          38.000    25711157.077   103528064.476       -2178.498          41.000  
E15  24324636.072   127826824.772         990.938          45.000    24324645.650    97945292.630         759.136          47.000  
G30  23040167.359   121076904.699        3020.524          36.000    23040183.987    94345711.455        2353.405          34.000  
E34  22461333.139   118035083.763       -1737.346          49.000    22461339.842    90442486.423       -1331.322          52.000  
E36  24757750.925   130102759.936       -3786.617          45.000    24757764.152    99689133.796       -2901.347          49.000  
G16  23793274.039   125034482.982         288.948          35.000                                                                  
E24  26098496.093   137148570.270        1149.407          43.000    26098511.395   105087954.808         880.588          47.000  
G11                                                                  22761663.949    93205196.145        1661.249          35.000  
R11                                                                  22672299.103                3      -2972.930          16.000  
> 2024 04 16 15 34 30.4960000  0 25                     
G03  20617397.894   108345100.807       -2589.653          48.000    20617402.375    84424752.340       -2018.008          42.000  
G04  20213553.682   106222907.606       -2813.943          48.000    20213556.399    82771090.367       -2192.620          48.000  
G06  19890007.939   104522726.133         258.301          45.000    19890011.948    81446310.924         201.238          46.000  
G07  20273618.390   106538678.449        2485.546          49.000    20273620.456    83017208.980        1936.839          44.000  
G09  19344834.481   101657792.692        -755.125          49.000    19344835.664    79213877.896        -588.581          45.000  
R02  19501005.379   104061064.688       -2002.020          50.000    19501009.596    80936391.144       -1557.074          50.000  
R18  19363231.366   103362253.471       -1154.573          52.000    19363235.258    80392887.523        -897.931          49.000  
R12  19807107.095   105806061.789        -336.969          49.000    19807111.981    82293649.490        -262.073          47.000  
R01  22482654.519                3      -3153.941          23.000                                                                  
G11  22749497.290                3       2121.378          26.000    22749523.728    93155486.128        1653.027          35.000  
S31  37480371.504   196960663.090        -798.513          44.000  
S33  38431763.261   201960242.025        -797.872          42.000  
E03  23552366.480   123768556.913         317.669          47.000    23552373.843    94835696.018         243.505          51.000  
R17  20137161.949   107757943.038       -4378.074          48.000    20137165.872    83811715.373       -3405.132          44.000  
R03  19518824.672   104485828.417         324.396          52.000    19518824.126    81266781.210         252.338          47.000  
R13  20221242.909   107980499.233        2519.266          38.000    20221251.341    83984805.328        1959.542          40.000  
R19  21461358.182   114803788.1331       1871.630          31.000    21461357.130                1       1456.599          32.000  
E05  21025367.301   110489033.673       -1586.257          48.000    21025372.244    84660446.118       -1215.345          50.000  
E09  25727368.898   135198156.374       -2841.670          37.000    25727384.745   103593404.660       -2177.703          40.000  
E15  24319012.693   127797274.209         979.492          44.000    24319022.107    97922650.093         750.396          47.000  
G30  23022934.599   120986342.775        3017.405          38.000    23022949.712    94275144.156        2350.978          36.000  
E34  22471293.310   118087423.441       -1751.729          49.000    22471299.696    90482590.803       -1342.237          52.000  
E36  24779382.360   130216436.442       -3791.690          45.000    24779396.267    99776236.294       -2905.292          48.000  
G16  23791653.606   125025967.563         278.246          35.000                                                                  
E24  26091951.206   137114178.988        1143.453          43.000    26091966.484   105061603.225         876.223          47.000  
> 2024 04 16 15 35 00.4960000  0 24                     
G03  20632212.213   108422948.593       -2600.350          48.000    20632217.134    84485412.800       -2026.010          43.000  
G04  20229631.413   106307395.157       -2818.827          48.000    20229633.715    82836924.727       -2196.378          48.000  
G06  19888591.650   104515287.890         237.474          45.000    19888597.073    81440514.921         185.164          47.000  
G07  20259465.536   106464308.168        2472.306          49.000    20259467.852    82959258.255        1926.397          44.000  
G09  19349170.882   101680580.194        -764.179          49.000    19349171.981    79231634.430        -595.572          45.000  
R02  19512270.565   104121190.535       -2006.512          51.000    19512276.565    80983155.525       -1560.590          48.000  
R18  19369797.682   103397307.706       -1182.581          51.000    19369803.152    80420151.896        -919.758          49.000  
R12  19809074.064   105816569.069        -363.566          50.000    19809079.128    82301821.904        -282.732          48.000  
R01  22500339.253                1      -3153.968          27.000                                                                  
S31  37484933.577   196984634.027        -799.375          45.000  
S33  38436321.765   201984200.889        -798.784          42.000  
E03  23550567.547   123759107.338         312.118          46.000    23550575.289    94828455.536         239.098          51.000  
R17  20161745.826   107889490.897       -4391.672          49.000    20161749.991    83914030.121       -3415.718          46.000  
R03  19517019.064   104476168.584         319.489          51.000    19517020.058    81259268.069         248.474          47.000  
R13  20207130.313   107905134.965        2505.175          41.000    20207138.308    83926188.935        1948.442          40.000  
R19  21450915.991                        1850.956          30.000    21450914.933    89248392.9151       1439.492          32.000  
E05  21034434.437   110536681.883       -1590.499          48.000    21034439.301    84696955.764       -1218.573          50.000  
E09  25743592.632   135283403.700       -2841.742          36.000    25743607.113   103658723.766       -2177.473          42.000  
E15  24313456.133   127768072.465         967.157          45.000    24313465.736    97900274.806         741.039          48.000  
G30  23005719.815   120895876.289        3013.430          37.000    23005735.450    94204651.186        2347.874          36.000  
E34  22481335.682   118140197.377       -1766.653          49.000    22481342.017    90523027.936       -1353.588          51.000  
E36  24801044.622   130330269.660       -3797.217          45.000    24801058.301    99863458.852       -2909.558          48.000  
E24  26085440.209   137079968.310        1136.979          42.000    26085455.890   105035390.037         871.300          46.000  
G11                                                                  22737447.092    93106034.008        1643.707          35.000  
> 2024 04 16 15 35 30.4960000  0 24                     
G03  20647088.266   108501123.235       -2611.289          47.000    20647094.348    84546327.957       -2034.719          44.000  
G04  20245738.104   106392035.151       -2823.801          49.000    20245740.661    82902877.908       -2200.538          49.000  
G06  19887296.706   104508480.891         216.226          45.000    19887301.577    81435210.778         168.717          47.000  
G07  20245390.344   106390339.676        2458.954          49.000    20245391.781    82901620.604        1916.014          44.000  
G09  19353558.515   101703637.980        -772.856          49.000    19353559.507    79249601.562        -602.350          44.000  
R02  19523564.885   104181451.529       -2010.968          49.000    19523569.484    81030025.205       -1564.093          49.000  
R18  19376522.444   103433208.088       -1210.805          51.000    19376527.693    80448074.380        -941.669          49.000  
R12  19811191.202   105827879.032        -390.404          50.000    19811197.239    82310618.576        -303.785          49.000  
R01  22518050.166                1      -3155.084          28.000                                                                  
G11  22725431.524                        2097.766          30.000    22725436.748    93056855.682        1634.998          35.000  
S31  37489500.419   197008634.299        -800.369          44.000  
S33  38440887.221   202008189.914        -800.188          42.000  
E03  23548801.759   123749832.382         306.264          46.000    23548810.413    94821348.840         234.643          51.000  
R17  20186405.723   108021449.751       -4405.453          48.000    20186410.058    84016664.548       -3426.586          45.000  
R03  19515244.514   104466664.026         314.270          51.000    19515244.386    81251875.716         244.470          48.000  
R13  20193097.781   107830200.673        2490.880          41.000    20193105.383    83867906.962        1937.291          40.000  
R19  21440592.161                        1829.921          30.000    21440595.861    89205450.390        1423.238          36.000  
E05  21043526.415   110584462.320       -1594.917          48.000    21043531.937    84733566.738       -1222.057          50.000  
E09  25759812.113   135368640.933       -2840.888          36.000    25759827.339   103724035.229       -2176.873          42.000  
E15  24307969.712   127739238.848         955.080          45.000    24307979.118    97878181.609         731.789          48.000  
G30  22988526.170   120805525.420        3009.820          36.000    22988541.455    94134248.295        2345.433          36.000  
E34  22491464.501   118193422.772       -1781.573          49.000    22491470.456    90563810.997       -1365.114          51.000  
E36  24822738.982   130444275.570       -3802.977          44.000    24822752.965    99950813.771       -2914.012          48.000  
E24  26078967.872   137045957.982        1130.360          42.000    26078984.126   105009330.402         866.195          46.000  
> 2024 04 16 15 36 00.4960000  0 25                     
G03  20662026.230   108579620.261       -2622.002          48.000    20662031.838    84607494.333       -2043.145          44.000  
G04  20261872.752   106476821.782       -2828.710          48.000    20261875.016    82968945.325       -2204.187          48.000  
G06  19886121.160   104502301.799         195.377          45.000    19886125.660    81430395.906         152.247          46.000  
G07  20231390.627   106316771.235        2445.532          49.000    20231391.820    82844294.707        1905.327          44.000  
G09  19357996.839   101726960.415        -781.874          49.000    19357997.954    79267774.886        -609.439          44.000  
R02  19534883.700   104241842.971       -2015.259          51.000    19534887.077    81076996.226       -1567.487          49.000  
R18  19383406.092   103469948.913       -1238.716          52.000    19383410.244    80476650.573        -963.558          48.000  
R12  19813459.432   105839988.389        -417.064          52.000    19813463.293    82320037.010        -324.393          48.000  
R01  22535775.743                3      -3157.245          26.000    22535773.618                       -2454.144          26.000  
G11  22713483.346                3       2085.181          29.000    22713493.512    93007949.747        1625.165          33.000  
S31  37494072.368   197032660.490        -801.691          44.000  
S33  38445456.766   202032203.677        -801.138          42.000  
E03  23547069.544   123740726.935         300.567          47.000    23547077.881    94814372.027         230.279          51.000  
R17  20211140.528   108153810.432       -4418.625          47.000    20211144.490    84119611.530       -3436.829          44.000  
R03  19513496.510   104457310.059         309.302          51.000    19513497.986    81244600.481         240.430          49.000  
R13  20179145.438   107755695.879        2476.180          41.000    20179152.550    83809959.036        1926.058          40.000  
R19  21430388.677                        1807.479          30.000    21430395.674    89163007.899        1406.361          33.000  
E05  21052642.822   110632369.632       -1599.050          49.000    21052648.279    84770274.937       -1225.210          50.000  
E09  25776031.314   135453863.391       -2840.695          39.000    25776044.643   103789335.326       -2176.625          42.000  
E15  24302552.121   127710770.362         942.710          45.000    24302561.544    97856368.181         722.378          49.000  
G30  22971354.632   120715287.997        3006.163          35.000    22971369.340    94063933.885        2342.288          36.000  
E34  22501677.962   118247094.503       -1796.527          49.000    22501683.741    90604936.052       -1376.537          51.000  
E36  24844465.782   130558447.789       -3808.674          45.000    24844479.226   100038296.112       -2918.208          47.000  
G16  23787188.209   125002500.4271        244.157          33.000                                                                  
E24  26072533.856   137012145.489        1123.632          42.000    26072549.835   104983422.357         860.916          47.000  
> 2024 04 16 15 36 30.4960000  0 26                     
G03  20677023.436   108658434.277       -2632.259          47.000    20677029.727    84668907.730       -2051.172          44.000  
G04  20278033.510   106561748.213       -2832.925          47.000    20278036.087    83035121.721       -2207.673          48.000  
G06  19885063.972   104496746.281         174.918          45.000    19885068.293    81426066.962         136.052          46.000  
G07  20217465.789   106243600.124        2432.333          49.000    20217467.861    82787278.407        1895.452          43.000  
G09  19362484.344   101750541.004        -790.101          49.000    19362485.497    79286149.362        -615.718          45.000  
R02  19546222.906   104302359.353       -2019.220          51.000    19546227.840    81124064.457       -1570.514          49.000  
R18  19390444.703   103507523.436       -1266.268          51.000    19390449.406    80505875.175        -985.038          48.000  
R12  19815874.346   105852892.816        -443.270          51.000    19815878.471    82330073.853        -344.830          48.000  
R01  22553479.778                       -3157.459          28.000                                                                  
R04  22641570.227                3       1796.553          11.000                                                                  
G11  22701607.031   119297699.5851       2074.786          37.000    22701616.341    92959313.803        1616.266          35.000  
S31  37498647.840   197056705.709        -801.669          43.000  
S33  38450030.008   202056236.987        -801.190          42.000  
E03  23545367.440   123731784.867         295.507          46.000    23545376.159    94807520.412         226.439          51.000  
R17  20235947.715   108286562.391       -4431.349          47.000    20235953.897    84222862.836       -3446.908          45.000  
R03  19511776.374   104448100.337         304.681          52.000    19511777.013    81237437.461         237.042          48.000  
R13  20165273.123   107681619.651        2462.128          41.000    20165280.240    83752344.383        1915.083          40.000  
R19  21420302.827                3       1786.114          25.000    21420311.351    89121063.932        1389.921          34.000  
E05  21061783.048   110680397.491       -1602.752          49.000    21061787.621    84807075.482       -1228.121          50.000  
E09  25792244.469   135539065.122       -2839.766          39.000    25792258.299   103854619.583       -2175.750          42.000  
E15  24297201.965   127682662.965         930.964          43.000    24297212.675    97834831.464         713.306          48.000  
G30  22954203.210   120625160.984        3002.306          39.000    22954217.680    93993705.417        2339.462          35.000  
E34  22511975.570   118301206.376       -1810.839          49.000    22511981.121    90646398.383       -1387.608          51.000  
E36  24866222.299   130672778.922       -3813.578          45.000    24866236.618   100125900.207       -2921.972          48.000  
G16  23785829.436                         231.819          34.000                                                                  
E24  26066137.058   136978527.286        1117.508          43.000    26066152.068   104957663.185         856.131          46.000  
> 2024 04 16 15 37 00.4960000  0 25                     
G03  20692079.302   108737555.671       -2642.563          46.000    20692086.808    84730560.611       -2059.073          45.000  
G04  20294219.109   106646803.496       -2837.401          48.000    20294221.480    83101398.481       -2211.109          48.000  
G06  19884123.850   104491805.809         154.077          45.000    19884127.978    81422217.233         120.170          46.000  
G07  20203616.171   106170819.326        2419.226          49.000    20203617.572    82730566.241        1885.123          43.000  
G09  19367018.519   101774369.074        -798.524          49.000    19367019.695    79304716.709        -622.441          45.000  
R02  19557584.550   104362990.260       -2023.138          50.000    19557588.790    81171221.774       -1573.511          47.000  
R18  19397637.313   103545920.537       -1293.844          51.000    19397643.351    80535739.561       -1006.363          49.000  
R12  19818435.988   105866583.512        -469.705          50.000    19818441.429    82340722.259        -365.268          48.000  
R01  22571197.068                1      -3158.679          28.000                                                                  
G11  22689794.076   119235622.540        2063.312          36.000    22689804.933    92910942.339        1608.380          33.000  
S31  37503225.708   197080761.204        -802.232          43.000  
S33  38454605.731   202080281.267        -801.702          43.000  
E03  23543695.274   123722995.889         290.282          47.000    23543703.559    94800786.114         222.378          51.000  
R17  20260825.363   108419691.394       -4444.028          46.000    20260833.858    84326407.320       -3456.522          45.000  
R03  19510080.163   104439024.993         300.122          51.000    19510081.283    81230378.924         233.478          49.000  
R13  20151480.087   107607966.409        2447.759          42.000    20151487.968    83695058.828        1903.705          41.000  
R19  21410348.305                        1765.518          25.000    21410344.585    89079612.402        1373.028          34.000  
E05  21070943.176   110728535.319       -1606.469          49.000    21070948.057    84843960.275       -1231.002          50.000  
E09  25808452.125   135624236.214       -2838.624          40.000    25808465.969   103919880.360       -2174.982          41.000  
E15  24291921.325   127654908.437         919.151          44.000    24291930.877    97813565.134         704.305          48.000  
G30  22937070.371   120535136.797        2998.873          35.000    22937085.729    93923557.119        2336.563          36.000  
E34  22522354.470   118355748.020       -1825.354          49.000    22522360.162    90688189.982       -1398.601          51.000  
E36  24888006.596   130787257.437       -3818.392          44.000    24888021.398   100213617.272       -2925.957          48.000  
G16  23784536.552   124988586.9911        220.122          33.000                                                                  
E24  26059775.377   136945095.572        1111.098          44.000    26059789.904   104932046.871         851.368          46.000  
> 2024 04 16 15 37 30.4960000  0 25                     
G03  20707193.928   108816980.407       -2652.835          47.000    20707200.690    84792449.860       -2066.974          45.000  
G04  20310428.169   106731982.215       -2841.601          48.000    20310430.286    83167771.432       -2214.005          48.000  
G06  19883300.152   104487477.334         134.007          45.000    19883304.182    81418844.442         104.440          46.000  
G07  20189839.619   106098427.383        2406.337          49.000    20189842.317    82674157.095        1875.101          44.000  
G09  19371597.598   101798439.540        -806.416          48.000    19371599.865    79323472.945        -628.308          45.000  
R02  19568969.323   104423731.784       -2026.666          52.000    19568973.260    81218465.139       -1576.147          48.000  
R18  19404984.392   103585134.901       -1321.018          51.000    19404988.423    80566239.581       -1027.327          49.000  
R12  19821146.624   105881057.162        -495.799          51.000    19821151.842    82351979.606        -385.580          49.000  
R01  22588939.880                3      -3153.502          23.000                                                                  
G11  22678046.414   119173883.313        2052.362          36.000    22678055.818    92862834.100        1599.438          32.000  
S31  37507803.937   197104822.203        -802.169          44.000  
S33  38459181.557   202104329.721        -801.633          42.000  
E03  23542051.461   123714355.317         285.330          48.000    23542059.095    94794165.494         218.738          51.000  
R17  20285773.397   108553188.070       -4456.131          47.000    20285780.106    84430237.771       -3465.708          43.000  
R03  19508409.970   104430079.205         295.935          51.000    19508410.459    81223421.173         230.225          49.000  
R13  20137766.795   107534736.651        2433.827          42.000    20137773.749    83638102.593        1892.986          41.000  
R19  21400495.989                3       1741.876          23.000    21400502.539    89038653.205        1357.202          37.000  
E05  21080123.532   110776778.140       -1609.967          49.000    21080128.285    84880925.515       -1233.600          50.000  
E09  25824654.468   135709372.214       -2837.668          41.000    25824666.276   103985114.273       -2174.232          40.000  
E15  24286706.768   127627504.137         907.519          44.000    24286716.156    97792567.142         695.394          49.000  
G30  22919951.976   120445213.813        2995.621          31.000    22919973.429    93853487.675        2333.836          36.000  
E34  22532813.645   118410714.599       -1839.395          48.000    22532820.387    90730307.206       -1409.410          52.000  
E36  24909817.475   130901877.418       -3823.063          43.000    24909832.394   100301442.692       -2929.421          47.000  
G16  23783311.241   124982136.352         209.038          37.000                                                                  
E24  26053448.639   136911848.184        1105.009          44.000    26053462.842   104906571.821         846.728          46.000  
> 2024 04 16 15 38 00.4960000  0 25                     
G03  20722365.077   108896705.083       -2662.680          47.000    20722371.076    84854572.847       -2074.856          43.000  
G04  20326660.144   106817279.558       -2845.334          49.000    20326662.274    83234236.822       -2217.175          48.000  
G06  19882592.649   104483758.608         113.342          46.000    19882596.325    81415946.740          88.580          46.000  
G07  20176137.715   106026423.836        2393.436          49.000    20176140.460    82618050.583        1865.039          44.000  
G09  19376223.688   101822747.993        -814.442          49.000    19376225.492    79342414.600        -634.793          45.000  
R02  19580371.190   104484580.093       -2030.261          51.000    19580375.611    81265791.564       -1579.108          47.000  
R18  19412483.383   103625161.691       -1347.927          51.000    19412487.602    80597371.481       -1048.347          50.000  
R12  19824002.362   105896311.608        -521.669          52.000    19824006.435    82363844.257        -405.623          47.000  
R01  22606665.518                1      -3159.357          29.000                                                                  
G11  22666362.178   119112480.974        2041.034          36.000    22666370.408                        1590.259          26.000  
S31  37512383.392   197128885.854        -802.439          44.000  
S33  38463759.008   202128382.141        -801.706          42.000  
E03  23540434.248   123705859.058         280.745          47.000    23540441.946    94787655.456         215.028          51.000  
R17  20310787.984   108687044.495       -4468.070          48.000    20310794.354    84534348.066       -3475.181          42.000  
R03  19506761.630   104421259.293         291.693          51.000    19506761.722    81216561.360         226.892          48.000  
R13  20124131.045   107461931.193        2419.517          39.000    20124139.319    83581476.362        1881.631          41.000  
R19  21390772.766                3       1725.683          20.000    21390778.222    88998185.759        1340.598          38.000  
E05  21089322.072   110825121.694       -1613.224          48.000    21089327.719    84917967.964       -1236.126          50.000  
E09  25840847.222   135794469.293       -2836.167          40.000    25840859.536   104050318.324       -2173.168          40.000  
E15  24281556.943   127600448.075         895.917          44.000    24281567.739    97771835.983         686.555          49.000  
G30  22902859.801   120355390.849        2992.818          34.000    22902881.193    93783496.262        2331.492          36.000  
E34  22543353.576   118466102.005       -1853.281          48.000    22543360.511    90772746.853       -1420.026          52.000  
E36  24931656.043   131016633.483       -3827.491          44.000    24931670.103   100389372.383       -2932.843          47.000  
G16  23782146.217   124976021.966         198.107          35.000                                                                  
E24  26047155.447   136878783.613        1098.782          43.000    26047170.484   104881236.875         842.021          46.000  
> 2024 04 16 15 38 30.4960000  0 25                     
G03  20737594.797   108976736.876       -2672.855          47.000    20737600.220    84916935.140       -2082.659          43.000  
G04  20342914.518   106902701.463       -2849.405          49.000    20342917.966    83300799.286       -2220.360          48.000  
G06  19882002.038   104480657.770          92.893          46.000    19882006.313    81413530.535          72.378          46.000  
G07  20162512.343   105954818.402        2380.201          50.000    20162514.245    82562254.277        1854.562          44.000  
G09  19380896.534   101847300.538        -822.522          49.000    19380897.379    79361546.422        -640.745          44.000  
R02  19591796.159   104545542.481       -2034.082          51.000    19591800.335    81313206.724       -1581.958          48.000  
R18  19420133.789   103666006.689       -1375.135          51.000    19420139.660    80629139.763       -1069.618          50.000  
R12  19827005.969   105912354.928        -547.976          52.000    19827009.693    82376322.500        -426.228          48.000  
R01  22624385.402                       -3160.791          25.000                                                                  
G11  22654743.132   119051425.195        2029.175          36.000    22654755.913                1       1582.178          28.000  
S31  37516964.255   197152958.844        -802.657          43.000  
S33  38468337.564   202152442.100        -801.797          42.000  
E03  23538846.287   123697513.648         275.608          47.000    23538853.686    94781260.993         211.181          51.000  
R17  20335870.250   108821263.212       -4479.981          48.000    20335875.865    84638740.186       -3484.535          41.000  
R03  19505139.311   104412571.992         287.323          51.000    19505138.830    81209804.629         223.419          48.000  
R13  20110577.927   107389561.747        2404.900          40.000    20110585.659    83525189.309        1870.568          40.000  
R19  21381179.944                3       1691.230          12.000    21381172.425    88958218.291        1323.676          38.000  
E05  21098542.347   110873572.254       -1616.877          49.000    21098547.814    84955092.381       -1238.822          51.000  
E09  25857035.761   135879534.328       -2835.061          40.000    25857048.375   104115497.839       -2172.233          42.000  
E15  24276476.830   127573748.831         883.820          43.000    24276486.934    97751378.211         677.428          49.000  
G30  22885791.407   120265677.520        2988.466          38.000    22885808.645    93713590.229        2328.796          35.000  
E34  22553974.674   118521916.576       -1867.631          48.000    22553981.510    90815513.829       -1431.067          52.000  
E36  24953521.344   131131530.893       -3832.320          45.000    24953535.519   100477410.377       -2936.437          48.000  
G16  23781045.451                3        185.802          31.000                                                                  
E24  26040899.893   136845910.880        1092.465          44.000    26040915.191   104856048.910         837.201          47.000  
> 2024 04 16 15 39 00.4960000  0 25                     
G03  20752882.789   109057074.095       -2683.180          47.000    20752888.551    84979535.439       -2090.821          44.000  
G04  20359192.840   106988244.805       -2853.406          49.000    20359195.691    83367456.364       -2223.462          47.000  
G06  19881529.069   104478174.040          72.402          47.000    19881534.186    81411595.188          56.603          47.000  
G07  20148961.943   105883611.570        2366.777          49.000    20148964.087    82506768.576        1844.331          44.000  
G09  19385614.205   101872094.460        -830.419          48.000    19385615.034    79380866.361        -647.101          45.000  
R02  19603241.036   104606617.282       -2037.646          51.000    19603245.302    81360709.280       -1584.796          47.000  
R18  19427938.712   103707666.743       -1402.284          52.000    19427944.091    80661541.983       -1090.742          50.000  
R12  19830155.942   105929186.279        -574.296          51.000    19830160.514    82389413.632        -446.763          48.000  
R01  22642122.419                1      -3160.614          28.000                                                                  
G11  22643190.339   118990716.614        2017.889          36.000    22643214.995                1       1571.814          26.000  
S31  37521546.796   197177039.074        -802.920          43.000  
S33  38472917.549   202176511.187        -802.698          43.000  
E03  23537286.829   123689316.721         270.602          47.000    23537294.076    94774980.299         207.397          51.000  
R17  20361018.451   108955837.772       -4491.897          46.000    20361025.347    84743409.034       -3493.651          43.000  
R03  19503540.814   104404015.371         283.112          51.000    19503541.272    81203149.571         220.117          49.000  
R13  20097107.825   107317630.992        2390.148          41.000    20097114.829    83469243.395        1859.187          39.000  
R19  21371691.413                3       1679.700          20.000    21371687.480    88918751.673        1306.705          38.000  
E05  21107782.461   110922127.164       -1620.302          49.000    21107787.706    84992296.749       -1241.551          51.000  
E09  25873213.881   135964565.287       -2833.740          37.000    25873229.212   104180651.261       -2171.513          42.000  
E15  24271464.226   127547406.051         871.964          44.000    24271474.309    97731193.580         668.205          49.000  
G30  22868740.399   120176074.210        2984.528          39.000    22868757.171    93643770.007        2325.766          33.000  
E34  22564677.279   118578155.809       -1881.806          48.000    22564683.620    90858606.185       -1441.815          52.000  
E36  24975411.909   131246565.973       -3836.742          45.000    24975426.120   100565553.871       -2939.890          48.000  
G16  23780014.428   124964807.3903        175.031          32.000                                                                  
E24  26034681.428   136813230.182        1085.855          44.000    26034696.383   104831008.082         832.117          47.000  
> 2024 04 16 15 39 30.4960000  0 26                     
G03  20768225.536   109137699.234       -2692.054          47.000    20768230.991    85042360.062       -2097.842          43.000  
G04  20375490.639   107073890.939       -2856.305          50.000    20375493.445    83434193.561       -2225.699          46.000  
G06  19881171.303   104476291.043          52.917          48.000    19881175.827    81410127.944          41.210          47.000  
G07  20135484.260   105812788.704        2354.652          48.000    20135486.668    82451582.073        1834.753          45.000  
G09  19390375.012   101897111.301        -837.380          49.000    19390376.231    79400360.012        -652.455          46.000  
R02  19614704.109   104667786.720       -2040.356          52.000    19614709.275    81408285.487       -1586.932          47.000  
R18  19435891.906   103750122.720       -1428.269          51.000    19435896.906    80694563.236       -1110.731          49.000  
R12  19833450.892   105946789.008        -599.404          50.000    19833455.575    82403104.744        -466.130          48.000  
R01  22659862.799                       -3160.297          29.000                                                                  
R04  22586151.974                3       1782.116          10.000                                                                  
G11  22631700.886   118930340.415        2006.934          36.000    22631731.616    92673133.4381       1563.599          33.000  
S31  37526127.710   197201108.789        -802.023          45.000  
S33  38477495.895   202200570.063        -801.372          42.000  
E03  23535751.547   123681250.157         267.021          48.000    23535758.824    94768799.506         204.535          51.000  
R17  20386229.497   109090745.498       -4502.279          45.000    20386236.670    84848336.913       -3501.828          44.000  
R03  19501962.691   104395571.421         279.742          50.000    19501963.049    81196582.165         217.688          49.000  
R13  20083716.738   107246125.210        2376.748          40.000    20083723.967    83413628.035        1848.542          40.000  
R19  21362321.165                3       1662.243          19.000    21362319.386    88879774.791        1291.549          33.000  
E05  21117038.373   110970768.175       -1622.493          49.000    21117044.123    85029567.077       -1243.235          51.000  
E09  25889386.038   136049544.326       -2831.556          39.000    25889400.058   104245764.851       -2169.337          40.000  
E15  24266517.113   127521403.683         861.394          46.000    24266525.416    97711269.804         659.953          49.000  
G30  22851707.941   120086565.930        2982.013          39.000    22851722.336    93574023.689        2324.192          33.000  
E34  22575456.641   118634801.486       -1894.676          48.000    22575463.210    90902009.980       -1451.744          52.000  
E36  24997325.374   131361719.484       -3840.078          44.000    24997339.494   100653788.070       -2942.419          49.000  
G16  23779047.832   124959713.508         163.992          34.000                                                                  
E24  26028495.695   136780725.979        1080.712          44.000    26028510.423   104806102.509         828.104          47.000  
> 2024 04 16 15 40 00.4960000  0 24                     
G03  20783619.950   109218597.498       -2701.504          46.000    20783624.906    85105397.530       -2105.002          42.000  
G04  20391805.615   107159623.771       -2859.415          49.000    20391808.395    83500998.268       -2228.258          47.000  
G06  19880925.139   104474994.852          33.101          47.000    19880929.108    81409117.941          25.902          47.000  
G07  20122078.222   105742337.889        2341.935          49.000    20122080.138    82396685.482        1824.766          44.000  
G09  19395175.309   101922335.199        -844.397          49.000    19395176.200    79420015.003        -657.997          46.000  
R02  19626182.500   104729035.358       -2043.091          50.000    19626186.962    81455923.307       -1589.001          47.000  
R18  19443991.377   103793358.047       -1454.372          51.000    19443995.569    80728190.673       -1131.110          49.000  
R12  19836887.916   105965148.662        -624.874          51.000    19836893.265    82417384.562        -486.017          49.000  
R01  22677591.830                3      -3163.299          23.000                                                                  
G11  22620271.014                        1997.046          32.000    22620294.729    92626336.593        1555.017          34.000  
S31  37530702.856   197225153.938        -801.257          44.000  
S33  38482069.187   202224602.945        -800.772          42.000  
E03  23534238.525   123673298.555         262.825          48.000    23534245.913    94762706.770         201.454          51.000  
R17  20411499.182   109225966.336       -4512.831          44.000    20411506.765    84953508.319       -3509.953          44.000  
R03  19500402.530   104387224.317         276.373          51.000    19500404.326    81190090.089         215.009          50.000  
R13  20070404.107   107175034.246        2362.750          42.000    20070410.477    83358335.362        1837.298          40.000  
R19  21353075.702                3       1623.582          15.000    21353063.475    88841277.678        1274.946          32.000  
E05  21126307.963   111019479.560       -1625.089          49.000    21126313.708    85066891.354       -1245.310          52.000  
E09  25905545.544   136134456.299       -2829.381          40.000    25905559.281   104310827.021       -2167.888          41.000  
E15  24261630.272   127495728.292         850.059          44.000    24261639.271    97691596.575         651.425          48.000  
G30  22834690.874   119997140.050        2979.201          41.000    22834705.475    93504341.682        2321.431          34.000  
E34  22586309.037   118691837.955       -1907.847          47.000    22586316.950    90945713.210       -1461.928          53.000  
E36  25019257.932   131476974.529       -3843.766          45.000    25019271.745   100742100.100       -2945.107          48.000  
E24  26022340.272   136748385.252        1074.796          43.000    26022355.811   104781322.199         823.705          47.000  
> 2024 04 16 15 40 30.4960000  0 24                     
G03  20799066.830   109299774.637       -2710.530          46.000    20799073.278    85168652.303       -2112.204          42.000  
G04  20408137.767   107245447.617       -2862.194          49.000    20408139.995    83567873.903       -2230.302          47.000  
G06  19880790.935   104474292.137          13.646          47.000    19880794.805    81408570.393          10.608          46.000  
G07  20108743.600   105672267.310        2329.374          49.000    20108746.646    82342085.187        1815.191          45.000  
G09  19400015.291   101947770.913        -851.392          49.000    19400016.417    79439835.053        -663.410          46.000  
R02  19637675.582   104790369.208       -2045.813          51.000    19637680.803    81503627.337       -1591.095          48.000  
R18  19452237.773   103837376.846       -1480.250          51.000    19452241.592    80762427.457       -1151.202          48.000  
R12  19840469.011   105984271.948        -650.128          51.000    19840472.481    82432258.325        -505.583          48.000  
R01  22695340.068                1      -3160.034          28.000                                                                  
G11  22608900.976                1       1985.559          30.000    22608920.401                        1547.601          30.000  
S31  37535274.961   197249179.730        -800.455          44.000  
S33  38486638.860   202248617.009        -799.944          42.000  
E03  23532748.257   123665466.965         259.018          48.000    23532755.512    94756705.995         198.517          50.000  
R17  20436828.103   109361501.302       -4523.145          45.000    20436834.059    85058924.087       -3517.748          43.000  
R03  19498863.139   104378979.915         273.199          52.000    19498864.033    81183677.848         212.421          50.000  
R13  20057170.927   107104368.088        2348.305          42.000    20057177.018    83303373.042        1826.877          40.000  
R19  21343905.979                3       1617.559          12.000    21343928.948                        1259.088          32.000  
E05  21135591.214   111068266.213       -1627.362          48.000    21135597.589    85104273.300       -1246.890          52.000  
E09  25921692.441   136219306.639       -2827.084          40.000    25921705.549   104375842.023       -2166.341          41.000  
E15  24256808.537   127470387.010         839.183          44.000    24256816.716    97672179.331         643.053          48.000  
G30  22817691.176   119907804.605        2976.520          42.000    22817705.012    93434730.165        2319.527          34.000  
E34  22597238.707   118749270.159       -1920.956          48.000    22597245.905    90989719.644       -1471.827          53.000  
E36  25041210.022   131592335.027       -3847.148          43.000    25041224.153   100830492.929       -2947.639          47.000  
E24  26016219.051   136716215.664        1069.674          43.000    26016234.231   104756673.055         819.480          47.000  
> 2024 04 16 15 41 00.4960000  0 24                     
G03  20814567.788   109381230.656       -2719.712          46.000    20814574.417    85232124.337       -2119.126          43.000  
G04  20424486.538   107331361.321       -2865.257          49.000    20424487.665    83634819.569       -2232.593          46.000  
G06  19880769.670   104474183.817          -6.178          47.000    19880774.102    81408486.005          -4.726          46.000  
G07  20095482.042   105602579.623        2316.636          49.000    20095484.817    82287783.223        1805.144          45.000  
G09  19404895.646   101973417.504        -858.326          49.000    19404896.838    79459819.394        -668.836          46.000  
R02  19649186.848   104851788.484       -2048.669          52.000    19649190.737    81551397.814       -1593.323          49.000  
R18  19460631.301   103882177.587       -1506.294          52.000    19460635.579    80797272.419       -1171.559          49.000  
R12  19844190.688   106004159.578        -675.541          49.000    19844195.757    82447726.529        -525.448          48.000  
R01  22713082.212                1      -3161.048          26.000    22713096.529                1      -2458.130          27.000  
G11  22597596.912   118751173.7923       1974.005          31.000    22597618.245    92533512.053        1537.805          32.000  
S31  37539842.820   197273186.297        -799.806          44.000  
S33  38491204.623   202272611.877        -799.599          42.000  
E03  23531280.733   123657754.776         255.131          48.000    23531287.783    94750796.708         195.491          50.000  
R17  20462215.672   109497346.051       -4533.232          45.000    20462219.692    85164580.787       -3525.808          43.000  
R03  19497342.944   104370837.832         269.727          52.000    19497342.505    81177345.194         209.772          49.000  
R13  20044017.222   107034130.869        2334.117          41.000    20044023.420    83248744.389        1815.396          40.000  
R19  21334886.044                3       1597.974          23.000    21334906.564                        1243.298          29.000  
E05  21144889.232   111117127.302       -1629.866          48.000    21144895.612    85141712.293       -1248.879          52.000  
E09  25937826.169   136304095.094       -2825.081          40.000    25937840.305   104440809.579       -2164.773          41.000  
E15  24252048.067   127445381.247         828.299          43.000    24252058.152    97653019.155         634.500          47.000  
G30  22800708.727   119818562.042        2973.276          42.000    22800722.478    93365191.041        2317.036          34.000  
E34  22608242.965   118807097.270       -1933.990          48.000    22608249.639    91034028.685       -1481.876          52.000  
E36  25063181.216   131707799.099       -3850.350          42.000    25063196.473   100918965.113       -2950.227          48.000  
E24  26010131.080   136684219.147        1063.913          44.000    26010144.830   104732156.493         815.121          47.000  
> 2024 04 16 15 41 30.4960000  0 25                     
G03  20830122.472   109462967.372       -2729.740          47.000    20830128.524    85295815.152       -2127.335          43.000  
G04  20440852.780   107417365.594       -2869.141          48.000    20440855.199    83701835.788       -2235.445          47.000  
G06  19880862.712   104474672.719         -26.959          46.000    19880867.218    81408866.972         -20.940          46.000  
G07  20082295.008   105533279.334        2302.894          49.000    20082296.543    82233783.128        1794.469          44.000  
G09  19409816.047   101999275.788        -865.837          49.000    19409818.028    79479968.731        -674.736          46.000  
R02  19660712.547   104913294.632       -2052.283          52.000    19660716.546    81599235.863       -1596.155          48.000  
R18  19469170.313   103927760.513       -1533.112          51.000    19469174.771    80832725.755       -1192.420          49.000  
R12  19848058.371   106024814.215        -701.966          51.000    19848062.609    82463791.303        -546.009          49.000  
R01  22730812.323                3      -3161.067          25.000    22730830.237                3      -2458.710          26.000  
S31  37544408.144   197297174.661        -800.200          44.000  
S33  38495767.179   202296588.455        -799.457          43.000  
E03  23529836.115   123650163.288         250.376          48.000    23529843.164    94744979.895         191.802          50.000  
R17  20487658.839   109633497.729       -4544.093          46.000    20487661.950    85270476.188       -3534.272          40.000  
R03  19495840.564   104362799.829         265.607          53.000    19495841.015    81171093.515         206.628          50.000  
R13  20030945.112   106964329.049        2318.599          41.000    20030951.399    83194454.304        1803.760          39.000  
R19  21326009.004                        1575.708          27.000    21326006.888                        1225.830          32.000  
E05  21154201.447   111166063.879       -1633.096          48.000    21154207.801    85179209.136       -1251.271          52.000  
E09  25953949.604   136388823.275       -2823.704          39.000    25953963.384   104505730.940       -2163.761          40.000  
G16  23775781.857   124942547.7371        120.393          35.000                                                                  
E15  24247354.456   127420714.298         815.797          43.000    24247364.120    97634118.604         625.159          47.000  
G30  22783744.110   119729416.468        2969.275          43.000    22783757.425    93295727.468        2314.008          32.000  
E34  22619322.857   118865320.339       -1948.007          48.000    22619329.398    91078641.138       -1492.640          52.000  
E36  25085174.221   131823366.704       -3854.500          43.000    25085188.570   101007516.590       -2953.356          48.000  
E24  26004074.583   136652399.448        1057.045          43.000    26004089.711   104707775.419         809.879          46.000  
G11                                                                  22586373.209    92487489.643        1529.614          33.000  
> 2024 04 16 15 42 00.4960000  0 24                     
G03  20845731.571   109544996.120       -2738.700          47.000    20845737.731    85359733.558       -2133.964          43.000  
G04  20457238.228   107503470.443       -2871.486          49.000    20457240.083    83768930.446       -2237.528          46.000  
G06  19881072.433   104475771.084         -46.344          47.000    19881076.525    81409722.853         -36.088          47.000  
G07  20069183.622   105464380.282        2290.312          49.000    20069185.788    82180095.688        1784.619          44.000  
G09  19414779.034   102025356.282        -872.737          49.000    19414781.229    79500291.164        -679.951          47.000  
R02  19672257.737   104974899.518       -2054.712          52.000    19672261.547    81647150.709       -1598.187          49.000  
R18  19477857.160   103974135.664       -1558.866          51.000    19477862.639    80868795.229       -1212.263          49.000  
R12  19852070.279   106046248.121        -727.088          50.000    19852075.355    82480462.159        -565.455          49.000  
R01  22748550.602                       -3160.181          27.000    22748560.413                3      -2458.132          25.000  
S31  37548971.667   197321157.224        -799.027          44.000  
S33  38500328.835   202320559.580        -798.456          41.000  
E03  23528415.515   123642703.212         246.833          47.000    23528423.224    94739263.787         189.122          50.000  
R17  20513161.340   109769962.728       -4553.562          46.000    20513162.465    85376615.363       -3541.485          43.000  
R03  19494359.527   104354876.903         262.524          52.000    19494361.295    81164931.322         204.254          50.000  
R13  20017957.999   106894978.676        2304.434          41.000    20017963.973    83140515.398        1792.302          39.000  
R19  21317225.303                3       1553.539          25.000    21317227.871    88692196.739        1208.765          36.000  
E05  21163530.427   111215086.497       -1635.138          49.000    21163536.279    85216771.905       -1252.843          52.000  
E09  25970063.234   136473502.218       -2821.315          36.000    25970078.104   104570614.545       -2161.876          42.000  
E15  24242727.278   127396398.861         805.211          43.000    24242737.170    97615487.396         616.938          47.000  
G30  22766801.408   119640381.651        2966.351          42.000    22766813.823    93226350.176        2310.956          33.000  
E34  22630477.590   118923949.932       -1960.762          46.000    22630486.124    91123565.063       -1502.291          52.000  
E36  25107188.262   131939047.321       -3857.464          45.000    25107201.903   101096154.703       -2955.663          47.000  
E24  25998053.901   136620769.814        1051.304          40.000    25998069.871   104683540.011         805.778          46.000  
G11                                                                  22575197.458    92441739.231        1520.526          34.000  
> 2024 04 16 15 42 30.4960000  0 24                     
G03  20861392.109   109627294.134       -2747.782          46.000    20861399.800    85423861.723       -2141.130          44.000  
G04  20473638.439   107589651.949       -2874.124          49.000    20473640.409    83836084.752       -2239.614          47.000  
G06  19881392.785   104477456.953         -66.243          47.000    19881397.232    81411036.518         -51.478          46.000  
G07  20056144.759   105395862.365        2277.352          48.000    20056146.932    82126705.262        1774.350          43.000  
G09  19419780.129   102051635.069        -879.218          49.000    19419782.094    79520768.161        -685.194          47.000  
R02  19683816.433   105036579.942       -2057.458          53.000    19683820.805    81695124.261       -1600.299          49.000  
R18  19486688.288   104021277.954       -1584.283          51.000    19486693.806    80905461.408       -1232.227          49.000  
R12  19856223.390   106068438.951        -752.442          50.000    19856228.422    82497721.723        -585.248          48.000  
R01  22766296.238                3      -3171.632          21.000    22766302.187                1      -2457.886          29.000  
G11  22564081.718                1       1940.289          29.000    22564088.030    92396244.797        1512.280          36.000  
S31  37553529.632   197345110.594        -798.132          44.000  
S33  38504884.756   202344501.038        -797.831          42.000  
E03  23527016.705   123635351.207         243.126          47.000    23527024.615    94733630.464         186.290          50.000  
R17  20538716.095   109906713.403       -4563.143          46.000    20538718.880    85482976.650       -3549.096          43.000  
R03  19492897.192   104347045.622         259.387          52.000    19492898.936    81158840.451         201.813          50.000  
R13  20005051.422   106826060.625        2289.868          41.000    20005058.341    83086912.688        1780.868          41.000  
R19  21308568.469   113986426.2301       1534.358          33.000    21308569.287    88656162.448        1193.239          37.000  
E05  21172871.223   111264171.568       -1637.341          48.000    21172876.913    85254382.532       -1254.635          51.000  
E09  25986164.889   136558108.892       -2819.474          38.000    25986177.341   104635442.781       -2160.090          40.000  
E15  24238163.303   127372413.555         793.778          43.000    24238172.964    97597109.180         608.338          47.000  
G30  22749874.991   119551437.088        2963.189          41.000    22749886.034    93157043.225        2308.631          34.000  
E34  22641708.477   118982962.381       -1973.571          47.000    22641716.123    91168782.351       -1512.199          53.000  
E36  25129217.760   132054816.232       -3860.508          44.000    25129232.527   101184860.478       -2957.998          48.000  
E24  25992068.590   136589309.361        1045.506          42.000    25992083.369   104659434.217         801.149          46.000  
> 2024 04 16 15 43 00.4960000  0 24                     
G03  20877105.669   109709864.555       -2757.043          47.000    20877112.099    85488202.132       -2148.386          44.000  
G04  20490053.128   107675912.031       -2877.020          49.000    20490055.596    83903300.324       -2241.688          47.000  
G06  19881826.066   104479734.369         -86.227          47.000    19881830.386    81412811.139         -67.091          46.000  
G07  20043179.483   105327731.541        2264.293          48.000    20043182.050    82073616.429        1764.307          44.000  
G09  19424819.628   102078114.484        -886.251          50.000    19424820.772    79541401.448        -690.547          47.000  
R02  19695389.999   105098339.196       -2060.236          52.000    19695395.204    81743159.156       -1602.460          49.000  
R18  19495664.457   104069189.148       -1610.156          51.000    19495669.276    80942725.630       -1252.362          49.000  
R12  19860519.996   106091390.070        -778.141          50.000    19860525.117    82515572.624        -605.062          48.000  
R01  22784022.920                       -3159.479          26.000    22784043.058                1      -2457.977          29.000  
G11  22553043.332                3       1929.175          31.000    22553040.123    92351010.896        1503.174          36.000  
S31  37558082.923   197369038.128        -797.526          44.000  
S33  38509435.756   202368416.453        -796.841          41.000  
E03  23525637.877   123628109.776         239.237          47.000    23525646.305    94728081.896         183.351          50.000  
R17  20564324.834   110043748.228       -4572.747          46.000    20564327.500    85589558.999       -3556.557          45.000  
R03  19491452.303   104339309.198         256.000          52.000    19491452.815    81152823.280         199.091          49.000  
R13  19992227.486   106757582.882        2274.848          41.000    19992234.312    83033652.486        1769.236          42.000  
R19  21300024.797                        1512.365          28.000    21300030.667    88620621.771        1176.172          38.000  
E05  21182223.666   111313321.467       -1639.669          48.000    21182230.070    85292042.825       -1256.346          51.000  
E09  26002249.918   136642646.168       -2816.752          35.000    26002264.576   104700217.941       -2158.685          41.000  
E15  24233662.732   127348762.940         782.438          43.000    24233672.461    97578987.386         599.488          48.000  
G30  22732967.227   119462588.302        2959.735          42.000    22732980.621    93087810.959        2305.829          37.000  
E34  22653011.036   119042360.041       -1986.660          46.000    22653018.945    91214294.774       -1522.186          52.000  
E36  25151264.614   132170674.786       -3863.712          43.000    25151279.812   101273634.914       -2960.476          47.000  
E24  25986114.450   136558023.166        1039.914          41.000    25986129.106   104635461.947         796.634          45.000  
> 2024 04 16 15 43 30.4960000  0 24                     
G03  20892872.624   109792718.915       -2766.737          47.000    20892879.221    85552763.845       -2156.046          44.000  
G04  20506484.712   107762261.210       -2879.914          49.000    20506487.083    83970585.317       -2244.150          47.000  
G06  19882374.812   104482615.720        -106.218          47.000    19882379.086    81415056.350         -82.976          47.000  
G07  20030291.203   105260001.734        2250.689          48.000    20030294.022    82020840.085        1753.932          44.000  
G09  19429898.497   102104805.163        -893.367          49.000    19429899.587    79562199.383        -696.317          47.000  
R02  19706981.002   105160189.034       -2063.397          52.000    19706986.325    81791264.547       -1604.987          49.000  
R18  19504785.302   104117879.014       -1636.066          50.000    19504789.281    80980595.401       -1272.607          48.000  
R12  19864962.438   106115114.273        -803.909          50.000    19864966.843    82534024.824        -625.265          49.000  
R01  22801759.293                3      -3160.298          23.000    22801777.184                       -2458.015          26.000  
G11  22542061.853   118459334.0961       1917.493          33.000    22542058.790    92306048.514        1494.049          35.000  
S31  37562633.030   197392950.404        -796.944          44.000  
S33  38513983.761   202392317.333        -797.046          42.000  
E03  23524284.257   123620989.982         234.943          48.000    23524291.560    94722626.515         180.084          50.000  
R17  20589986.585   110181074.238       -4582.549          46.000    20589990.151    85696367.785       -3564.071          44.000  
R03  19490026.832   104331679.011         252.344          52.000    19490027.871    81146888.799         196.240          49.000  
R13  19979489.152   106689561.247        2259.567          42.000    19979495.653    82980746.942        1757.415          41.000  
R19  21291601.835                        1490.349          28.000    21291608.336                        1159.364          29.000  
E05  21191591.349   111362547.001       -1642.397          48.000    21191597.337    85329761.079       -1258.468          51.000  
E09  26018329.321   136727125.529       -2814.849          37.000    26018341.195   104764948.660       -2157.241          41.000  
E15  24229228.501   127325460.017         770.624          43.000    24229237.693    97561132.013         590.401          47.000  
G30  22716080.762   119373849.308        2956.006          42.000    22716094.069    93018664.163        2302.930          37.000  
E34  22664390.452   119102153.669       -1999.942          47.000    22664397.454    91260110.613       -1532.435          52.000  
E36  25173330.382   132286632.682       -3867.146          42.000    25173346.563   101362485.451       -2963.139          48.000  
E24  25980194.934   136526924.769        1033.418          40.000    25980211.380   104611633.563         791.706          46.000  
> 2024 04 16 15 44 00.4960000  0 24                     
G03  20908695.000   109875866.856       -2776.716          46.000    20908701.921    85617554.271       -2163.466          44.000  
G04  20522934.928   107848707.886       -2883.451          49.000    20522937.575    84037946.284       -2246.998          47.000  
G06  19883040.215   104486111.474        -126.987          47.000    19883043.521    81417780.330         -99.032          46.000  
G07  20017481.366   105192685.301        2236.714          48.000    20017483.769    81968385.815        1742.993          44.000  
G09  19435019.330   102131715.791        -900.849          50.000    19435020.622    79583168.704        -701.991          47.000  
R02  19718589.722   105222139.533       -2066.931          52.000    19718595.115    81839448.158       -1607.568          47.000  
R18  19514054.912   104167355.532       -1662.476          52.000    19514058.813    81019077.096       -1293.042          48.000  
R12  19869549.688   106139621.647        -830.139          50.000    19869553.983    82553086.142        -645.704          49.000  
R01  22819519.520                3      -3164.924          24.000    22819516.165                3      -2459.519          26.000  
S31  37567182.405   197416858.428        -797.002          43.000  
S33  38518531.374   202416214.338        -796.491          42.000  
E03  23522954.179   123614000.822         230.607          47.000    23522961.272    94717271.213         176.702          50.000  
R17  20615704.595   110318696.664       -4592.546          47.000    20615707.825    85803407.228       -3572.087          44.000  
R03  19488623.479   104324164.647         248.315          52.000    19488623.601    81141044.388         193.146          49.000  
R13  19966840.123   106622010.295        2243.581          44.000    19966845.333    82928207.512        1744.913          42.000  
R19  21283296.268                3       1465.361          23.000    21283308.299    88551064.220        1142.124          34.000  
E05  21200975.052   111411856.990       -1645.248          49.000    21200980.763    85367544.064       -1260.607          51.000  
E09  26034397.571   136811556.266       -2813.523          37.000    26034408.461   104829642.208       -2156.015          42.000  
E15  24224860.930   127302515.695         758.880          42.000    24224871.755    97543551.400         581.333          48.000  
G30  22699217.137   119285231.997        2951.569          42.000    22699230.817    92949612.219        2299.787          38.000  
E34  22675846.472   119162351.963       -2013.486          48.000    22675852.309    91306236.497       -1542.741          52.000  
E36  25195417.925   132402697.655       -3870.793          43.000    25195433.096   101451418.023       -2965.727          47.000  
E24  25974315.776   136496025.660        1026.549          40.000    25974331.238   104587957.892         786.587          47.000  
G11                                                                  22531144.929    92261366.961        1484.814          34.000  
> 2024 04 16 15 44 30.4960000  0 24                     
G03  20924575.541   109959314.441       -2786.568          47.000    20924581.218    85682578.242       -2171.256          44.000  
G04  20539404.749   107935257.071       -2886.464          49.000    20539406.339    84105387.132       -2249.018          45.000  
G06  19883823.795   104490228.493        -147.379          48.000    19883828.016    81420988.413        -114.819          47.000  
G07  20004751.785   105125791.105        2222.992          48.000    20004754.000    81916260.598        1732.408          44.000  
G09  19440183.354   102158851.583        -908.101          50.000    19440184.407    79604313.494        -707.574          46.000  
R02  19730219.290   105284196.828       -2070.172          51.000    19730224.374    81887714.908       -1610.162          48.000  
R18  19523471.647   104217623.140       -1688.580          51.000    19523475.340    81058174.057       -1313.251          49.000  
R12  19874285.011   106164919.189        -856.332          50.000    19874290.690    82572762.015        -666.017          50.000  
R01  22837255.457                3      -3161.861          25.000    22837255.995                3      -2464.282          20.000  
G11  22520293.690                1       1893.353          29.000    22520302.889    92216973.029        1475.238          37.000  
S31  37571732.272   197440768.038        -796.854          44.000  
S33  38523078.993   202440111.262        -796.446          42.000  
E03  23521649.715   123607147.836         226.250          47.000    23521657.408    94712020.282         173.331          51.000  
R17  20641477.751   110456616.685       -4602.251          45.000    20641483.335    85910678.012       -3579.372          46.000  
R03  19487242.746   104316772.374         244.531          53.000    19487242.133    81135294.907         190.082          48.000  
R13  19954279.425   106554939.851        2227.672          43.000    19954285.658    82876041.824        1732.531          42.000  
R19  21275132.974   113807557.4001       1445.995          33.000    21275131.880    88517064.733        1125.141          32.000  
E05  21210375.689   111461256.813       -1648.029          49.000    21210381.028    85405395.891       -1262.764          51.000  
E09  26050453.792   136895944.389       -2812.108          35.000    26050466.794   104894303.057       -2154.810          43.000  
E15  24220565.851   127279937.623         746.551          41.000    24220574.672    97526251.394         572.014          47.000  
G30  22682378.435   119196744.909        2947.650          43.000    22682390.956    92880661.722        2296.716          38.000  
E34  22687379.662   119222960.206       -2026.933          49.000    22687385.955    91352676.526       -1553.059          52.000  
E36  25217525.937   132518873.958       -3874.271          43.000    25217540.644   101540435.925       -2968.607          46.000  
E24  25968475.504   136465333.869        1019.944          41.000    25968490.878   104564441.094         781.469          47.000  
