     3.00           OBSERVATION DATA    M: Mixed            RINEX VERSION / TYPE
CONVBIN 2.4.3                           20240416 132942 UTC PGM / RUN BY / DATE 
format: u-blox UBX                                          COMMENT             
log: /home/regis/git/gnsspwv/obsdata/VERT00CHL/2024-04-16/VECOMMENT             
{self.marker}                                               MARKER NAME         
                                                            MARKER NUMBER       
GEODETIC                                                    MARKER TYPE         
{self.observer}     {self.institution}                      OBSERVER / AGENCY   
UNKNOWN             UBLOX-ZED-F9P                           REC # / TYPE / VERS 
UNKNOWN             TWIVSP6037L                             ANT # / TYPE        
  1713381.0000 -5047934.0000 -3490983.0000                  APPROX POSITION XYZ 
        0.0000        0.0000        0.0000                  ANTENNA: DELTA H/E/N
G    8 C1C L1C D1C S1C C2L L2L D2L S2L                      SYS / # / OBS TYPES 
R    8 C1C L1C D1C S1C C2C L2C D2C S2C                      SYS / # / OBS TYPES 
E    8 C1C L1C D1C S1C C7Q L7Q D7Q S7Q                      SYS / # / OBS TYPES 
S    4 C1C L1C D1C S1C                                      SYS / # / OBS TYPES 
  2024    04    16    13    15   00.4990000     GPS         TIME OF FIRST OBS   
  2024    04    16    13    29   30.4990000     GPS         TIME OF LAST OBS    
                                                            END OF HEADER       
> 2024 04 16 13 15 00.4990000  0 24                     
G31  22610743.219   118820319.3131       -885.150          43.000    22610743.453    92587240.4781       -689.568          38.000  
G02  20253883.780   106434857.8181      -2905.432          50.000                                                                  
G19  23349926.987   122704759.0181        663.597          32.000                                                                  
G03  20505329.218   107756230.1791       -663.843          50.000    20505329.338    83965847.3871       -517.291          44.000  
G04  19933273.265   104750020.8861        274.876          47.000    19933274.632    81623369.5711        214.100          50.000  
R23  22242235.639   118980954.6781      -5118.518          46.000                                                                  
R24  18952108.148   101345241.0721      -2157.120          51.000    18952108.078    78824175.1051      -1677.710          49.000  
R02  19858082.751   105966238.9381        149.094          52.000    19858085.616    82418261.5821        116.070          50.000  
G21  20649102.592   108511685.8431      -3832.904          48.000                                                                  
S33  39356071.268   206817514.6181       -874.559          42.000  
S31  38403965.126   201814203.6061       -875.189          44.000  
E36  22940795.294   120554658.8881      -1038.761          48.000    22940800.672    92373107.0761       -795.884          52.000  
G09  22590313.076                1       2065.430          33.000    22590317.261    92503589.2161       1609.210          35.000  
E11  24465363.157   128566272.4981      -3133.858          42.000    24465369.666    98511849.5541      -2401.257          46.000  
R01  19818093.486   105939205.3451      -2803.332          47.000    19818095.569    82396999.4711      -2180.470          43.000  
R17  20356270.474   108930427.2661       2023.200          53.000    20356270.856    84723656.3801       1573.559          48.000  
R11  23535089.583   125764402.4651       1697.125          45.000    23535099.009    97816806.7091       1320.044          44.000  
G28  23695932.119   124522950.4321      -2656.802          44.000    23695927.509                       -2069.945          29.000  
E04  27349255.634   143721179.1971      -3555.292          40.000    27349267.251   110124006.2261      -2723.981          43.000  
E09  23583999.823   123934773.7201      -2219.148          48.000    23584005.159    94962974.7151      -1700.331          53.000  
E34  24746426.736   130043369.4511       1298.191          46.000    24746434.024    99643601.2371        994.613          48.000  
E05  22086675.523   116066213.3751        431.502          47.000    22086681.063    88933869.9761        330.647          51.000  
G17  21541294.985   113200230.1671       -930.905          47.000    21541297.158    88207974.6721       -725.461          46.000  
E18  28190380.583   148141377.2221      -1777.525          44.000                                                                  
> 2024 04 16 13 15 30.4990000  0 24                     
G31  22615845.809   118847134.628        -902.461          42.000    22615846.180    92608135.508        -703.120          38.000  
G02  20270521.312   106522287.775       -2922.729          49.000                                                                  
G19  23346186.670   122685099.935         647.312          35.000                                                                  
G03  20509133.047   107776221.268        -668.610          49.000    20509133.245    83981424.829        -521.039          44.000  
G04  19931754.938   104742037.704         257.872          47.000    19931755.674    81617148.919         200.969          50.000  
R23  22270967.459   119134649.638       -5127.417          46.000                                                                  
R24  18964284.296   101410348.304       -2182.954          51.000    18964283.846    78874814.006       -1697.867          49.000  
R02  19857287.381   105961991.628         134.326          52.000    19857288.929    82414958.148         104.453          49.000  
G21  20671030.303   108626915.480       -3848.669          48.000                                                                  
S33  39361065.977   206843761.736        -874.940          42.000  
S31  38408962.319   201840464.940        -875.454          44.000  
E36  22946758.531   120585997.883       -1050.166          47.000    22946764.510    92397120.034        -804.737          52.000  
G09  22578556.951   118651089.3081       2055.737          36.000    22578558.186    92455438.420        1601.593          36.000  
E11  24483276.679   128660408.649       -3141.714          42.000    24483283.269    98583979.656       -2407.215          46.000  
R01  19833850.831   106023433.086       -2811.419          49.000    19833852.883    82462509.857       -2186.726          43.000  
R17  20344980.098   108870008.898        2005.115          52.000    20344980.259    84676664.353        1559.589          49.000  
R11  23525592.217   125713648.712        1686.725          48.000    23525600.333    97777331.834        1312.018          43.000  
G28  23711144.834   124602897.254       -2672.646          44.000    23711141.452    97093128.452       -2082.604          31.000  
E04  27369553.508   143827845.116       -3555.581          40.000    27369565.110   110205736.969       -2724.373          42.000  
E09  23596693.924   124001481.761       -2227.700          47.000    23596699.677    95014088.612       -1707.027          54.000  
E34  24739031.149   130004505.407        1293.072          46.000    24739038.264    99613822.315         990.847          48.000  
E05  22084243.800   116053430.259         421.024          48.000    22084248.556    88924075.148         322.552          52.000  
G17  21546671.192   113228481.735        -952.219          46.000    21546673.362    88229988.807        -741.922          45.000  
E18  28200528.603   148194705.816       -1777.239          44.000                                                                  
> 2024 04 16 13 16 00.4990000  0 24                     
G31  22621044.998   118874461.314        -919.626          42.000    22621047.931    92629429.042        -716.325          41.000  
G02  20287257.098   106610237.142       -2940.605          48.000                                                                  
G19  23342537.393   122665917.623         631.266          38.000                                                                  
G03  20512965.140   107796360.893        -674.005          49.000    20512966.226    83997118.016        -525.208          45.000  
G04  19930331.650   104734558.571         240.717          47.000    19930332.091    81611321.033         187.618          49.000  
R23  22299749.111   119288607.232       -5136.493          47.000                                                                  
R24  18976604.104   101476229.204       -2209.142          51.000    18976604.150    78926054.651       -1718.194          49.000  
R02  19856573.415   105958185.423         119.348          52.000    19856575.750    82411997.754          92.886          50.000  
G21  20693046.592   108742614.108       -3864.677          48.000                                                                  
S33  39366062.516   206870017.527        -875.081          42.000  
S31  38413961.185   201866734.357        -875.894          44.000  
E36  22952787.659   120617679.978       -1061.982          47.000    22952793.429    92421395.895        -813.737          51.000  
G09  22566848.920   118589572.723        2045.657          36.000    22566853.201    92407503.461        1594.212          37.000  
E11  24501236.086   128754779.037       -3149.812          43.000    24501241.286    98656289.266       -2413.477          46.000  
R01  19849652.563   106107900.186       -2819.620          49.000    19849654.241    82528206.420       -2192.992          43.000  
R17  20333790.798   108810134.354        1986.514          52.000    20333789.994    84630095.290        1545.115          49.000  
R11  23516151.609   125663205.805        1675.928          45.000    23516159.409    97738098.767        1303.857          42.000  
G28  23726450.872   124683328.173       -2689.322          43.000    23726453.021    97155801.800       -2095.638          33.000  
E04  27389854.422   143934525.044       -3556.429          40.000    27389866.019   110287478.449       -2724.880          41.000  
E09  23609436.643   124068445.710       -2236.601          47.000    23609442.520    95065398.599       -1713.704          54.000  
E34  24731664.623   129965793.330        1287.652          46.000    24731671.680    99584159.849         986.712          48.000  
E05  22081870.576   116040960.674         410.294          48.000    22081875.784    88914520.570         314.382          52.000  
G17  21552167.458   113257366.772        -973.674          47.000    21552170.431    88252496.583        -758.546          45.000  
E18  28210674.112   148248023.473       -1777.198          44.000                                                                  
> 2024 04 16 13 16 30.4990000  0 24                     
G31  22626344.559   118902308.583        -936.810          43.000    22626347.020    92651128.165        -730.036          40.000  
G02  20304093.888   106698712.953       -2957.844          49.000                                                                  
G19  23338980.705   122647222.382         615.130          39.000                                                                  
G03  20516827.518   107816657.868        -679.181          49.000    20516828.984    84012933.818        -529.144          45.000  
G04  19929005.934   104727592.212         223.765          47.000    19929005.967    81605892.724         174.338          49.000  
R23  22328580.789   119442832.756       -5145.155          48.000                                                                  
R24  18989070.937   101542892.179       -2234.947          52.000    18989070.508    78977903.596       -1738.457          49.000  
R02  19855943.181   105954827.891         104.502          51.000    19855946.862    82409386.344          81.335          50.000  
G21  20715154.771   108858788.126       -3880.262          49.000                                                                  
S33  39371061.443   206896288.427        -875.846          42.000  
S31  38418963.232   201893019.789        -876.259          44.000  
E36  22958884.085   120649714.648       -1073.506          48.000    22958889.489    92445941.907        -822.620          52.000  
G09  22555197.178   118528343.058        2035.927          36.000    22555202.177    92359791.959        1586.860          37.000  
E11  24519240.669   128849391.775       -3157.648          42.000    24519244.977    98728784.565       -2419.583          45.000  
R01  19865499.969   106192612.798       -2827.786          48.000    19865500.852    82594093.912       -2199.069          44.000  
R17  20322705.732   108750816.377        1967.955          52.000    20322704.946    84583959.121        1530.638          49.000  
R11  23506773.150   125613087.231        1665.216          47.000    23506780.609    97699117.980        1295.203          43.000  
G28  23741848.865   124764250.239       -2705.384          42.000    23741852.821    97218857.772       -2108.554          34.000  
E04  27410159.168   144041226.446       -3556.856          39.000    27410170.488   110369236.387       -2725.533          40.000  
E09  23622229.440   124135672.762       -2245.043          47.000    23622235.672    95116910.188       -1720.315          54.000  
E34  24724329.015   129927243.522        1282.480          46.000    24724335.972    99554621.724         982.655          48.000  
E05  22079559.582   116028813.354         399.618          48.000    22079564.166    88905212.932         306.238          52.000  
G17  21557786.513   113286893.100        -994.764          47.000    21557788.567    88275504.028        -775.101          44.000  
E18  28220819.364   148301338.352       -1776.873          44.000                                                                  
> 2024 04 16 13 17 00.4990000  0 24                     
G31  22631743.277   118930677.035        -954.049          45.000    22631745.495    92673233.462        -743.505          42.000  
G02  20321030.390   106787714.068       -2975.231          49.000                                                                  
G19  23335515.696   122629015.204         598.778          40.000                                                                  
G03  20520719.895   107837112.333        -684.363          49.000    20520721.141    84028872.349        -533.295          45.000  
G04  19927777.602   104721138.681         206.558          47.000    19927777.225    81600864.012         160.997          49.000  
R23  22357461.236   119597323.135       -5153.886          47.000                                                                  
R24  19001683.450   101610335.955       -2260.969          51.000    19001683.087    79030359.826       -1758.571          49.000  
R02  19855398.283   105951918.206          89.593          52.000    19855402.316    82407123.259          69.752          51.000  
G21  20737351.431   108975435.473       -3896.002          48.000                                                                  
S33  39376063.951   206922575.558        -876.619          42.000  
S31  38423967.503   201919320.520        -876.847          44.000  
E36  22965047.143   120682102.720       -1085.439          48.000    22965052.786    92470758.716        -831.643          52.000  
G09  22543594.485   118467401.449        2026.944          35.000    22543603.047    92312305.000        1579.104          34.000  
E11  24537290.040   128944246.248       -3165.776          41.000    24537295.067    98801465.091       -2425.716          44.000  
R01  19881392.279   106277568.593       -2835.778          49.000    19881393.605    82660170.529       -2205.659          44.000  
R17  20311725.074   108692058.864        1949.354          52.000    20311726.009    84538258.904        1516.138          50.000  
R11  23497454.305   125563296.962        1654.083          46.000    23497463.807    97660392.544        1286.474          44.000  
G28  23757341.964   124845661.955       -2721.810          43.000    23757345.057    97282295.264       -2120.548          35.000  
E04  27430467.013   144147948.129       -3557.621          37.000    27430478.749   110451009.872       -2726.056          39.000  
E09  23635072.032   124203161.619       -2253.932          47.000    23635078.433    95168622.370       -1727.049          55.000  
E34  24717024.949   129888857.685        1276.960          47.000    24717031.425    99525209.246         978.197          49.000  
E05  22077309.836   116016988.386         389.038          48.000    22077314.126    88896152.309         297.959          52.000  
G17  21563527.550   113317060.362       -1016.202          47.000    21563529.329    88299010.941        -791.951          45.000  
E18  28230964.339   148354649.978       -1776.895          44.000                                                                  
> 2024 04 16 13 17 30.4990000  0 25                     
G31  22637241.330   118959565.956        -971.713          45.000    22637243.352    92695744.292        -757.185          42.000  
G02  20338066.553   106877238.232       -2992.897          48.000                                                                  
G19  23332143.807   122611295.962         582.310          40.000                                                                  
G03  20524641.579   107857723.374        -689.789          48.000    20524643.505    84044932.896        -537.415          45.000  
G04  19926647.717   104715196.990         189.463          48.000    19926646.995    81596234.131         147.568          49.000  
R23  22386391.142   119752073.320       -5162.753          49.000                                                                  
R24  19014441.462   101678558.055       -2287.157          51.000    19014440.622    79083421.399       -1778.971          48.000  
R02  19854936.841   105949454.266          74.643          52.000    19854940.614    82405206.853          58.055          50.000  
R03  23478343.796                3       2443.562          11.000                                                                  
G21  20759638.296   109092552.921       -3911.836          48.000                                                                  
S33  39381068.913   206948877.390        -876.946          42.000  
S31  38428975.612   201945636.596        -877.628          44.000  
E36  22971277.445   120714843.850       -1097.383          48.000    22971283.323    92495846.034        -840.842          52.000  
G09  22532059.016   118406748.288        2016.912          37.000    22532063.056    92265042.826        1571.050          40.000  
E11  24555386.697   129039340.695       -3173.906          42.000    24555391.614    98874329.490       -2432.036          45.000  
R01  19897330.057   106362764.160       -2843.886          49.000    19897331.647    82726433.673       -2212.053          45.000  
R17  20300850.057   108633864.795        1930.284          52.000    20300851.246    84492996.905        1501.348          51.000  
R11  23488199.030   125513838.190        1643.140          47.000    23488207.797    97621924.956        1277.734          43.000  
G28  23772927.247   124927560.669       -2738.139          42.000    23772932.282    97346112.240       -2133.916          37.000  
E04  27450779.556   144254687.794       -3558.676          37.000    27450790.967   110532797.128       -2726.694          38.000  
E09  23647963.730   124270909.677       -2262.749          46.000    23647970.606    95220533.168       -1733.754          55.000  
E34  24709751.266   129850636.348        1271.107          47.000    24709758.138    99495922.804         973.948          49.000  
E05  22075119.992   116005484.685         378.073          48.000    22075125.058    88887337.849         289.554          52.000  
G17  21569389.986   113347866.595       -1037.753          48.000    21569391.625    88323015.737        -808.489          44.000  
E18  28241109.472   148407956.751       -1776.919          44.000                                                                  
> 2024 04 16 13 18 00.4990000  0 24                     
G31  22642840.440   118988994.436        -990.156          44.000    22642842.502    92718675.541        -771.583          42.000  
G02  20355204.800   106967302.616       -3011.381          48.000                                                                  
G19  23328867.280   122594084.749         565.005          39.000                                                                  
G03  20528597.155   107878509.774        -696.002          48.000    20528598.809    84061130.053        -542.279          45.000  
G04  19925617.984   104709785.738         171.438          49.000    19925617.741    81592017.577         133.603          49.000  
R23  22415371.134   119907098.676       -5172.171          47.000                                                                  
R24  19027347.620   101747576.466       -2313.947          51.000    19027347.545    79137102.332       -1799.754          49.000  
R02  19854561.646   105947453.727          58.896          52.000    19854565.497    82403650.911          45.654          51.000  
G21  20782017.924   109210156.738       -3928.373          49.000                                                                  
S33  39386080.153   206975212.952        -878.601          42.000  
S31  38433990.035   201971986.224        -878.995          44.000  
E36  22977578.951   120747957.384       -1110.038          48.000    22977584.672    92521218.693        -850.547          52.000  
G09  22520571.994   118346403.292        2005.948          33.000    22520580.759    92218020.839        1563.277          39.000  
E11  24573531.061   129134693.051       -3182.885          42.000    24573536.799    98947391.519       -2438.824          45.000  
R01  19913315.945   106448215.542       -2852.856          48.000    19913317.538    82792895.748       -2219.019          45.000  
R17  20290085.010   108576257.065        1910.140          52.000    20290085.969    84448190.920        1485.734          50.000  
R11  23479010.801   125464733.788        1630.640          46.000    23479018.330    97583732.847        1268.347          43.000  
G28  23788606.735   125009963.330       -2755.547          40.000    23788613.416    97410322.001       -2146.427          38.000  
E04  27471097.892   144361462.832       -3559.671          36.000    27471109.529   110614611.499       -2727.959          38.000  
E09  23660908.854   124338934.097       -2272.171          47.000    23660915.326    95272655.740       -1741.025          55.000  
E34  24702512.644   129812599.765        1264.625          47.000    24702519.898    99466777.914         969.029          49.000  
E05  22072995.076   115994320.931         366.341          48.000    22073000.430    88878783.857         280.678          52.000  
G17  21575377.217   113379329.798       -1059.936          47.000    21575378.643    88347532.447        -825.947          44.000  
E18  28251255.325   148461276.731       -1777.730          44.000                                                                  
> 2024 04 16 13 18 30.4990000  0 24                     
G31  22648543.525   119018958.493       -1007.555          45.000    22648543.917    92742024.090        -785.243          41.000  
G02  20372445.120   107057901.229       -3028.701          49.000                                                                  
G19  23325689.285   122577378.137         548.674          40.000                                                                  
G03  20532584.926   107899467.142        -701.251          48.000    20532586.659    84077460.425        -546.289          45.000  
G04  19924687.721   104704900.362         154.375          48.000    19924688.072    81588210.809         120.231          49.000  
R23  22444400.933   120062390.999       -5180.576          46.000                                                                  
R24  19040402.170   101817385.240       -2339.887          51.000    19040402.068    79191397.975       -1819.895          48.000  
R02  19854273.567   105945911.043          44.016          53.000    19854275.214    82402451.065          34.219          50.000  
G21  20804488.338   109328240.479       -3943.844          48.000                                                                  
S33  39391097.201   207001577.275        -879.292          42.000  
S31  38439009.559   201998363.624        -879.470          44.000  
E36  22983950.330   120781439.556       -1122.020          48.000    22983955.938    92546873.821        -859.660          52.000  
G09  22509143.581                        1997.500          32.000    22509154.319    92171236.441        1555.877          38.000  
E11  24591724.016   129230298.183       -3190.661          42.000    24591730.440    99020647.224       -2444.916          45.000  
R01  19929347.901   106533916.197       -2860.665          49.000    19929349.481    82859551.716       -2225.010          45.000  
R17  20279429.458   108519235.208        1891.204          52.000    20279429.923    84403840.616        1470.927          50.000  
R11  23469886.941   125415983.630        1619.372          46.000    23469896.560    97545816.312        1259.412          44.000  
G28  23804382.342   125092863.857       -2771.411          42.000    23804388.054    97474919.633       -2159.425          39.000  
E04  27491422.008   144468267.570       -3560.183          36.000    27491433.970   110696448.629       -2728.034          37.000  
E09  23673904.923   124407228.975       -2280.762          47.000    23673911.339    95324985.531       -1747.544          55.000  
E34  24695309.204   129774745.059        1259.005          47.000    24695316.244    99437772.401         964.654          49.000  
E05  22070934.339   115983492.574         355.538          47.000    22070939.796    88870486.843         272.444          52.000  
G17  21581488.191   113411444.120       -1081.099          46.000    21581489.059    88372556.540        -842.339          44.000  
E18  28261402.802   148514604.897       -1777.467          43.000                                                                  
> 2024 04 16 13 19 00.4990000  0 24                     
G31  22654344.317   119049447.899       -1024.894          43.000    22654346.146    92765782.010        -798.500          42.000  
G02  20389784.606   107149022.231       -3045.856          49.000                                                                  
G19  23322604.527   122561166.878         532.243          39.000                                                                  
G03  20536603.386   107920584.900        -706.592          48.000    20536605.415    84093915.818        -550.549          45.000  
G04  19923856.161   104700530.168         137.290          48.000    19923856.767    81584805.448         106.942          50.000  
R23  22473478.692   120217936.249       -5188.767          47.000                                                                  
R24  19053602.401   101887972.350       -2365.589          51.000    19053602.591    79246299.003       -1840.009          49.000  
R02  19854067.925   105944814.091          29.226          53.000    19854069.675    82401597.889          22.837          50.000  
G21  20827048.371   109446790.911       -3959.308          49.000                                                                  
S33  39396117.371   207027960.109        -879.534          42.000  
S31  38444032.426   202024761.117        -880.142          44.000  
E36  22990391.100   120815280.390       -1133.731          49.000    22990395.749    92572803.771        -868.789          52.000  
G09  22497775.932   118226618.884        1986.151          35.000    22497784.884    92124682.328        1548.185          38.000  
E11  24609964.016   129326144.770       -3198.475          42.000    24609969.252    99094087.916       -2450.853          45.000  
R01  19945424.105   106619853.037       -2868.365          49.000    19945425.770    82926391.394       -2230.713          44.000  
R17  20268881.837   108462792.249        1871.860          52.000    20268882.086    84359940.586        1455.986          50.000  
R11  23460828.528   125367581.168        1607.654          46.000    23460838.424    97508170.111        1250.482          43.000  
G28  23820251.681   125176249.840       -2787.525          43.000    23820256.554    97539895.587       -2172.038          40.000  
E04  27511750.352   144575090.110       -3561.009          36.000    27511761.882   110778299.417       -2728.476          36.000  
E09  23686950.393   124475782.105       -2289.198          47.000    23686956.561    95377513.209       -1754.072          55.000  
E34  24688138.610   129737063.150        1253.435          47.000    24688145.725    99408899.288         960.431          49.000  
E05  22068935.437   115972988.915         344.904          47.000    22068941.077    88862438.615         264.306          52.000  
G17  21587721.402   113444198.799       -1102.444          47.000    21587723.018    88398079.612        -858.872          45.000  
E18  28271549.739   148567930.030       -1777.321          43.000                                                                  
> 2024 04 16 13 19 30.4990000  0 24                     
G31  22660244.354   119080453.321       -1042.039          42.000    22660246.337    92789942.061        -811.810          41.000  
G02  20407221.553   107240654.794       -3062.866          48.000                                                                  
G19  23319611.115   122545442.197         515.904          38.000                                                                  
G03  20540651.415   107941853.572        -711.279          49.000    20540652.628    84110488.795        -554.303          45.000  
G04  19923120.772   104696665.463         120.506          48.000    19923121.422    81581793.984          93.826          50.000  
R23  22502601.232   120373720.877       -5196.827          46.000                                                                  
R24  19066945.453   101959326.721       -2391.214          51.000    19066946.499    79301796.803       -1859.779          49.000  
R02  19853943.707   105944152.078          14.909          52.000    19853947.181    82401083.015          11.577          51.000  
G21  20849694.477   109565796.348       -3974.301          49.000                                                                  
S33  39401140.259   207054351.271        -879.690          42.000  
S31  38449057.653   202051166.519        -880.209          45.000  
E36  22996897.401   120849470.923       -1145.475          49.000    22996902.080    92599001.680        -877.661          52.000  
G09  22486466.779   118167161.366        1976.961          36.000    22486468.837    92078351.902        1540.417          37.000  
E11  24628247.458   129422222.451       -3206.064          43.000    24628252.401    99167705.729       -2456.698          45.000  
R01  19961542.319   106706012.886       -2875.644          49.000    19961543.622    82993404.536       -2236.618          45.000  
R17  20258440.199   108406921.970        1852.763          51.000    20258441.037    84316485.985        1441.088          50.000  
R11  23451833.846   125319520.377        1596.246          46.000    23451843.641    97470789.686        1241.510          43.000  
G28  23836208.789   125260109.922       -2803.116          44.000    23836215.335    97605240.956       -2184.453          42.000  
E04  27532079.417   144681919.573       -3561.201          36.000    27532091.793   110860155.493       -2728.658          36.000  
E09  23700042.370   124544582.409       -2297.428          46.000    23700048.758    95430230.268       -1760.365          55.000  
E34  24680998.681   129699546.031        1247.893          46.000    24681006.566    99380152.447         956.117          49.000  
E05  22066996.448   115962800.291         334.537          48.000    22067002.607    88854631.785         256.280          52.000  
G17  21594074.058   113477583.041       -1123.036          46.000    21594076.045    88424093.266        -875.271          45.000  
E18  28281695.106   148621241.893       -1776.718          44.000                                                                  
> 2024 04 16 13 20 00.4990000  0 25                     
G31  22666244.224   119111975.580       -1059.558          44.000    22666245.120    92814504.795        -825.676          41.000  
G02  20424755.559   107332797.326       -3079.999          48.000                                                                  
G19  23316712.518   122530205.706         499.455          39.000                                                                  
G03  20544727.691   107963273.648        -716.669          49.000    20544728.724    84127179.709        -558.368          45.000  
G04  19922481.972   104693306.488         103.399          48.000    19922481.450    81579176.584          80.596          49.000  
R23  22531768.106   120529741.767       -5204.725          46.000                                                                  
R24  19080432.216   102031447.340       -2417.075          51.000    19080433.607    79357890.553       -1879.933          49.000  
R02  19853901.117   105943924.304           0.121          52.000    19853904.475    82400905.896           0.103          51.000  
G21  20872426.439   109685254.847       -3989.690          49.000                                                                  
S33  39406163.905   207080751.006        -880.464          42.000  
S31  38454084.299   202077580.446        -880.914          45.000  
E36  23003469.125   120884012.228       -1157.548          48.000    23003475.292    92625468.359        -886.872          52.000  
G09  22475206.940   118107992.389        1967.520          33.000    22475210.087    92032246.338        1533.132          38.000  
E11  24646574.788   129518530.896       -3214.254          43.000    24646579.364    99241500.316       -2462.987          45.000  
R01  19977702.283   106792394.550       -2883.103          49.000    19977703.301    83060590.202       -2242.654          44.000  
R17  20248107.134   108351628.898        1833.282          51.000    20248107.717    84273480.310        1425.822          50.000  
R11  23442904.592   125271806.252        1584.485          45.000    23442914.183    97433678.898        1232.227          43.000  
G28  23852257.515   125344442.903       -2819.252          44.000    23852263.838    97670954.754       -2196.956          42.000  
E04  27552408.555   144788755.137       -3561.540          34.000    27552421.707   110942016.201       -2729.085          34.000  
E09  23713181.285   124613628.809       -2305.906          46.000    23713187.716    95483135.911       -1766.849          55.000  
E34  24673891.046   129662195.712        1242.055          46.000    24673898.847    99351533.402         951.712          49.000  
E05  22065118.744   115952927.053         323.565          48.000    22065123.895    88847066.585         247.945          53.000  
G17  21600546.847   113511596.109       -1144.423          47.000    21600548.355    88450596.915        -891.755          45.000  
E18  28291837.851   148674540.347       -1776.520          44.000                                                                  
R03                                                                  23419595.054                3       1920.543          12.000  
> 2024 04 16 13 20 30.4990000  0 24                     
G31  22672342.283   119144013.629       -1076.639          44.000    22672341.542    92839469.451        -838.962          41.000  
G02  20442386.803   107425447.580       -3096.863          47.000                                                                  
G19  23313906.736   122515457.271         483.256          41.000                                                                  
G03  20548832.233   107984844.244        -721.582          49.000    20548833.747    84143987.952        -562.360          45.000  
G04  19921938.486   104690451.999          86.743          48.000    19921937.947    81576952.304          67.590          48.000  
R23  22560978.276   120685994.428       -5212.338          46.000                                                                  
R24  19094063.301   102104331.493       -2442.175          52.000    19094062.992    79414578.185       -1899.479          49.000  
R02  19853939.370   105944128.343         -14.109          53.000    19853940.991    82401064.599         -10.988          50.000  
G21  20895244.452   109805163.218       -4004.513          49.000                                                                  
S33  39411189.551   207107159.755        -880.279          42.000  
S31  38459112.174   202104003.080        -880.939          44.000  
E36  23010109.287   120918903.850       -1168.933          48.000    23010115.281    92652203.460        -895.687          53.000  
G09  22464002.795   118049112.074        1957.852          34.000    22464005.384    91986365.664        1525.433          37.000  
E11  24664944.476   129615068.246       -3221.706          43.000    24664950.418    99315470.325       -2468.506          45.000  
R01  19993902.809   106878994.102       -2890.316          49.000    19993903.333    83127945.330       -2248.080          43.000  
R17  20237883.089   108296916.032        1814.099          51.000    20237882.816    84230925.917        1410.900          50.000  
R11  23434041.985   125224441.908        1573.004          45.000    23434050.664    97396840.112        1223.425          42.000  
G28  23868395.163   125429245.836       -2834.626          44.000    23868401.697    97737034.821       -2209.011          43.000  
E04  27572740.749   144895594.449       -3561.624          34.000    27572753.869   111023879.789       -2729.244          35.000  
E09  23726367.408   124682918.696       -2313.689          46.000    23726373.211    95536228.127       -1772.909          55.000  
E34  24666815.619   129625012.708        1236.523          47.000    24666823.009    99323042.563         947.462          49.000  
E05  22063298.948   115943367.979         313.275          48.000    22063304.971    88839742.118         240.118          53.000  
G17  21607138.481   113546235.887       -1165.229          47.000    21607140.110    88477588.879        -907.848          44.000  
E18  28301978.674   148727823.675       -1775.767          45.000                                                                  
> 2024 04 16 13 21 00.4990000  0 25                     
G31  22678536.034   119176564.417       -1093.364          44.000    22678535.700    92864833.677        -852.112          40.000  
G02  20460113.869   107518600.731       -3113.257          48.000                                                                  
G19  23311191.887   122501194.519         467.567          42.000                                                                  
G03  20552965.330   108006562.089        -726.147          49.000    20552966.334    84160910.909        -565.881          45.000  
G04  19921490.394   104688098.525          70.356          47.000    19921490.499    81575118.426          54.854          49.000  
R23  22590230.910   120842471.724       -5219.308          47.000                                                                  
R24  19107835.031   102177974.628       -2467.250          52.000    19107834.688    79471856.128       -1918.926          49.000  
R02  19854057.057   105944759.541         -27.854          52.000    19854059.590    82401555.551         -21.640          50.000  
G21  20918147.044   109925515.638       -4018.843          49.000                                                                  
S33  39416215.270   207133571.600        -880.318          42.000  
S31  38464141.229   202130429.848        -880.696          44.000  
E36  23016814.374   120954143.122       -1180.167          47.000    23016821.042    92679204.953        -904.294          53.000  
G09  22452850.419   117990518.123        1948.849          33.000    22452855.005    91940708.110        1518.239          38.000  
E11  24683358.085   129711830.462       -3228.988          43.000    24683364.065    99389612.612       -2474.053          45.000  
R01  20010142.451   106965805.689       -2897.033          50.000    20010143.445    83195465.391       -2253.234          44.000  
R17  20227766.854   108242783.376        1794.996          51.000    20227766.451    84188822.795        1396.125          50.000  
R11  23425242.803   125177427.726        1561.658          43.000    23425251.917    97360273.612        1214.587          42.000  
G28  23884621.445   125514513.669       -2849.948          44.000    23884626.681    97803477.121       -2220.424          43.000  
E04  27593072.943   145002432.937       -3561.052          34.000    27593084.598   111105742.750       -2728.572          34.000  
E09  23739597.678   124752447.231       -2321.390          46.000    23739604.153    95589503.181       -1778.727          55.000  
E34  24659771.844   129587995.260        1231.423          47.000    24659778.610    99294678.576         943.479          48.000  
E05  22061538.715   115934119.631         303.301          47.000    22061544.853    88832655.727         232.421          53.000  
G17  21613848.511   113581498.007       -1185.584          47.000    21613849.787    88505065.818        -923.664          44.000  
E18  28312114.676   148781087.972       -1774.920          45.000                                                                  
R18                                                                  22819785.736                3       2478.315          12.000  
> 2024 04 16 13 21 30.4990000  0 25                     
G31  22684824.282   119209617.591       -1110.396          42.000    22684824.438    92890589.359        -865.092          39.000  
G02  20477933.019   107612244.408       -3129.755          47.000                                                                  
G19  23308568.053   122487407.685         451.420          43.000                                                                  
G03  20557123.518   108028416.502        -731.049          48.000    20557125.056    84177940.305        -569.586          45.000  
G04  19921135.888   104686235.041          53.836          48.000    19921136.365    81573666.373          41.878          49.000  
R23  22619521.844   120999159.024       -5226.512          46.000                                                                  
R24  19121746.712   102252364.123       -2492.191          52.000    19121745.988    79529714.557       -1938.413          49.000  
R02  19854252.857   105945805.821         -41.997          52.000    19854255.424    82402369.349         -32.714          50.000  
R03  23384276.105                3       2279.063          15.000                                                                  
G21  20941131.459   110046298.609       -4033.414          49.000                                                                  
S33  39421240.450   207159978.773        -880.105          42.000  
S31  38469168.864   202156849.827        -880.804          45.000  
E36  23023584.336   120989719.819       -1191.613          47.000    23023590.844    92706464.998        -913.057          53.000  
G09  22441751.295   117932200.984        1939.513          36.000    22441759.936    91895266.263        1510.961          41.000  
E11  24701812.154   129808805.984       -3236.274          44.000    24701818.421    99463918.349       -2479.733          46.000  
R01  20026419.266   107052815.943       -2903.805          50.000    20026420.813    83263139.937       -2258.243          44.000  
R17  20217757.812   108189223.878        1775.566          51.000    20217758.079    84147165.468        1381.060          51.000  
R11  23416508.804   125130757.304        1549.878          45.000    23416517.335    97323974.447        1205.255          41.000  
G28  23900933.141   125600233.745       -2864.917          43.000    23900939.325    97870271.852       -2232.539          43.000  
E04  27613400.253   145109258.623       -3560.874          33.000    27613413.054   111187595.844       -2728.357          33.000  
E09  23752871.172   124822202.068       -2329.170          46.000    23752878.331    95642951.634       -1784.615          55.000  
E34  24652757.364   129551134.181        1225.954          48.000    24652764.315    99266434.391         939.391          49.000  
E05  22059835.318   115925171.088         293.225          47.000    22059841.868    88825799.067         224.609          52.000  
G17  21620674.519   113617370.706       -1206.084          46.000    21620676.374    88533018.481        -939.857          44.000  
E18  28322243.957   148834321.817       -1774.030          45.000                                                                  
> 2024 04 16 13 22 00.4990000  0 25                     
G31  22691209.528   119243177.211       -1127.404          43.000    22691211.402    92916739.665        -878.526          40.000  
G02  20495846.730   107706381.050       -3146.393          47.000                                                                  
G19  23306036.535   122474101.759         435.228          42.000                                                                  
G03  20561309.475   108050411.636        -735.889          49.000    20561310.399    84195079.339        -573.401          44.000  
G04  19920875.469   104684865.335          37.205          49.000    19920875.952    81572599.081          28.901          49.000  
R23  22648852.565   121156056.951       -5233.634          46.000                                                                  
R24  19135797.492   102327502.213       -2517.384          52.000    19135797.029    79588155.226       -1957.938          49.000  
R02  19854527.657   105947269.738         -56.022          52.000    19854529.955    82403507.977         -43.508          50.000  
G21  20964198.086   110167514.147       -4048.020          49.000                                                                  
S33  39426264.852   207186381.107        -880.213          42.000  
S31  38474195.793   202183267.566        -880.890          45.000  
E36  23030420.746   121025638.554       -1203.296          48.000    23030426.161    92733987.113        -921.943          53.000  
G09  22430708.787   117874165.813        1929.654          39.000    22430716.817    91850044.101        1503.677          42.000  
E11  24720306.825   129905997.916       -3243.697          43.000    24720313.301    99538389.904       -2485.375          46.000  
R01  20042733.650   107140026.582       -2910.661          48.000    20042735.346    83330970.320       -2263.814          44.000  
R17  20207858.683   108136245.374        1755.930          52.000    20207858.012    84105960.036        1365.819          51.000  
R11  23407841.387   125084438.528        1537.793          44.000    23407849.382    97287948.865        1196.014          41.000  
G28  23917331.461   125686408.233       -2880.435          44.000    23917337.953    97937420.664       -2244.375          43.000  
E04  27633726.711   145216074.253       -3560.110          32.000    27633739.418   111269441.298       -2728.333          31.000  
E09  23766189.388   124892185.665       -2336.886          46.000    23766195.978    95696575.375       -1790.566          55.000  
E34  24645773.385   129514434.989        1220.353          47.000    24645780.484    99238314.278         935.109          48.000  
E05  22058190.117   115916526.242         282.858          47.000    22058196.666    88819175.104         216.724          52.000  
G17  21627618.034   113653857.249       -1226.726          47.000    21627619.006    88561449.481        -956.091          43.000  
E18  28332368.754   148887528.594       -1773.392          44.000                                                                  
E03                                                                  27375433.054                3       1321.914          26.000  
> 2024 04 16 13 22 30.4990000  0 25                     
G31  22697694.484   119277251.967       -1144.518          43.000    22697696.987    92943291.415        -891.484          40.000  
G02  20513854.699   107801017.628       -3162.653          46.000                                                                  
G19  23303597.421   122461286.126         419.331          41.000                                                                  
G03  20565523.959   108072555.998        -740.454          49.000    20565523.994    84212334.669        -576.843          44.000  
G04  19920710.766   104683997.590          20.712          48.000    19920710.040    81571922.927          16.142          49.000  
R23  22678223.439   121313170.283       -5240.450          46.000                                                                  
R24  19149989.709   102403396.163       -2542.168          52.000    19149989.705    79647183.778       -1977.271          49.000  
R02  19854881.574   105949158.872         -69.913          52.000    19854884.189    82404977.306         -54.392          50.000  
G21  20987347.982   110289168.134       -4062.161          49.000                                                                  
S33  39431290.272   207212791.063        -880.094          42.000  
S31  38479224.448   202209691.457        -880.594          44.000  
E36  23037322.555   121061908.297       -1214.654          48.000    23037328.265    92761778.196        -930.756          53.000  
G09  22419722.265   117816422.033        1920.138          41.000    22419728.023    91805048.975        1496.252          41.000  
E11  24738844.037   130003413.999       -3250.839          43.000    24738850.971    99613033.218       -2490.956          46.000  
R01  20059086.966   107227443.500       -2917.215          49.000    20059088.696    83398961.199       -2268.911          44.000  
R17  20198069.117   108083860.275        1736.468          52.000    20198068.910    84065216.172        1350.585          51.000  
R11  23399240.325   125038483.751        1525.903          41.000    23399250.457    97252206.411        1186.780          41.000  
G28  23933818.677   125773043.763       -2895.332          44.000    23933823.652    98004928.712       -2256.038          43.000  
E04  27654051.729                       -3560.008          29.000    27654065.805   111351284.553       -2727.829          29.000  
E09  23779552.208   124962404.924       -2344.470          46.000    23779558.298    95750379.677       -1796.319          55.000  
E34  24638822.119   129477907.712        1214.962          47.000    24638829.512    99210325.887         930.848          49.000  
E05  22056604.202   115908193.380         272.817          47.000    22056610.759    88812790.178         209.152          52.000  
G17  21634679.543   113690964.606       -1246.866          47.000    21634680.441    88590364.261        -971.649          43.000  
E18  28342489.722   148940716.115       -1772.323          44.000                                                                  
E03                                                                  27365605.512                        1317.394          26.000  
> 2024 04 16 13 23 00.4990000  0 26                     
G31  22704273.752   119311828.359       -1160.953          43.000    22704276.722    92970234.067        -904.698          39.000  
G02  20531956.695   107896138.783       -3178.906          47.000                                                                  
G19  23301249.137   122448947.922         403.086          41.000                                                                  
G03  20569763.749   108094836.071        -745.081          49.000    20569763.925    84229695.755        -580.530          44.000  
G04  19920638.005   104683617.841           4.323          47.000    19920636.997    81571627.031           3.472          48.000  
R23  22707630.942   121470481.503       -5247.167          46.000                                                                  
R24  19164320.679   102480030.291       -2567.023          51.000    19164320.232    79706788.047       -1996.488          49.000  
R02  19855311.940   105951458.010         -83.676          53.000    19855315.030    82406765.515         -65.047          50.000  
R03  23351355.077                3       2227.128          12.000                                                                  
G21  21010578.233   110411244.543       -4076.432          48.000                                                                  
S33  39436314.510   207239192.845        -880.163          42.000  
S31  38484251.136   202236107.360        -880.746          44.000  
E36  23044288.546   121098515.940       -1226.040          48.000    23044294.530    92789828.167        -939.387          53.000  
G09  22408787.127   117758957.044        1910.598          40.000    22408792.913    91760271.093        1488.694          42.000  
E11  24757422.056   130101039.726       -3258.167          43.000    24757429.013    99687837.131       -2496.389          46.000  
R01  20075476.021   107315050.791       -2923.538          50.000    20075477.811    83467100.130       -2273.924          44.000  
R17  20188387.894   108032058.555        1716.734          51.000    20188388.874    84024926.001        1335.301          51.000  
R11  23390707.026   124992883.593        1513.879          43.000    23390717.548    97216739.671        1177.527          40.000  
G28  23950389.442   125860124.747       -2910.298          44.000    23950394.703    98072783.848       -2267.721          42.000  
E04  27674373.548                       -3559.625          30.000    27674387.782                       -2727.071          28.000  
E09  23792956.180   125032844.598       -2351.691          46.000    23792962.289    95804352.891       -1801.981          55.000  
E34  24631901.509   129441540.254        1209.353          47.000    24631909.159    99182459.950         926.644          49.000  
E05  22055075.308   115900158.642         262.660          47.000    22055081.869    88806633.680         201.321          52.000  
G17  21641855.971   113728677.205       -1267.424          46.000    21641857.301    88619750.629        -987.492          44.000  
E18  28352604.117   148993870.091       -1771.339          44.000                                                                  
E03                                                                  27355798.704                1       1314.220          26.000  
> 2024 04 16 13 23 30.4990000  0 25                     
G31  22710950.382   119346912.881       -1178.359          44.000    22710952.198    92997572.597        -918.087          39.000  
G02  20550151.066   107991749.219       -3195.490          48.000                                                                  
G19  23298993.597   122437094.748         386.522          41.000                                                                  
G03  20574030.556   108117258.237        -750.122          49.000    20574031.078    84247167.539        -584.399          45.000  
G04  19920658.589   104683732.116         -12.384          47.000    19920658.734    81571716.070          -9.645          48.000  
R23  22737076.608   121627993.384       -5254.027          47.000                                                                  
R24  19178789.754   102557409.254       -2592.088          51.000    19178790.564    79766971.598       -2016.087          49.000  
R02  19855820.850   105954171.972         -97.694          53.000    19855824.111    82408876.385         -75.970          50.000  
G21  21033889.862   110533747.195       -4090.959          49.000                                                                  
S33  39441338.495   207265592.696        -880.079          42.000  
S31  38489277.715   202262521.662        -880.813          44.000  
E36  23051320.454   121135468.367       -1237.822          48.000    23051326.103    92818142.328        -948.444          53.000  
G09  22397905.326   117701778.113        1900.894          40.000    22397911.543    91715716.123        1481.114          39.000  
E11  24776040.998   130198880.529       -3265.197          43.000    24776047.106    99762805.880       -2501.871          45.000  
R01  20091900.529   107402851.931       -2930.298          49.000    20091902.055    83535389.817       -2278.972          43.000  
R17  20178818.931   107980850.111        1696.655          52.000    20178819.441    83985097.266        1319.567          50.000  
R11  23382242.853   124947648.342        1501.404          42.000    23382251.260    97181556.732        1167.650          35.000  
G28  23967045.866   125947655.661       -2925.487          44.000    23967052.290    98140989.606       -2279.650          44.000  
E04  27694693.881                       -3559.180          30.000    27694709.245                       -2727.815          27.000  
E03  27346009.421                1       1710.681          28.000    27346021.322                        1310.958          29.000  
E09  23806402.612   125103509.473       -2359.532          46.000    23806409.010    95858498.660       -1808.016          54.000  
E34  24625013.213   129405340.454        1203.585          46.000    24625020.157    99154722.485         922.204          49.000  
E05  22053604.516   115892428.155         252.340          47.000    22053610.665    88800710.322         193.236          52.000  
G17  21649149.088   113767001.590       -1288.036          46.000    21649150.063    88649613.734       -1003.569          43.000  
E18  28362714.080   149046996.186       -1770.664          44.000                                                                  
> 2024 04 16 13 24 00.4990000  0 25                     
G31  22717727.336   119382522.915       -1195.808          45.000    22717728.748    93025320.635        -931.471          39.000  
G02  20568442.004   108087864.868       -3212.305          48.000                                                                  
G19  23296832.680   122425744.496         369.926          41.000                                                                  
G03  20578327.470   108139840.071        -755.536          50.000    20578328.171    84264763.769        -588.654          45.000  
G04  19920778.343   104684357.502         -29.448          47.000    19920778.268    81572203.387         -22.954          49.000  
R23  22766561.695   121785719.782       -5261.302          45.000                                                                  
R24  19193403.387   102635549.189       -2617.363          52.000    19193403.909    79827747.046       -2035.757          49.000  
R02  19856410.279   105957317.255        -112.102          53.000    19856413.246    82411322.718         -87.193          50.000  
G21  21057285.525   110656690.897       -4105.577          49.000                                                                  
S33  39446365.216   207292008.612        -880.725          42.000  
S31  38494307.137   202288951.414        -881.259          44.000  
E36  23058421.449   121172783.479       -1249.956          48.000    23058426.823    92846734.394        -957.648          53.000  
G09  22387082.048   117644903.800        1891.005          40.000    22387087.973    91671398.512        1473.323          39.000  
E11  24794704.070   130296953.003       -3273.007          43.000    24794709.873    99837952.140       -2507.888          46.000  
R01  20108365.491   107490862.484       -2937.252          49.000    20108366.119    83603842.374       -2284.628          43.000  
R17  20169364.443   107930256.727        1675.998          53.000    20169364.439    83945746.895        1303.562          51.000  
R11  23373850.238   124902799.602        1488.260          41.000    23373856.133    97146674.418        1157.524          34.000  
G28  23983791.396   126035651.942       -2941.183          43.000    23983797.107    98209557.938       -2291.750          44.000  
E04  27715019.154                       -3559.328          30.000    27715029.489                       -2727.396          28.000  
E09  23819895.681   125174415.386       -2367.452          46.000    23819902.038    95912829.107       -1814.089          54.000  
E34  24618159.977   129369327.288        1197.252          47.000    24618167.264    99127128.026         917.376          49.000  
E05  22052194.950   115885019.150         241.560          48.000    22052200.845    88795033.298         185.098          52.000  
G17  21656561.433   113805953.694       -1309.026          46.000    21656563.224    88679965.956       -1019.774          45.000  
E18  28372822.221   149100111.171       -1770.387          44.000                                                                  
E03                                                                  27336268.961   110071809.7231       1307.283          33.000  
> 2024 04 16 13 24 30.4990000  0 25                     
G31  22724601.820   119418648.540       -1212.790          45.000    22724603.470    93053470.460        -945.261          39.000  
G02  20586825.888   108184473.797       -3228.412          48.000                                                                  
G19  23294766.632   122414888.201         353.521          41.000                                                                  
G03  20582652.656   108162571.689        -760.309          49.000    20582654.080    84282476.705        -592.426          45.000  
G04  19920991.768   104685483.545         -45.856          46.000    19920993.308    81573080.862         -35.755          49.000  
R23  22796084.895   121943647.099       -5267.430          45.000                                                                  
R24  19208157.137   102714437.739       -2642.093          52.000    19208156.825    79889104.741       -2055.049          50.000  
R02  19857079.026   105960882.310        -125.764          53.000    19857080.978    82414095.568         -97.797          49.000  
G21  21080762.815   110780063.274       -4119.543          49.000                                                                  
S33  39451393.113   207318430.888        -880.476          42.000  
S31  38499337.590   202315386.911        -881.360          44.000  
E36  23065589.735   121210451.758       -1261.534          48.000    23065594.770    92875597.063        -966.617          53.000  
G09  22376316.028   117588324.976        1880.883          41.000    22376321.427    91627311.211        1465.632          40.000  
E11  24813408.154   130395246.272       -3280.180          42.000    24813414.773    99913267.549       -2513.261          46.000  
R01  20124866.852   107579069.692       -2943.525          50.000    20124868.023    83672447.894       -2289.467          45.000  
R17  20160023.385   107880271.484        1656.018          53.000    20160023.051    83906869.534        1287.981          50.000  
R11  23365529.100   124858331.634        1475.632          43.000    23365535.854    97112088.403        1148.012          39.000  
G28  24000622.837   126124101.663       -2955.760          43.000    24000628.702    98278479.626       -2303.212          44.000  
E04  27735337.679                       -3559.389          28.000    27735350.119                       -2726.926          28.000  
E03  27326522.604                        1701.682          29.000    27326542.742   110032644.986        1303.335          34.000  
E09  23833432.348   125245550.731       -2375.116          46.000    23833438.691    95967335.357       -1819.749          54.000  
E34  24611340.870   129333492.305        1191.528          47.000    24611348.104    99099670.096         913.010          50.000  
E05  22050844.752   115877921.375         231.349          48.000    22050849.939    88789594.746         177.303          51.000  
G17  21664091.330   113845521.334       -1329.050          47.000    21664092.797    88710797.846       -1035.733          45.000  
E18  28382924.685   149153204.325       -1769.236          44.000                                                                  
> 2024 04 16 13 25 00.4990000  0 26                     
G31  22731572.423   119455277.371       -1229.012          47.000    22731573.010    93082012.421        -957.552          38.000  
G02  20605300.988   108281561.906       -3243.848          48.000                                                                  
G19  23292792.351   122404514.423         338.122          42.000                                                                  
G03  20587003.381   108185440.705        -764.301          47.000    20587005.987    84300296.688        -595.465          45.000  
G04  19921299.217   104687097.523         -61.486          47.000    19921300.496    81574338.510         -47.988          49.000  
R23  22825643.782   122101758.952       -5273.079          46.000                                                                  
R24  19223047.394   102794060.848       -2665.909          53.000    19223046.957    79951033.750       -2073.504          50.000  
R02  19857822.147   105964853.155        -138.770          52.000    19857825.163    82417184.025        -107.923          49.000  
G21  21104318.747   110903849.271       -4132.662          50.000                                                                  
S33  39456419.777   207344843.739        -880.226          42.000  
S31  38504366.862   202341815.775        -880.452          44.000  
E36  23072822.224   121248461.243       -1272.370          48.000    23072827.736    92904721.173        -974.969          52.000  
G09  22365603.208   117532030.279        1871.637          40.000    22365609.015    91583445.275        1459.124          40.000  
E11  24832151.402   130493746.974       -3286.297          41.000    24832158.980    99988741.928       -2518.169          46.000  
R01  20141400.721   107667458.484       -2949.025          49.000    20141403.320    83741194.632       -2293.536          45.000  
R17  20150793.917   107830885.607        1636.498          52.000    20150794.672    83868458.362        1272.727          50.000  
R11  23357276.065   124814235.534        1463.865          43.000    23357284.111    97077791.435        1138.814          37.000  
G28  24017538.448   126212990.448       -2970.033          43.000    24017543.058    98347743.439       -2314.121          42.000  
E03  27316820.738                1       1697.458          28.000    27316839.974   109993575.840        1300.924          35.000  
E09  23847010.003   125316901.492       -2381.473          46.000    23847016.545    96022006.682       -1824.894          54.000  
E34  24604553.800   129297824.610        1186.404          47.000    24604560.653    99072340.351         909.095          50.000  
E05  22049550.956   115871122.138         222.034          48.000    22049555.545    88784384.944         170.104          50.000  
G17  21671735.137   113885691.495       -1348.575          46.000    21671737.300    88742099.224       -1051.171          45.000  
E18  28393022.370   149206262.622       -1767.780          44.000                                                                  
E04                                                                  27755663.916                       -2725.661          26.000  
R03                                                                  23306853.351                3       1772.565          13.000  
> 2024 04 16 13 25 30.4990000  0 25                     
G31  22738636.699   119492396.033       -1245.338          47.000    22738636.160    93110936.052        -970.271          39.000  
G02  20623864.622   108379114.239       -3259.369          48.000                                                                  
G19  23290908.668   122394610.415         322.307          43.000                                                                  
G03  20591379.233   108208434.041        -768.384          47.000    20591381.123    84318213.539        -598.779          45.000  
G04  19921697.878   104689185.752         -77.412          48.000    19921697.433    81575965.712         -60.397          49.000  
R23  22855232.662   122260038.270       -5278.809          46.000                                                                  
R24  19238071.685   102874402.738       -2689.921          52.000    19238071.065    80013521.801       -2092.213          50.000  
R02  19858639.891   105969214.928        -151.858          52.000    19858643.084    82420576.523        -118.017          50.000  
G21  21127950.911   111028033.633       -4146.038          50.000                                                                  
S33  39461442.357   207371237.655        -879.256          42.000  
S31  38509392.039   202368223.155        -879.836          44.000  
E36  23080117.201   121286799.194       -1283.213          47.000    23080123.166    92934096.970        -983.392          52.000  
G09  22354942.092   117476007.441        1862.880          40.000    22354946.345    91539791.205        1451.539          39.000  
E11  24850933.264   130592441.099       -3292.671          41.000    24850939.811   100064364.470       -2522.981          46.000  
R01  20157967.032   107756013.151       -2954.462          50.000    20157969.611    83810070.384       -2297.920          44.000  
R17  20141674.046   107782089.032        1616.815          51.000    20141675.570    83830505.510        1257.494          50.000  
R11  23349093.439   124770501.890        1451.757          43.000    23349102.484    97043776.460        1129.200          39.000  
G28  24034534.318   126302303.050       -2984.064          42.000    24034538.692    98417337.477       -2325.018          42.000  
E03  27307146.131                        1693.763          29.000    27307158.877   109954592.733        1298.294          38.000  
E09  23860626.306   125388452.887       -2388.205          46.000    23860632.334    96076831.710       -1829.940          54.000  
E34  24597796.410   129262312.495        1181.188          47.000    24597802.847    99045129.817         905.050          50.000  
E05  22048311.434   115864607.999         212.468          48.000    22048315.684    88779393.586         162.787          50.000  
G17  21679491.323   113926449.352       -1368.174          46.000    21679493.270    88773858.522       -1066.112          45.000  
E18  28403108.843   149259272.100       -1766.166          44.000                                                                  
E04                                                                  27775972.899                       -2725.121          26.000  
> 2024 04 16 13 26 00.4990000  0 25                     
G31  22745791.242   119529997.158       -1261.410          46.000    22745792.219    93140235.606        -983.107          40.000  
G02  20642513.804   108477121.574       -3274.463          47.000                                                                  
G19  23289112.610   122385169.484         306.963          44.000                                                                  
G03  20595777.070   108231544.318        -772.321          48.000    20595778.906    84336221.515        -601.660          45.000  
G04  19922183.979   104691740.354         -92.948          47.000    19922183.078    81577956.325         -72.596          48.000  
R23  22884850.509   122418473.560       -5283.686          45.000                                                                  
R24  19253227.502   102955454.326       -2713.571          52.000    19253227.893    80076561.853       -2110.701          49.000  
R02  19859528.796   105973958.599        -164.425          52.000    19859531.864    82424266.030        -127.889          49.000  
G21  21151655.559   111152605.912       -4158.884          49.000                                                                  
S33  39466459.472   207397604.869        -878.530          42.000  
S31  38514412.162   202394603.611        -879.076          44.000  
E36  23087473.370   121325458.671       -1294.054          47.000    23087479.611    92963719.121        -991.563          52.000  
G09  22344332.121   117420249.980        1853.944          40.000    22344334.705    91496343.875        1444.317          38.000  
E11  24869749.616   130691320.170       -3298.923          42.000    24869755.998   100140128.761       -2527.788          46.000  
R01  20174562.738   107844723.567       -2959.553          50.000    20174564.354    83879067.278       -2301.837          44.000  
R17  20132664.685   107733877.940        1597.202          51.000    20132665.986    83793008.041        1242.198          49.000  
R11  23340975.734   124727126.995        1439.818          42.000    23340983.959    97010040.557        1119.835          39.000  
G28  24051608.515   126392030.017       -2997.869          41.000    24051613.220    98487254.409       -2336.047          42.000  
E03  27297487.519                        1691.070          30.000    27297496.779   109915690.520        1295.132          38.000  
E09  23874278.051   125460195.860       -2394.660          46.000    23874284.577    96131803.524       -1834.835          54.000  
E34  24591067.072   129226950.076        1176.159          47.000    24591073.584    99018033.980         901.233          50.000  
E05  22047123.575   115858371.214         203.331          47.000    22047128.879    88774614.761         155.768          50.000  
G17  21687357.052   113967785.895       -1387.583          45.000    21687358.801    88806068.771       -1081.302          45.000  
E18  28413185.959   149312224.664       -1764.005          44.000                                                                  
E04                                                                  27796272.676                       -2724.501          27.000  
> 2024 04 16 13 26 30.4990000  0 25                     
G31  22753037.119   119568076.801       -1277.389          47.000    22753038.362    93169908.007        -995.357          39.000  
G02  20661249.461   108575578.471       -3289.374          47.000                                                                  
G19  23287403.514   122376188.579         291.611          44.000                                                                  
G03  20600196.300   108254767.757        -775.958          48.000    20600198.652    84354317.697        -604.755          45.000  
G04  19922757.062   104694756.850        -108.225          47.000    19922757.351    81580306.864         -84.466          49.000  
R23  22914496.240   122577057.251       -5288.671          44.000                                                                  
R24  19268516.375   103037209.210       -2736.834          52.000    19268516.289    80140148.912       -2128.717          49.000  
R02  19860488.432   105979078.819        -176.852          52.000    19860491.531    82428248.417        -137.574          49.000  
G21  21175433.272   111277559.454       -4171.487          49.000                                                                  
S33  39471470.969   207423938.594        -877.313          42.000  
S31  38519426.037   202420952.178        -877.654          44.000  
E36  23094890.669   121364436.089       -1304.581          47.000    23094896.699    92993584.880        -999.642          52.000  
G09  22333770.828   117364754.760        1845.652          40.000    22333774.380    91453100.950        1438.005          39.000  
E11  24888600.477   130790379.346       -3304.858          43.000    24888606.941   100216031.060       -2532.288          47.000  
R01  20191185.865   107933583.410       -2964.460          49.000    20191187.399    83948180.401       -2305.782          45.000  
R17  20123765.163   107686251.798        1577.720          51.000    20123765.813    83755965.510        1227.103          50.000  
R11  23332924.017   124684110.837        1427.898          38.000    23332933.445    96976583.712        1110.564          40.000  
G28  24068760.535   126482165.362       -3011.211          39.000    24068766.533    98557489.556       -2346.857          44.000  
E03  27287838.624                        1687.284          30.000    27287854.393   109876866.497        1292.969          38.000  
E09  23887965.801   125532124.777       -2400.479          45.000    23887972.245    96186917.812       -1839.495          54.000  
E34  24584365.457   129191734.872        1171.367          47.000    24584372.477    98991050.951         897.542          50.000  
E05  22045988.297   115852407.535         194.173          47.000    22045994.175    88770045.213         148.807          50.000  
G17  21695331.554   114009695.894       -1406.596          46.000    21695333.955    88838725.855       -1096.047          44.000  
E18  28423251.300   149365115.659       -1761.997          45.000                                                                  
E04                                                                  27816563.382                       -2723.064          30.000  
> 2024 04 16 13 27 00.4990000  0 25                     
G31  22760374.916   119606634.784       -1293.246          46.000    22760376.374    93199953.172       -1007.759          40.000  
G02  20680070.552   108674482.956       -3304.315          47.000                                                                  
G19  23285782.010   122367668.473         276.323          43.000                                                                  
G03  20604637.781   108278104.464        -779.919          49.000    20604639.476    84372502.123        -607.623          45.000  
G04  19923418.960   104698234.860        -123.555          47.000    19923418.907    81583017.023         -96.303          49.000  
R23  22944168.754   122735785.572       -5293.400          43.000                                                                  
R24  19283936.385   103119665.696       -2760.242          51.000    19283936.286    80204281.667       -2146.926          49.000  
R02  19861518.200   105984574.067        -189.480          51.000    19861521.579    82432522.535        -147.452          50.000  
G21  21199282.758   111402892.045       -4184.021          48.000                                                                  
S33  39476476.143   207450240.686        -876.076          42.000  
S31  38524433.774   202447267.899        -876.768          44.000  
E36  23102369.263   121403731.931       -1315.033          48.000    23102374.802    93023694.638       -1007.672          52.000  
G09  22323260.399   117309522.908        1836.451          41.000    22323264.736    91410063.274        1431.117          39.000  
E11  24907484.431   130889617.785       -3310.806          42.000    24907492.245   100292070.729       -2536.913          47.000  
R01  20207836.012   108022590.181       -2969.424          50.000    20207838.190    84017407.830       -2309.449          44.000  
R17  20114975.800   107639214.247        1558.098          52.000    20114975.373    83719380.771        1211.729          50.000  
R11  23324942.103   124641457.234        1415.819          38.000    23324950.560    96943408.913        1100.703          40.000  
G28  24085990.634   126572707.053       -3024.465          35.000    24085996.568    98628041.340       -2357.168          44.000  
E03  27278219.205                        1684.222          30.000    27278232.506   109838121.306        1290.183          40.000  
E09  23901688.811   125604238.131       -2406.777          46.000    23901694.919    96242173.436       -1844.163          54.000  
E34  24577692.459   129156668.475        1166.480          47.000    24577699.660    98964181.923         893.700          51.000  
E05  22044905.133   115846716.720         185.061          47.000    22044911.283    88765684.724         141.895          50.000  
G17  21703416.068   114052178.074       -1425.552          45.000    21703418.338    88871828.777       -1110.741          45.000  
E18  28433304.436   149417944.422       -1759.844          45.000                                                                  
E04                                                                  27836845.266   112087244.476       -2721.306          32.000  
> 2024 04 16 13 27 30.4990000  0 25                     
G31  22767803.649   119645674.331       -1309.230          46.000    22767805.056    93230373.570       -1020.190          41.000  
G02  20698977.056   108773836.685       -3319.131          47.000                                                                  
G19  23284249.241   122359613.135         261.018          43.000                                                                  
G03  20609101.376   108301557.940        -783.600          50.000    20609102.737    84390777.572        -610.760          45.000  
G04  19924169.645   104702177.312        -139.108          48.000    19924169.945    81586089.060        -108.338          49.000  
R23  22973868.088   122894658.535       -5298.036          44.000                                                                  
R24  19299487.385   103202825.140       -2783.657          52.000    19299488.072    80268961.154       -2165.044          49.000  
R02  19862618.383   105990446.535        -201.985          51.000    19862622.104    82437090.028        -157.094          49.000  
G21  21223205.542   111528604.284       -4196.603          48.000                                                                  
S33  39481476.004   207476513.341        -875.281          42.000  
S31  38529435.864   202473555.544        -875.714          45.000  
E36  23109908.412   121443349.992       -1325.900          48.000    23109913.823    93054051.293       -1015.978          52.000  
G09  22312801.573   117254558.724        1827.714          42.000    22312804.486    91367234.215        1424.165          38.000  
E11  24926402.715   130989037.870       -3317.050          41.000    24926411.560   100368249.521       -2541.558          47.000  
R01  20224514.461   108111744.910       -2974.288          50.000    20224517.137    84086750.336       -2313.257          46.000  
R17  20106296.674   107592772.448        1538.151          52.000    20106296.780    83683259.427        1196.349          50.000  
R11  23317030.011   124599173.866        1403.134          40.000    23317038.892    96910521.984        1091.374          43.000  
G28  24103299.019   126663656.532       -3038.883          34.000    24103303.608    98698910.862       -2367.712          44.000  
E03  27268611.219                        1680.486          28.000    27268630.147   109799457.955        1287.477          39.000  
E09  23915447.495   125676537.690       -2412.980          46.000    23915453.128    96297571.759       -1848.955          54.000  
E34  24571048.843   129121755.801        1161.250          46.000    24571055.802    98937430.700         889.729          51.000  
E05  22043875.815   115841301.859         175.966          48.000    22043881.161    88761535.682         134.770          51.000  
G17  21711610.553   114095234.169       -1444.715          46.000    21711611.695    88905378.936       -1125.756          45.000  
E18  28443346.073   149470713.656       -1757.945          45.000                                                                  
E04                                                                  27857117.084   112168867.793       -2720.825          33.000  
> 2024 04 16 13 28 00.4990000  0 26                     
G31  22775323.606   119685195.668       -1325.710          43.000    22775325.894    93261169.320       -1032.867          41.000  
G02  20717968.887   108873637.632       -3334.232          47.000                                                                  
G19  23282804.869   122352022.689         245.197          43.000                                                                  
G03  20613586.245   108325128.272        -787.756          49.000    20613588.177    84409144.058        -613.959          45.000  
G04  19925008.129   104706583.568        -154.724          48.000    19925008.120    81589522.494        -120.574          49.000  
R23  23003594.783   123053672.073       -5302.819          44.000                                                                  
R24  19315169.385   103286685.297       -2807.071          51.000    19315170.806    80334185.646       -2183.294          49.000  
R02  19863789.656   105996694.205        -214.647          52.000    19863792.434    82441949.345        -166.917          49.000  
G21  21247200.269   111654693.699       -4209.307          49.000                                                                  
S33  39486469.917   207502756.796        -874.425          42.000  
S31  38534433.006   202499813.165        -874.711          45.000  
E36  23117509.455   121483290.568       -1336.799          48.000    23117514.529    93084655.055       -1024.402          52.000  
G09  22302393.294   117199863.013        1818.785          42.000    22302397.253    91324614.356        1416.807          40.000  
E11  24945356.221   131088638.623       -3323.283          41.000    24945364.798   100444566.764       -2546.397          47.000  
R01  20241220.529   108201045.273       -2979.211          50.000    20241222.352    84156206.075       -2317.040          45.000  
R17  20097729.799   107546929.604        1517.988          52.000    20097729.713    83647603.910        1180.653          50.000  
R11  23309189.332   124557264.678        1390.342          43.000    23309195.222    96877926.018        1081.728          42.000  
R03  23239394.510                3       1933.234          14.000                                                                  
G28  24120680.251   126755011.616       -3052.080          32.000    24120688.589    98770096.406       -2378.240          44.000  
E03  27259037.679   143247172.2831       1676.310          32.000    27259048.507   109760876.927        1284.806          38.000  
E09  23929240.702   125749021.760       -2419.457          46.000    23929246.569    96353111.437       -1853.812          54.000  
E34  24564434.967   129086998.318        1155.898          46.000    24564441.715    98910798.383         885.553          51.000  
E05  22042898.020   115836162.524         166.585          48.000    22042903.312    88757597.760         127.643          51.000  
G17  21719911.729   114138862.602       -1464.043          44.000    21719914.238    88939375.045       -1140.810          45.000  
E18  28453375.969   149523422.594       -1756.177          45.000                                                                  
E04                                                                  27877378.732   112250452.518       -2718.740          33.000  
> 2024 04 16 13 28 30.4990000  0 25                     
G31  22782937.053   119725206.423       -1341.444          44.000    22782939.970    93292346.531       -1045.316          42.000  
G02  20737046.793   108973892.147       -3348.685          48.000                                                                  
G19  23281450.046   122344906.660         229.662          43.000                                                                  
G03  20618095.848   108348823.736        -791.486          50.000    20618097.162    84427608.052        -616.693          45.000  
G04  19925936.638   104711461.222        -169.977          49.000    19925936.400    81593323.242        -132.490          50.000  
R23  23033348.446   123212830.968       -5307.193          43.000                                                                  
R24  19330984.002   103371252.355       -2830.153          52.000    19330984.985    80399959.927       -2201.261          49.000  
R02  19865031.847   106003324.264        -226.874          52.000    19865035.199    82447106.098        -176.440          49.000  
G21  21271267.208   111781165.590       -4221.509          49.000                                                                  
S33  39491459.923   207528979.837        -873.219          42.000  
S31  38539425.855   202526050.336        -873.662          45.000  
E36  23125171.881   121523562.244       -1347.412          47.000    23125178.006    93115512.527       -1032.518          52.000  
G09  22292037.873   117145444.637        1809.869          44.000    22292042.381    91282210.530        1410.538          40.000  
E11  24964346.425   131188427.275       -3329.028          42.000    24964353.768   100521028.014       -2550.954          46.000  
R01  20257954.316   108290497.024       -2983.685          51.000    20257956.481    84225779.581       -2320.734          46.000  
R17  20089277.644   107501697.565        1497.949          51.000    20089277.366    83612423.465        1165.044          50.000  
R11  23301417.840   124515741.099        1378.057          41.000    23301424.921    96845630.048        1072.116          44.000  
G28  24138146.032   126846778.334       -3065.389          34.000    24138151.001    98841602.725       -2388.454          44.000  
E03  27249476.394   143196936.949        1673.261          33.000    27249488.956   109722384.964        1282.191          39.000  
E09  23943070.145   125821696.885       -2425.172          45.000    23943076.456    96408797.503       -1858.233          54.000  
E34  24557852.089   129052405.686        1150.871          46.000    24557858.911    98884292.382         881.775          51.000  
E05  22041974.056   115831306.546         157.706          48.000    22041979.343    88753876.978         120.774          51.000  
G17  21728324.754   114183069.850       -1482.697          44.000    21728326.597    88973822.166       -1155.131          45.000  
E18  28463396.768   149576078.686       -1753.732          45.000                                                                  
E04                                                                  27897631.922                       -2717.332          31.000  
> 2024 04 16 13 29 00.4990000  0 25                     
G31  22790642.205   119765693.096       -1357.581          44.000    22790644.193    93323894.538       -1057.722          42.000  
G02  20756208.126   109074585.062       -3363.687          47.000                                                                  
G19  23280183.731   122338252.291         214.188          42.000                                                                  
G03  20622626.301   108372631.199        -795.416          50.000    20622627.502    84446159.297        -619.879          45.000  
G04  19926951.795   104716796.445        -185.497          48.000    19926951.234    81597480.545        -144.512          49.000  
R23  23063125.452   123372117.912       -5311.767          43.000                                                                  
R24  19346928.061   103456510.541       -2853.406          51.000    19346928.247    80466271.759       -2219.432          49.000  
R02  19866343.648   106010321.620        -239.328          52.000    19866346.462    82452548.532        -186.185          49.000  
G21  21295403.255   111908003.893       -4233.971          49.000                                                                  
S33  39496443.590   207555168.556        -872.425          42.000  
S31  38544412.198   202552253.195        -872.725          44.000  
E36  23132896.154   121564152.119       -1358.234          47.000    23132901.956    93146613.802       -1040.703          52.000  
G09  22281733.075   117091291.303        1800.519          43.000    22281737.495    91240013.236        1403.041          40.000  
E11  24983368.799   131288389.474       -3335.028          42.000    24983376.004   100597622.229       -2555.451          46.000  
R01  20274713.451   108380084.552       -2988.521          50.000    20274716.000    84295458.668       -2324.194          46.000  
R17  20080937.332   107457066.374        1477.669          51.000    20080937.523    83577710.337        1149.380          50.000  
R11  23293716.819   124474594.080        1365.474          36.000    23293724.433    96813626.948        1061.987          44.000  
G28  24155681.583   126938941.390       -3078.572          30.000    24155688.582    98913417.816       -2398.975          43.000  
E03  27239932.876   143146805.216        1669.219          32.000    27239949.274   109683972.336        1279.192          38.000  
E09  23956934.387   125894548.184       -2431.253          46.000    23956939.708    96464618.558       -1862.905          54.000  
E34  24551298.874   129017966.183        1145.390          47.000    24551305.396    98857903.709         877.715          51.000  
E05  22041101.179   115826720.346         148.426          48.000    22041106.681    88750362.881         113.723          51.000  
G17  21736844.128   114227841.382       -1501.719          44.000    21736846.348    89008709.031       -1170.217          44.000  
E18  28473404.498   149628667.974       -1751.847          45.000                                                                  
E04                                                                  27917874.042                       -2716.450          29.000  
> 2024 04 16 13 29 30.4990000  0 25                     
G31  22798435.714   119806648.998       -1373.189          45.000    22798436.748    93355808.165       -1070.023          41.000  
G02  20775451.376   109175707.771       -3377.971          48.000                                                                  
G19  23279004.651   122332053.237         198.862          43.000                                                                  
G03  20627177.127   108396544.055        -799.066          50.000    20627178.170    84464792.659        -622.723          45.000  
G04  19928053.009   104722581.926        -200.408          49.000    19928052.968    81601988.716        -156.183          50.000  
R23  23092925.573   123531522.341       -5315.614          43.000                                                                  
R24  19362999.603   103542450.915       -2876.158          52.000    19362999.687    80533114.192       -2237.105          49.000  
R02  19867722.636   106017678.053        -251.307          53.000    19867724.834    82458270.226        -195.484          49.000  
G21  21319607.997   112035199.526       -4245.858          49.000                                                                  
S33  39501419.338   207581315.513        -870.777          42.000  
S31  38549389.768   202578413.931        -871.318          42.000  
E36  23140679.347   121605053.788       -1368.759          47.000    23140685.418    93177953.988       -1048.720          52.000  
G09  22271476.829   117037397.094        1792.021          42.000    22271481.947    91198017.860        1396.461          40.000  
E11  25002422.782   131388517.618       -3340.463          42.000    25002429.556   100674343.577       -2559.697          45.000  
R01  20291496.589   108469798.470       -2992.731          50.000    20291498.600    84365236.105       -2327.618          46.000  
R17  20072707.943   107413032.551        1457.628          51.000    20072707.719    83543461.822        1133.604          49.000  
R11  23286081.528   124433820.582        1352.487          37.000    23286094.200    96781914.188        1052.352          43.000  
G28  24173293.849   127031491.753       -3091.751          36.000    24173300.776    98985534.733       -2408.860          44.000  
E03  27230416.236   143096770.833        1666.129          33.000    27230427.374   109645634.340        1276.396          37.000  
E09  23970828.355   125967567.270       -2436.916          45.000    23970834.691    96520568.175       -1867.260          54.000  
E34  24544773.431   128983674.577        1140.528          47.000    24544779.995    98831628.349         873.812          52.000  
E05  22040278.398   115822396.822         139.640          48.000    22040283.911    88747050.042         106.918          51.000  
G17  21745469.771   114273169.101       -1520.315          44.000    21745471.581    89044029.246       -1184.825          44.000  
E18  28483396.784   149681183.002       -1749.386          44.000                                                                  
E04                                                                  27938104.218   112494968.039       -2714.668          29.000  
