     3.00           OBSERVATION DATA    M: Mixed            RINEX VERSION / TYPE
CONVBIN 2.4.3                           20240416 202942 UTC PGM / RUN BY / DATE 
format: u-blox UBX                                          COMMENT             
log: /home/regis/git/gnsspwv/obsdata/VERT00CHL/2024-04-16/VECOMMENT             
{self.marker}                                               MARKER NAME         
                                                            MARKER NUMBER       
GEODETIC                                                    MARKER TYPE         
{self.observer}     {self.institution}                      OBSERVER / AGENCY   
UNKNOWN             UBLOX-ZED-F9P                           REC # / TYPE / VERS 
UNKNOWN             TWIVSP6037L                             ANT # / TYPE        
  1713381.0000 -5047934.0000 -3490983.0000                  APPROX POSITION XYZ 
        0.0000        0.0000        0.0000                  ANTENNA: DELTA H/E/N
G    8 C1C L1C D1C S1C C2L L2L D2L S2L                      SYS / # / OBS TYPES 
R    8 C1C L1C D1C S1C C2C L2C D2C S2C                      SYS / # / OBS TYPES 
E    8 C1C L1C D1C S1C C7Q L7Q D7Q S7Q                      SYS / # / OBS TYPES 
S    4 C1C L1C D1C S1C                                      SYS / # / OBS TYPES 
  2024    04    16    20    15   00.0040000     GPS         TIME OF FIRST OBS   
  2024    04    16    20    29   30.0050000     GPS         TIME OF LAST OBS    
                                                            END OF HEADER       
> 2024 04 16 20 15 00.0040000  0 24                     
G13  22204636.919   116686248.7871        961.407          48.000                                                                  
G15  24556987.743   129047840.3051       2094.510          43.000    24556990.967   100556790.2521       1631.894          38.000  
G07  25832031.771   135748275.7411      -3764.458          35.000    25832042.322   105777846.0021      -2933.960          33.000  
R05  20612616.608   110186506.3381        493.130          51.000    20612617.354    85700503.4271        383.492          49.000  
R16  22567014.097   120548981.4121       1759.641          50.000    22567021.526    93760678.5521       1368.503          45.000  
R04  21499642.217   115129735.7701      -3374.179          51.000    21499642.213    89545333.9501      -2624.361          48.000  
R14  23237105.311   123866918.6871      -4306.575          48.000    23237112.466    96341126.9021      -3349.640          49.000  
E08  25057772.429   131679628.6481        321.157          48.000    25057777.020   100897441.8551        246.127          52.000  
S31  40091354.239   210681417.3661       -813.566          44.000  
S33  41042426.885   215679309.5231       -813.878          43.000  
G20  23808559.582   125114761.0531      -3671.299          47.000                                                                  
E03  25546527.232   134247951.2391      -1957.863          46.000    25546537.095   102865361.0511      -1500.199          53.000  
R15  20650383.591   110349777.2471      -1636.214          52.000    20650384.944    85827465.5891      -1272.667          49.000  
E05  28205022.036                       -3174.207          30.000    28205048.921   113569628.4941      -2432.157          35.000  
G05  22830540.255   119975253.2751      -1692.607          49.000    22830543.665    93487267.0771      -1319.011          46.000  
E07  28583761.170                        1637.557          30.000    28583774.632                        1254.813          32.000  
G30  23266152.674   122264640.9461      -2845.878          48.000    23266155.911    95271265.1951      -2217.652          41.000  
E30  26969778.027   141727423.8621       1756.336          46.000    26969792.343   108596558.9271       1345.653          48.000  
G14  21740968.010   114249785.3411      -1954.573          47.000    21740969.185    89025971.2651      -1523.060          50.000  
E02  24582115.602   129180129.5651       -516.026          48.000    24582120.738    98982359.2351       -395.389          52.000  
G22  21625632.040   113643801.6991        280.125          46.000                                                                  
G17  24981273.020   131277621.2981       2055.591          43.000    24981284.642   102294398.8731       1601.709          40.000  
E25  26773736.161   140697166.6791      -2970.410          40.000    26773746.107   107807047.3641      -2276.269          50.000  
E18  22743492.771   119517856.3321       2632.268          42.000                                                                  
> 2024 04 16 20 15 30.0040000  0 24                     
G13  22199167.772   116657509.546         954.272          48.000                                                                  
G15  24545039.554   128985050.811        2091.874          43.000    24545042.025   100507863.518        1629.610          38.000  
G07  25853521.385   135861201.293       -3763.382          34.000    25853531.625                       -2933.161          32.000  
R05  20609909.379   110172035.223         471.590          51.000    20609910.575    85689248.150         366.829          49.000  
R16  22557174.986   120496419.989        1744.657          50.000    22557182.469    93719797.779        1356.887          46.000  
R04  21518599.941   115231250.848       -3393.516          52.000    21518601.179    89624289.978       -2639.396          50.000  
R14  23261351.698   123996159.227       -4309.594          49.000    23261356.555    96441647.176       -3351.820          47.000  
E08  25055955.741   131670081.886         315.122          48.000    25055960.310   100890126.832         241.484          52.000  
S31  40095998.256   210705825.070        -813.675          42.000  
S33  41047073.067   215703725.887        -813.726          43.000  
G20  23829539.779   125225014.690       -3678.850          46.000                                                                  
E03  25557729.508   134306811.867       -1965.973          47.000    25557737.817   102910461.998       -1506.355          53.000  
R15  20659619.435   110399128.911       -1653.757          52.000    20659620.938    85865850.226       -1286.354          49.000  
G05  22840254.829   120026307.759       -1710.943          49.000    22840259.045    93527049.713       -1333.257          46.000  
E07  28574415.427                        1638.463          28.000    28574422.774   115057360.740        1255.764          31.000  
G30  23282408.973   122350068.228       -2849.383          48.000    23282411.128    95337831.839       -2220.274          40.000  
E30  26959771.467   141674837.806        1749.331          45.000    26959785.387   108556266.040        1340.458          48.000  
G14  21752176.509   114308683.958       -1972.097          49.000    21752177.192    89071866.301       -1536.696          50.000  
E02  24585097.456   129195801.855        -528.838          47.000    24585102.963    98994367.919        -405.259          52.000  
G22  21624086.523   113635679.493         261.321          46.000                                                                  
G17  24969548.676   131216011.148        2051.862          43.000    24969560.156   102246391.550        1598.773          40.000  
E25  26790716.485   140786394.536       -2977.642          41.000    26790726.010   107875416.689       -2281.719          50.000  
E18  22728509.540   119439126.663        2616.300          39.000                                                                  
E05                                                                  28223179.394   113642629.940       -2435.555          31.000  
> 2024 04 16 20 16 00.0040000  0 25                     
G13  22193739.475   116628984.402         947.462          48.000                                                                  
G15  24533106.892   128922344.490        2088.848          44.000    24533109.137   100459001.522        1627.577          38.000  
G19  25629895.183   134686008.6373       2148.077          33.000                                                                  
G07  25875006.512   135974090.688       -3762.546          37.000    25875013.810   105953805.461       -2931.928          33.000  
R05  20607323.151   110158210.659         450.072          51.000    20607324.276    85678495.719         350.134          49.000  
R16  22547418.280   120444306.898        1729.732          50.000    22547426.910    93679265.672        1345.370          46.000  
R04  21537665.248   115333348.561       -3412.795          51.000    21537667.585    89703699.154       -2654.322          49.000  
R14  23285613.789   124125489.906       -4312.369          47.000    23285619.783    96542237.494       -3353.932          47.000  
E08  25054174.000   131660720.439         309.096          48.000    25054178.808   100882953.800         236.866          52.000  
S31  40100643.508   210730233.196        -813.709          43.000  
S33  41051719.453   215728143.257        -813.567          42.000  
G20  23850564.839   125335501.457       -3686.692          46.000                                                                  
E03  25568977.795   134365918.429       -1974.202          47.000    25568985.607   102955751.387       -1512.694          53.000  
R15  20668952.937   110449006.941       -1671.211          52.000    20668954.649    85904644.248       -1299.722          49.000  
G05  22850075.308   120077915.898       -1729.353          47.000    22850079.791    93567263.748       -1347.601          46.000  
E07  28565055.434   150110367.8661       1640.087          30.000    28565066.331   115019686.396        1256.174          32.000  
G30  23298685.107   122435599.043       -2852.727          48.000    23298687.173    95404479.157       -2222.875          39.000  
E30  26949803.097   141622461.179        1742.569          44.000    26949818.245   108516133.689        1335.194          48.000  
G14  21763485.729   114368109.826       -1989.509          49.000    21763485.609    89118172.183       -1550.374          50.000  
E02  24588152.661   129211859.961        -541.568          47.000    24588158.538    99006672.211        -414.954          52.000  
G22  21622649.378   113628124.933         242.468          47.000                                                                  
G17  24957846.337   131154515.344        2047.998          44.000    24957858.407   102198473.215        1595.831          42.000  
E25  26807739.130   140875836.635       -2984.821          42.000    26807745.832   107943950.148       -2287.029          50.000  
E18  22713619.517   119360881.718        2600.288          41.000                                                                  
E05                                                                  28241331.676                       -2438.033          28.000  
> 2024 04 16 20 16 30.0040000  0 25                     
G13  22188351.821   116600670.406         940.162          48.000                                                                  
G15  24521189.521   128859718.320        2086.250          43.000    24521191.393   100410202.050        1625.541          39.000  
G19  25617622.649   134621528.925        2150.452          37.000                                                                  
G07  25896482.314   136086938.789       -3760.701          37.000    25896489.681                       -2930.766          27.000  
R05  20604857.946   110145030.835         428.552          51.000    20604858.527    85668244.759         333.320          49.000  
R16  22537745.123   120392637.610        1714.799          48.000    22537753.774    93639078.723        1333.695          46.000  
R04  21556839.672   115436022.272       -3432.095          52.000    21556841.971    89783556.345       -2669.343          50.000  
R14  23309891.121   124254902.794       -4315.156          49.000    23309897.774    96642891.819       -3356.205          48.000  
E08  25052427.225   131651540.895         302.890          48.000    25052431.953   100875920.144         232.076          52.000  
S31  40105286.930   210754637.170        -813.757          42.000  
S33  41056364.960   215752555.446        -813.832          43.000  
G20  23871632.156   125446213.185       -3694.129          45.000                                                                  
E03  25580270.844   134425266.494       -1982.318          46.000    25580279.414   103001225.822       -1518.932          54.000  
R15  20678384.005   110499403.763       -1688.524          52.000    20678385.445    85943841.789       -1313.275          48.000  
G05  22860000.156   120130070.909       -1747.771          47.000    22860004.946    93607903.918       -1361.810          47.000  
G30  23314979.797   122521227.822       -2856.031          48.000    23314982.648    95471202.815       -2225.572          40.000  
E30  26939876.444   141570290.304        1735.599          44.000    26939889.848   108476158.942        1329.788          48.000  
G14  21774892.832   114428056.347       -2007.052          49.000    21774893.119    89164883.761       -1563.844          50.000  
E02  24591281.002   129228298.707        -554.345          47.000    24591286.751    99019268.161        -424.770          52.000  
G22  21621318.822   113621133.986         223.682          47.000                                                                  
G17  24946165.772   131093132.556        2044.318          44.000    24946177.865   102150642.999        1592.743          43.000  
E25  26824797.784   140965486.501       -2991.838          41.000    26824805.842   108012642.811       -2292.390          51.000  
E18  22698821.245   119283122.370        2583.657          42.000                                                                  
E05                                                                  28259504.924                       -2441.113          27.000  
E07                                                                  28555701.185   114981988.818        1257.297          30.000  
> 2024 04 16 20 17 00.0040000  0 25                     
G13  22183005.154   116572573.925         932.666          48.000                                                                  
G15  24509288.712   128797178.771        2082.883          43.000    24509289.919   100361470.010        1623.066          37.000  
G19  25605338.411   134556985.913        2151.476          38.000                                                                  
G07  25917949.451   136199749.547       -3760.159          38.000    25917957.084                       -2929.556          28.000  
R05  20602515.163   110132502.663         406.442          52.000    20602515.126    85658500.635         316.150          49.000  
R16  22528155.981   120341417.963        1699.470          49.000    22528165.381    93599241.454        1321.914          46.000  
R04  21576121.327   115539274.634       -3451.634          51.000    21576123.337    89863863.573       -2684.561          49.000  
R14  23334184.829   124384399.257       -4318.181          50.000    23334191.050    96743611.156       -3358.595          48.000  
E08  25050716.235   131642548.799         296.355          48.000    25050720.687   100869030.108         227.069          51.000  
S31  40109930.784   210779040.322        -813.502          44.000  
S33  41061010.637   215776967.757        -814.143          42.000  
G20  23892742.750   125557151.891       -3701.881          44.000                                                                  
E03  25591611.498   134484860.786       -1990.727          46.000    25591619.625   103046888.916       -1525.390          53.000  
R15  20687912.652   110550321.377       -1706.187          52.000    20687913.604    85983444.404       -1327.078          50.000  
G05  22870029.894   120182776.162       -1766.293          48.000    22870034.654    93648972.818       -1376.238          46.000  
E07  28546322.563                1       1641.103          28.000    28546336.044   114944272.094        1256.904          33.000  
G30  23331293.539   122606958.284       -2859.593          48.000    23331296.899    95538005.704       -2228.478          40.000  
E30  26929988.137   141518330.731        1728.230          44.000    26930001.846   108436346.076        1324.125          48.000  
G14  21786399.389   114488526.150       -2024.623          49.000    21786400.471    89212003.082       -1577.626          51.000  
E02  24594483.338   129245122.103        -567.437          48.000    24594488.545    99032158.836        -434.806          53.000  
G22  21620095.951   113614711.563         204.257          46.000                                                                  
G17  24934507.664   131031869.973        2039.697          45.000    24934519.082   102102906.425        1589.154          42.000  
E25  26841891.794   141055346.799       -2999.054          36.000    26841905.597   108081496.742       -2298.018          50.000  
E18  22684117.998   119205858.479        2566.848          41.000                                                                  
E05                                                                  28277700.291                       -2443.751          26.000  
> 2024 04 16 20 17 30.0040000  0 25                     
G13  22177701.650   116544702.959         925.171          48.000                                                                  
G15  24497406.253   128734733.868        2079.760          44.000    24497406.950   100312811.746        1620.542          36.000  
G19  25593045.993   134492388.853        2154.028          40.000                                                                  
G07  25939408.816   136312528.724       -3758.627          34.000    25939416.305                3      -2927.999          20.000  
R05  20600294.792   110120635.564         384.477          51.000    20600295.936    85649270.674         299.011          49.000  
R16  22518653.529   120290654.682        1684.401          49.000    22518662.585    93559759.210        1310.115          48.000  
R04  21595512.418   115643110.331       -3470.951          52.000    21595514.385    89944624.496       -2699.594          49.000  
R14  23358494.674   124513983.396       -4321.048          49.000    23358500.188    96844398.643       -3360.711          46.000  
E08  25049042.746   131633751.663         290.024          49.000    25049046.773   100862289.479         222.161          52.000  
S31  40114575.967   210803450.105        -813.821          43.000  
S33  41065656.969   215801385.609        -814.306          42.000  
G20  23913899.053   125668320.464       -3709.480          44.000                                                                  
E03  25602999.335   134544707.684       -1999.023          46.000    25603008.236   103092745.606       -1531.743          53.000  
R15  20697540.001   110601763.438       -1723.497          53.000    20697540.817    86023454.908       -1340.476          49.000  
G05  22880165.966   120236036.909       -1784.569          49.000    22880169.525    93690474.614       -1390.677          45.000  
G30  23347627.907   122692795.903       -2863.255          47.000    23347632.239    95604892.085       -2231.167          41.000  
E30  26920140.964   141466589.829        1720.890          43.000    26920155.110   108396700.751        1318.696          47.000  
G14  21798006.911   114549523.641       -2042.086          49.000    21798008.364    89259533.587       -1591.299          51.000  
E02  24597759.341   129262335.941        -580.289          48.000    24597764.376    99045348.686        -444.667          53.000  
G22  21618982.897   113608864.489         185.257          46.000                                                                  
G17  24922874.571   130970737.155        2035.559          44.000    24922885.312   102055270.986        1585.992          42.000  
E25  26859035.195   141145422.073       -3006.008          39.000    26859047.007   108150515.361       -2303.349          51.000  
E18  22669510.951   119129101.930        2549.974          40.000                                                                  
E05                                                                  28295916.817                3      -2446.835          26.000  
E07                                                                  28536965.633   114906541.655        1257.715          32.000  
> 2024 04 16 20 18 00.0040000  0 25                     
G13  22172437.355   116517040.417         918.628          47.000                                                                  
G15  24485537.784   128672366.905        2077.589          44.000    24485538.626   100264214.222        1618.648          35.000  
G19  25580740.228   134427721.398        2156.881          41.000                                                                  
G07  25960860.948   136425257.135       -3757.338          34.000    25960869.804                3      -2922.500          19.000  
R05  20598194.793   110109413.208         363.475          51.000    20598195.986    85640542.164         282.674          49.000  
R16  22509232.973   120240329.594        1670.244          51.000    22509241.414    93520617.744        1299.025          47.000  
R04  21615006.786   115747507.973       -3489.221          50.000    21615010.181    90025822.498       -2713.794          49.000  
R14  23382816.152   124643632.691       -4322.578          50.000    23382822.646    96945236.853       -3362.079          47.000  
E08  25047402.808   131625131.901         284.482          49.000    25047406.332   100855684.746         217.929          51.000  
S31  40119218.921   210827847.771        -812.864          44.000  
S33  41070301.565   215825792.276        -813.268          42.000  
G20  23935093.113   125779696.541       -3715.880          44.000                                                                  
E03  25614433.212   134604788.759       -2006.628          46.000    25614441.375   103138781.680       -1537.477          53.000  
R15  20707260.391   110653708.319       -1739.752          51.000    20707261.833    86063856.524       -1353.138          50.000  
G05  22890402.640   120289832.256       -1801.947          49.000    22890406.394    93732392.978       -1404.012          45.000  
G30  23363979.314   122778720.985       -2865.484          47.000    23363983.633    95671846.634       -2233.003          42.000  
E30  26910332.935   141415049.867        1714.594          43.000    26910347.035   108357209.385        1313.879          47.000  
G14  21809710.693   114611028.109       -2058.539          49.000    21809712.198    89307459.135       -1604.084          52.000  
E02  24601105.096   129279920.925        -592.254          48.000    24601110.659    99058822.929        -453.795          53.000  
G22  21617976.474   113603574.598         167.047          46.000                                                                  
G17  24911262.576   130909718.475        2032.214          44.000    24911273.231   102007724.456        1583.411          43.000  
E25  26876216.381   141235691.785       -3012.048          43.000    26876224.075   108219682.970       -2308.005          51.000  
E18  22654996.952   119052839.321        2533.980          38.000                                                                  
E05                                                                  28314153.745                3      -2451.729          22.000  
E07                                                                  28527590.154   114868783.610        1259.215          35.000  
> 2024 04 16 20 18 30.0040000  0 25                     
G13  22167211.744   116489579.411         911.823          48.000                                                                  
G15  24473682.830   128610070.266        2075.175          44.000    24473684.021   100215671.516        1616.929          36.000  
G19  25568419.137   134362977.414        2158.978          40.000                                                                  
G07  25982299.899   136537925.232       -3754.872          34.000    25982314.015                3      -2924.513          21.000  
R05  20596214.376   110098828.683         341.984          50.000    20596216.034    85632309.790         266.008          49.000  
R16  22499892.776   120190434.139        1655.797          51.000    22499899.952    93481810.425        1287.870          47.000  
R04  21634606.327   115852456.496       -3507.674          51.000    21634608.421    90107448.991       -2728.188          49.000  
R14  23407148.432   124773335.163       -4324.583          51.000    23407154.148    97046116.423       -3363.379          46.000  
E08  25045794.786   131616681.603         278.679          49.000    25045798.145   100849209.866         213.565          51.000  
S31  40123856.836   210852221.898        -812.184          44.000  
S33  41074941.879   215850176.032        -812.568          42.000  
G20  23956324.234   125891268.533       -3722.485          43.000                                                                  
E03  25625910.150   134665095.102       -2014.159          47.000    25625917.355   103184990.389       -1543.308          53.000  
R15  20717072.240   110706144.015       -1756.347          51.000    20717074.647    86104639.853       -1365.943          50.000  
G05  22900739.921   120344151.870       -1819.482          50.000    22900743.950    93774719.835       -1417.872          45.000  
G30  23380344.546   122864723.753       -2868.480          46.000    23380349.267    95738861.718       -2235.249          42.000  
E30  26900561.257   141363702.855        1708.188          43.000    26900575.752   108317865.864        1308.780          48.000  
G14  21821508.951   114673028.633       -2075.186          48.000    21821510.406    89355771.219       -1617.074          51.000  
E02  24604520.548   129297867.520        -604.490          48.000    24604525.816    99072574.260        -463.098          53.000  
G22  21617074.370   113598833.650         148.797          45.000                                                                  
G17  24899670.814   130848808.071        2028.363          45.000    24899682.225   101960262.347        1580.426          43.000  
E25  26893427.744   141326145.089       -3018.447          42.000    26893437.231   108288991.252       -2312.762          51.000  
E18  22640578.094   118977067.317        2517.122          39.000                                                                  
E05                                                                  28332403.153                3      -2452.677          14.000  
E07                                                                  28518204.266   114830991.650        1260.219          35.000  
> 2024 04 16 20 19 00.0040000  0 25                     
G13  22162027.133   116462332.826         904.584          48.000                                                                  
G15  24461843.696   128547857.086        2072.315          44.000    24461845.454   100167193.856        1614.899          37.000  
G19  25556086.202   134298170.782        2160.917          41.000                                                                  
G07  26003730.587   136650543.591       -3752.579          33.000                                                                  
R05  20594356.262   110088896.035         320.166          51.000    20594358.017    85624584.404         249.022          49.000  
R16  22490634.928   120140980.040        1640.981          52.000    22490641.276    93443346.406        1276.326          47.000  
R04  21654309.786   115957964.938       -3526.239          52.000    21654311.499    90189510.970       -2742.812          49.000  
R14  23431492.773   124903099.331       -4326.504          50.000    23431497.548    97147043.956       -3365.052          45.000  
E08  25044221.020   131608412.981         272.435          49.000    25044224.612   100842874.175         208.779          51.000  
S31  40128493.586   210876586.347        -812.125          42.000  
S33  41079579.540   215874548.862        -812.194          42.000  
G20  23977594.988   126003044.297       -3729.317          44.000                                                                  
E03  25637429.052   134725637.944       -2022.124          46.000    25637438.458   103231380.278       -1549.363          53.000  
R15  20726978.405   110759079.387       -1772.898          52.000    20726980.297    86145811.819       -1378.955          49.000  
G05  22911178.371   120399005.212       -1837.412          49.000    22911181.799    93817462.574       -1431.806          44.000  
G30  23396727.337   122950814.411       -2871.217          46.000    23396731.109    95805945.294       -2237.431          40.000  
E30  26890829.383   141312560.832        1701.265          43.000    26890843.613   108278679.409        1303.519          48.000  
G14  21833403.339   114735534.235       -2092.079          48.000    21833404.698    89404476.873       -1630.109          51.000  
E02  24608006.520   129316186.194        -616.921          48.000    24608011.542    99086610.685        -472.651          53.000  
G22  21616278.525   113594653.006         129.937          46.000                                                                  
G17  24888102.684   130788020.119        2024.176          44.000    24888113.391   101912895.620        1577.167          41.000  
E25  26910676.499   141416791.181       -3024.859          42.000    26910686.538   108358447.281       -2317.725          51.000  
E18  22626253.696   118901802.428        2500.095          39.000                                                                  
E05                                                                  28350683.063                3      -2451.244          24.000  
E07                                                                  28508810.614   114793174.789        1261.031          33.000  
> 2024 04 16 20 19 30.0040000  0 25                     
G13  22156883.144   116435303.646         897.357          48.000                                                                  
G15  24450021.251   128485730.870        2069.364          44.000    24450023.455   100118783.910        1612.326          37.000  
G19  25543742.207   134233305.915        2163.016          42.000                                                                  
G07  26025151.650   136763113.477       -3751.444          34.000    26025176.930                3      -2923.155          26.000  
R05  20592620.321   110079619.514         298.179          50.000    20592622.288    85617369.351         231.993          48.000  
R16  22481460.183   120091969.786        1626.368          51.000    22481466.068    93405227.567        1264.958          47.000  
R04  21674117.743   116064033.291       -3544.850          52.000    21674119.432    90272008.399       -2757.137          50.000  
R14  23455847.410   125032923.820       -4328.384          53.000    23455852.879    97248018.448       -3366.583          46.000  
E08  25042682.206   131600328.877         266.338          48.000    25042686.217   100836679.881         204.166          51.000  
S31  40133127.945   210900940.754        -811.474          43.000  
S33  41084215.647   215898912.673        -812.063          43.000  
G20  23998903.949   126115021.893       -3736.058          43.000                                                                  
E03  25648996.120   134786419.133       -2029.845          46.000    25649004.916   103277952.811       -1555.405          54.000  
R15  20736977.525   110812513.011       -1789.417          51.000    20736979.428    86187371.287       -1391.774          49.000  
G05  22921718.023   120454392.167       -1855.027          49.000    22921721.487    93860621.128       -1445.525          44.000  
G30  23413126.481   123036993.809       -2874.082          46.000    23413131.929    95873098.015       -2239.652          42.000  
E30  26881136.580   141261626.475        1694.470          43.000    26881150.357   108239652.083        1298.248          48.000  
G14  21845394.218   114798544.647       -2108.687          49.000    21845395.322    89453575.889       -1643.135          51.000  
E02  24611562.868   129334878.067        -629.199          48.000    24611568.468    99100933.068        -482.108          53.000  
G22  21615590.277   113591034.795         111.309          46.000                                                                  
G17  24876558.196   130727359.378        2019.910          44.000    24876569.031   101865627.998        1573.690          42.000  
E25  26927965.966   141507630.077       -3031.072          45.000    26927972.953   108428051.038       -2322.500          51.000  
E18  22612028.272   118827051.813        2482.948          39.000                                                                  
E05                                                                  28368975.085                3      -2457.187          23.000  
E07                                                                  28499413.767   114755335.031        1261.394          34.000  
> 2024 04 16 20 20 00.0040000  0 25                     
G13  22151780.655   116408489.009         890.063          48.000                                                                  
G15  24438215.081   128423688.342        2066.682          44.000    24438217.529   100070439.222        1610.291          37.000  
G19  25531386.238   134168380.679        2165.260          43.000                                                                  
G07  26046563.034                       -3750.280          31.000    26046587.199                3      -2928.085          24.000  
R05  20591006.646   110070996.787         276.505          50.000    20591008.557    85610662.763         215.004          48.000  
R16  22472367.273   120043399.191        1611.569          52.000    22472373.884    93367450.674        1253.521          49.000  
R04  21694028.687   116170654.450       -3563.319          52.000    21694030.618    90354935.779       -2771.313          50.000  
R14  23480212.183   125162801.024       -4330.114          53.000    23480219.032    97349033.942       -3367.998          48.000  
E08  25041178.118   131592425.764         260.313          49.000    25041182.411   100830624.274         199.562          51.000  
S31  40137759.876   210925281.080        -811.063          43.000  
S33  41088848.906   215923261.908        -811.358          43.000  
G20  24020249.803   126227193.891       -3742.183          44.000                                                                  
E03  25660605.427   134847434.154       -2037.767          45.000    25660615.520   103324704.516       -1561.313          53.000  
R15  20747069.417   110866437.688       -1805.742          51.000    20747070.277    86229312.719       -1404.332          48.000  
E07  28490018.305                        1648.262          29.000    28490009.354   114717469.277        1262.363          34.000  
G05  22932358.233   120510305.989       -1872.636          47.000    22932361.152    93904190.215       -1459.323          44.000  
G30  23429542.206   123123256.385       -2876.808          46.000    23429546.297    95940315.532       -2241.491          41.000  
E30  26871483.661   141210896.102        1687.672          44.000    26871496.658   108200781.062        1293.052          48.000  
G14  21857479.222   114862053.128       -2125.208          48.000    21857480.761    89503063.006       -1656.000          52.000  
E02  24615189.462   129353937.903        -641.496          48.000    24615195.504    99115537.393        -491.531          53.000  
G22  21615007.595   113587974.745          92.602          46.000                                                                  
G17  24865038.738   130666824.435        2015.631          44.000    24865049.891   101818458.401        1570.623          42.000  
E25  26945285.391   141598655.156       -3037.292          44.000    26945294.309   108497797.448       -2327.294          50.000  
E18  22597901.104   118752816.220        2465.753          40.000                                                                  
E05                                                                  28387285.613                3      -2461.950          22.000  
> 2024 04 16 20 20 30.0050000  0 25                     
G13  22146719.984   116381892.688         882.836          48.000                                                                  
G15  24426425.241   128361732.010        2063.681          44.000    24426427.806   100022161.671        1608.347          38.000  
G19  25519019.959   134103398.401        2166.635          43.000                                                                  
G07  26067965.617                       -3748.879          29.000    26067975.517                3      -2927.649          18.000  
R05  20589518.009   110063032.873         254.414          51.000    20589518.854    85604468.634         197.852          48.000  
R16  22463357.359   119995269.781        1596.912          52.000    22463363.201    93330016.985        1241.919          48.000  
R04  21714043.268   116277832.352       -3581.661          52.000    21714045.196    90438296.198       -2785.781          50.000  
R14  23504586.850   125292735.305       -4331.965          52.000    23504594.411    97450093.795       -3369.131          47.000  
E08  25039709.284   131584706.976         254.201          48.000    25039713.965   100824709.892         194.807          51.000  
S31  40142389.566   210949610.467        -811.070          44.000  
S33  41093480.236   215947600.211        -811.210          42.000  
G20  24041633.053   126339563.378       -3748.982          44.000                                                                  
E03  25672262.380   134908687.699       -2045.619          46.000    25672271.501   103371638.966       -1567.389          53.000  
R15  20757252.445   110920854.914       -1822.063          51.000    20757254.173    86271637.267       -1417.258          48.000  
E07  28480597.531                1       1648.339          29.000    28480598.856   114679578.764        1263.421          34.000  
G05  22943098.862   120566749.894       -1890.201          48.000    22943102.389    93948172.348       -1472.796          44.000  
G30  23445973.597   123209606.800       -2879.743          46.000    23445978.236    96007601.463       -2243.719          41.000  
E30  26861869.505   141160371.511        1680.776          45.000    26861881.749   108162067.697        1287.811          48.000  
G14  21869659.941   114926062.314       -2141.953          49.000    21869661.349    89552940.303       -1668.940          51.000  
E02  24618886.408   129373368.219        -653.719          47.000    24618892.939    99130425.589        -500.962          53.000  
G22  21614531.963   113585475.698          73.976          46.000                                                                  
G17  24853543.885   130606418.688        2011.287          44.000    24853554.647   101771389.449        1567.194          42.000  
E25  26962642.406   141689870.168       -3043.555          43.000    26962652.854   108567689.415       -2332.058          52.000  
E18  22583872.211   118679101.133        2448.461          39.000                                                                  
E05                                                                  28405617.834                3      -2463.494          17.000  
> 2024 04 16 20 21 00.0050000  0 24                     
G13  22141701.371   116355518.454         875.134          48.000                                                                  
G15  24414652.285   128299868.237        2060.359          44.000    24414655.658    99973956.250        1605.458          39.000  
G19  25506644.795   134038366.540        2168.332          43.000                                                                  
G07  26089361.816                1      -3746.213          30.000    26089371.255                3      -2920.256          25.000  
R05  20588152.435   110055730.771         232.074          51.000    20588153.291    85598789.225         180.481          48.000  
R16  22454430.305   119947585.635        1581.775          51.000    22454436.580    93292929.530        1230.335          48.000  
R04  21734160.041   116385558.375       -3600.281          52.000    21734162.234    90522082.948       -2800.190          50.000  
R14  23528970.928   125422715.380       -4333.750          53.000    23528978.062    97551189.267       -3370.676          44.000  
E08  25038275.715   131577174.658         247.590          48.000    25038280.747   100818938.410         189.679          52.000  
S31  40147016.944   210973927.005        -810.772          40.000  
S33  41098109.409   215971926.391        -810.918          43.000  
G20  24063051.845   126452119.939       -3755.262          44.000                                                                  
E03  25683964.776   134970176.237       -2053.874          46.000    25683972.772   103418753.473       -1573.694          53.000  
R15  20767526.178   110975758.676       -1838.493          50.000    20767528.371    86314340.213       -1429.902          49.000  
E07  28471179.409                        1649.252          29.000    28471182.919   114641667.020        1263.930          33.000  
G05  22953939.364   120623718.975       -1907.914          46.000    22953943.379    93992563.710       -1486.675          44.000  
G30  23462421.182   123296038.909       -2882.718          45.000    23462425.499    96074951.109       -2246.350          41.000  
E30  26852296.237   141110057.508        1673.277          45.000    26852307.065   108123515.711        1282.150          48.000  
G14  21881934.697   114990566.372       -2158.643          50.000    21881936.265    89603203.196       -1682.137          52.000  
E02  24622654.126   129393167.616        -666.444          47.000    24622660.399    99145596.578        -510.718          53.000  
G22  21614163.968   113583538.493          54.912          46.000                                                                  
G17  24842074.975   130546149.754        2006.234          45.000    24842085.555   101724427.100        1563.514          43.000  
E25  26980035.103   141781267.700       -3049.875          44.000    26980044.669   108637721.211       -2337.060          51.000  
E18  22569946.100   118605917.598        2430.424          41.000                                                                  
> 2024 04 16 20 21 30.0050000  0 25                     
G13  22136725.838   116329372.695         867.478          48.000                                                                  
G15  24402898.633   128238102.395        2057.082          45.000    24402902.608    99925827.114        1602.878          40.000  
G19  25494260.269   133973291.677        2169.819          42.000                                                                  
R05  20586911.854   110049099.155         209.707          51.000    20586912.476    85593631.263         163.073          48.000  
R16  22445587.218   119900351.345        1566.876          51.000    22445593.502    93256192.012        1218.567          48.000  
R04  21754380.414   116493839.532       -3618.747          50.000    21754383.255    90606301.453       -2814.616          50.000  
R06  24830423.447                3       3281.099          25.000                                                                  
R14  23553364.683   125552748.439       -4335.477          52.000    23553372.304    97652326.045       -3372.123          45.000  
E08  25036879.509   131569835.382         241.293          48.000    25036884.142   100813314.817         184.889          52.000  
S31  40151642.934   210998237.889        -810.260          43.000  
S33  41102737.325   215996246.018        -810.763          43.000  
G20  24084507.751   126564869.723       -3761.645          44.000                                                                  
E03  25695710.311   135031907.609       -2061.812          45.000    25695719.805   103466054.050       -1579.818          53.000  
R15  20777893.205   111031153.944       -1854.909          51.000    20777895.262    86357425.432       -1442.675          49.000  
E07  28461759.296                        1650.185          29.000    28461763.545   114603737.755        1264.350          34.000  
G05  22964881.302   120681218.546       -1925.664          47.000    22964885.336    94037368.470       -1500.533          45.000  
G30  23478886.220   123382560.439       -2885.885          45.000    23478890.538    96142370.394       -2248.564          41.000  
E30  26842761.985   141059958.949        1666.187          46.000    26842773.016   108085128.806        1276.719          47.000  
G14  21894304.685   115055571.024       -2175.295          49.000    21894306.272    89653856.137       -1695.095          52.000  
E02  24626493.973   129413341.758        -678.860          48.000    24626499.479    99161054.715        -520.150          53.000  
G22  21613902.669   113582169.227          36.055          46.000                                                                  
G17  24830633.002   130486024.538        2001.603          45.000    24830644.656   101677576.762        1559.761          43.000  
E25  26997462.969   141872854.668       -3056.011          43.000    26997473.457   108707898.146       -2341.714          52.000  
E18  22556119.636   118533274.072        2412.134          39.000                                                                  
G07                                                                  26110748.690                3      -2917.988          25.000  
> 2024 04 16 20 22 00.0050000  0 24                     
G13  22131794.856   116303462.414         859.949          47.000                                                                  
G15  24391164.629   128176441.461        2053.744          45.000    24391168.783    99877779.739        1600.513          39.000  
G19  25481869.195   133908181.400        2170.990          41.000                                                                  
R05  20585797.843   110043144.986         187.269          51.000    20585798.795    85589000.247         145.738          48.000  
R16  22436829.436   119853572.950        1551.831          51.000    22436836.216    93219809.007        1206.915          48.000  
R04  21774704.557   116602678.839       -3637.167          50.000    21774708.412    90690954.043       -2828.884          50.000  
R14  23577768.202   125682836.884       -4337.108          52.000    23577776.371    97753505.809       -3373.373          45.000  
E08  25035520.144   131562695.327         234.822          48.000    25035525.400   100807843.909         179.915          52.000  
S31  40156269.049   211022547.865        -810.161          43.000  
S33  41107365.217   216020564.960        -810.612          43.000  
G20  24106000.619   126677814.851       -3767.932          45.000                                                                  
E03  25707505.380   135093887.078       -2069.937          45.000    25707514.318   103513544.741       -1586.047          53.000  
R15  20788352.135   111087043.105       -1870.975          52.000    20788354.238    86400894.785       -1455.176          49.000  
E07  28452332.553                        1651.147          28.000    28452340.435   114565795.390        1264.842          34.000  
G05  22975924.827   120739252.340       -1943.141          47.000    22975928.308    94082589.499       -1514.180          44.000  
G30  23495368.407   123469175.635       -2888.570          46.000    23495372.644    96209862.706       -2250.857          41.000  
E30  26833270.791   141010081.964        1658.830          46.000    26833280.988   108046911.654        1271.116          47.000  
G14  21906769.919   115121079.287       -2191.828          49.000    21906771.618    89704901.529       -1707.978          51.000  
E02  24630405.782   129433895.116        -691.391          49.000    24630410.377    99176803.424        -529.685          52.000  
G22  21613750.820   113581373.279          16.970          45.000                                                                  
G17  24819219.532   130426051.092        1996.834          45.000    24819232.234   101630844.679        1555.779          44.000  
E25  27014928.668   141964634.310       -3062.321          44.000    27014938.473   108778222.759       -2346.500          52.000  
E18  22542401.622   118461181.224        2393.997          40.000                                                                  
G07                                                                  26132123.892                3      -2917.789          26.000  
> 2024 04 16 20 22 30.0050000  0 24                     
G13  22126908.355   116277785.604         851.641          46.000                                                                  
G15  24379450.584   128114883.589        2049.975          46.000    24379454.774    99829812.669        1597.593          39.000  
G19  25469472.586   133843034.658        2171.686          42.000                                                                  
G07  26153496.215                3      -3742.005          29.000    26153481.758                       -2915.567          26.000  
R05  20584810.755   110037867.060         164.428          51.000    20584811.534    85584895.197         127.956          48.000  
R16  22428157.388   119807246.804        1536.487          52.000    22428164.132    93183777.806        1194.922          47.000  
R04  21795133.398   116712070.060       -3655.888          51.000    21795136.125    90776035.943       -2843.405          49.000  
R14  23602182.165   125812974.012       -4338.938          53.000    23602190.295    97854723.436       -3374.653          47.000  
E08  25034198.787   131555751.774         227.965          48.000    25034203.840   100802523.543         174.633          52.000  
S31  40160893.613   211046851.582        -810.315          44.000  
S33  41111992.047   216044878.890        -810.734          42.000  
G20  24127529.629   126790948.213       -3774.446          45.000                                                                  
E03  25719345.504   135156110.787       -2078.375          45.000    25719355.429   103561222.585       -1592.537          53.000  
R15  20798901.906   111143419.394       -1887.580          50.000    20798904.783    86444743.023       -1468.139          49.000  
G05  22987068.836   120797813.984       -1961.086          49.000    22987072.701    94128221.843       -1528.093          44.000  
G30  23511867.986   123555879.863       -2892.004          47.000    23511872.221    96277424.356       -2253.466          42.000  
E30  26823820.248   140960423.554        1651.435          45.000    26823831.460   108008861.976        1265.422          47.000  
G14  21919330.870   115187085.168       -2208.711          48.000    21919331.673    89756334.636       -1721.083          51.000  
E02  24634388.673   129454823.156        -703.964          49.000    24634392.761    99192839.237        -539.471          52.000  
G22  21613707.535   113581147.014          -2.374          45.000                                                                  
G17  24807835.420   130366228.785        1991.071          44.000    24807847.089   101584230.344        1551.540          42.000  
E25  27032430.837   142056600.942       -3068.923          46.000    27032439.483   108848690.634       -2351.522          52.000  
E18  22528786.731   118389640.321        2374.966          41.000                                                                  
E07                                                                  28442914.616   114527837.597        1265.823          35.000  
> 2024 04 16 20 23 00.0050000  0 24                     
G13  22122068.297   116252349.117         843.724          47.000                                                                  
G15  24367757.217   128053435.268        2046.442          46.000    24367761.017    99781930.998        1594.533          40.000  
G19  25457069.350   133777859.508        2172.784          43.000                                                                  
R05  20583950.911   110033272.951         141.630          51.000    20583952.018    85581321.979         110.146          48.000  
R16  22419570.970   119761378.536        1521.265          53.000    22419578.049    93148102.688        1183.197          48.000  
R04  21815666.280   116822016.385       -3674.216          52.000    21815667.827    90861549.571       -2857.610          49.000  
R14  23626605.700   125943162.247       -4340.547          54.000    23626613.522    97955980.817       -3375.874          46.000  
E08  25032916.696   131549010.945         221.182          48.000    25032921.022   100797358.529         169.512          52.000  
S31  40165518.934   211071156.343        -810.486          44.000  
S33  41116618.878   216069192.570        -810.673          42.000  
G20  24149094.399   126904271.809       -3780.661          44.000                                                                  
E03  25731234.287   135218583.992       -2086.811          45.000    25731243.904   103609091.587       -1598.879          53.000  
R15  20809543.287   111200285.176       -1903.821          50.000    20809545.791    86488971.969       -1480.634          48.000  
G05  22998314.284   120856908.002       -1978.782          48.000    22998317.335    94174269.007       -1541.769          44.000  
G30  23528384.688   123642677.396       -2894.793          46.000    23528388.383    96345058.745       -2255.975          41.000  
E30  26814412.875   140910989.763        1643.978          44.000    26814424.381   107970984.422        1259.596          48.000  
G14  21931985.651   115253591.685       -2225.300          47.000    21931987.668    89808157.888       -1734.022          51.000  
E02  24638442.059   129476130.278        -716.770          48.000    24638447.243    99209165.528        -549.154          52.000  
G22  21613774.252   113581495.920         -21.384          46.000                                                                  
G17  24796482.378   130306565.842        1985.911          45.000    24796492.173   101537740.225        1547.497          41.000  
E25  27049967.495   142148757.858       -3075.150          46.000    27049975.990   108919304.315       -2356.316          51.000  
E18  22515281.168   118318661.958        2356.366          44.000                                                                  
E07                                                                  28433485.655   114489868.839        1265.347          36.000  
G07                                                                  26174848.009                1      -2914.619          28.000  
> 2024 04 16 20 23 30.0050000  0 24                     
G13  22117273.112   116227151.694         835.888          46.000                                                                  
G15  24356084.620   127992095.712        2042.843          45.000    24356088.914    99734134.029        1591.584          39.000  
G19  25444660.751   133712655.691        2174.011          44.000                                                                  
G07  26196186.293                2      -3739.217          28.000    26196196.629                       -2912.788          29.000  
R05  20583219.290   110029361.785         118.944          52.000    20583220.410    85578279.972          92.510          48.000  
R16  22411068.326   119715965.291        1506.165          50.000    22411076.274    93112781.540        1171.472          47.000  
R04  21836300.380   116932512.074       -3692.415          51.000    21836301.845    90947490.494       -2871.839          49.000  
R14  23651037.209   126073395.590       -4341.835          54.000    23651044.763    98057273.334       -3377.034          45.000  
E08  25031671.689   131542470.821         214.572          48.000    25031676.658   100792347.285         164.442          52.000  
S31  40170143.396   211095457.465        -810.202          40.000  
S33  41121244.511   216093502.346        -810.271          43.000  
G20  24170695.036   127017779.175       -3786.670          45.000                                                                  
E03  25743169.441   135281303.658       -2094.731          44.000    25743178.904   103657149.441       -1605.096          53.000  
R15  20820276.132   111257634.424       -1919.770          51.000    20820278.045    86533576.947       -1493.117          48.000  
G05  23009660.306   120916528.472       -1996.030          49.000    23009663.238    94220726.403       -1555.354          44.000  
G30  23544918.559   123729564.438       -2897.739          46.000    23544923.942    96412762.851       -2258.188          42.000  
E30  26805047.891   140861778.447        1636.625          45.000    26805060.252   107933277.320        1253.916          50.000  
G14  21944736.193   115320593.567       -2241.601          48.000    21944737.681    89860367.121       -1746.785          51.000  
E02  24642568.118   129497812.679        -729.038          48.000    24642573.280    99225779.388        -558.653          52.000  
G22  21613949.228   113582416.865         -40.218          45.000                                                                  
G17  24785158.994   130247062.313        1980.596          46.000    24785167.554   101491374.269        1543.571          40.000  
E25  27067538.405   142241100.034       -3081.249          45.000    27067548.085   108990059.958       -2360.849          51.000  
E18  22501880.278   118248248.483        2337.615          43.000                                                                  
E07                                                                  28424051.176   114451887.532        1266.710          34.000  
> 2024 04 16 20 24 00.0050000  0 24                     
G13  22112523.911   116202192.821         827.733          47.000                                                                  
G15  24344432.498   127930864.124        2039.039          45.000    24344436.593    99686421.209        1588.523          39.000  
G19  25432246.895   133647423.564        2174.677          42.000                                                                  
G07  26217527.321   137773990.6151      -3737.078          31.000    26217532.231                3      -2911.452          24.000  
R05  20582615.309   110026133.444          95.989          51.000    20582616.334    85575769.043          74.647          48.000  
R16  22402652.221   119671005.522        1490.772          52.000    22402658.379    93077813.029        1159.631          48.000  
R04  21857036.151   117043552.594       -3710.674          51.000    21857038.574    91033855.125       -2886.083          50.000  
R14  23675476.013   126203668.793       -4343.281          53.000    23675484.259    98158596.794       -3378.154          46.000  
E08  25030465.157   131536130.264         207.738          48.000    25030469.942   100787488.956         159.200          52.000  
S31  40174766.695   211119752.011        -809.812          43.000  
S33  41125869.554   216117807.656        -810.245          42.000  
G20  24192329.191   127131465.099       -3792.858          43.000                                                                  
E03  25755151.142   135344267.571       -2103.079          45.000    25755160.552   103705394.472       -1611.413          53.000  
R15  20831097.296   111315461.791       -1935.717          51.000    20831099.417    86578553.770       -1505.576          48.000  
G05  23021105.192   120976671.219       -2013.832          48.000    23021108.033    94267590.751       -1568.922          43.000  
G30  23561469.338   123816537.862       -2900.573          46.000    23561473.953    96480534.289       -2260.329          43.000  
E30  26795724.458   140812788.101        1629.165          44.000    26795737.367   107895739.562        1248.210          49.000  
G14  21957579.878   115388086.386       -2258.119          48.000    21957580.605    89912958.923       -1759.609          50.000  
E02  24646764.803   129519867.393        -741.627          48.000    24646769.697    99242678.532        -568.229          52.000  
G22  21614232.776   113583907.929         -59.503          45.000                                                                  
G17  24773866.269   130187719.003        1975.218          45.000    24773874.060   101445133.127        1539.028          41.000  
E25  27085146.102   142333623.436       -3087.293          46.000    27085154.951   109060954.452       -2365.645          51.000  
E18  22488587.163   118178403.094        2318.319          42.000                                                                  
E07                                                                  28414616.359   114413892.296        1266.849          35.000  
> 2024 04 16 20 24 30.0050000  0 25                     
G13  22107819.232   116177471.652         820.013          47.000                                                                  
G15  24332800.812   127869739.802        2035.766          46.000    24332804.554    99638792.016        1586.256          39.000  
G19  25419827.624   133582163.497        2175.568          44.000                                                                  
G07  26238859.066                       -3735.616          29.000    26238873.122                3      -2911.476          26.000  
R05  20582139.738   110023587.539          73.432          52.000    20582140.480    85573788.894          57.124          49.000  
R16  22394319.463   119626496.593        1476.068          51.000    22394326.731    93043195.225        1148.029          48.000  
R04  21877873.164   117155133.118       -3728.427          51.000    21877876.566    91120639.767       -2899.956          51.000  
R06  24719956.172                1       3265.990          26.000                                                                  
R14  23699921.481   126333976.841       -4344.250          53.000    23699929.086    98259947.424       -3378.931          47.000  
E08  25029296.197   131529987.885         201.514          48.000    25029300.899   100782782.457         154.348          52.000  
S31  40179388.211   211144038.126        -809.214          38.000  
S33  41130493.233   216142103.233        -809.689          43.000  
G20  24213996.379   127245323.754       -3798.243          43.000                                                                  
E03  25767179.253   135407473.310       -2110.903          45.000    25767187.910   103753824.777       -1617.427          53.000  
R15  20842007.037   111373762.002       -1951.250          51.000    20842009.668    86623898.358       -1517.558          49.000  
G05  23032647.838   121037332.135       -2030.796          48.000    23032650.877    94314858.871       -1582.365          42.000  
G30  23578035.802   123903594.334       -2903.185          46.000    23578040.572    96548370.453       -2262.325          43.000  
E30  26786443.515   140764017.224        1622.085          45.000    26786456.563   107858369.926        1242.793          50.000  
G14  21970515.922   115456065.464       -2274.085          48.000    21970516.868    89965929.609       -1771.998          51.000  
E02  24651032.040   129542291.227        -753.555          49.000    24651036.899    99259860.477        -577.464          52.000  
G22  21614624.939   113585966.726         -78.108          45.000                                                                  
G17  24762603.372   130128536.355        1969.937          45.000    24762612.467   101399017.233        1534.941          41.000  
E25  27102785.357   142426323.698       -3093.033          45.000    27102795.565   109131984.475       -2369.882          51.000  
E18  22475403.602   118109128.486        2299.535          41.000                                                                  
E07                                                                  28405176.656   114375881.947        1267.366          34.000  
> 2024 04 16 20 25 00.0050000  0 25                     
G13  22103160.101   116152987.241         812.176          47.000                                                                  
G15  24321189.331   127808721.956        2032.067          46.000    24321192.705    99591245.747        1583.332          39.000  
G19  25407402.061   133516875.201        2176.819          43.000                                                                  
G07  26260178.722   137998123.308       -3733.314          30.000    26260176.194                3      -2906.996          21.000  
R05  20581791.049   110021723.790          50.801          52.000    20581791.933    85572339.297          39.534          49.000  
R16  22386071.356   119582436.194        1461.279          51.000    22386078.065    93008926.254        1136.383          49.000  
R04  21898811.100   117267248.052       -3746.040          52.000    21898812.944    91207840.094       -2913.625          50.000  
R06  24701606.148                1       3263.415          25.000                                                                  
R14  23724372.392   126464313.893       -4344.999          53.000    23724379.869    98361320.529       -3379.314          45.000  
E08  25028165.303   131524041.798         194.924          48.000    25028169.387   100778226.366         149.412          52.000  
S31  40184007.559   211168313.375        -808.884          42.000  
S33  41135113.992   216166387.336        -809.358          43.000  
G20  24235695.087   127359348.731       -3803.534          43.000                                                                  
E03  25779252.492   135470917.874       -2118.691          46.000    25779261.168   103802438.065       -1623.467          53.000  
R15  20853005.296   111432529.098       -1966.557          51.000    20853006.964    86669606.096       -1529.618          48.000  
G05  23044288.904   121098506.393       -2047.687          47.000    23044292.554    94362527.019       -1595.537          44.000  
G30  23594617.954   123990730.123       -2905.799          47.000    23594622.026    96616268.392       -2264.267          43.000  
E30  26777203.465   140715463.675        1614.892          45.000    26777217.165   107821166.854        1237.339          50.000  
G14  21983543.535   115524525.609       -2290.009          47.000    21983544.453    90019275.184       -1784.277          50.000  
E02  24655368.040   129565080.442        -765.638          48.000    24655373.336    99277322.407        -586.698          52.000  
G22  21615124.743   113588590.598         -96.708          46.000                                                                  
G17  24751372.324   130069514.726        1964.622          45.000    24751380.466   101353026.702        1531.131          41.000  
E25  27120457.298   142519195.982       -3098.539          44.000    27120467.895   109203146.303       -2374.213          51.000  
E18  22462330.159   118040427.234        2280.365          42.000                                                                  
E07                                                                  28395733.476   114337854.801        1267.786          36.000  
> 2024 04 16 20 25 30.0050000  0 25                     
G13  22098546.340   116128742.964         803.965          48.000                                                                  
G15  24309598.301   127747814.119        2028.272          45.000    24309601.958    99543785.218        1580.362          39.000  
G19  25394972.576   133451563.801        2177.533          43.000                                                                  
G07  26281489.827                       -3731.844          28.000    26281514.034                3      -2911.946          22.000  
R05  20581571.512   110020545.733          27.677          52.000    20581571.278    85571423.029          21.694          49.000  
R16  22377907.535   119538826.547        1446.057          51.000    22377914.059    92975007.882        1124.664          49.000  
R04  21919847.626   117379897.015       -3763.955          52.000    21919849.854    91295455.739       -2927.573          50.000  
R06  24683253.623                        3259.933          29.000                                                                  
R14  23748828.797   126594679.058       -4346.117          53.000    23748836.933    98462715.562       -3380.277          47.000  
E08  25027071.624   131518295.000         188.034          48.000    25027075.690   100773822.982         144.084          51.000  
S31  40188624.948   211192577.523        -808.779          43.000  
S33  41139733.034   216190661.066        -808.981          42.000  
G20  24257425.190   127473538.916       -3809.216          43.000                                                                  
E03  25791371.437   135534603.226       -2127.030          46.000    25791380.343   103851235.862       -1629.780          54.000  
R15  20864089.182   111491762.042       -1982.359          51.000    20864092.396    86715676.166       -1541.746          50.000  
G05  23056027.560   121160193.956       -2064.832          47.000    23056032.337    94410595.093       -1608.972          44.000  
G30  23611214.285   124077946.216       -2908.618          46.000    23611218.513    96684228.917       -2266.534          43.000  
E30  26768005.991   140667130.211        1607.246          45.000    26768018.995   107784132.377        1231.544          49.000  
G14  21996661.986   115593466.464       -2306.100          47.000    21996663.716    90072995.330       -1796.925          50.000  
E02  24659774.833   129588236.141        -778.104          48.000    24659779.810    99295065.135        -596.165          52.000  
G22  21615731.254   113591781.464        -116.098          45.000                                                                  
G17  24740171.867   130010658.812        1959.099          44.000    24740180.959   101307165.404        1526.406          42.000  
E25  27138164.964   142612240.318       -3104.621          45.000    27138174.104   109274439.974       -2378.744          51.000  
E18  22449366.197   117972306.344        2260.785          41.000                                                                  
E07                                                                  28386286.659   114299812.821        1268.475          36.000  
> 2024 04 16 20 26 00.0050000  0 25                     
G13  22093978.176   116104737.620         796.012          48.000                                                                  
G15  24298028.642   127687015.286        2024.819          45.000    24298031.838    99496409.581        1577.856          39.000  
G19  25382538.839   133386228.744        2178.027          42.000                                                                  
G07  26302789.087                       -3730.211          27.000                                                                  
R05  20581479.000   110020052.509           4.969          53.000    20581479.552    85571039.405           3.853          49.000  
R16  22369827.776   119495664.628        1431.183          52.000    22369834.338    92941437.757        1113.086          50.000  
R04  21940982.164   117493074.631       -3781.422          51.000    21940984.361    91383482.578       -2941.116          49.000  
R06  24664934.601                        3256.860          28.000                                                                  
R14  23773290.142   126725066.596       -4346.632          54.000    23773296.356    98564127.973       -3380.655          47.000  
E08  25026015.428   131512745.585         181.750          48.000    25026019.561   100769570.847         139.219          52.000  
S31  40193239.766   211216829.325        -808.428          42.000  
S33  41144350.020   216214922.306        -808.154          44.000  
G20  24279185.699   127587888.215       -3814.466          43.000                                                                  
E03  25803535.524   135598526.417       -2134.758          46.000    25803544.408   103900215.912       -1635.691          53.000  
R15  20875260.878   111551455.069       -1997.376          50.000    20875263.147    86762104.069       -1553.568          49.000  
G05  23067863.804   121222389.799       -2081.759          48.000    23067867.393    94459059.243       -1622.266          44.000  
G30  23627826.415   124165238.969       -2911.015          46.000    23627829.481    96752249.157       -2268.252          42.000  
E30  26758850.512   140619014.722        1600.260          46.000    26758862.463   107747264.877        1226.214          48.000  
G14  22009871.292   115662882.795       -2321.698          47.000    22009873.067    90127085.981       -1809.156          50.000  
E02  24664250.474   129611754.552        -789.978          48.000    24664255.496    99313085.775        -605.254          52.000  
G22  21616445.975   113595536.495        -134.505          45.000                                                                  
G17  24729002.632   129951968.659        1953.593          43.000    24729012.356   101261433.258        1522.022          42.000  
E25  27155903.005   142705451.899       -3109.845          45.000    27155911.486   109345861.789       -2382.868          50.000  
E18  22436513.277   117904768.267        2241.156          41.000                                                                  
E07                                                                  28376834.803   114261754.497        1268.857          36.000  
> 2024 04 16 20 26 30.0050000  0 25                     
G13  22089455.631   116080972.818         787.817          48.000                                                                  
G15  24286480.186   127626326.624        2020.840          45.000    24286483.280    99449119.835        1574.469          41.000  
G19  25370101.127   133320872.428        2178.815          41.000                                                                  
G07  26324078.403                       -3728.563          28.000                                                                  
R05  20581514.165   110020246.039         -18.092          52.000    20581515.429    85571189.932         -14.149          49.000  
R16  22361831.681   119452950.720        1416.229          52.000    22361838.227    92908216.077        1101.367          50.000  
R04  21962215.992   117606777.862       -3799.122          51.000    21962218.745    91471918.179       -2954.779          50.000  
R06  24646638.913                1       3253.399          31.000                                                                  
R14  23797754.089   126855473.165       -4347.430          53.000    23797760.422    98665555.164       -3381.481          48.000  
E08  25024997.359   131507394.328         174.758          48.000    25025001.277   100765470.527         133.968          51.000  
S31  40197852.109   211241067.058        -808.121          42.000  
S33  41148964.317   216239170.391        -808.319          44.000  
G20  24300975.062   127702392.716       -3819.833          44.000                                                                  
E03  25815745.576   135662687.069       -2142.992          46.000    25815753.422   103949377.892       -1642.010          53.000  
R15  20886516.854   111611604.726       -2012.898          51.000    20886518.900    86808887.091       -1565.563          48.000  
G05  23079795.989   121285090.900       -2098.705          49.000    23079799.012    94507917.105       -1635.264          43.000  
G30  23644452.106   124252607.249       -2913.779          46.000    23644455.381    96820328.274       -2270.560          43.000  
E30  26749735.568   140571117.672        1592.507          46.000    26749747.898   107710564.763        1220.267          49.000  
G14  22023170.861   115732772.100       -2337.763          46.000    22023172.559    90181545.139       -1821.614          50.000  
E02  24668794.927   129635634.607        -802.355          48.000    24668799.633    99331383.525        -614.740          52.000  
G22  21617267.916   113599855.037        -153.591          46.000                                                                  
G17  24717866.292   129893447.442        1947.575          46.000    24717875.167   101215832.694        1517.485          42.000  
E25  27173671.622   142798828.511       -3115.580          45.000    27173680.890   109417410.045       -2387.331          51.000  
E18  22423772.874   117837817.920        2221.390          42.000                                                                  
E07                                                                  28367378.041   114223679.999        1269.078          35.000  
> 2024 04 16 20 27 00.0050000  0 24                     
G13  22084981.057   116057457.090         779.736          48.000                                                                  
G15  24274954.260   127565757.078        2016.780          46.000    24274957.064    99401922.883        1571.828          40.000  
G19  25357661.510   133255504.933        2178.870          43.000                                                                  
R05  20581680.535   110021135.494         -41.243          52.000    20581682.126    85571881.724         -32.103          49.000  
R16  22353921.081   119410691.829        1401.160          52.000    22353926.717    92875348.280        1089.758          50.000  
R04  21983547.777   117721011.338       -3816.591          51.000    21983551.195    91560766.211       -2968.379          50.000  
R06  24628361.841                        3250.429          30.000                                                                  
R14  23822221.801   126985903.403       -4347.998          52.000    23822228.401    98767000.765       -3381.802          47.000  
E08  25024017.462   131502249.227         168.080          48.000    25024022.182   100761528.195         128.775          52.000  
S31  40202462.692   211265297.751        -807.521          44.000  
S33  41153577.095   216263409.603        -807.776          43.000  
G20  24322794.682   127817056.240       -3824.538          42.000                                                                  
E03  25828001.126   135727092.119       -2151.010          46.000    25828009.556   103998727.156       -1648.111          53.000  
R15  20897859.561   111672215.323       -2027.875          51.000    20897861.595    86856028.640       -1577.248          48.000  
E07  28357926.561                1       1656.881          28.000    28357919.601   114185595.403        1269.940          36.000  
G05  23091824.855   121348302.823       -2115.430          49.000    23091828.813    94557173.020       -1648.493          44.000  
G30  23661092.360   124340057.133       -2916.269          46.000    23661097.417    96888470.962       -2272.494          43.000  
E30  26740663.954   140523446.812        1585.257          46.000    26740676.246   107674037.969        1214.705          48.000  
G14  22036561.249   115803139.038       -2353.487          46.000    22036563.268    90236376.468       -1833.918          50.000  
E02  24673408.823   129659882.397        -814.372          48.000    24673413.698    99349963.060        -624.025          52.000  
G22  21618198.250   113604744.298        -172.319          46.000                                                                  
G17  24706763.866   129835105.011        1941.883          45.000    24706773.090   101170371.412        1513.147          43.000  
E25  27191472.755   142892375.209       -3120.977          45.000    27191481.766   109489088.614       -2391.376          50.000  
E18  22411145.476   117771467.495        2201.695          41.000                                                                  
> 2024 04 16 20 27 30.0050000  0 25                     
G13  22080554.645   116034194.659         771.307          49.000                                                                  
G15  24263451.475   127505310.885        2013.062          45.000    24263455.146    99354822.080        1568.637          40.000  
G19  25345220.541   133190131.441        2179.205          43.000                                                                  
G07  26366632.369                3      -3725.961          26.000                                                                  
R05  20581978.632   110022725.394         -64.578          52.000    20581979.217    85573118.314         -50.141          49.000  
R16  22346095.067   119368890.755        1385.999          51.000    22346100.800    92842836.569        1077.942          49.000  
R04  22004979.573   117835775.181       -3834.094          51.000    22004981.902    91650026.765       -2982.026          49.000  
R06  24610099.930                        3246.308          32.000                                                                  
R14  23846695.483   127116357.106       -4348.666          52.000    23846700.945    98868464.565       -3382.356          46.000  
E08  25023078.416   131497313.827         161.224          48.000    25023083.014   100757746.521         123.441          52.000  
S31  40207072.647   211289523.620        -807.198          43.000  
S33  41158188.777   216287646.005        -807.767          43.000  
G20  24344645.387   127931877.977       -3829.712          43.000                                                                  
E03  25840303.388   135791744.055       -2158.963          46.000    25840312.615   104048265.601       -1654.324          53.000  
R15  20909287.823   111733286.121       -2043.170          51.000    20909289.812    86903528.130       -1589.079          48.000  
E07  28348449.545                        1656.895          28.000    28348459.780   114147503.144        1269.975          36.000  
G05  23103950.623   121412025.652       -2132.490          49.000    23103954.878    94606827.047       -1661.553          44.000  
G30  23677748.725   124427590.384       -2918.930          44.000    23677754.328    96956678.625       -2274.371          43.000  
E30  26731634.831   140476005.453        1577.627          45.000    26731648.412   107637687.056        1208.955          48.000  
G14  22050043.085   115873983.745       -2369.275          46.000    22050044.794    90291580.136       -1846.241          50.000  
E02  24678093.477   129684499.621        -826.412          48.000    24678098.015    99368825.644        -633.323          52.000  
G22  21619238.045   113610206.952        -191.414          47.000                                                                  
G17  24695696.177   129776946.957        1935.633          45.000    24695706.488   101125053.823        1508.395          44.000  
E25  27209306.862   142986092.613       -3126.423          44.000    27209315.737   109560897.970       -2395.637          49.000  
E18  22398634.064   117705724.730        2181.677          42.000                                                                  
> 2024 04 16 20 28 00.0050000  0 25                     
G13  22076177.723   116011192.087         762.277          49.000                                                                  
G15  24251973.519   127444994.888        2008.254          44.000    24251977.374    99307822.698        1564.848          41.000  
G19  25332780.988   133124759.347        2178.961          43.000                                                                  
G07  26387900.219   138669309.2291      -3723.454          28.000    26387903.418                       -2901.347          28.000  
R05  20582408.153   110025022.673         -88.553          52.000    20582408.740    85574905.075         -68.760          49.000  
R16  22338356.500   119327552.549        1370.178          52.000    22338362.258    92810684.854        1065.631          49.000  
R04  22026510.250   117951071.624       -3852.163          51.000    22026513.165    91739701.554       -2996.102          51.000  
R06  24591862.363                        3242.217          28.000                                                                  
R14  23871172.132   127246836.426       -4349.854          52.000    23871179.737    98969948.354       -3383.113          48.000  
E08  25022180.997   131492593.967         153.636          48.000    25022185.121   100754129.995         117.671          52.000  
S31  40211682.946   211313749.841        -807.462          42.000  
S33  41162800.626   216311881.595        -807.783          42.000  
G20  24366526.359   128046859.689       -3835.430          43.000                                                                  
E03  25852654.251   135856647.612       -2167.665          45.000    25852663.524   104097996.826       -1660.953          53.000  
R15  20920802.639   111794819.240       -2058.927          50.000    20920804.167    86951387.207       -1601.375          47.000  
E07  28338994.701   148922395.3541       1657.563          31.000    28338996.510   114109407.508        1269.711          34.000  
G05  23116174.510   121476262.718       -2149.892          48.000    23116178.828    94656881.801       -1675.158          43.000  
G30  23694423.011   124515211.003       -2922.107          45.000    23694428.808    97024954.349       -2276.949          44.000  
E30  26722651.130   140428799.165        1569.585          44.000    26722664.881   107601516.226        1202.687          48.000  
G14  22063615.669   115945308.661       -2385.476          47.000    22063616.734    90347157.984       -1858.840          50.000  
E02  24682849.204   129709490.156        -839.415          48.000    24682853.447    99387974.279        -643.105          52.000  
G22  21620387.396   113616247.449        -211.084          47.000                                                                  
G17  24684665.387   129718981.004        1928.784          45.000    24684675.964   101079885.946        1502.887          45.000  
E25  27227172.475   143079983.542       -3132.714          44.000    27227182.623   109632840.343       -2400.285          49.000  
E18  22386240.710   117640599.592        2160.228          42.000                                                                  
> 2024 04 16 20 28 30.0050000  0 25                     
G13  22071851.425   115988457.732         753.227          49.000                                                                  
G15  24240521.952   127384817.274        2003.484          45.000    24240525.666    99260931.137        1561.197          41.000  
G19  25320342.951   133059398.343        2178.247          45.000                                                                  
G07  26409155.014                1      -3722.454          26.000    26409154.466                3      -2909.602          23.000  
R05  20582971.062   110028035.817        -112.488          51.000    20582972.107    85577248.646         -87.452          48.000  
R16  22330704.877   119286683.964        1354.297          51.000    22330711.993    92778898.431        1053.418          50.000  
R04  22048141.498   118066904.767       -3870.144          51.000    22048144.539    91829793.764       -3010.085          50.000  
R06  24573647.376                        3237.503          31.000                                                                  
R14  23895655.765   127377345.068       -4350.887          51.000    23895664.038    99071454.964       -3384.062          50.000  
E08  25021324.743   131488097.325         146.054          48.000    25021329.258   100750684.516         111.993          52.000  
S31  40216293.949   211337981.664        -807.989          43.000  
S33  41167413.376   216336122.633        -808.058          42.000  
G20  24388437.624   128162004.808       -3840.933          43.000                                                                  
E03  25865054.280   135921809.279       -2176.413          46.000    25865063.210   104147925.841       -1667.699          53.000  
R15  20932404.776   111856818.581       -2074.478          51.000    20932406.104    86999608.906       -1613.445          47.000  
E07  28329526.511                1       1657.038          28.000    28329537.243   114071314.167        1269.643          36.000  
G05  23128496.776   121541018.108       -2167.180          48.000    23128501.676    94707340.411       -1688.499          44.000  
G30  23711114.937   124602924.753       -2925.411          45.000    23711119.564    97093302.645       -2279.385          43.000  
E30  26713714.729   140381835.313        1561.480          45.000    26713727.983   107565531.178        1196.310          48.000  
G14  22077280.262   116017118.023       -2401.618          46.000    22077282.035    90403113.326       -1871.554          50.000  
E02  24687676.588   129734859.814        -851.988          48.000    24687681.171    99407413.399        -652.827          52.000  
G22  21621647.717   113622872.478        -230.663          47.000                                                                  
G17  24673672.408   129661217.100        1921.926          46.000    24673682.743   101034875.536        1497.785          44.000  
E25  27245073.952   143174052.818       -3138.612          45.000    27245082.963   109704919.332       -2404.922          48.000  
E18  22373968.133   117576103.962        2139.206          45.000                                                                  
> 2024 04 16 20 29 00.0050000  0 25                     
G13  22067575.125   115965985.606         745.013          49.000                                                                  
G15  24229095.728   127324772.305        1999.429          44.000    24229099.841    99214142.920        1558.274          42.000  
G19  25307905.114   132994043.512        2178.717          44.000                                                                  
R05  20583667.924   110031759.010        -135.721          51.000    20583668.883    85580144.435        -105.679          49.000  
R16  22323140.864   119246277.565        1339.343          51.000    22323147.885    92747471.503        1041.730          50.000  
R04  22069871.174   118183264.150       -3887.173          51.000    22069874.006    91920295.290       -3023.404          50.000  
R06  24555456.710   131032601.2021       3234.061          32.000                                                                  
R14  23920142.671   127507872.839       -4350.995          48.000    23920150.857    99172976.434       -3384.201          49.000  
E08  25020510.668   131483817.205         139.323          48.000    25020514.870   100747404.952         106.685          52.000  
S31  40220904.932   211362212.501        -807.364          44.000  
S33  41172026.189   216360363.726        -807.752          42.000  
G20  24410377.745   128277302.345       -3845.429          43.000                                                                  
E03  25877502.080   135987221.300       -2184.350          46.000    25877511.100   104198046.651       -1673.767          54.000  
R15  20944092.755   111919272.799       -2089.078          51.000    20944094.481    87048184.400       -1624.897          47.000  
E07  28320064.743                1       1657.647          31.000    28320076.695   114033217.664        1270.188          37.000  
G05  23140917.053   121606281.314       -2183.736          49.000    23140920.708    94758194.739       -1701.374          43.000  
G30  23727821.599   124690723.089       -2927.924          43.000    23727827.161    97161716.846       -2281.364          43.000  
E30  26704822.266   140335107.017        1553.797          45.000    26704835.273   107529726.597        1190.588          47.000  
G14  22091035.219   116089401.828       -2417.159          45.000    22091037.391    90459438.319       -1883.572          50.000  
E02  24692574.087   129760599.890        -864.056          48.000    24692579.771    99427136.350        -662.002          52.000  
G22  21623017.714   113630073.965        -249.623          47.000                                                                  
G17  24662717.680   129603650.191        1915.880          45.000    24662727.350   100990018.611        1492.875          43.000  
E25  27263006.523   143268290.746       -3143.793          43.000    27263016.451   109777127.589       -2409.024          49.000  
E18  22361813.192   117512235.187        2118.633          45.000                                                                  
G07                                                                  26430406.877                       -2898.537          26.000  
> 2024 04 16 20 29 30.0050000  0 25                     
G13  22063345.182   115943759.055         736.852          49.000                                                                  
G15  24217691.812   127264843.152        1995.672          45.000    24217695.655    99167444.950        1555.075          43.000  
G19  25295465.663   132928678.868        2178.912          45.000                                                                  
R05  20584494.193   110036175.469        -158.829          51.000    20584494.964    85583579.435        -123.528          49.000  
R16  22315659.890   119206314.433        1324.634          52.000    22315665.602    92716389.275        1030.334          49.000  
R04  22091694.673   118300128.330       -3903.964          51.000    22091697.609    92011189.439       -3036.429          50.000  
R06  24537285.894                        3230.552          28.000                                                                  
R14  23944627.669   127638397.961       -4350.838          47.000    23944636.916    99274495.835       -3383.953          50.000  
E08  25019734.065   131479736.038         132.661          48.000    25019738.269   100744277.836         101.674          52.000  
S31  40225511.627   211386422.392        -806.693          44.000  
S33  41176635.269   216384583.126        -807.145          43.000  
G20  24432343.737   128392730.103       -3849.799          42.000                                                                  
E03  25889993.649   136052864.978       -2192.108          46.000    25890002.878   104248344.980       -1679.611          54.000  
R15  20955862.749   111982160.307       -2103.484          52.000    20955863.631    87097096.878       -1635.960          48.000  
E07  28310599.987                        1658.727          30.000    28310610.141   113995104.471        1271.053          35.000  
G05  23153428.998   121672032.633       -2199.864          49.000    23153432.354    94809429.444       -1714.042          43.000  
G30  23744540.492   124778586.666       -2930.122          42.000    23744547.256    97230181.856       -2283.141          43.000  
E30  26695971.679   140288596.322        1546.633          45.000    26695984.085   107494088.760        1185.082          47.000  
G14  22104876.659   116162138.983       -2432.143          46.000    22104878.640    90516116.638       -1895.131          49.000  
E02  24697539.951   129786690.980        -875.611          48.000    24697544.566    99447128.229        -670.956          52.000  
G22  21624494.056   113637833.500        -268.184          46.000                                                                  
G17  24651797.107   129546264.731        1909.811          46.000    24651806.812   100945303.033        1488.256          43.000  
E25  27280968.071   143362676.914       -3148.591          44.000    27280977.121   109849449.377       -2412.612          48.000  
E18  22349774.086   117448979.824        2098.241          44.000                                                                  
G07                                                                  26451629.331                3      -2897.170          23.000  
