     3.00           OBSERVATION DATA    M: Mixed            RINEX VERSION / TYPE
CONVBIN 2.4.3                           20240416 081442 UTC PGM / RUN BY / DATE 
format: u-blox UBX                                          COMMENT             
log: /home/regis/git/gnsspwv/obsdata/VERT00CHL/2024-04-16/VECOMMENT             
{self.marker}                                               MARKER NAME         
                                                            MARKER NUMBER       
GEODETIC                                                    MARKER TYPE         
{self.observer}     {self.institution}                      OBSERVER / AGENCY   
UNKNOWN             UBLOX-ZED-F9P                           REC # / TYPE / VERS 
UNKNOWN             TWIVSP6037L                             ANT # / TYPE        
  1713381.0000 -5047934.0000 -3490983.0000                  APPROX POSITION XYZ 
        0.0000        0.0000        0.0000                  ANTENNA: DELTA H/E/N
G    8 C1C L1C D1C S1C C2L L2L D2L S2L                      SYS / # / OBS TYPES 
R    8 C1C L1C D1C S1C C2C L2C D2C S2C                      SYS / # / OBS TYPES 
E    8 C1C L1C D1C S1C C7Q L7Q D7Q S7Q                      SYS / # / OBS TYPES 
S    4 C1C L1C D1C S1C                                      SYS / # / OBS TYPES 
  2024    04    16    08    00   00.0120000     GPS         TIME OF FIRST OBS   
  2024    04    16    08    14   30.4910000     GPS         TIME OF LAST OBS    
                                                            END OF HEADER       
> 2024 04 16 08 00 00.0120000  0 26                     
G18  27481854.135   144418126.8201      -3219.067          36.000    27481850.624   112533626.1601      -2508.118          32.000  
G26  25667671.693   134884534.9431      -3692.008          43.000    25667671.829   105104838.6251      -2876.852          43.000  
G23  24822639.587   130444081.7011      -2821.112          48.000    24822636.331   101644756.5401      -2198.194          48.000  
G16  24355085.484   127986869.4471      -1405.206          46.000                                                                  
R11  26453134.771   141357611.1891      -4728.263          45.000    26453134.031   109944860.7461      -3677.758          44.000  
R13  26157959.155                1        989.371          27.000    26157958.792                3        761.972          20.000  
R21  24815556.982   132793247.0271      -2004.098          51.000    24815551.768   103283707.7381      -1558.951          45.000  
S33  43250044.606   227280587.4891       -638.437          42.000  
S31  42296108.944   222267635.8651       -638.661          44.000  
G10  23557178.429   123793974.8581       -231.348          50.000    23557177.634    96462830.5191       -180.298          48.000  
E11  26955377.166   141651477.8761          6.919          43.000    26955376.841   108538200.9741          5.425          48.000  
R12  24641814.327   131632181.4261      -2105.132          51.000    24641814.595   102380710.6721      -1637.435          47.000  
R22  23980476.618   128009518.9121         92.472          51.000    23980474.681    99563006.8701         71.947          50.000  
R07  24609602.870   131737118.6031       2669.546          52.000    24609601.131   102462263.4841       2076.353          50.000  
R06  24381591.735   130104948.1131       -980.695          40.000                                                                  
G27  24556059.256   129042984.4191       1230.853          49.000    24556057.658   100552981.0311        959.027          46.000  
G08  26783536.858   140748482.8851       2417.852          41.000    26783535.410   109674160.1181       1883.751          39.000  
E04  30902164.205   162391981.6011       1925.069          42.000    30902167.818   124430242.3271       1475.177          48.000  
E31  30817280.218   161946011.2161      -3738.397          37.000    30817283.628   124088570.0991      -2864.192          38.000  
E25  28449888.187   149505120.1961        223.969          46.000    28449890.613   114555895.0171        171.546          49.000  
E14  31500108.527   165534355.3171       -858.810          44.000    31500111.162   126837987.1751       -658.020          49.000  
E19  30371325.364   159602442.4601        569.441          35.000    30371323.857   122292803.7181        436.405          41.000  
E24  27982943.572   147051395.0061      -2487.364          48.000    27982943.977   112675765.7091      -1905.769          51.000  
G32  27895201.477   146590283.9391       2409.320          45.000    27895201.803   114226220.5981       1877.767          39.000  
E12  28171801.030   148043936.3841      -1794.809          42.000    28171800.301   113436346.8981      -1375.230          50.000  
E10  27490308.731   144462744.2151       -984.188          48.000    27490310.771   110692431.7751       -754.162          53.000  
> 2024 04 16 08 00 30.0120000  0 26                     
G18  27500229.896   144514686.238       -3217.413          35.000    27500225.154   112608867.190       -2506.927          32.000  
G26  25688773.598   134995425.304       -3700.335          44.000    25688773.782   105191246.654       -2883.282          43.000  
G23  24838784.083   130528924.240       -2834.791          48.000    24838781.112   101710867.659       -2208.822          48.000  
G16  24363163.199   128029315.936       -1424.261          47.000                                                                  
R11  26479684.165   141499486.128       -4729.555          45.000    26479684.741   110055207.899       -3678.557          44.000  
R13  26152459.216                1        968.052          28.000    26152483.494                3        762.731          23.000  
R21  24826800.700   132853412.781       -2006.667          52.000    24826794.943   103330503.293       -1560.606          45.000  
S33  43253686.585   227299725.873        -637.546          42.000  
S31  42299752.966   222286784.558        -637.661          44.000  
G10  23558558.487   123801223.323        -251.636          50.000    23558557.237    96468478.683        -196.146          48.000  
E11  26955345.995   141651317.349           3.949          43.000    26955345.942   108538078.081           3.049          47.000  
R12  24653702.191   131695678.773       -2127.560          52.000    24653700.300   102430097.520       -1654.675          46.000  
R22  23979966.179   128006798.988          89.212          50.000    23979965.303    99560891.443          69.348          50.000  
R07  24594683.385   131657255.717        2654.943          51.000    24594682.035   102400147.997        2064.997          50.000  
R06  24387179.062   130134764.565       -1006.793          41.000                                                                  
G27  24549053.621   129006168.875        1223.914          50.000    24549051.282   100524293.587         953.766          46.000  
G08  26769736.208   140675958.320        2417.289          41.000    26769733.449   109617647.488        1883.620          38.000  
E04  30891170.779   162334206.238        1926.774          43.000    30891173.213   124385972.973        1476.385          48.000  
E31  30838620.016   162058156.555       -3737.995          36.000    30838624.517   124174499.670       -2864.378          38.000  
E25  28448645.442   149498595.812         211.518          46.000    28448649.297   114550895.821         161.939          49.000  
E14  31504995.815   165560038.614        -852.991          44.000    31504998.846   126857666.581        -653.663          50.000  
E19  30368103.285   159585519.379         559.153          33.000    30368103.374   122279836.711         428.536          40.000  
E24  27997171.391   147126164.418       -2497.226          48.000    27997172.270   112733056.559       -1913.424          51.000  
G32  27881445.891   146517995.261        2410.206          45.000    27881445.160   114169891.818        1878.136          39.000  
E12  28182049.815   148097791.772       -1795.250          43.000    28182048.425   113477612.729       -1375.563          50.000  
E10  27495934.649   144492307.859        -986.394          48.000    27495936.328   110715084.417        -755.752          53.000  
> 2024 04 16 08 01 00.0120000  0 26                     
G18  27518600.574   144611225.852       -3218.329          33.000    27518597.357   112684092.844       -2506.927          36.000  
G26  25709924.773   135106577.554       -3709.325          44.000    25709925.152   105277858.773       -2890.408          42.000  
G23  24855012.112   130614200.715       -2849.663          49.000    24855008.903   101777316.886       -2220.700          48.000  
G16  24371352.564   128072352.442       -1444.366          46.000                                                                  
R11  26506244.147   141641415.912       -4731.924          45.000    26506244.601   110165597.783       -3680.377          43.000  
R13  26147087.793                1        944.680          26.000    26147120.419                3        737.372          24.000  
R21  24838062.595   132913677.641       -2010.498          52.000    24838057.227   103377376.008       -1563.893          45.000  
S33  43257327.946   227318861.771        -637.664          42.000  
S31  42303396.554   222305931.174        -638.250          44.000  
G10  23560057.865   123809102.272        -273.252          51.000    23560057.227    96474618.162        -213.024          48.000  
E11  26955336.133   141651267.608          -0.139          43.000    26955336.511   108538040.037          -0.217          47.000  
R12  24665718.924   131759869.776       -2151.191          53.000    24665716.402   102480023.865       -1673.466          46.000  
R22  23979479.447   128004201.508          84.603          50.000    23979478.002    99558871.275          65.769          50.000  
R07  24579851.495   131577858.803        2638.763          51.000    24579849.405   102338394.948        2052.362          49.000  
R06  24392916.536   130165379.525       -1033.734          41.000                                                                  
G27  24542092.609   128969587.409        1215.363          50.000    24542089.774   100495788.568         947.052          45.000  
G08  26755940.642   140603466.480        2416.022          39.000    26755938.790   109561160.404        1882.448          39.000  
E04  30880171.318   162276405.050        1927.250          43.000    30880174.296   124341683.789        1476.662          47.000  
E31  30859962.679   162170313.574       -3738.457          36.000    30859967.945   124260438.173       -2864.497          38.000  
E25  28447480.737   149492472.775         197.343          46.000    28447484.086   114546204.135         151.331          49.000  
E14  31509855.920   165585577.211        -848.925          44.000    31509859.232   126877235.107        -650.415          50.000  
E19  30364941.398   159568912.943         548.251          33.000    30364943.310   122267112.414         419.967          40.000  
E24  28011461.197   147201259.701       -2508.393          48.000    28011462.696   112790597.101       -1922.084          52.000  
G32  27867688.673   146445700.109        2409.882          45.000    27867686.929   114113558.035        1877.695          38.000  
E12  28192305.047   148151684.118       -1796.982          43.000    28192303.755   113518906.913       -1376.894          50.000  
E10  27501576.683   144521956.554        -989.626          48.000    27501578.282   110737802.265        -758.285          53.000  
> 2024 04 16 08 01 30.0120000  0 28                     
G18  27536970.506   144707751.077       -3217.419          35.000    27536966.569                       -2508.094          31.000  
G26  25731127.052   135217994.657       -3718.392          45.000    25731126.926   105364677.274       -2897.553          42.000  
G23  24871322.732   130699914.472       -2864.461          49.000    24871319.353   101844106.860       -2232.025          47.000  
G16  24379654.328   128115983.922       -1464.459          45.000                                                                  
R11  26532815.716   141783401.924       -4733.858          46.000    26532815.056   110276031.357       -3682.063          43.000  
R13  26141861.534                3        919.410          24.000                                                                  
R21  24849345.000   132974048.163       -2014.211          52.000    24849339.903   103424330.846       -1566.627          47.000  
R08  27610438.289                3       4118.484          12.000                                                                  
S33  43260970.133   227338000.758        -638.148          42.000  
S31  42307040.198   222325080.444        -638.231          44.000  
G10  23561678.377   123817617.524        -294.704          52.000    23561676.837    96481253.453        -229.626          48.000  
E11  26955349.665   141651333.940          -4.061          44.000    26955349.159   108538090.909          -3.172          47.000  
R12  24677865.370   131824757.506       -2174.549          51.000    24677865.243   102530492.083       -1691.307          48.000  
R22  23979017.150   128001732.385          80.145          51.000    23979015.101    99556950.890          62.372          50.000  
R07  24565109.775   131498938.229        2622.626          53.000    24565106.452   102277012.342        2039.832          49.000  
R06  24398805.089   130196798.949       -1060.785          41.000                                                                  
G27  24535177.349   128933248.003        1207.172          49.000    24535174.372   100467472.171         940.454          45.000  
G08  26742152.511   140531014.904        2414.338          38.000    26742152.210   109504704.655        1881.161          39.000  
E04  30869168.724   162218586.302        1927.337          43.000    30869171.772   124297381.200        1476.902          48.000  
E31  30881308.174   162282486.517       -3739.227          37.000    30881312.890   124346388.887       -2865.142          37.000  
E25  28446393.807   149486757.794         183.569          47.000    28446396.554   114541825.134         140.699          49.000  
E14  31514690.801   165610977.889        -844.568          44.000    31514692.944   126896697.941        -647.053          51.000  
E19  30361844.144   159552631.161         537.130          33.000    30361845.420   122254636.801         411.725          40.000  
E24  28025814.788   147276685.475       -2519.802          48.000    28025815.740   112848390.868       -1930.773          52.000  
G32  27853931.548   146373407.549        2409.565          45.000    27853930.044   114057226.332        1877.396          38.000  
E12  28202568.115   148205619.025       -1798.774          43.000    28202567.069   113560233.682       -1378.176          50.000  
E10  27507236.194   144551695.637        -992.873          48.000    27507237.389   110760589.392        -760.786          53.000  
E33                                                                  31807892.059                3      -1991.809          25.000  
> 2024 04 16 08 02 00.0120000  0 27                     
G18  27555335.132   144804260.689       -3217.004          33.000    27555327.954   112834509.586       -2505.829          32.000  
G26  25752378.524   135329672.643       -3726.781          46.000    25752378.741   105451699.059       -2904.106          43.000  
G23  24887716.700   130786062.002       -2878.650          50.000    24887712.339   101911234.845       -2243.234          47.000  
G16  24388070.116   128160208.962       -1483.838          45.000                                                                  
R11  26559396.828   141925439.313       -4735.174          47.000    26559395.617   110386504.950       -3682.927          43.000  
R13  26136749.769                2        897.574          26.000    26136784.125                3        697.650          25.000  
R21  24860644.848   133034524.047       -2017.536          51.000    24860639.830   103471367.628       -1569.118          46.000  
R08  27587588.525                3       4104.250          11.000                                                                  
S33  43264612.898   227357143.664        -637.791          42.000  
S31  42310684.740   222344232.364        -638.240          44.000  
G10  23563420.244   123826767.948        -315.418          52.000    23563418.195    96488383.711        -245.838          49.000  
E11  26955384.790   141651514.812          -7.700          44.000    26955383.500   108538229.559          -5.811          47.000  
R12  24690141.842   131890338.260       -2197.405          50.000    24690142.175   102581499.330       -1709.066          48.000  
R22  23978579.072   127999390.838          76.100          52.000    23978577.152    99555129.733          59.245          50.000  
R07  24550456.187   131420498.626        2606.793          52.000    24550453.059   102216003.922        2027.490          49.000  
R06  24404843.637   130229021.610       -1087.292          41.000                                                                  
G27  24528308.205   128897151.964        1199.219          48.000    24528305.681   100439345.442         934.479          45.000  
G08  26728372.599   140458604.719        2413.194          37.000    26728373.348   109448281.169        1880.063          39.000  
E04  30858163.261   162160751.001        1928.435          43.000    30858166.142   124253065.982        1477.678          47.000  
E31  30902657.490   162394672.751       -3739.540          38.000    30902660.460   124432349.760       -2864.952          37.000  
E25  28445384.171   149481450.794         170.329          47.000    28445386.746   114537758.744         130.420          49.000  
E14  31519497.595   165636240.425        -839.634          44.000    31519500.083   126916054.950        -643.319          51.000  
E19  30358806.697   159536674.063         527.381          31.000    30358808.956   122242410.055         403.705          40.000  
E24  28040229.972   147352439.412       -2530.502          47.000    28040231.219   112906436.075       -1938.922          52.000  
G32  27840174.954   146301119.672        2409.472          44.000    27840174.760   114000898.166        1877.966          38.000  
E12  28212839.721   148259595.008       -1799.506          44.000    28212838.563   113601591.931       -1378.846          50.000  
E10  27512912.249   144581523.350        -995.664          48.000    27512913.713   110783444.412        -762.821          53.000  
> 2024 04 16 08 02 30.0120000  0 26                     
G18  27573694.948   144900742.285       -3215.216          33.000    27573699.690   112909690.130       -2506.360          32.000  
G26  25773676.661   135441596.750       -3734.939          45.000    25773677.587   105538912.611       -2910.422          43.000  
G23  24904189.931   130872628.948       -2892.650          50.000    24904184.847   101978689.665       -2253.920          46.000  
G16  24396597.397   128205014.408       -1503.284          46.000                                                                  
R11  26585983.427   142067511.561       -4735.668          47.000    26585982.738   110497005.674       -3683.782          41.000  
R13  26131768.582                         874.742          29.000    26131773.489                1        680.629          29.000  
R21  24871964.185   133095093.729       -2020.622          51.000    24871959.270   103518477.400       -1571.503          47.000  
S33  43268253.757   227376274.963        -637.365          42.000  
S31  42314327.304   222363374.759        -637.977          44.000  
G10  23565279.590   123836541.569        -336.185          52.000    23565278.097    96495999.575        -261.947          49.000  
E11  26955438.890   141651797.697         -11.216          44.000    26955437.643   108538446.375          -8.688          47.000  
R12  24702545.915   131956597.094       -2219.968          51.000    24702546.188   102633033.945       -1726.707          48.000  
R22  23978161.919   127997164.998          72.276          51.000    23978160.282    99553398.593          56.185          51.000  
R07  24535892.297   131342531.367        2590.955          53.000    24535888.114   102155362.754        2015.186          50.000  
R06  24411029.650   130262035.433       -1113.562          41.000                                                                  
G27  24521483.259   128861289.427        1191.431          48.000    24521481.082   100411400.650         928.528          45.000  
G08  26714600.283   140386225.509        2412.187          38.000    26714599.749   109391881.822        1879.712          40.000  
E04  30847152.390   162102889.293        1928.985          44.000    30847155.159   124208730.462        1478.211          47.000  
E31  30924004.904   162506858.794       -3739.684          38.000    30924007.952   124518310.515       -2865.552          36.000  
E25  28444449.350   149476540.729         156.882          47.000    28444452.263   114533996.481         120.275          49.000  
E14  31524277.229   165661353.920        -834.748          45.000    31524278.455   126935297.750        -639.571          50.000  
E19  30355832.178   159521031.675         516.156          34.000    30355832.658   122230424.377         395.154          41.000  
E24  28054705.134   147428508.307       -2540.853          47.000    28054706.510   112964722.611       -1946.858          52.000  
G32  27826417.519   146228827.752        2409.650          42.000    27826418.057   113944566.880        1877.644          39.000  
E12  28223116.474   148313599.753       -1800.714          43.000    28223115.534   113642972.234       -1379.916          50.000  
E10  27518601.544   144611427.273        -998.155          48.000    27518604.073   110806357.833        -764.864          53.000  
> 2024 04 16 08 03 00.0120000  0 26                     
G18  27592047.573   144997201.969       -3214.937          31.000    27592050.704   112984853.515       -2505.264          34.000  
G26  25795022.988   135553770.349       -3743.305          45.000    25795022.736   105626320.561       -2917.004          42.000  
G23  24920743.129   130959619.065       -2906.733          50.000    24920738.809   102046474.213       -2265.042          46.000  
G16  24405235.517   128250406.153       -1522.845          47.000                                                                  
R11  26612577.832   142209620.915       -4737.853          46.000    26612575.795   110607535.220       -3684.800          41.000  
R13  26126920.412                3        850.794          25.000    26126926.536                         661.188          31.000  
R21  24883302.439   133155764.076       -2024.049          52.000    24883297.955   103565665.460       -1574.347          48.000  
S33  43271893.527   227395402.940        -637.641          42.000  
S31  42317969.430   222382514.032        -638.054          44.000  
G10  23567259.657   123846944.451        -357.338          52.000    23567257.940    96504105.755        -278.411          50.000  
E11  26955512.697   141652188.430         -15.032          44.000    26955511.856   108538745.842         -11.501          47.000  
R12  24715078.486   132023537.474       -2242.679          51.000    24715077.673   102685098.680       -1744.431          48.000  
R22  23977767.329   127995061.482          67.990          51.000    23977765.750    99551762.579          52.978          50.000  
R07  24521417.059   131265048.169        2574.622          52.000    24521414.925   102095098.130        2002.429          50.000  
R06  24417367.121   130295846.440       -1140.356          41.000                                                                  
G27  24514704.523   128825668.946        1183.154          46.000    24514702.945   100383644.460         921.838          45.000  
G08  26700834.991   140313885.617        2410.567          40.000    26700833.965   109335513.155        1878.285          40.000  
E04  30836137.742   162045009.479        1929.640          43.000    30836140.522   124164381.051        1478.423          46.000  
E31  30945353.720   162619049.266       -3739.762          38.000    30945356.864   124604274.654       -2865.658          36.000  
E25  28443591.498   149472034.685         143.407          46.000    28443594.752   114530543.809         109.863          49.000  
E14  31529028.757   165686325.529        -830.159          44.000    31529030.089   126954431.853        -636.139          50.000  
E19  30352915.065   159505711.781         505.005          33.000    30352917.260   122218685.774         387.171          40.000  
E24  28069240.812   147504897.105       -2551.505          46.000    28069242.741   113023254.294       -1955.176          52.000  
G32  27812661.596   146156541.250        2409.381          42.000    27812662.362   113888239.791        1877.692          40.000  
E12  28233400.342   148367639.124       -1801.940          44.000    28233398.947   113684379.052       -1380.668          51.000  
E10  27524308.561   144641413.136       -1000.929          48.000    27524310.214   110829334.037        -766.976          53.000  
> 2024 04 16 08 03 30.0120000  0 26                     
G18  27610393.387   145093643.454       -3214.148          27.000    27610399.945   113060002.693       -2504.856          36.000  
G26  25816416.228   135666194.551       -3751.450          45.000    25816415.706   105713923.808       -2923.139          41.000  
G23  24937377.645   131047033.917       -2920.715          50.000    24937373.785   102114589.711       -2275.841          47.000  
G16  24413985.144   128296386.875       -1542.328          47.000                                                                  
R11  26639177.786   142351767.541       -4738.824          46.000    26639175.631   110718093.885       -3685.691          40.000  
R13  26122219.302                3        820.395          24.000    26122208.174                         644.091          32.000  
R21  24894659.382   133216540.067       -2027.533          51.000    24894654.932   103612935.683       -1577.076          47.000  
S33  43275533.571   227414532.824        -637.635          42.000  
S31  42321611.521   222401653.449        -637.764          44.000  
G10  23569359.423   123857980.457        -378.226          51.000    23569357.428    96512705.261        -294.659          48.000  
E11  26955607.676   141652690.398         -18.449          45.000    26955606.961   108539130.568         -14.102          47.000  
R12  24727736.676   132091160.459       -2265.255          50.000    24727737.618   102737694.332       -1761.949          48.000  
R22  23977397.060   127993084.364          63.883          51.000    23977395.262    99550224.857          49.644          50.000  
R07  24507034.225   131188057.287        2558.270          52.000    24507030.606   102035216.411        1989.868          49.000  
R06  24423852.379   130330458.563       -1166.895          40.000    24423538.475                3      -1163.398          13.000  
G27  24507972.934   128790296.728        1175.061          46.000    24507971.913   100356081.716         915.710          46.000  
G08  26687078.009   140241590.794        2408.635          41.000    26687076.700   109279179.587        1877.283          41.000  
E04  30825121.150   161987117.794        1929.848          43.000    30825124.132   124120022.562        1478.866          46.000  
E31  30966704.217   162731246.642       -3739.927          38.000    30966707.190   124690244.056       -2865.624          35.000  
E25  28442812.474   149467937.568         129.832          46.000    28442815.159   114527404.451          99.418          48.000  
E14  31533753.727   165711160.145        -825.418          44.000    31533756.125   126973460.984        -632.521          50.000  
E19  30350062.398                         493.782          31.000    30350063.895   122207198.396         379.024          39.000  
E24  28083838.813   147581608.611       -2562.370          46.000    28083840.819   113082033.213       -1963.273          52.000  
G32  27798908.728   146084267.323        2408.925          43.000    27798909.117   113831922.527        1877.348          40.000  
E12  28243690.445   148421716.778       -1803.072          44.000    28243689.475   113725815.208       -1381.607          51.000  
E10  27530031.412   144671484.413       -1003.703          49.000    27530032.298   110852375.721        -769.048          53.000  
> 2024 04 16 08 04 00.0120000  0 26                     
G18  27628746.626   145190058.668       -3213.342          31.000    27628746.592   113135131.458       -2504.162          34.000  
G26  25837855.815   135778858.848       -3759.567          46.000    25837855.331   105801714.130       -2929.589          41.000  
G23  24954090.957   131134863.304       -2934.592          50.000    24954087.212   102183028.215       -2286.803          48.000  
G16  24422845.647   128342948.297       -1561.743          47.000                                                                  
R11  26665782.888   142493938.953       -4739.475          46.000    26665781.979   110828671.749       -3686.371          43.000  
R13  26117626.925                3        805.851          25.000    26117622.523                         625.310          30.000  
R21  24906034.600   133277414.476       -2030.837          50.000    24906030.425   103660282.444       -1579.739          46.000  
S33  43279172.544   227433656.764        -637.511          42.000  
S31  42325252.749   222420787.825        -637.811          44.000  
G10  23571577.872   123869641.827        -399.254          52.000    23571576.514    96521792.076        -311.094          49.000  
E11  26955723.716   141653295.337         -21.756          45.000    26955721.652   108539594.125         -16.762          46.000  
R12  24740521.511   132159455.477       -2287.795          50.000    24740522.896   102790812.624       -1779.349          49.000  
R22  23977049.183   127991226.204          59.873          51.000    23977047.166    99548779.679          46.556          50.000  
R07  24492743.458   131111555.928        2541.760          52.000    24492739.621   101975715.485        1976.972          49.000  
R06  24430487.140   130365863.531       -1193.835          40.000                                                                  
G27  24501288.499   128755167.413        1166.840          46.000    24501287.164   100328708.257         909.180          46.000  
G08  26673327.354   140169335.293        2407.845          41.000    26673326.943   109222876.728        1875.961          40.000  
E04  30814101.614   161929208.557        1930.338          43.000    30814104.690   124075650.550        1479.199          46.000  
E31  30988053.740   162843441.628       -3739.846          38.000    30988057.725   124776211.656       -2865.155          37.000  
E25  28442109.112   149464242.523         116.423          45.000    28442111.731   114524573.183          89.213          48.000  
E14  31538452.990   165735851.044        -820.510          44.000    31538454.696   126992379.978        -628.898          50.000  
E19  30347272.624   159476049.645         483.130          31.000    30347272.289   122195957.739         370.846          39.000  
E24  28098495.747   147658633.759       -2572.883          45.000    28098498.182   113141052.468       -1971.346          51.000  
G32  27785157.286   146012001.544        2408.652          44.000    27785156.773   113775611.603        1876.876          39.000  
E12  28253987.316   148475824.572       -1804.214          44.000    28253985.722   113767274.449       -1382.475          50.000  
E10  27535768.310   144701632.804       -1006.225          48.000    27535769.301   110875476.472        -771.035          53.000  
> 2024 04 16 08 04 30.0120000  0 26                     
G18  27647086.288   145286448.370       -3212.673          33.000    27647088.771   113210240.268       -2503.167          35.000  
G26  25859340.340   135891761.082       -3767.471          46.000    25859340.193   105889689.869       -2935.580          43.000  
G23  24970882.809   131223105.544       -2948.273          50.000    24970879.256   102251788.448       -2297.274          48.000  
G16  24431816.880   128390090.028       -1581.195          48.000                                                                  
R11  26692392.187   142636131.927       -4740.051          45.000    26692391.984   110939266.313       -3687.056          42.000  
R13  26113165.071                3        775.430          22.000    26113168.350                3        606.899          30.000  
R21  24917428.773   133338388.870       -2034.233          50.000    24917423.752   103707706.954       -1582.017          45.000  
S33  43282810.534   227452773.976        -637.242          42.000  
S31  42328892.712   222439915.514        -637.567          44.000  
G10  23573916.182   123881929.123        -420.093          51.000    23573915.012    96531366.608        -327.405          49.000  
E11  26955858.122   141654003.612         -25.325          45.000    26955856.183   108540136.820         -19.416          46.000  
R12  24753432.124   132228420.507       -2309.848          50.000    24753432.685   102844452.059       -1796.627          49.000  
R22  23976723.072   127989488.037          55.900          51.000    23976721.197    99547427.789          43.417          50.000  
R07  24478544.328   131035549.280        2525.269          52.000    24478541.659   101916599.273        1964.050          50.000  
R06  24437270.666   130402062.062       -1219.641          39.000                                                                  
G27  24494651.016   128720284.049        1158.734          47.000    24494649.148   100301526.458         902.997          46.000  
G08  26659585.161   140097121.834        2406.471          41.000    26659585.255   109166606.587        1875.124          40.000  
E04  30803079.096   161871284.883        1930.976          43.000    30803082.235   124031267.562        1479.511          47.000  
E31  31009403.294   162955633.416       -3739.536          38.000    31009407.391   124862176.828       -2865.335          37.000  
E25  28441482.821   149460951.259         102.924          44.000    28441485.552   114522051.305          78.822          49.000  
E14  31543124.621   165760399.981        -816.087          44.000    31543126.233   127011190.183        -625.252          50.000  
E19  30344538.580                         472.704          30.000    30344542.752   122184965.588         362.346          39.000  
E24  28113212.027   147735972.069       -2583.136          45.000    28113214.953   113200311.689       -1979.306          51.000  
G32  27771408.094   145939748.045        2408.239          45.000    27771406.860   113719310.229        1876.771          38.000  
E12  28264289.711   148529963.028       -1805.128          44.000    28264287.832   113808757.195       -1383.174          50.000  
E10  27541519.207   144731858.633       -1008.789          47.000    27541520.940   110898636.588        -773.010          53.000  
> 2024 04 16 08 05 00.0120000  0 26                     
G18  27665429.422   145382806.383       -3211.324          35.000    27665423.155   113285324.535       -2502.619          33.000  
G26  25880869.033   136004892.660       -3775.147          46.000    25880869.712   105977844.311       -2941.721          43.000  
G23  24987752.008   131311752.422       -2961.798          50.000    24987748.275   102320863.974       -2307.917          47.000  
G16  24440896.427   128437806.016       -1600.165          47.000                                                                  
R11  26719004.077   142778337.058       -4740.458          45.000    26719004.413   111049870.382       -3687.005          45.000  
R13  26108847.184                3        760.982          16.000    26108844.281                1        589.378          28.000  
R21  24928841.431   133399457.829       -2037.428          50.000    24928836.418   103755205.013       -1584.564          46.000  
S33  43286446.434   227471879.458        -636.975          42.000  
S31  42332530.475   222459032.749        -637.487          44.000  
G10  23576372.775   123894836.396        -440.883          51.000    23576371.644    96541424.262        -343.536          49.000  
E11  26956011.465   141654808.877         -28.819          45.000    26956009.814   108540753.829         -22.014          46.000  
R12  24766466.627   132298046.584       -2332.023          51.000    24766466.066   102898605.599       -1813.886          49.000  
R22  23976418.855   127987864.284          52.032          51.000    23976416.715    99546164.922          40.385          50.000  
R07  24464436.762   130960036.179        2508.563          51.000    24464435.390   101857866.893        1951.227          50.000  
R06  24444201.556   130439048.094       -1246.344          40.000                                                                  
G27  24488059.135   128685643.078        1150.476          47.000    24488057.353   100274533.512         896.478          47.000  
G08  26645849.933   140024946.509        2405.146          40.000    26645850.739   109110366.128        1873.851          39.000  
E04  30792053.272   161813343.165        1931.534          43.000    30792055.938   123986870.740        1479.890          46.000  
E31  31030750.758   163067814.726       -3739.280          38.000    31030755.810   124948133.971       -2865.151          40.000  
E25  28440931.764   149458058.807          89.532          44.000    28440935.572   114519835.022          68.557          50.000  
E14  31547768.451   165784802.050        -811.208          44.000    31547769.649   127029887.880        -621.535          50.000  
E19  30341873.101   159447678.090         462.421          31.000    30341872.200   122174218.695         353.611          37.000  
E24  28127987.982   147813616.493       -2593.499          45.000    28127989.842   113259805.467       -1987.204          50.000  
G32  27757660.536   145867504.303        2407.734          44.000    27757658.775   113663016.521        1876.028          38.000  
E12  28274596.760   148584126.117       -1806.241          44.000    28274594.782   113850258.803       -1383.926          50.000  
E10  27547284.454   144762155.614       -1011.320          47.000    27547286.384   110921851.212        -774.892          53.000  
> 2024 04 16 08 05 30.0120000  0 26                     
G18  27683754.939                       -3210.306          30.000    27683754.557   113360385.191       -2501.587          36.000  
G26  25902440.064   136118252.341       -3782.783          44.000    25902441.426   106066176.475       -2947.624          43.000  
G23  25004697.734   131400803.095       -2975.331          50.000    25004693.564   102390254.146       -2318.486          47.000  
G16  24450086.147   128486096.626       -1619.562          48.000                                                                  
R11  26745618.773   142920551.696       -4741.107          44.000    26745617.695   111160481.782       -3687.284          44.000  
R13  26104642.791                3        733.357          21.000    26104651.011                         571.316          28.000  
R21  24940272.973   133460623.878       -2040.776          51.000    24940266.493   103802778.587       -1587.063          46.000  
S33  43290080.411   227490977.551        -636.751          42.000  
S31  42336166.382   222478140.312        -636.946          44.000  
G10  23578947.635   123908364.964        -461.652          52.000    23578945.868    96551965.994        -359.647          49.000  
E11  26956183.090   141655712.293         -32.117          45.000    26956181.789   108541446.080         -24.506          47.000  
R12  24779624.756   132368332.395       -2354.166          51.000    24779623.905   102953272.282       -1831.153          49.000  
R22  23976137.205   127986357.013          48.007          52.000    23976134.512    99544992.669          37.358          50.000  
R07  24450423.922   130885023.208        2491.833          52.000    24450422.162   101799523.556        1938.056          50.000  
R06  24451280.926   130476822.715       -1272.693          40.000                                                                  
G27  24481514.097   128651248.479        1141.962          48.000    24481512.512   100247732.547         889.893          47.000  
G08  26632123.428   139952813.116        2403.646          41.000    26632124.349   109054158.355        1872.865          40.000  
E04  30781024.402   161755387.144        1931.948          43.000    30781026.717   123942462.950        1480.257          46.000  
E31  31052096.192   163179985.655       -3739.378          38.000    31052101.445   125034083.133       -2865.116          40.000  
E25  28440457.501   149455567.679          75.976          44.000    28440461.723   114517926.241          58.208          49.000  
E14  31552383.669   165809059.909        -806.428          43.000    31552385.830   127048475.068        -617.985          50.000  
E19  30339265.994                         450.770          29.000    30339263.436   122163719.457         345.658          35.000  
E24  28142821.572   147891567.352       -2603.677          46.000    28142823.538   113319534.041       -1995.072          50.000  
G32  27743915.701   145795275.036        2407.056          43.000    27743914.477   113606734.034        1875.613          39.000  
E12  28284909.119   148638315.023       -1807.133          44.000    28284906.520   113891780.198       -1384.654          50.000  
E10  27553063.886   144792524.863       -1013.790          48.000    27553065.424   110945121.224        -776.806          53.000  
> 2024 04 16 08 06 00.0120000  0 26                     
G18  27702079.714   145575429.249       -3209.722          28.000    27702079.286   113435420.333       -2500.692          35.000  
G26  25924053.924   136231834.926       -3789.803          45.000    25924055.511   106154682.359       -2953.156          44.000  
G23  25021719.700   131490252.751       -2988.358          50.000    25021714.630   102459955.223       -2328.711          46.000  
G16  24459383.961   128534958.813       -1638.470          47.000                                                                  
R11  26772232.418   143062769.652       -4740.734          41.000    26772231.149   111271095.880       -3687.281          43.000  
R21  24951721.030   133521885.468       -2043.829          51.000    24951714.659   103850426.509       -1589.479          46.000  
S33  43293712.161   227510062.326        -636.029          42.000  
S31  42339800.337   222497236.007        -636.544          44.000  
G10  23581639.606   123922512.311        -482.116          51.000    23581637.881    96562989.897        -375.613          49.000  
E11  26956372.664   141656711.038         -35.007          45.000    26956372.091   108542211.367         -26.764          47.000  
R12  24792905.196   132439272.657       -2375.656          52.000    24792903.265   103008447.996       -1847.842          48.000  
R22  23975875.827   127984963.933          44.378          51.000    23975873.555    99543909.194          34.496          50.000  
R07  24436505.226   130810512.193        2475.177          52.000    24436502.206   101741570.634        1925.165          50.000  
R06  24458507.512   130515383.091       -1298.523          40.000                                                                  
G27  24475015.732   128617100.164        1134.125          48.000    24475014.436   100221123.494         883.698          47.000  
G08  26618404.726   139880721.085        2402.084          40.000    26618405.867   108997982.816        1871.610          40.000  
E04  30769992.892   161697416.540        1932.106          42.000    30769994.705   123898043.918        1480.619          45.000  
E31  31073439.227   163292142.278       -3738.419          39.000    31073444.315   125120021.374       -2864.702          41.000  
E25  28440059.201   149453476.333          62.943          44.000    28440063.657   114516323.811          48.238          49.000  
E14  31556971.953   165833172.145        -801.334          44.000    31556974.257   127066950.678        -614.035          50.000  
E19  30336716.025   159420595.819         440.272          32.000    30336718.189   122153467.393         337.479          36.000  
E24  28157712.306   147969821.055       -2613.631          45.000    28157714.778   113379494.662       -2002.626          51.000  
G32  27730173.555   145723061.339        2406.601          44.000    27730172.177   113550463.728        1875.095          38.000  
E12  28295224.693   148692527.105       -1807.567          44.000    28295222.555   113933319.365       -1385.070          50.000  
E10  27558855.618   144822963.536       -1016.003          47.000    27558857.707   110968444.392        -778.497          53.000  
R13                                                                  26100592.420                         552.883          30.000  
> 2024 04 16 08 06 30.0120000  0 26                     
G18  27720399.620   145671696.495       -3208.542          30.000    27720396.821   113510433.879       -2500.469          35.000  
G26  25945710.895   136345642.812       -3797.363          45.000    25945712.655   106243363.783       -2959.089          45.000  
G23  25038817.317   131580104.135       -3001.924          50.000    25038813.103   102529969.307       -2339.033          47.000  
G16  24468791.990   128584396.352       -1657.660          48.000                                                                  
R11  26798846.123   143204992.050       -4741.244          42.000    26798846.106   111381713.412       -3687.510          43.000  
R13  26096665.396                2        687.386          26.000    26096665.378                         534.565          30.000  
R21  24963187.438   133583248.654       -2047.332          51.000    24963183.032   103898153.429       -1592.257          47.000  
S33  43297342.807   227529141.401        -635.953          42.000  
S31  42343432.797   222516326.121        -636.328          44.000  
G10  23584450.016   123937283.427        -502.976          52.000    23584448.772    96574499.920        -391.977          49.000  
E11  26956581.691   141657809.890         -38.443          45.000    26956581.601   108543053.335         -29.386          48.000  
R12  24806307.802   132510869.599       -2397.642          51.000    24806307.039   103064134.478       -1864.877          49.000  
R22  23975638.117   127983690.831          40.211          52.000    23975634.990    99542919.048          31.302          50.000  
R07  24422681.390   130736513.231        2457.831          52.000    24422677.229   101684015.984        1911.560          49.000  
R06  24465882.757   130554734.306       -1325.159          40.000                                                                  
G27  24468566.118   128583205.620        1125.366          48.000    24468564.485   100194712.171         876.855          47.000  
G08  26604695.236   139808677.639        2400.318          40.000    26604696.232   108941845.128        1870.269          40.000  
E04  30758959.243   161639438.923        1932.588          43.000    30758962.119   123853619.555        1480.788          45.000  
E31  31094779.478   163404288.317       -3737.653          39.000    31094784.824   125205951.482       -2864.448          41.000  
E25  28439737.986   149451790.888          49.402          44.000    28439742.897   114515032.397          37.693          50.000  
E14  31561534.472   165857145.012        -796.920          44.000    31561535.814   127085319.491        -610.558          50.000  
E19  30334239.961   159407545.258         428.890          31.000    30334234.954   122143467.666         328.882          36.000  
E24  28172662.407   148048381.494       -2623.875          45.000    28172664.288   113439690.299       -2010.524          51.000  
G32  27716435.669   145650871.601        2405.758          42.000    27716435.375   113494211.994        1874.646          40.000  
E12  28305546.152   148746767.286       -1808.551          44.000    28305544.238   113974880.051       -1385.816          50.000  
E10  27564662.718   144853476.424       -1018.422          48.000    27564663.956   110991824.442        -780.394          53.000  
> 2024 04 16 08 07 00.0120000  0 26                     
G26  25967410.495   136459673.806       -3804.939          45.000    25967412.190   106332219.061       -2964.805          44.000  
G23  25055991.671   131670355.448       -3015.359          49.000    25055987.440   102600295.036       -2349.546          46.000  
G16  24478308.765   128634409.408       -1676.935          47.000                                                                  
R11  26825460.760   143347215.445       -4741.009          40.000    26825461.780   111492331.765       -3687.373          42.000  
R13  26092882.876                1        663.732          27.000    26092866.439                         515.396          28.000  
R21  24974673.307   133644714.705       -2050.914          50.000    24974670.090   103945960.331       -1595.199          48.000  
S33  43300972.425   227548215.935        -635.744          42.000  
S31  42347064.600   222535410.490        -636.414          44.000  
G10  23587380.246   123952678.760        -523.880          52.000    23587378.055    96586496.344        -408.147          49.000  
E11  26956810.700   141659009.092         -41.941          46.000    26956809.828   108543972.219         -32.243          48.000  
R12  24819831.890   132583120.823       -2419.574          49.000    24819832.927   103120329.848       -1881.750          49.000  
R22  23975422.220   127982538.707          36.167          52.000    23975419.332    99542023.038          28.049          50.000  
R07  24408954.460   130663031.565        2440.393          52.000    24408950.670   101626863.639        1898.108          49.000  
R06  24473404.271   130594876.279       -1351.617          40.000                                                                  
G27  24462165.337   128549567.917        1116.650          49.000    24462163.131   100168500.986         870.233          47.000  
G08  26590995.723   139736685.487        2398.786          41.000    26590996.260   108885747.378        1869.121          40.000  
E04  30747925.207   161581457.131        1932.642          42.000    30747928.775   123809191.993        1480.645          46.000  
E31  31116117.776   163516422.905       -3737.955          40.000    31116123.366   125291872.835       -2864.029          41.000  
E25  28439495.862   149450512.869          35.579          44.000    28439499.802   114514053.135          27.157          50.000  
E14  31566069.948   165880980.071        -792.515          44.000    31566071.593   127103582.730        -607.228          50.000  
E19  30331816.121                         418.368          30.000    30331814.049   122133721.923         320.516          36.000  
E24  28187670.940   148127248.024       -2634.157          46.000    28187672.152   113500120.490       -2018.465          51.000  
G32  27702703.772   145578710.013        2404.816          41.000    27702704.819   113437982.235        1873.899          40.000  
E12  28315872.490   148801036.047       -1809.658          43.000    28315871.314   114016462.646       -1386.674          50.000  
E10  27570483.475   144884063.658       -1021.018          48.000    27570484.605   111015261.444        -782.354          53.000  
G18                                                                  27738712.074   113585426.157       -2499.281          37.000  
> 2024 04 16 08 07 30.0120000  0 26                     
G26  25989152.107   136573926.674       -3812.161          45.000    25989153.608   106421247.255       -2970.503          44.000  
G23  25073242.142   131761005.850       -3028.240          49.000    25073237.913   102670931.745       -2359.840          46.000  
G16  24487935.254   128684998.003       -1695.868          47.000                                                                  
R11  26852075.544   143489437.432       -4740.300          38.000    26852076.399   111602948.936       -3687.135          43.000  
R13  26089203.289                1        639.975          27.000    26089207.855                1        498.440          31.000  
R21  24986180.671   133706286.142       -2054.054          51.000    24986175.203   103993849.236       -1597.552          47.000  
S33  43304601.270   227567285.494        -635.523          42.000  
S31  42350695.718   222554491.298        -636.165          44.000  
G10  23590428.370   123968699.451        -544.284          52.000    23590426.882    96598980.048        -424.099          49.000  
E11  26957057.820   141660309.826         -45.135          46.000    26957057.270   108544968.935         -34.645          48.000  
R12  24833479.322   132656024.952       -2440.893          48.000    24833480.769   103177033.029       -1898.584          50.000  
R22  23975228.587   127981509.617          32.237          51.000    23975226.658    99541222.678          25.052          50.000  
R07  24395325.277   130590073.273        2423.218          52.000    24395322.242   101570118.407        1884.851          50.000  
R06  24481075.862   130635810.397       -1377.930          40.000                                                                  
G27  24455813.708   128516191.015        1108.234          49.000    24455811.527   100142493.058         863.489          46.000  
G08  26577306.435   139664748.231        2397.081          41.000    26577306.542   108829692.413        1867.502          39.000  
E04  30736891.979   161523475.054        1932.842          42.000    30736895.418   123764764.209        1480.907          47.000  
E31  31137454.043   163628546.173       -3737.068          39.000    31137460.285   125377785.536       -2863.599          42.000  
E25  28439331.602   149449644.650          22.193          45.000    28439334.285   114513387.885          17.019          50.000  
E14  31570579.930   165904680.024        -787.647          44.000    31570581.792   127121742.432        -603.529          50.000  
E19  30329461.643   159382441.826         407.458          31.000    30329458.626   122124232.724         311.716          37.000  
E24  28202737.684   148206421.016       -2644.367          47.000    28202738.420   113560785.456       -2025.955          51.000  
G32  27688978.226   145506581.352        2403.778          43.000    27688978.988   113381778.196        1872.873          40.000  
E12  28326205.105   148855334.683       -1810.314          43.000    28326203.963   114058068.134       -1387.183          50.000  
E10  27576318.682   144914726.484       -1023.410          48.000    27576319.617   111038756.373        -784.124          53.000  
G18                                                                  27757021.058   113660398.395       -2498.455          37.000  
> 2024 04 16 08 08 00.0120000  0 26                     
G26  26010935.405   136688398.774       -3819.127          45.000    26010936.316   106510446.248       -2975.726          44.000  
G23  25090567.944   131852052.974       -3041.282          48.000    25090563.418   102741877.574       -2369.822          46.000  
G16  24497671.932   128736161.717       -1714.807          47.000                                                                  
R11  26878688.906   143631654.346       -4739.931          38.000    26878690.172   111713562.161       -3686.798          42.000  
R13  26085679.075                3        618.594          25.000    26085683.512   108341346.1501        478.512          33.000  
R21  24997705.469   133767963.866       -2057.438          50.000    24997700.859   104041820.798       -1600.251          47.000  
S33  43308229.820   227586353.053        -635.425          42.000  
S31  42354326.157   222573569.643        -635.704          44.000  
G10  23593595.883   123985345.377        -565.033          52.000    23593594.302    96611950.929        -440.233          48.000  
E11  26957324.303   141661711.798         -48.216          45.000    26957323.737   108546043.265         -36.920          47.000  
R12  24847249.289   132729578.982       -2462.354          49.000    24847250.428   103234241.680       -1915.248          49.000  
R22  23975059.035   127980604.091          28.245          51.000    23975056.551    99540518.409          22.064          50.000  
R07  24381794.197   130517643.349        2405.701          51.000    24381791.516   101513784.099        1871.155          51.000  
R06  24488894.677   130677536.209       -1403.992          41.000                                                                  
G27  24449512.039   128483077.300        1099.609          49.000    24449510.178   100116690.200         856.775          47.000  
G08  26563628.307   139592868.169        2395.249          42.000    26563628.381   108773682.021        1866.552          39.000  
E04  30725858.484   161465495.000        1932.767          42.000    30725862.427   123720338.003        1480.974          47.000  
E31  31158787.992   163740656.726       -3736.192          40.000    31158794.525   125463688.449       -2863.009          44.000  
E25  28439244.934   149449187.218           8.691          45.000    28439247.206   114513037.408           6.671          50.000  
E14  31575063.153   165928245.994        -782.980          42.000    31575066.340   127139799.441        -599.926          50.000  
E19  30327165.526                         396.810          31.000    30327165.970   122115001.241         303.195          37.000  
E24  28217861.125   148285899.250       -2654.181          46.000    28217862.579   113621684.346       -2033.639          51.000  
G32  27675259.954   145434489.158        2402.347          45.000    27675261.000   113325602.463        1872.128          41.000  
E12  28336542.764   148909662.984       -1811.081          43.000    28336542.102   114099696.347       -1387.854          50.000  
E10  27582167.157   144945464.559       -1025.469          48.000    27582168.767   111062308.984        -785.890          53.000  
G18                                                                  27775326.176   113735350.514       -2497.721          37.000  
> 2024 04 16 08 08 30.0120000  0 26                     
G18  27793638.605   146056557.1043      -3204.979          27.000    27793624.642   113810280.893       -2497.332          37.000  
G26  26032760.066   136803085.209       -3826.648          45.000    26032760.284   106599812.286       -2981.843          43.000  
G23  25107967.720   131943492.364       -3054.795          48.000    25107963.995   102813129.069       -2380.236          46.000  
G16  24507517.580   128787897.747       -1734.271          48.000                                                                  
R11  26905302.862   143773861.068       -4740.137          37.000    26905301.821   111824167.584       -3686.844          42.000  
R13  26082294.806                3        589.208          20.000    26082290.882   108327247.590         460.735          33.000  
R21  25009251.766   133829746.783       -2061.489          51.000    25009246.522   104089874.190       -1603.333          48.000  
S33  43311857.108   227605414.256        -635.203          42.000  
S31  42357955.440   222592642.075        -635.839          44.000  
G10  23596882.160   124002614.218        -586.336          52.000    23596880.176    96625407.191        -456.873          48.000  
E11  26957609.635   141663212.350         -51.725          45.000    26957609.020   108547193.084         -39.675          47.000  
R12  24861141.215   132803777.771       -2484.241          51.000    24861141.186   103291951.806       -1932.238          50.000  
R22  23974912.022   127979820.416          23.848          51.000    23974909.568    99539908.949          18.508          50.000  
R07  24368362.690   130445744.126        2387.512          52.000    24368359.885   101457862.526        1856.952          50.000  
R06  24496861.913   130720050.992       -1430.652          41.000                                                                  
G27  24443261.068   128450227.156        1090.283          49.000    24443258.788   100091092.725         849.615          47.000  
G08  26549961.113   139521045.391        2392.914          41.000    26549960.735   108717716.347        1864.577          40.000  
E04  30714824.753   161407517.172        1932.503          41.000    30714829.518   123675913.515        1480.604          47.000  
E31  31180118.312   163852751.097       -3736.448          40.000    31180125.064   125549578.945       -2863.050          44.000  
E25  28439235.313   149449139.392          -5.512          45.000    28439238.120   114513000.775          -4.176          50.000  
E14  31579522.656   165951676.897        -778.865          43.000    31579525.031   127157752.982        -596.833          50.000  
E19  30324936.565                         384.928          30.000    30324936.439   122106027.128         294.469          36.000  
E24  28233042.381   148365679.416       -2664.549          47.000    28233043.963   113682814.597       -2041.724          51.000  
G32  27661548.783   145362434.621        2400.668          45.000    27661549.495   113269456.069        1870.634          40.000  
E12  28346887.054   148964018.898       -1812.444          43.000    28346885.630   114141345.707       -1388.763          50.000  
E10  27588030.053   144976275.454       -1028.388          47.000    27588031.849   111085917.378        -788.047          53.000  
> 2024 04 16 08 09 00.4910000  0 26                     
G26  19759348.798   103836087.109       -3833.758          44.000    19759349.340    80911242.282       -2987.374          43.000  
G23  18830093.690    98953042.485       -3068.003          49.000    18830089.653    77106285.053       -2390.626          46.000  
G16  18221997.864    95757268.546       -1753.839          47.000                                                                  
R11  20636717.655   110276429.735       -4740.042          42.000    20636714.084    85770610.076       -3686.475          43.000  
R13  19783339.842                1        567.232          26.000    19783335.821                         441.637          31.000  
R21  18725369.656   100203425.469       -2065.138          51.000    18725365.428    77936068.724       -1606.165          48.000  
S33  37019903.659   194540977.520        -635.506          42.000  
S31  36066004.312   189528215.613        -635.813          44.000  
G10  17304703.801    90936996.192        -607.385          51.000    17304702.049    70859990.576        -473.335          48.000  
E11  20662279.298   108581025.834         -55.163          45.000    20662278.326    83198504.785         -42.308          48.000  
R12  18579745.145    99249690.738       -2506.042          50.000    18579744.834    77194328.488       -1949.109          49.000  
R22  17679146.207    94372593.799          19.561          51.000    17679144.027    73400955.004          15.264          51.000  
R07  18059170.078    96672140.337        2369.189          52.000    18059166.966    75189504.062        1842.810          50.000  
R06  18209472.708    97169339.780       -1457.190          42.000                                                                  
G27  18141316.909    95333289.224        1081.146          49.000    18141314.969    74285686.579         842.316          46.000  
G08  20240437.739   106364273.489        2390.643          42.000    20240436.250    82881270.783        1862.914          40.000  
E04  24407969.341   128264764.841        1932.039          41.000    24407973.281    98280817.628        1480.374          47.000  
E31  24906161.169   130882882.621       -3735.561          39.000    24906167.752   100286952.502       -2862.372          42.000  
E25  22143665.506   116365698.670         -19.547          45.000    22143668.612    89163351.397         -14.882          51.000  
E14  25288390.014   132891548.128        -774.594          44.000    25288391.788   101825966.002        -593.567          50.000  
E19  24027096.217   126263307.893         373.560          32.000    24027096.238    96747234.121         285.927          37.000  
E24  21952895.422   115363284.600       -2674.865          46.000    21952897.063    88395265.308       -2049.544          51.000  
G32  21351977.174   112205408.643        2399.566          45.000    21351976.728    87432812.493        1869.729          40.000  
E12  22061766.966   115935495.860       -1813.564          42.000    22061766.781    88833776.144       -1389.596          49.000  
E10  21298365.108   111923861.244       -1031.018          48.000    21298366.289    85760041.593        -789.989          53.000  
G18                                                                  21516581.824    88106843.323       -2496.661          36.000  
> 2024 04 16 08 09 30.4910000  0 26                     
G18  21534867.660                       -3203.760          28.000    21534871.949    88181739.849       -2496.224          37.000  
G26  19781256.104   103951210.479       -3841.221          45.000    19781256.103    81000948.791       -2993.263          43.000  
G23  18847645.675    99045278.678       -3081.229          49.000    18847641.348    77178157.440       -2400.947          46.000  
G16  18232064.039    95810168.256       -1773.157          47.000                                                                  
R11  20663324.743   110418615.884       -4739.389          43.000    20663321.431    85881199.595       -3686.033          44.000  
R13  19780214.315                         543.731          30.000    19780211.177                         422.713          29.000  
R21  18736957.379   100265436.303       -2069.135          49.000    18736953.047    77984299.384       -1609.218          48.000  
S33  37023532.003   194560043.925        -635.840          42.000  
S31  36069634.511   189547292.987        -636.155          44.000  
G10  17308231.281    90955533.256        -628.451          51.000    17308229.622    70874435.084        -489.712          48.000  
E11  20662605.072   108582737.290         -58.802          45.000    20662604.166    83199816.166         -45.024          48.000  
R12  18593879.466    99325193.671       -2527.719          51.000    18593878.912    77253052.948       -1965.962          49.000  
R22  17679048.542    94372070.625          15.054          51.000    17679045.837    73400548.156          11.710          50.000  
R07  18045944.075    96601339.048        2350.708          52.000    18045941.205    75134436.484        1828.448          50.000  
R06  18217740.657    97213457.267       -1484.149          42.000                                                                  
G27  18135170.717    95300990.928        1071.820          49.000    18135168.355    74260519.119         835.242          47.000  
G08  20226795.614   106292585.561        2388.365          42.000    20226793.969    82825410.230        1861.015          40.000  
E04  24396941.743   128206811.584        1931.345          41.000    24396945.068    98236411.935        1479.936          47.000  
E31  24927488.070   130994952.965       -3735.630          38.000    24927493.123   100372824.625       -2862.453          40.000  
E25  22143815.983   116366492.534         -33.686          44.000    22143819.706    89163959.687         -25.776          50.000  
E14  25292799.297   132914723.005        -770.502          44.000    25292801.881   101843723.382        -590.350          50.000  
E19  24024999.372   126252291.565         360.836          33.000    24025000.522    96738793.037         276.942          38.000  
E24  21968194.325   115443682.927       -2685.253          46.000    21968196.561    88456869.204       -2057.428          51.000  
G32  21338285.132   112133453.865        2397.466          45.000    21338283.252    87376743.907        1867.991          39.000  
E12  22072123.592   115989919.733       -1814.822          43.000    22072123.103    88875477.584       -1390.598          49.000  
E10  21304259.097   111954831.015       -1033.786          48.000    21304259.623    85783771.723        -792.153          53.000  
> 2024 04 16 08 10 00.4910000  0 26                     
G18  21553166.134   113262679.696       -3202.873          31.000    21553158.252    88256617.931       -2495.579          37.000  
G26  19803203.252   104066544.265       -3848.449          45.000    19803203.596    81090819.232       -2998.668          44.000  
G23  18865271.600    99137904.268       -3094.253          48.000    18865267.571    77250333.258       -2411.352          46.000  
G16  18242239.583    95863641.408       -1792.365          47.000                                                                  
R11  20689928.386   110560783.602       -4739.058          44.000    20689925.962    85991774.446       -3685.711          43.000  
R13  19777227.935                         519.333          29.000    19777232.817                3        403.911          26.000  
R21  18748566.565   100327559.397       -2072.979          49.000    18748562.945    78032617.355       -1612.383          48.000  
S33  37027160.394   194579109.977        -635.723          42.000  
S31  36073264.775   189566370.066        -636.167          44.000  
G10  17311878.490    90974696.577        -649.446          52.000    17311876.255    70889367.572        -506.057          48.000  
E11  20662950.415   108584550.741         -62.488          46.000    20662949.320    83201205.739         -47.907          48.000  
R12  18608133.895    99401336.456       -2549.120          51.000    18608133.329    77312275.080       -1982.653          49.000  
R22  17678974.060    94371675.282          10.568          51.000    17678972.047    73400240.727           8.249          51.000  
R07  18032819.830    96531086.934        2332.190          52.000    18032816.780    75079796.019        1813.904          49.000  
R06  18226155.963    97258366.577       -1510.358          41.000                                                                  
G27  18129077.270    95268967.859        1062.360          50.000    18129074.746    74235566.099         827.991          47.000  
G08  20213167.005   106220965.690        2385.776          43.000    20213165.155    82769602.694        1858.955          40.000  
E04  24385916.575   128148871.827        1930.771          42.000    24385919.120    98192016.607        1479.217          46.000  
E31  24948811.896   131107007.199       -3735.516          35.000    24948816.346   100458684.395       -2861.874          37.000  
E25  22144046.746   116367702.914         -47.612          45.000    22144050.031    89164887.143         -36.546          51.000  
E14  25297185.928   132937770.564        -766.574          45.000    25297187.753   101861383.164        -587.351          50.000  
E19  24022969.743   126241620.347         349.550          35.000    24022969.993    96730616.460         268.073          38.000  
E24  21983551.716   115524383.797       -2695.375          46.000    21983553.696    88518704.912       -2065.368          51.000  
G32  21324601.845   112061551.625        2395.612          45.000    21324599.978    87320716.278        1866.373          38.000  
E12  22082487.090   116044375.097       -1816.211          43.000    22082485.635    88917203.130       -1391.600          49.000  
E10  21310166.373   111985876.888       -1036.574          48.000    21310167.431    85807560.139        -794.206          53.000  
> 2024 04 16 08 10 30.4910000  0 26                     
G18  21571447.035   113358755.454       -3203.000          30.000    21571441.142    88331482.272       -2495.234          37.000  
G26  19825191.462   104182091.706       -3855.134          45.000    19825191.938    81180856.180       -3003.863          44.000  
G23  18882972.388    99230922.870       -3107.227          48.000    18882968.319    77322815.314       -2421.053          46.000  
G16  18252524.121    95917692.398       -1811.377          46.000                                                                  
R11  20716529.391   110702935.451       -4738.186          46.000    20716528.354    86102337.046       -3685.027          45.000  
R13  19774375.337   105594103.3841        495.126          34.000    19774385.070                         385.406          28.000  
R21  18760198.621   100389801.796       -2076.807          48.000    18760193.842    78081028.097       -1615.172          48.000  
S33  37030789.854   194598183.095        -636.004          42.000  
S31  36076896.333   189585454.269        -636.653          44.000  
G10  17315645.259    90994491.840        -670.322          52.000    17315642.912    70904792.496        -522.418          48.000  
E11  20663316.206   108586471.809         -66.036          46.000    20663314.717    83202677.757         -50.593          48.000  
R12  18622508.453    99478122.154       -2570.203          51.000    18622508.541    77371997.261       -1999.076          49.000  
R22  17678924.805    94371414.412           6.357          51.000    17678922.793    73400037.858           5.010          51.000  
R07  18019800.972    96461394.847        2313.666          52.000    18019797.954    75025591.101        1799.426          50.000  
R06  18234721.265    97304072.871       -1536.847          41.000                                                                  
G27  18123037.492    95237228.490        1053.259          50.000    18123034.796    74210834.209         820.599          47.000  
G08  20199552.676   106149422.034        2383.581          44.000    20199550.724    82713854.584        1857.078          39.000  
E04  24374894.446   128090954.020        1930.321          42.000    24374897.358    98147638.087        1479.016          45.000  
E31  24970132.292   131219049.908       -3734.466          32.000    24970137.244   100544535.377       -2861.202          34.000  
E25  22144357.956   116369336.677         -61.474          45.000    22144361.041    89166139.008         -47.113          51.000  
E14  25301548.555   132960697.812        -762.201          44.000    25301550.650   101878950.789        -584.074          50.000  
E19  24021007.396   126231301.882         337.987          37.000    24021006.349    96722710.134         259.514          38.000  
E24  21998966.861   115605391.946       -2705.340          46.000    21998969.158    88580776.077       -2072.965          51.000  
G32  21310930.012   111989711.407        2393.647          44.000    21310930.400    87264736.963        1865.055          40.000  
E12  22092856.624   116098867.634       -1816.982          43.000    22092855.110    88958957.186       -1392.322          50.000  
E10  21316089.339   112017004.614       -1038.847          47.000    21316090.951    85831411.288        -796.064          52.000  
> 2024 04 16 08 11 00.4910000  0 27                     
G18  21589726.820   113454812.540       -3201.280          34.000    21589719.512    88406331.983       -2494.929          38.000  
G26  19847219.350   104297848.981       -3862.076          45.000    19847220.295    81271056.603       -3009.255          44.000  
G23  18900747.811    99324330.979       -3120.122          49.000    18900743.396    77395600.859       -2431.230          46.000  
G16  18262919.868    95972319.485       -1830.579          47.000                                                                  
R11  20743127.470   110845066.626       -4737.298          47.000    20743126.606    86212883.483       -3684.687          45.000  
R13  19771661.640   105579613.958         471.272          33.000    19771662.633                         366.027          28.000  
R21  18771853.441   100452163.281       -2080.686          49.000    18771847.540    78129531.438       -1618.324          47.000  
S33  37034420.220   194617261.196        -636.164          42.000  
S31  36080529.173   189604544.228        -636.307          44.000  
G10  17319531.443    91014917.447        -691.337          51.000    17319530.075    70920708.574        -538.728          48.000  
E11  20663702.095   108588499.033         -69.651          46.000    20663700.263    83204231.094         -53.265          48.000  
R12  18637002.315    99555546.437       -2591.447          51.000    18637002.552    77432216.076       -2015.619          49.000  
R22  17678900.999    94371287.392           2.039          51.000    17678898.723    73399939.113           1.556          51.000  
R07  18006887.637    96392266.463        2294.812          52.000    18006883.965    74971824.660        1784.839          50.000  
R06  18243434.512    97350574.493       -1563.208          41.000                                                                  
G27  18117051.927    95205774.081        1043.726          50.000    18117049.492    74186324.314         813.306          47.000  
G08  20185953.329   106077955.676        2380.764          44.000    20185951.115    82658166.638        1855.275          39.000  
E04  24363877.977   128033059.400        1929.531          43.000    24363880.199    98103277.346        1478.467          45.000  
E31  24991453.342                       -3734.541          30.000    24991454.170                       -2861.587          30.000  
E25  22144747.862   116371393.598         -75.764          43.000    22144752.530    89167715.107         -58.001          51.000  
E14  25305889.596   132983504.790        -758.382          45.000    25305890.542   101896426.243        -581.036          50.000  
E19  24019109.736   126221336.667         326.219          36.000    24019109.906    96715074.539         250.142          38.000  
E24  22014440.264   115686705.043       -2715.423          45.000    22014442.636    88643080.891       -2080.740          52.000  
G32  21297271.202   111917935.558        2391.353          44.000    21297272.365    87208807.765        1863.544          41.000  
E12  22103233.435   116153396.269       -1818.385          44.000    22103231.651    89000738.891       -1393.215          50.000  
E10  21322027.708   112048212.794       -1041.604          47.000    21322029.652    85855324.096        -798.155          53.000  
R08                                                                  20906249.354                3       3293.469          11.000  
> 2024 04 16 08 11 30.4910000  0 26                     
G18  21608000.414   113550846.537       -3200.609          36.000    21607995.689    88481163.690       -2493.929          39.000  
G26  19869286.610   104413809.051       -3868.814          46.000    19869286.471    81361415.073       -3014.514          44.000  
G23  18918595.954    99418121.873       -3132.684          48.000    18918590.940    77468684.696       -2441.084          46.000  
G16  18273423.681    96027517.495       -1849.402          47.000                                                                  
R11  20769720.101   110987168.590       -4736.157          47.000    20769719.254    86323407.147       -3683.846          45.000  
R13  19769083.194   105565851.054         446.043          33.000    19769081.480                         347.318          29.000  
R21  18783528.271   100514640.592       -2084.475          47.000    18783522.701    78178124.890       -1621.162          47.000  
S33  37038051.015   194636342.139        -635.978          42.000  
S31  36084161.948   189623635.627        -636.537          44.000  
G10  17323537.433    91035968.743        -712.131          51.000    17323535.790    70937112.213        -554.956          48.000  
E11  20664106.548   108590627.662         -72.495          45.000    20664104.944    83205862.129         -55.528          47.000  
R12  18651614.688    99633601.589       -2612.377          51.000    18651615.426    77492925.575       -2031.794          50.000  
R22  17678901.858    94371290.539          -2.265          51.000    17678899.287    73399941.594          -1.772          50.000  
R07  17994078.077    96323701.586        2276.038          52.000    17994074.084    74918496.475        1770.233          49.000  
R06  18252297.342    97397866.153       -1589.679          42.000                                                                  
G27  18111119.727    95174602.802        1034.210          49.000    18111117.907    74162035.045         805.737          47.000  
G08  20172368.096   106006564.417        2378.480          45.000    20172365.817    82602537.230        1853.160          39.000  
E04  24352864.960   127975185.962        1928.693          44.000    24352867.341    98058932.785        1477.843          45.000  
E31  25012765.001                       -3733.328          27.000    25012770.078   100716200.818       -2860.603          30.000  
E25  22145219.753   116373870.209         -89.606          43.000    22145223.882    89169612.798         -68.610          51.000  
E14  25310205.254   133006188.249        -753.843          45.000    25310206.998   101913807.082        -577.775          50.000  
E19  24017280.133   126211722.205         314.653          37.000    24017279.595    96707707.664         240.904          37.000  
E24  22029970.979   115768317.544       -2725.270          45.000    22029972.985    88705615.102       -2088.274          52.000  
G32  21283625.223   111846223.288        2389.307          44.000    21283625.967    87152928.167        1861.939          41.000  
E12  22113616.026   116207956.491       -1819.191          44.000    22113613.792    89042544.799       -1393.943          50.000  
E10  21327980.703   112079496.861       -1044.083          48.000    21327982.622    85879295.078        -799.984          53.000  
> 2024 04 16 08 12 00.4910000  0 26                     
G18  21626268.672   113646857.201       -3199.651          36.000    21626264.512    88555977.288       -2493.831          37.000  
G26  19891391.354   104529968.815       -3875.359          46.000    19891391.128    81451929.172       -3019.828          44.000  
G23  18936515.688    99512292.809       -3145.438          48.000    18936510.904    77542064.711       -2450.955          46.000  
G16  18284035.184    96083284.954       -1868.481          47.000                                                                  
R11  20796306.804   111129237.949       -4735.274          48.000    20796305.734    86433905.478       -3682.880          47.000  
R13  19766639.345                         422.250          32.000    19766639.202    82096624.3471        327.985          32.000  
R21  18795224.933   100577234.018       -2088.549          47.000    18795220.557    78226808.643       -1624.433          47.000  
S33  37041682.195   194655424.408        -636.321          42.000  
S31  36087795.381   189642729.004        -636.522          44.000  
G10  17327662.248    91057644.949        -732.979          51.000    17327660.455    70954002.781        -571.075          47.000  
E11  20664530.894   108592857.286         -75.921          45.000    20664529.171    83207570.550         -58.198          47.000  
R12  18666344.559    99712284.206       -2633.228          52.000    18666345.409    77554123.137       -2048.136          50.000  
R22  17678927.570    94371423.948          -6.878          52.000    17678923.814    73400045.417          -5.201          50.000  
R07  17981376.389    96255704.847        2256.871          52.000    17981373.363    74865610.204        1755.370          50.000  
R06  18261308.192    97445946.952       -1615.973          42.000                                                                  
G27  18105242.352    95143716.802        1024.670          49.000    18105240.555    74137968.070         798.492          47.000  
G08  20158797.139   105935250.237        2375.974          45.000    20158795.472    82546967.852        1851.553          40.000  
E04  24341856.805   127917335.720        1927.962          43.000    24341858.709    98014606.010        1477.137          45.000  
E25  22145771.190   116376766.971        -103.710          44.000    22145774.826    89171832.424         -79.368          50.000  
E14  25314498.622   133028749.006        -749.959          44.000    25314500.117   101931093.885        -574.732          50.000  
E19  24015517.555   126202459.471         302.716          36.000    24015516.362    96700610.246         232.150          37.000  
E24  22045558.073   115850227.790       -2735.458          46.000    22045559.919    88768377.496       -2095.985          51.000  
G32  21269992.408   111774577.749        2387.073          46.000    21269991.972    87097100.542        1859.808          41.000  
E12  22124003.249   116262547.997       -1820.357          43.000    22124002.329    89084374.656       -1394.740          50.000  
E10  21333948.830   112110856.040       -1046.623          48.000    21333950.029    85903323.567        -801.926          52.000  
E31                                                                  25034079.297                       -2859.770          28.000  
> 2024 04 16 08 12 30.4910000  0 27                     
G18  21644535.120   113742842.296       -3199.336          39.000    21644529.953    88630770.899       -2492.976          39.000  
G26  19913532.855   104646323.315       -3882.070          46.000    19913532.523    81542594.976       -3024.895          44.000  
G23  18954506.961    99606839.130       -3158.133          48.000    18954502.773    77615737.196       -2460.954          47.000  
G16  18294755.420    96139618.792       -1887.733          46.000                                                                  
R23  20386619.380                3       1573.847          25.000                                                                  
R11  20822885.582   111271268.449       -4734.066          48.000    20822884.438    86544373.624       -3681.984          45.000  
R13  19764331.933   105540507.671         397.762          34.000    19764334.316    82087051.258         309.207          33.000  
R21  18806942.674   100639942.414       -2092.568          46.000    18806940.456    78275581.869       -1627.581          48.000  
S33  37045313.455   194674506.288        -636.630          42.000  
S31  36091428.611   189661822.758        -636.561          44.000  
G10  17331906.396    91079943.311        -753.966          52.000    17331903.708    70971378.181        -587.554          47.000  
E11  20664974.120   108595185.128         -79.448          45.000    20664972.162    83209354.208         -60.893          47.000  
R12  18681191.176    99791588.750       -2654.269          52.000    18681191.295    77615804.431       -2064.407          50.000  
R22  17678975.934    94371686.021         -11.271          52.000    17678973.015    73400249.290          -8.812          50.000  
R07  17968779.776    96188278.227        2237.705          52.000    17968776.931    74813167.355        1740.415          50.000  
R06  18270467.113    97494813.741       -1642.120          43.000                                                                  
G27  18099418.992    95113116.216        1014.862          49.000    18099417.559    74114123.493         790.863          47.000  
G08  20145240.522   105864013.079        2372.871          44.000    20145239.965    82491458.443        1849.236          40.000  
E04  24330852.350   127859508.792        1926.804          43.000    24330854.550    97970297.105        1476.432          45.000  
E25  22146402.000   116380082.391        -117.777          44.000    22146405.992    89174372.855         -90.308          50.000  
E14  25318768.174   133051185.907        -746.047          43.000    25318769.847   101948285.777        -571.812          50.000  
E19  24013819.804   126193547.707         290.704          36.000    24013820.910    96693781.798         222.953          38.000  
E24  22061200.966   115932432.290       -2745.340          46.000    22061202.712    88831365.347       -2103.628          51.000  
G32  21256371.577   111703000.076        2384.332          44.000    21256371.700    87041325.758        1857.690          41.000  
E12  22134396.814   116317168.342       -1821.418          43.000    22134396.221    89126226.652       -1395.708          50.000  
E10  21339930.532   112142287.909       -1049.299          48.000    21339931.148    85927407.789        -803.992          52.000  
E31                                                                  25055385.506                       -2859.667          26.000  
> 2024 04 16 08 13 00.4910000  0 27                     
G18  21662796.178   113838806.652       -3198.626          40.000    21662791.399    88705548.444       -2492.543          39.000  
G26  19935711.539   104762874.743       -3888.364          46.000    19935711.836    81633414.238       -3030.017          44.000  
G23  18972570.967    99701763.416       -3170.514          48.000    18972566.426    77689704.182       -2470.445          48.000  
G16  18305583.881    96196522.281       -1906.453          45.000                                                                  
R11  20849457.946   111413261.413       -4732.515          47.000    20849456.111    86654812.559       -3680.917          45.000  
R13  19762168.750   105528932.293         373.456          37.000    19762164.297    82078048.114         291.061          33.000  
R21  18818684.922   100702771.979       -2096.521          48.000    18818681.091    78324449.279       -1630.656          47.000  
S33  37048945.707   194693594.616        -636.415          42.000  
S31  36095062.794   189680920.781        -636.879          44.000  
G10  17336268.204    91102868.342        -774.633          51.000    17336266.326    70989241.889        -603.755          47.000  
E11  20665436.233   108597615.959         -82.928          44.000    20665434.823    83211216.818         -63.560          47.000  
R12  18696153.101    99871516.884       -2674.789          50.000    18696154.213    77677970.742       -2080.400          50.000  
R22  17679050.051    94372082.263         -15.617          51.000    17679048.288    73400557.483         -12.131          50.000  
R07  17956292.620    96121431.066        2218.362          52.000    17956289.412    74761175.209        1725.363          50.000  
R06  18279772.280    97544470.495       -1668.604          43.000                                                                  
G27  18093651.786    95082808.533        1005.200          49.000    18093649.531    74090507.158         783.319          47.000  
G08  20131700.427   105792860.156        2370.088          44.000    20131700.151    82436014.656        1846.825          40.000  
E04  24319854.952   127801712.487        1925.976          43.000    24319856.035    97926011.669        1475.666          46.000  
E31  25076683.632                3      -3731.605          25.000    25076686.478                3      -2858.793          25.000  
E25  22147113.690   116383822.303        -131.848          44.000    22147117.542    89177238.527        -101.050          51.000  
E14  25323016.986   133073504.969        -742.099          44.000    25323016.945   101965387.390        -568.617          50.000  
E19  24012195.247   126184993.640         279.140          38.000    24012193.836    96687227.481         213.914          38.000  
E24  22076900.752   116014934.707       -2755.126          46.000    22076902.543    88894581.460       -2111.069          51.000  
G32  21242764.482   111631498.778        2381.830          44.000    21242764.711    86985610.506        1855.927          41.000  
E12  22144798.278   116371822.426       -1822.519          44.000    22144796.486    89168104.474       -1396.458          50.000  
E10  21345925.991   112173797.118       -1051.723          48.000    21345927.001    85951551.314        -805.834          52.000  
R08                                                                  20825907.348                3       2970.549          26.000  
> 2024 04 16 08 13 30.4910000  0 27                     
G18  21681052.603   113934743.301       -3197.700          40.000    21681047.700    88780304.253       -2491.920          40.000  
G26  19957925.729   104879613.128       -3894.515          45.000    19957926.549    81724379.206       -3034.707          44.000  
G23  18990704.244    99797056.034       -3182.893          48.000    18990699.745    77763958.169       -2480.237          47.000  
G16  18316518.450    96253986.839       -1925.328          45.000                                                                  
R11  20876019.496   111555205.604       -4731.018          45.000    20876018.463    86765213.555       -3679.638          43.000  
R13  19760138.005   105518083.735         349.071          35.000    19760133.918    82069610.271         271.539          35.000  
R21  18830448.726   100765715.900       -2100.254          47.000    18830443.269    78373405.681       -1633.746          46.000  
S33  37052577.413   194712679.552        -636.570          42.000  
S31  36098696.826   189700017.382        -637.052          44.000  
G10  17340747.970    91126412.271        -795.476          51.000    17340746.229    71007587.831        -619.696          46.000  
E11  20665916.218   108600142.190         -86.093          44.000    20665915.848    83213152.531         -65.946          48.000  
R12  18711229.271    99952058.107       -2695.314          49.000    18711231.598    77740613.852       -2096.332          50.000  
R22  17679148.468    94372606.041         -19.984          51.000    17679146.415    73400964.880         -15.484          50.000  
R07  17943912.396    96055160.810        2198.949          51.000    17943910.150    74709631.742        1710.203          51.000  
R06  18289224.227    97594909.121       -1694.438          43.000                                                                  
G27  18087938.966    95052788.892         995.538          49.000    18087937.359    74067115.246         775.610          47.000  
G08  20118175.435   105721786.510        2367.502          43.000    20118175.474    82380632.655        1844.798          40.000  
E04  24308860.983   127743941.907        1924.838          42.000    24308862.406    97881745.959        1474.759          45.000  
E25  22147904.623   116387980.198        -145.875          44.000    22147908.757    89180424.456        -111.856          50.000  
E14  25327239.616   133095700.134        -738.215          44.000    25327240.638   101982394.084        -565.702          50.000  
E19  24010633.850   126176791.552         266.958          38.000    24010632.441    96680942.793         204.707          37.000  
E24  22092654.233   116097726.531       -2764.843          45.000    22092657.489    88958019.334       -2118.593          51.000  
G32  21229171.745   111560070.170        2379.565          43.000    21229171.955    86929951.894        1853.943          41.000  
E12  22155203.223   116426502.896       -1823.374          44.000    22155201.549    89210002.515       -1397.241          50.000  
E10  21351934.484   112205375.997       -1054.077          47.000    21351936.368    85975748.141        -807.757          52.000  
E31                                                                  25097981.006                3      -2860.035          22.000  
R08                                                                  20804493.872                1       2970.607          25.000  
> 2024 04 16 08 14 00.4910000  0 27                     
G18  21699303.966   114030659.699       -3197.248          40.000    21699300.065    88855044.342       -2491.240          41.000  
G26  19980176.616   104996543.268       -3901.280          44.000    19980178.318    81815493.553       -3039.869          44.000  
G23  19008909.148    99892722.011       -3195.507          48.000    19008904.610    77838503.090       -2489.957          48.000  
G16  18327561.846    96312018.844       -1944.243          46.000                                                                  
R11  20902574.400   111697105.135       -4729.629          45.000    20902573.149    86875579.742       -3678.622          42.000  
R13  19758243.335   105507970.911         324.299          36.000    19758241.954    82061744.683         252.887          36.000  
R21  18842232.797   100828782.958       -2104.672          47.000    18842228.703    78422457.841       -1636.937          45.000  
R08  20783125.903                1       3819.184          28.000    20783097.421                1       2970.674          28.000  
S33  37056210.627   194731771.062        -637.072          42.000  
S31  36102332.083   189719120.173        -637.013          44.000  
G10  17345347.628    91150582.002        -816.571          51.000    17345345.467    71026421.395        -636.314          46.000  
E11  20666416.415   108602770.943         -89.433          43.000    20666416.356    83215166.803         -68.646          48.000  
R12  18726423.798   100033216.598       -2715.941          51.000    18726423.359    77803737.049       -2112.329          49.000  
R22  17679271.036    94373265.657         -24.591          51.000    17679269.801    73401477.934         -19.164          50.000  
R07  17931643.102    95989479.392        2179.067          52.000    17931640.254    74658546.289        1694.846          51.000  
R06  18298823.957    97646136.244       -1721.311          42.000                                                                  
G27  18082283.451    95023067.291         985.376          49.000    18082281.805    74043955.533         767.944          47.000  
G08  20104667.501   105650801.950        2364.155          43.000    20104667.373    82325320.020        1842.133          40.000  
E04  24297875.364   127686206.923        1923.556          42.000    24297875.176    97837507.523        1473.930          44.000  
E25  22148777.871   116392564.351        -160.193          45.000    22148780.795    89183936.975        -122.860          50.000  
E14  25331441.379   133117779.976        -734.587          44.000    25331442.410   101999312.414        -562.723          50.000  
E19  24009141.496   126168950.595         254.787          37.000    24009140.498    96674934.811         195.236          38.000  
E24  22108466.279   116180813.949       -2774.876          45.000    22108468.608    89021683.689       -2126.150          51.000  
G32  21215595.082   111488725.285        2376.526          43.000    21215595.146    86874358.509        1851.734          41.000  
E12  22165615.666   116481217.228       -1824.698          44.000    22165613.275    89251926.493       -1398.123          49.000  
E10  21357958.264   112237032.047       -1056.786          47.000    21357960.282    86000004.164        -809.754          52.000  
E31                                                                  25119276.587                3      -2856.455          25.000  
> 2024 04 16 08 14 30.4910000  0 28                     
G18  21717551.872   114126552.820       -3195.935          40.000    21717547.651    88929766.279       -2490.373          42.000  
G26  20002463.083   105113659.328       -3906.967          44.000    20002464.116    81906752.789       -3044.479          43.000  
G23  19027183.803    99988755.856       -3207.135          48.000    19027179.445    77913334.680       -2499.018          47.000  
G16  18338712.256    96370614.163       -1962.506          46.000                                                                  
R23  20351264.028                1       1574.793          27.000                                                                  
R11  20929119.320   111838952.861       -4727.130          44.000    20929118.709    86985905.566       -3676.740          43.000  
R13  19756486.974   105498591.666         300.629          36.000    19756486.661    82054449.759         233.747          37.000  
R21  18854040.699   100891971.347       -2108.184          46.000    18854036.662    78471604.354       -1639.713          45.000  
R08  20761729.082   111178145.5341       3819.309          32.000    20761714.471                        2971.024          26.000  
S33  37059844.022   194750864.353        -636.575          42.000  
S31  36105967.689   189738226.236        -636.561          44.000  
G10  17350065.602    91175373.922        -836.575          51.000    17350063.100    71045739.804        -651.920          46.000  
E11  20666935.661   108605498.853         -92.391          43.000    20666935.286    83217257.017         -70.721          48.000  
R12  18741730.305   100114986.120       -2735.614          51.000    18741730.717    77867335.528       -2127.766          49.000  
R22  17679420.254    94374058.565         -28.355          51.000    17679418.604    73402094.711         -22.212          51.000  
R07  17919482.905    95924388.577        2159.910          51.000    17919480.550    74607920.169        1679.986          51.000  
R06  18308570.523    97698147.709       -1746.317          42.000                                                                  
G27  18076684.651    94993643.210         976.050          50.000    18076682.935    74021027.717         760.339          47.000  
G08  20091176.713   105579905.657        2361.629          44.000    20091175.547    82270076.198        1840.278          40.000  
E04  24286894.164   127628506.719        1922.923          42.000    24286895.493    97793295.719        1473.354          45.000  
E25  22149732.021   116397572.397        -173.628          46.000    22149733.483    89187774.320        -133.207          50.000  
E14  25335620.884   133139742.547        -729.928          44.000    25335621.830   102016140.877        -559.259          50.000  
E19  24007717.330   126161468.959         243.331          36.000    24007716.621    96669202.165         186.889          38.000  
E24  22124331.776   116264192.587       -2783.897          44.000    22124334.824    89085571.195       -2133.199          51.000  
G32  21202035.007   111417464.541        2374.023          44.000    21202035.408    86818830.760        1849.921          42.000  
E12  22176033.696   116535962.296       -1825.239          44.000    22176031.046    89293874.027       -1398.466          50.000  
E10  21363996.343   112268761.742       -1058.719          47.000    21363998.114    86024316.577        -811.179          52.000  
E31                                                                  25140561.882                3      -2865.917          20.000  
