     3.00           OBSERVATION DATA    M: Mixed            RINEX VERSION / TYPE
CONVBIN 2.4.3                           20240416 032941 UTC PGM / RUN BY / DATE 
format: u-blox UBX                                          COMMENT             
log: /home/regis/git/gnsspwv/obsdata/VERT00CHL/2024-04-16/VECOMMENT             
{self.marker}                                               MARKER NAME         
                                                            MARKER NUMBER       
GEODETIC                                                    MARKER TYPE         
{self.observer}     {self.institution}                      OBSERVER / AGENCY   
UNKNOWN             UBLOX-ZED-F9P                           REC # / TYPE / VERS 
UNKNOWN             TWIVSP6037L                             ANT # / TYPE        
  1713381.0000 -5047934.0000 -3490983.0000                  APPROX POSITION XYZ 
        0.0000        0.0000        0.0000                  ANTENNA: DELTA H/E/N
G    8 C1C L1C D1C S1C C2L L2L D2L S2L                      SYS / # / OBS TYPES 
R    8 C1C L1C D1C S1C C2C L2C D2C S2C                      SYS / # / OBS TYPES 
E    8 C1C L1C D1C S1C C7Q L7Q D7Q S7Q                      SYS / # / OBS TYPES 
S    4 C1C L1C D1C S1C                                      SYS / # / OBS TYPES 
  2024    04    16    03    15   00.0050000     GPS         TIME OF FIRST OBS   
  2024    04    16    03    29   30.0050000     GPS         TIME OF LAST OBS    
                                                            END OF HEADER       
> 2024 04 16 03 15 00.0050000  0 22                     
G25  21924524.981   115214215.2661       -771.755          49.000    21924524.283    89777333.2341       -601.245          46.000  
G18  24094813.305   126619101.4001       2769.498          44.000    24094816.897    98664258.4721       2157.924          42.000  
R16  23458189.776   125309382.6561      -3782.792          53.000    23458192.114    97462876.3851      -2942.132          49.000  
R09  20638540.257   110208681.9011       -653.207          52.000    20638537.801    85717963.0571       -508.105          51.000  
R10  22163376.559   118143300.4931       2292.162          47.000                                                                  
R20  21071631.644   112679537.4741       1109.574          41.000    21071633.774    87639697.3711        862.964          45.000  
G29  22041701.100   115829989.2101       -943.067          49.000    22041698.314    90257179.8281       -734.832          45.000  
S33  41105426.569   216010488.9441       -700.768          43.000  
S31  40151779.202   210999056.1671       -700.314          44.000  
G28  22912393.243   120405442.3861        594.160          47.000    22912392.619    93822396.9081        463.020          49.000  
R19  21938539.085   117356741.6031      -3664.334          41.000    21938536.046    91277193.2161      -2849.958          47.000  
G12  23651462.296   124289266.0531      -2269.372          49.000    23651459.243    96848770.9381      -1768.375          45.000  
E33  25035128.932   131560547.9721        451.004          48.000    25035131.128   100806181.1651        345.588          54.000  
E31  25430903.651   133640440.8361        502.818          46.000    25430908.849   102399891.3431        385.272          52.000  
G20  25288368.606   132891265.8241       -288.019          31.000                                                                  
G31  25151628.214   132172588.0241       2342.410          34.000    25151620.916   102991766.3531       1825.517          34.000  
E14  22254962.815   116950770.1881      -3768.206          49.000    22254965.007    89611601.1311      -2887.293          53.000  
E26  26223704.589   137806864.9761      -2203.045          47.000    26223704.820   105592469.0761      -1688.116          48.000  
E21  29569389.088   155388146.8091      -2681.880          41.000    29569394.707   119063641.5831      -2054.913          47.000  
G05  25737259.516   135250406.8751       1187.440          44.000    25737258.052   105389990.3171        925.386          40.000  
E12  28257209.436   148492631.7221       2353.380          42.000    28257216.017   113780118.9991       1803.299          46.000  
G11                                                                  25608835.682   104864261.6681      -2940.445          44.000  
> 2024 04 16 03 15 30.0050000  0 22                     
G25  21928957.965   115237513.499        -781.195          49.000    21928957.362    89795487.708        -608.895          46.000  
G18  24079027.755   126536145.945        2761.138          43.000    24079029.902    98599619.010        2151.316          38.000  
R16  23479469.675   125423055.059       -3795.301          52.000    23479471.790    97551288.086       -2951.824          48.000  
R09  20642265.244   110228573.578        -672.546          53.000    20642262.879    85733434.342        -523.118          50.000  
R10  22150500.459   118074665.888        2283.820          46.000                                                                  
R20  21065470.682   112646592.260        1087.061          42.000    21065472.389    87614073.490         845.593          46.000  
G29  22047115.078   115858440.304        -953.332          48.000    22047112.030    90279349.541        -742.792          46.000  
S33  41109428.205   216031517.207        -700.870          43.000  
S31  40155777.459   211020067.309        -700.185          44.000  
G28  22909053.232   120387891.502         576.272          46.000    22909052.533    93808720.966         448.816          47.000  
R19  21959130.231   117466894.639       -3678.925          40.000    21959127.881    91362867.829       -2861.433          48.000  
G12  23664440.452   124357468.485       -2277.122          48.000    23664437.975    96901915.632       -1774.409          44.000  
E33  25032592.975   131547224.294         437.348          48.000    25032595.443   100795972.191         335.163          53.000  
E31  25428042.538   133625403.973         499.920          46.000    25428047.174   102388369.613         383.136          52.000  
G20  25290054.253                        -303.680          32.000                                                                  
G31  25138282.871   132102454.207        2333.756          35.000    25138273.694   102937116.647        1817.887          34.000  
E14  22276507.693   117063987.687       -3779.261          50.000    22276509.488    89698352.266       -2895.834          53.000  
E26  26236315.815   137873137.090       -2214.864          47.000    26236316.410   105643249.054       -1697.088          49.000  
E21  29584709.577   155468656.071       -2685.347          41.000    29584715.380   119125330.394       -2057.571          47.000  
G05  25730503.475   135214902.428        1179.768          46.000    25730502.183   105362324.700         919.381          41.000  
E12  28243783.893   148422085.775        2349.209          38.000    28243790.943   113726065.080        1800.143          41.000  
G11                                                                  25630407.030   104952591.170       -2947.938          45.000  
> 2024 04 16 03 16 00.0050000  0 23                     
G25  21933446.716   115261101.836        -791.061          49.000    21933446.291    89813868.238        -616.376          46.000  
G18  24063289.751   126453444.337        2752.737          45.000    24063291.506    98535177.094        2144.570          40.000  
R16  23500819.420   125537100.613       -3807.490          51.000    23500821.560    97639990.059       -2961.238          48.000  
R09  20646099.227   110249046.080        -691.842          53.000    20646096.384    85749357.410        -538.132          50.000  
R10  22137672.818   118006289.818        2274.992          46.000                                                                  
R21  25206066.329                3       3383.406          16.000                                                                  
R20  21059436.232   112614322.293        1064.487          41.000    21059437.187    87588974.237         828.033          43.000  
G29  22052587.628   115887199.670        -963.451          49.000    22052585.225    90301759.483        -750.849          46.000  
S33  41113429.076   216052543.780        -700.615          43.000  
S31  40159775.681   211041078.852        -700.213          44.000  
G28  22905817.286   120370886.190         557.955          46.000    22905816.832    93795470.212         434.744          47.000  
R19  21979804.591   117577489.624       -3693.525          39.000    21979802.474    91448886.202       -2872.816          47.000  
G12  23677463.088   124425903.060       -2284.751          49.000    23677460.537    96955241.262       -1780.445          44.000  
E33  25030135.049   131534309.631         423.892          48.000    25030137.651   100786076.616         324.768          53.000  
E31  25425197.938   133610453.357         497.260          47.000    25425201.970   102376913.984         380.904          51.000  
G20  25291835.836   132909501.405        -320.007          33.000                                                                  
G31  25124985.601   132032603.786        2323.334          33.000    25124980.820   102882687.734        1810.989          35.000  
E14  22298114.790   117177534.650       -3790.105          50.000    22298116.605    89785355.848       -2904.093          52.000  
E26  26248994.121   137939763.122       -2226.496          47.000    26248994.494   105694300.211       -1705.983          49.000  
E21  29600049.085   155549269.342       -2688.588          40.000    29600055.479   119187098.945       -2060.165          46.000  
G05  25723790.428   135179628.664        1172.217          47.000    25723788.834   105334838.788         913.205          40.000  
E12  28230379.008   148351649.053        2346.194          39.000    28230386.775   113672094.668        1797.669          40.000  
G11                                                                  25652031.198   105041142.209       -2955.321          43.000  
> 2024 04 16 03 16 30.0050000  0 22                     
G25  21937991.920   115284986.140        -800.817          49.000    21937991.160    89832479.385        -624.010          46.000  
G18  24047600.412   126371003.053        2743.917          48.000    24047602.512    98470938.156        2138.084          46.000  
R16  23522240.034   125651522.831       -3820.046          54.000    23522240.629    97728985.104       -2971.331          50.000  
R09  20650043.134   110270105.688        -711.545          53.000    20650039.886    85765737.096        -553.476          50.000  
R10  22124896.242   117938180.904        2266.003          46.000                                                                  
R20  21053529.886   112582736.518        1041.870          41.000    21053530.795    87564407.743         810.334          42.000  
G29  22058119.537   115916270.580        -974.023          49.000    22058117.064    90324412.178        -758.867          46.000  
S33  41117431.108   216073573.667        -700.790          42.000  
S31  40163774.676   211062094.535        -700.679          44.000  
G28  22902685.909   120354432.126         539.606          46.000    22902685.954    93782648.916         420.443          48.000  
G11  25673714.734   134916256.6351      -3802.387          33.000    25673710.982   105129916.341       -2963.028          43.000  
R19  22000562.417   117688527.317       -3708.361          40.000    22000559.727    91535248.859       -2884.247          48.000  
G12  23690531.186   124494575.033       -2292.628          48.000    23690528.306    97008751.849       -1786.552          43.000  
E33  25027756.839   131521809.357         409.999          48.000    25027758.824   100776498.558         314.118          53.000  
E31  25422370.459   133595594.589         493.993          47.000    25422374.373   102365528.727         378.532          51.000  
G20  25293711.259   132919356.004        -336.829          35.000                                                                  
G31  25111742.357                        2313.211          30.000    25111743.387   102828484.650        1803.767          35.000  
E14  22319784.119   117291411.159       -3801.009          49.000    22319786.206    89872611.927       -2912.522          52.000  
E26  26261740.439   138006746.357       -2238.519          46.000    26261741.126   105745625.073       -1715.230          49.000  
E21  29615410.410   155629991.448       -2692.414          40.000    29615416.082   119248950.860       -2063.069          46.000  
G05  25717123.801   135144594.136        1163.971          47.000    25717122.215   105307539.268         907.155          41.000  
E12  28216997.184   148281329.211        2342.303          41.000    28217003.957   113618214.286        1794.634          45.000  
> 2024 04 16 03 17 00.0050000  0 23                     
G25  21942592.684   115309162.347        -810.700          49.000    21942591.835    89851317.983        -631.555          45.000  
G18  24031960.976   126288819.675        2735.177          48.000    24031962.279    98406900.182        2131.349          46.000  
R16  23543729.071   125766314.324       -3832.373          53.000    23543730.043    97818267.127       -2980.729          51.000  
R09  20654095.370   110291748.762        -731.055          52.000    20654093.169    85782570.597        -568.612          50.000  
R10  22112169.196   117870337.062        2257.073          47.000                                                                  
R20  21047749.012   112551829.278        1019.126          40.000    21047751.567    87540368.760         792.612          44.000  
G29  22063709.926   115945646.421        -984.095          49.000    22063706.886    90347302.496        -766.846          45.000  
S33  41121432.847   216094602.762        -700.932          42.000  
S31  40167773.099   211083107.039        -700.285          44.000  
G28  22899659.263   120338526.200         521.115          47.000    22899658.824    93770254.938         405.974          47.000  
G11  25695448.037   135030461.697       -3811.321          37.000    25695443.053   105218907.345       -2970.041          42.000  
R19  22021400.540   117799997.990       -3722.633          40.000    22021398.147    91621948.331       -2895.478          47.000  
G12  23703642.395   124563478.928       -2300.717          47.000    23703640.619    97062443.141       -1792.634          44.000  
E33  25025455.042   131509718.748         396.219          47.000    25025457.928   100767234.418         303.627          53.000  
E31  25419560.110   133580823.295         491.024          48.000    25419563.306   102354210.500         376.226          51.000  
G20  25295679.368   132929698.677        -352.850          34.000                                                                  
G31  25098559.736   131893770.479        2304.488          32.000    25098561.869   102774505.702        1795.847          36.000  
E14  22341514.586   117405607.264       -3811.766          48.000    22341516.845    89960112.891       -2920.719          52.000  
E26  26274553.631   138074080.107       -2250.262          46.000    26274554.169   105797218.512       -1724.221          50.000  
E21  29630792.129   155710817.192       -2695.846          42.000    29630797.039   119310882.187       -2065.585          47.000  
G05  25710502.606   135109796.107        1156.239          46.000    25710501.284   105280424.030         901.044          42.000  
E12  28203636.149   148211120.690        2338.195          41.000    28203643.211   113564418.606        1791.888          45.000  
R21                                                                  25168206.189                3       2613.453          11.000  
> 2024 04 16 03 17 30.0050000  0 22                     
G25  21947248.380   115333628.063        -820.481          49.000    21947247.023    89870382.208        -639.259          45.000  
G18  24016370.506   126206892.312        2726.707          45.000    24016371.556    98343061.273        2124.459          43.000  
R16  23565285.482   125881470.902       -3844.808          47.000    23565287.525    97907833.352       -2990.328          45.000  
R09  20658257.723   110313972.958        -750.545          52.000    20658255.037    85799856.045        -583.733          50.000  
R10  22099491.471   117802758.147        2248.192          46.000                                                                  
R20  21042095.077   112521597.525         996.514          41.000    21042097.868    87516855.299         774.845          45.000  
G29  22069357.136   115975322.085        -994.161          49.000    22069354.118    90370426.450        -774.733          46.000  
S33  41125433.220   216115626.294        -700.833          42.000  
S31  40171770.920   211104115.571        -700.308          44.000  
G28  22896736.513   120323165.496         502.992          45.000    22896735.506    93758285.649         392.014          46.000  
G11  25717233.172   135144938.861       -3820.140          38.000    25717226.123   105308110.351       -2976.925          40.000  
R19  22042318.927   117911894.089       -3736.966          41.000    22042316.002    91708978.653       -2906.533          48.000  
G12  23716798.048   124632612.899       -2308.337          48.000    23716796.079    97116313.764       -1798.833          45.000  
E33  25023232.318   131498034.911         382.785          48.000    25023234.765   100758281.953         293.180          53.000  
E31  25416765.297   133566136.800         488.118          48.000    25416768.761   102342957.253         373.998          51.000  
G20  25297742.062   132940527.186        -369.214          35.000                                                                  
G31  25085434.363   131824784.980        2294.758          34.000    25085435.234   102720750.763        1788.153          37.000  
E14  22363304.448   117520114.747       -3821.848          48.000    22363306.726    90047852.456       -2928.499          52.000  
E26  26287432.959   138141759.374       -2261.690          46.000    26287433.022   105849076.679       -1733.003          50.000  
E21  29646190.283   155791743.099       -2699.224          40.000    29646197.163   119372890.243       -2068.294          46.000  
G05  25703925.695   135075233.717        1148.243          46.000    25703923.956   105253492.407         894.583          42.000  
E12  28190297.410   148141023.493        2334.932          37.000    28190303.294   113510708.671        1790.083          33.000  
> 2024 04 16 03 18 00.0050000  0 22                     
G25  21951959.967   115358387.555        -830.165          49.000    21951958.733    89889675.330        -647.017          45.000  
G18  24000829.182   126125229.304        2717.665          46.000    24000830.606    98279429.175        2117.629          43.000  
R16  23586911.844   125996994.042       -3856.721          54.000    23586914.412    97997684.735       -2999.720          49.000  
R09  20662529.251   110336783.511        -770.111          52.000    20662526.992    85817597.575        -598.948          50.000  
R10  22086865.133   117735451.159        2239.106          47.000                                                                  
R20  21036570.010   112492045.825         973.722          42.000    21036571.889    87493870.816         757.514          45.000  
G29  22075061.583   116005299.588       -1004.188          49.000    22075058.675    90393785.596        -782.470          46.000  
S33  41129433.389   216136647.536        -700.678          42.000  
S31  40175768.081   211125121.097        -699.759          44.000  
G28  22893918.564   120308355.024         484.475          48.000    22893916.444    93746745.232         377.548          48.000  
G11  25739068.633   135259688.487       -3829.535          40.000    25739062.374   105397525.674       -2983.653          39.000  
R19  22063316.593   118024214.912       -3751.224          41.000    22063313.153    91796339.370       -2917.457          47.000  
G12  23729997.863   124701979.376       -2316.066          47.000    23729996.895    97170365.500       -1804.797          45.000  
E33  25021086.228   131486761.472         368.958          47.000    25021089.491   100749643.936         282.694          53.000  
E31  25413987.354   133551539.116         485.055          48.000    25413990.781   102331772.053         371.673          51.000  
G20  25299894.825   132951845.745        -385.443          37.000                                                                  
G31  25072366.213   131756091.829        2284.855          36.000    25072363.892   102667223.601        1780.637          40.000  
E14  22385153.346   117634932.179       -3832.263          48.000    22385155.932    90135829.511       -2936.486          52.000  
E26  26300378.575   138209785.780       -2273.392          46.000    26300377.794   105901200.839       -1741.946          50.000  
E21  29661610.865   155872772.339       -2702.671          42.000    29661616.232   119434977.435       -2070.792          45.000  
G05  25697394.468   135040913.146        1140.090          46.000    25697392.685   105226749.212         888.433          42.000  
E12  28176980.517   148071041.008        2330.884          42.000    28176985.658   113457086.216        1786.034          45.000  
> 2024 04 16 03 18 30.0050000  0 22                     
G25  21956728.351   115383443.330        -840.126          49.000    21956726.851    89909199.313        -654.671          45.000  
G18  23985338.572   126043833.092        2708.728          47.000    23985339.593    98216004.902        2110.824          39.000  
R16  23608606.886   126112883.397       -3868.963          51.000    23608608.737    98087821.161       -3009.243          48.000  
R09  20666911.804   110360182.847        -789.725          52.000    20666909.342    85835797.053        -614.167          50.000  
R10  22074289.810   117668419.976        2229.803          46.000                                                                  
R20  21031171.399   112463176.004         951.010          42.000    21031173.346    87471416.581         739.707          45.000  
G29  22080823.724   116035579.115       -1014.289          50.000    22080820.466    90417380.095        -790.573          46.000  
S33  41133433.141   216157667.956        -700.501          42.000  
S31  40179765.050   211146126.095        -700.371          44.000  
G28  22891204.881   120294096.583         466.193          47.000    22891203.431    93735634.627         363.307          47.000  
G11  25760955.394   135374709.223       -3838.876          40.000    25760948.734   105487152.289       -2990.857          38.000  
R19  22084392.331   118136957.648       -3764.893          41.000    22084389.143    91884028.186       -2928.395          48.000  
G12  23743242.564   124771580.858       -2323.918          48.000    23743240.744    97224600.351       -1810.805          45.000  
E33  25019019.630   131475900.341         355.149          47.000    25019022.827   100741321.830         272.223          54.000  
E31  25411226.367   133537032.456         482.057          48.000    25411230.276   102320656.604         369.388          51.000  
G20  25302143.169   132963657.069        -401.825          39.000                                                                  
G31  25059350.685   131687695.164        2275.289          37.000    25059348.702   102613927.581        1772.667          39.000  
E14  22407060.355   117750056.212       -3842.429          48.000    22407063.441    90224041.500       -2944.204          52.000  
E26  26313388.804   138278159.143       -2284.833          46.000    26313388.942   105953590.875       -1750.707          50.000  
E21  29677049.981   155953906.281       -2706.302          41.000    29677055.433   119497144.896       -2073.500          45.000  
G05  25690909.524   135006837.212        1131.727          45.000    25690908.457   105200196.648         881.581          42.000  
E12  28163685.388   148001177.286        2326.954          41.000    28163690.439   113403555.029        1782.852          44.000  
> 2024 04 16 03 19 00.0050000  0 22                     
G25  21961552.497   115408796.057        -850.032          50.000    21961551.222    89928954.700        -662.262          45.000  
G18  23969899.600   125962706.068        2699.789          47.000    23969900.143    98152790.626        2103.748          42.000  
R16  23630369.808   126229136.737       -3881.123          53.000    23630370.959    98178240.391       -3018.632          51.000  
R09  20671403.754   110384172.318        -809.465          52.000    20671401.312    85854455.535        -629.575          50.000  
R10  22061766.625   117601668.059        2220.416          46.000                                                                  
R20  21025899.865   112434987.990         928.200          41.000    21025901.689    87449492.706         722.132          44.000  
G29  22086642.855   116066158.658       -1024.256          50.000    22086639.316    90441208.346        -798.153          46.000  
S33  41137432.916   216178686.584        -700.652          42.000  
S31  40183762.087   211167130.022        -700.009          44.000  
G28  22888596.060   120280392.315         447.622          44.000    22888595.952    93724956.126         348.668          45.000  
G11  25782893.801   135489997.906       -3847.175          41.000    25782887.858   105576987.679       -2997.843          39.000  
R19  22105546.269   118250117.457       -3778.785          41.000    22105542.564    91972041.422       -2939.106          47.000  
G12  23756533.267   124841416.894       -2331.762          47.000    23756528.785    97279017.976       -1816.685          41.000  
E33  25017031.136   131465451.624         341.569          47.000    25017034.804   100733315.750         261.623          54.000  
E31  25408483.063   133522617.258         479.009          48.000    25408487.231   102309611.218         367.062          51.000  
G20  25304482.944   132975961.892        -418.433          38.000                                                                  
G31  25046391.800   131619597.355        2265.075          36.000    25046389.887   102560864.419        1765.039          40.000  
E14  22429026.087   117865481.874       -3852.437          49.000    22429028.425    90312484.583       -2951.819          53.000  
E26  26326464.815   138346877.551       -2296.200          46.000    26326465.717   106006245.289       -1759.499          50.000  
E21  29692508.865   156035144.495       -2709.590          42.000    29692514.874   119559392.245       -2076.224          45.000  
G05  25684472.304   134973010.757        1123.471          45.000    25684470.237   105173838.513         875.527          41.000  
E12  28150413.459   147931433.358        2322.789          40.000    28150417.503   113350115.776        1779.833          43.000  
> 2024 04 16 03 19 30.0050000  0 22                     
G25  21966433.752   115434449.577        -860.483          49.000    21966432.534    89948944.465        -670.560          45.000  
G18  23954513.219   125881853.030        2690.325          45.000    23954513.699    98089789.370        2096.202          39.000  
R16  23652202.114   126345754.732       -3893.669          50.000    23652203.049    98268942.987       -3028.296          46.000  
R09  20676007.361   110408755.846        -829.657          52.000    20676005.300    85873576.053        -645.245          51.000  
R10  22049297.854   117535201.580        2210.366          46.000                                                                  
R20  21020757.225   112407485.128         905.146          42.000    21020757.559    87428101.511         703.831          45.000  
G29  22092519.057   116097039.619       -1034.578          49.000    22092515.991    90465271.489        -806.216          47.000  
S33  41141432.917   216199707.001        -701.072          42.000  
S31  40187759.098   211188135.891        -700.225          44.000  
G28  22886093.422   120267245.852         428.699          44.000    22886093.857    93714712.403         334.122          46.000  
G11  25804882.648   135605554.502       -3856.596          42.000    25804877.388   105667031.837       -3005.299          40.000  
R19  22126778.613   118363693.127       -3792.898          42.000    22126774.080    92060378.122       -2950.087          48.000  
G12  23769868.183   124911490.267       -2339.943          48.000    23769863.883    97333620.586       -1823.393          44.000  
E33  25015122.094   131455418.462         327.311          47.000    25015125.417   100725628.070         250.850          54.000  
E31  25405758.373   133508297.073         475.503          48.000    25405762.173   102298638.647         364.364          52.000  
G20  25306920.611   132988764.025        -435.236          38.000                                                                  
G31  25033490.555   131551803.386        2253.958          35.000    25033488.757   102508037.976        1756.397          39.000  
E14  22451047.645   117981207.182       -3862.709          48.000    22451050.253    90401157.274       -2959.740          53.000  
E26  26339607.551   138415942.163       -2308.095          46.000    26339608.481   106059164.970       -1768.590          50.000  
E21  29707987.905   156116489.679       -2713.386          41.000    29707994.223   119621721.568       -2079.146          44.000  
G05  25678083.734   134939436.970        1114.691          45.000    25678081.527   105147677.273         868.454          40.000  
E12  28137164.120   147861812.765        2318.323          41.000    28137168.671   113296770.704        1776.323          44.000  
> 2024 04 16 03 20 00.0050000  0 23                     
G25  21971372.658   115460403.205        -870.088          50.000    21971371.653    89969168.077        -677.906          45.000  
G18  23939178.512   125801275.084        2681.281          47.000    23939179.343    98026929.4161       2089.417          44.000  
R16  23674099.457   126462734.787       -3905.372          49.000    23674102.593    98359927.239       -3037.526          46.000  
R09  20680722.856   110433933.368        -849.205          53.000    20680720.682    85893158.566        -660.422          51.000  
R10  22036882.360   117469022.652        2201.091          46.000                                                                  
R21  25055741.844                2       3321.469          26.000    25055703.330                3       2583.680          25.000  
R20  21015741.982   112380667.798         882.313          40.000    21015742.149    87407243.677         686.290          43.000  
G29  22098451.539   116128218.703       -1044.189          49.000    22098449.356    90489566.933        -813.599          47.000  
S33  41145433.059   216220727.533        -700.553          42.000  
S31  40191755.900   211209140.084        -700.399          44.000  
G28  22883697.288   120254656.754         410.393          44.000    22883697.963    93704903.042         319.752          48.000  
G11  25826922.699   135721374.514       -3865.083          44.000    25826917.803   105757281.218       -3011.567          39.000  
R19  22148086.592   118477678.821       -3806.146          41.000    22148083.063    92149033.678       -2960.321          48.000  
G12  23783247.058   124981799.922       -2347.665          47.000    23783244.625    97388407.270       -1829.160          43.000  
E33  25013291.930   131445799.577         313.538          47.000    25013294.673   100718257.817         240.377          54.000  
E31  25403051.375   133494071.048         472.631          48.000    25403055.068   102287738.213         362.139          52.000  
G20  25309450.679   133002062.753        -451.611          40.000                                                                  
G31  25020646.619   131484314.767        2244.432          37.000    25020644.813   102455449.708        1749.134          40.000  
E14  22473125.463   118097225.812       -3872.159          49.000    22473127.693    90490054.715       -2966.912          52.000  
E26  26352815.530   138485349.708       -2319.316          46.000    26352816.059   106112347.421       -1777.007          51.000  
E21  29723488.202   156197940.087       -2716.848          42.000    29723493.789   119684131.490       -2081.738          43.000  
G05  25671742.592   134906118.284        1106.177          44.000    25671741.076   105121714.809         861.970          40.000  
E12  28123937.438   147792316.643        2314.158          37.000    28123943.124   113243521.553        1773.388          38.000  
> 2024 04 16 03 20 30.0050000  0 23                     
G25  21976367.988   115486653.020        -880.000          49.000    21976366.256    89989622.495        -685.817          44.000  
G18  23923896.479   125720969.885        2672.213          41.000    23923896.981    97964354.963        2082.021          38.000  
R16  23696065.108   126580070.229       -3917.169          48.000    23696068.848    98451187.947       -3046.850          45.000  
R09  20685548.171   110459700.929        -868.933          52.000    20685546.836    85913200.007        -675.814          52.000  
R10  22024521.448   117403128.881        2191.699          46.000                                                                  
R21  25037047.249                3       3315.173          25.000    25037048.689                1       2577.360          29.000  
R20  21010853.094   112354529.852         860.107          40.000    21010854.506    87386914.273         668.782          44.000  
G29  22104440.094   116159689.494       -1053.962          49.000    22104437.554    90514089.682        -821.389          47.000  
S33  41149431.741   216241741.594        -700.395          43.000  
S31  40195751.799   211230139.909        -700.060          44.000  
G28  22881406.516   120242621.179         391.913          43.000    22881407.292    93695525.205         305.345          43.000  
G11  25849011.216   135837450.137       -3873.733          44.000    25849005.852   105847729.811       -3018.042          39.000  
R19  22169469.796   118592065.264       -3819.526          41.000    22169466.450    92238000.944       -2970.808          48.000  
G12  23796669.602   125052340.687       -2355.297          47.000    23796667.399    97443374.087       -1835.270          43.000  
E33  25011539.749   131436590.403         300.047          48.000    25011542.233   100711201.503         229.894          54.000  
E31  25400361.859   133479934.980         469.542          48.000    25400365.130   102276906.705         359.846          52.000  
G20  25312076.708   133015854.346        -468.024          41.000                                                                  
G31  25007859.682   131417128.267        2234.643          39.000    25007859.183   102403096.971        1741.068          40.000  
E14  22495257.365   118213528.123       -3881.527          49.000    22495258.837    90579169.527       -2974.260          52.000  
E26  26366087.656   138555093.594       -2330.365          46.000    26366087.853   106165787.593       -1785.695          50.000  
E21  29739006.485   156279490.612       -2719.958          41.000    29739012.641   119746618.177       -2084.177          44.000  
G05  25665450.276   134873052.048        1098.107          44.000    25665449.227   105095949.176         855.388          40.000  
E12  28110734.735   147722940.293        2310.414          39.000    28110740.073   113190363.733        1770.286          42.000  
> 2024 04 16 03 21 00.0050000  0 23                     
G25  21981420.519   115513206.471        -890.089          49.000    21981419.516    90010313.499        -693.753          45.000  
G18  23908667.530   125640946.832        2662.543          40.000    23908665.882    97902002.1421       2075.228          37.000  
R16  23718097.944   126697766.004       -3929.216          52.000    23718101.284    98542729.168       -3055.966          51.000  
R09  20690485.030   110486066.540        -888.826          52.000    20690484.105    85933706.592        -691.258          52.000  
R10  22012215.404   117337530.821        2181.626          47.000                                                                  
R21  25018469.825                1       3307.335          31.000    25018480.396   104128080.7981       2572.685          32.000  
R20  21006093.636   112329080.001         836.875          40.000    21006095.723    87367119.955         651.106          45.000  
G29  22110485.856   116191456.912       -1063.832          50.000    22110482.666    90538843.550        -828.901          47.000  
S33  41153430.786   216262756.669        -700.492          43.000  
S31  40199747.829   211251139.732        -700.217          44.000  
G28  22879223.551   120231146.929         373.131          47.000    22879223.217    93686584.872         290.741          49.000  
G11  25871149.852   135953784.945       -3882.180          44.000    25871143.934   105938380.419       -3025.257          38.000  
R19  22190928.801   118706854.648       -3832.825          42.000    22190925.231    92327281.612       -2981.037          48.000  
G12  23810138.419   125123119.890       -2363.139          45.000    23810136.383    97498526.672       -1841.544          42.000  
E33  25009866.285   131427797.688         286.041          48.000    25009868.567   100704464.295         219.269          53.000  
E31  25397690.067   133465896.085         466.391          48.000    25397693.708   102266149.657         357.379          52.000  
G20  25314795.206   133030145.983        -484.534          39.000                                                                  
G31  24995134.413   131350252.882        2224.165          39.000    24995132.659   102350986.421        1733.440          38.000  
E14  22517442.733   118330115.884       -3890.788          48.000    22517444.356    90668503.072       -2981.318          52.000  
E26  26379424.139   138625178.605       -2341.952          46.000    26379424.421   106219489.120       -1794.382          50.000  
E21  29754545.258   156361147.655       -2723.704          40.000    29754551.876   119809186.445       -2087.054          45.000  
G05  25659207.339   134840246.842        1089.293          44.000    25659205.838   105070386.890         848.625          39.000  
E12  28097556.685   147653692.207        2306.042          41.000    28097561.657   113137304.189        1766.935          43.000  
> 2024 04 16 03 21 30.0050000  0 23                     
G25  21986532.190   115540067.277        -900.097          50.000    21986531.338    90031244.004        -701.281          45.000  
G18  23893495.045   125561166.1363       2653.477          38.000    23893493.614    97839859.372        2067.553          40.000  
R16  23740198.298   126815823.091       -3940.821          48.000    23740201.525    98634551.446       -3065.008          43.000  
R09  20695535.591   110513034.333        -908.631          52.000    20695533.980    85954681.560        -706.730          51.000  
R10  21999965.030   117272233.930        2171.980          46.000                                                                  
R21  24999943.608   133779677.0201       3299.914          35.000    24999960.577   104051002.159        2566.651          32.000  
R20  21001463.489   112304320.815         814.009          41.000    21001465.639    87347862.957         633.284          46.000  
G29  22116587.540   116223522.467       -1073.499          50.000    22116584.499    90563829.736        -836.383          47.000  
S33  41157430.511   216283775.901        -700.314          43.000  
S31  40203744.796   211272142.923        -699.808          44.000  
G28  22877147.669   120220236.981         354.674          48.000    22877146.830    93678084.124         276.274          51.000  
G11  25893336.781   136070378.822       -3890.255          44.000    25893330.625   106029232.861       -3031.234          39.000  
R19  22212462.068   118822045.894       -3845.899          42.000    22212459.413    92416874.869       -2991.229          49.000  
G12  23823654.085   125194140.497       -2371.061          47.000    23823651.009    97553867.308       -1847.471          43.000  
E33  25008273.301   131419424.548         272.448          49.000    25008274.721   100698048.580         208.742          53.000  
E31  25395037.210   133451957.904         463.215          48.000    25395041.304   102255469.790         354.952          52.000  
G20  25317610.183   133044941.207        -501.062          38.000                                                                  
G31  24982469.619   131283694.200        2213.820          38.000    24982466.593   102299122.752        1724.841          37.000  
E14  22539682.084   118446987.295       -3900.132          48.000    22539684.556    90758053.943       -2988.394          52.000  
E26  26392825.660   138695605.792       -2352.928          46.000    26392825.688   106273452.859       -1802.795          50.000  
E21  29770104.685   156442913.835       -2726.898          40.000    29770111.470   119871838.355       -2089.361          45.000  
G05  25653015.466   134807707.118        1080.601          44.000    25653012.763   105045031.513         841.796          39.000  
E12  28084403.719   147584576.557        2301.948          42.000    28084409.189   113084346.076        1763.694          45.000  
> 2024 04 16 03 22 00.0050000  0 23                     
G25  21991702.454   115567237.167        -910.719          50.000    21991701.542    90052415.361        -709.607          45.000  
G18  23878374.894   125481721.023        2643.483          46.000    23878374.314    97777954.0821       2059.884          46.000  
R16  23762366.474   126934239.750       -3953.178          52.000    23762369.216    98726653.267       -3074.562          49.000  
R09  20700698.996   110540605.903        -929.032          52.000    20700697.103    85976126.120        -722.456          51.000  
R10  21987773.374   117207243.004        2161.444          47.000                                                                  
R21  24981466.863   133680802.582        3291.941          39.000    24981483.447                        2561.076          30.000  
R20  20996962.060   112280253.651         790.746          40.000    20996964.753    87329144.075         615.128          44.000  
G29  22122745.965   116255885.118       -1083.516          49.000    22122742.722    90589047.457        -844.313          47.000  
S33  41161430.879   216304797.443        -700.548          43.000  
S31  40207742.565   211293150.754        -700.093          44.000  
G28  22875178.565   120209893.139         335.522          46.000    22875178.396    93670024.334         261.409          48.000  
G11  25915572.809   136187229.644       -3899.137          43.000    25915567.263   106120285.534       -3038.523          39.000  
R19  22234069.798   118937635.440       -3859.497          42.000    22234067.466    92506777.884       -3001.740          48.000  
G12  23837215.044   125265403.115       -2379.295          48.000    23837211.007    97609396.580       -1854.032          43.000  
E33  25006759.933   131411471.986         258.325          48.000    25006761.429   100691955.118         197.886          53.000  
E31  25392403.808   133438121.892         459.774          47.000    25392408.324   102244868.210         352.249          52.000  
G20  25320521.685   133060242.065        -518.323          39.000                                                                  
G31  24969864.704   131217454.972        2202.788          40.000    24969861.623   102247507.872        1716.350          40.000  
E14  22561975.407   118564138.364       -3909.410          48.000    22561977.637    90847819.100       -2995.570          52.000  
E26  26406291.827   138766374.208       -2364.386          45.000    26406292.338   106327678.066       -1811.724          49.000  
E21  29785686.381   156524789.735       -2730.823          42.000    29785691.971   119934574.325       -2092.420          45.000  
G05  25646875.223   134775438.675        1071.238          44.000    25646873.178   105019887.559         835.060          39.000  
E12  28071276.712   147515595.278        2297.376          41.000    28071282.169   113031490.765        1760.160          44.000  
> 2024 04 16 03 22 30.0050000  0 23                     
G25  21996931.558   115594713.160        -921.060          50.000    21996929.482    90073825.214        -717.579          44.000  
G18  23863311.439   125402565.058        2633.583          45.000    23863311.295    97716274.380        2052.225          45.000  
R16  23784601.019   127053010.404       -3964.886          53.000    23784602.894    98819030.190       -3083.762          52.000  
R09  20705974.444   110568778.858        -949.085          52.000    20705972.056    85998038.420        -738.214          50.000  
R10  21975638.955   117142556.299        2151.097          47.000                                                                  
R21  24963031.146   133582154.825        3284.287          39.000    24963047.740                        2554.466          28.000  
R20  20992590.435   112256875.035         767.786          41.000    20992592.379    87310960.744         597.101          45.000  
G29  22128959.785   116288539.477       -1093.293          50.000    22128956.928    90614492.467        -852.084          46.000  
S33  41165430.933   216325819.542        -700.589          43.000  
S31  40211739.721   211314157.403        -700.500          44.000  
G28  22873317.552   120200112.594         316.670          46.000    22873317.194    93662403.233         246.818          48.000  
G11  25937856.120   136304330.635       -3907.426          42.000    25937850.583   106211533.131       -3044.720          39.000  
R19  22255751.203   119053614.522       -3872.492          42.000    22255747.678    92596983.889       -3011.835          48.000  
G12  23850820.791   125336903.955       -2387.273          47.000    23850817.325    97665111.503       -1860.253          42.000  
E33  25005325.373   131403936.395         244.163          48.000    25005327.485   100686181.158         187.047          53.000  
E31  25389790.155   133424384.942         456.229          47.000    25389794.315   102234342.517         349.678          52.000  
G20  25323528.397   133076045.539        -535.071          37.000                                                                  
G31  24957320.063   131151533.732        2192.053          39.000    24957317.135   102196140.770        1708.247          37.000  
E14  22584319.783   118681560.577       -3918.535          48.000    22584322.365    90937792.010       -3002.506          52.000  
E26  26419823.168   138837478.242       -2375.640          46.000    26419823.089   106382160.433       -1820.349          49.000  
E21  29801287.728   156606771.291       -2734.450          42.000    29801292.656   119997391.239       -2095.204          46.000  
G05  25640785.031   134743437.967        1062.279          45.000    25640782.529   104994952.326         828.014          40.000  
E12  28058175.146   147446746.567        2292.743          41.000    28058180.174   112978737.040        1756.856          43.000  
> 2024 04 16 03 23 00.0050000  0 23                     
G25  22002217.064   115622492.191        -930.933          49.000    22002215.454    90095471.240        -725.422          44.000  
G18  23848303.215   125323696.693        2624.228          45.000    23848303.124    97654818.415        2044.666          37.000  
R16  23806900.219   127172129.427       -3976.472          49.000    23806902.272    98911677.969       -3092.883          45.000  
R09  20711362.621   110597550.066        -968.972          52.000    20711359.807    86020416.018        -753.632          51.000  
R10  21963561.061   117078173.912        2141.020          47.000                                                                  
R21  24944638.269   133483732.469        3277.012          41.000    24944648.384                3       2549.027          20.000  
R20  20988346.369   112234180.972         745.197          40.000    20988348.098    87293309.930         579.639          44.000  
G29  22135227.794   116321480.174       -1102.761          48.000    22135224.750    90640160.598        -859.359          46.000  
S33  41169430.487   216346837.433        -700.586          43.000  
S31  40215736.616   211335160.304        -700.207          44.000  
G28  22871563.367   120190892.390         298.142          44.000    22871562.323    93655218.651         232.334          46.000  
G11  25960186.115   136421674.938       -3915.620          42.000    25960180.742   106302970.354       -3051.012          40.000  
R19  22277504.146   119169975.738       -3884.772          43.000    22277500.068    92687487.099       -3021.594          48.000  
G12  23864471.393   125408639.107       -2395.031          47.000    23864469.135    97721008.947       -1866.098          44.000  
E33  25003969.558   131396813.993         230.595          47.000    25003972.029   100680723.809         176.653          53.000  
E31  25387193.990   133410743.794         453.267          47.000    25387198.452   102223890.252         347.259          52.000  
G20  25326631.272   133092348.413        -551.825          41.000                                                                  
G31  24944837.070   131085928.989        2181.672          40.000    24944833.546   102145020.314        1699.933          40.000  
E14  22606715.225   118799245.284       -3927.096          49.000    22606716.822    91027966.058       -3009.057          52.000  
E26  26433417.342   138908912.209       -2386.552          47.000    26433416.838   106436895.601       -1828.636          50.000  
E21  29816907.326   156688854.354       -2737.789          43.000    29816913.012   120060285.919       -2097.717          46.000  
G05  25634745.693   134711704.332        1053.414          44.000    25634744.864   104970224.807         820.888          42.000  
E12  28045098.821   147378027.281        2288.572          42.000    28045103.180   112926082.334        1753.542          42.000  
> 2024 04 16 03 23 30.0050000  0 23                     
G25  22007561.882   115650575.873        -941.189          50.000    22007559.328    90117354.614        -733.307          44.000  
G18  23833350.468   125245118.101        2614.348          37.000    23833349.105    97593585.0761       2037.307          42.000  
R16  23829265.215   127291595.702       -3987.886          52.000    23829267.431    99004595.952       -3101.605          51.000  
R09  20716862.827   110626921.297        -988.939          52.000    20716860.656    86043260.295        -769.165          50.000  
R10  21951541.342   117014099.601        2130.816          47.000                                                                  
R21  24926286.535   133385538.643        3269.525          44.000    24926330.308                        2542.540          25.000  
R20  20984230.900   112212172.210         722.594          41.000    20984232.183    87276192.115         561.706          44.000  
G29  22141550.854   116354706.109       -1112.190          49.000    22141547.984    90666050.967        -866.602          47.000  
S33  41173429.069   216367850.821        -700.030          43.000  
S31  40219732.176   211356159.524        -699.657          44.000  
G28  22869915.356   120182234.486         279.275          46.000    22869914.488    93648472.242         217.711          49.000  
G11  25982561.690   136539260.208       -3923.301          42.000    25982557.225   106394595.326       -3057.167          40.000  
R19  22299326.840   119286714.601       -3897.370          43.000    22299323.372    92778284.045       -3031.439          48.000  
G12  23878167.031   125480609.851       -2402.848          47.000    23878163.518    97777089.985       -1872.289          42.000  
E33  25002693.572   131390105.639         216.868          47.000    25002695.598   100675583.705         166.119          53.000  
E31  25384616.637   133397199.848         449.969          47.000    25384621.080   102213512.461         344.771          52.000  
G20  25329829.066   133109151.986        -568.304          40.000                                                                  
G31  24932413.762   131020643.808        2171.089          39.000    24932410.088   102094148.957        1691.742          40.000  
E14  22629159.378   118917188.529       -3935.574          50.000    22629160.608    91118338.203       -3015.505          52.000  
E26  26447073.603   138980674.984       -2397.394          47.000    26447072.645   106491882.712       -1836.965          49.000  
E21  29832545.971   156771039.276       -2741.102          41.000    29832552.711   120123258.635       -2100.211          46.000  
G05  25628759.549   134680241.186        1044.198          46.000    25628756.981   104945708.158         813.956          43.000  
E12  28032047.376   147309439.988        2284.255          42.000    28032051.209   112873528.775        1750.281          44.000  
> 2024 04 16 03 24 00.0050000  0 23                     
G25  22012964.530   115678968.837        -951.563          49.000    22012962.404    90139479.029        -741.622          44.000  
G18  23818453.336   125166832.2991       2604.446          43.000    23818452.824    97532589.0211       2029.506          40.000  
R16  23851694.920   127411411.389       -3999.525          54.000    23851697.533    99097785.764       -3110.800          53.000  
R09  20722476.676   110656896.923       -1009.219          52.000    20722474.276    86066574.658        -784.908          51.000  
R10  21939580.064   116950340.874        2120.056          47.000                                                                  
R21  24907978.738   133287579.365        3261.480          42.000    24907965.622                1       2536.233          29.000  
R20  20980244.043   112190853.388         699.094          41.000    20980245.554    87259610.902         543.889          43.000  
G29  22147928.394   116388219.511       -1121.814          49.000    22147925.758    90692165.361        -874.122          47.000  
S33  41177427.754   216388863.773        -700.302          43.000  
S31  40223728.009   211377157.500        -700.360          44.000  
G28  22868375.908   120174143.980         260.328          46.000    22868374.889    93642168.200         202.800          47.000  
G11  26004983.481   136657087.405       -3931.390          42.000    26004978.688   106486408.833       -3063.599          41.000  
R19  22321219.595   119403831.256       -3910.047          43.000    22321218.052    92869374.823       -3041.114          49.000  
G12  23891908.425   125552819.992       -2410.903          47.000    23891905.080    97833357.587       -1878.475          44.000  
E33  25001496.538   131383815.352         202.834          47.000    25001498.530   100670763.939         155.407          53.000  
E31  25382058.939   133383757.617         446.434          47.000    25382063.124   102203212.597         342.154          52.000  
G20  25333122.524   133126460.933        -585.315          40.000                                                                  
G31  24920051.462   130955684.290        2160.042          40.000    24920048.686   102043531.246        1683.315          40.000  
E14  22651651.758   119035389.500       -3944.229          49.000    22651653.339    91208907.820       -3022.147          52.000  
E26  26460792.402   139052768.570       -2408.626          47.000    26460791.768   106547123.288       -1845.523          50.000  
E21  29848205.177   156853329.760       -2744.625          41.000    29848211.819   120186312.232       -2103.062          46.000  
G05  25622824.702   134649054.399        1034.995          45.000    25622821.687   104921406.921         806.683          41.000  
E12  28019021.646   147240989.584        2279.462          40.000    28019024.912   112821080.061        1746.624          42.000  
> 2024 04 16 03 24 30.0050000  0 24                     
G25  22018425.633   115707666.814        -961.672          49.000    22018423.919    90161841.077        -749.354          44.000  
G18  23803612.978   125088845.513        2594.530          38.000    23803611.902    97471816.500        2021.819          45.000  
R16  23874188.681   127531568.391       -4010.905          50.000    23874190.832    99191240.757       -3119.438          45.000  
R09  20728202.912   110687473.462       -1029.171          52.000    20728200.520    86090356.408        -800.405          51.000  
R10  21927677.094   116886895.192        2109.735          46.000                                                                  
R21  24889714.239   133189851.865        3253.567          41.000    24889719.486   103592122.8091       2530.231          32.000  
R20  20976385.174   112170219.581         676.147          41.000    20976386.717    87243562.666         526.084          45.000  
G29  22154358.817   116422013.632       -1131.155          49.000    22154356.224    90718498.512        -881.410          46.000  
S33  41181425.360   216409870.912        -700.122          42.000  
S31  40227722.595   211398150.482        -699.584          44.000  
G28  22866943.723   120166615.823         241.470          46.000    22866942.362    93636302.203         188.153          47.000  
G11  26027449.998   136775148.386       -3939.290          42.000    26027445.194   106578404.466       -3069.376          41.000  
R19  22343182.765   119521316.249       -3922.193          43.000    22343180.523    92960752.109       -3050.537          50.000  
G12  23905695.218   125625264.226       -2418.595          49.000    23905692.151    97889807.544       -1884.661          44.000  
E33  25000377.450   131377938.039         188.936          46.000    25000380.280   100666260.605         144.980          53.000  
E31  25379519.457   133370412.579         443.219          47.000    25379523.671   102192987.218         339.743          52.000  
G20  25336511.563   133144270.775        -602.002          40.000                                                                  
G31  24907750.536   130891047.350        2149.229          37.000    24907748.635   101993164.502        1675.112          38.000  
E14  22674191.109   119153838.334       -3952.205          48.000    22674193.659    91299667.379       -3028.298          53.000  
E26  26474572.718   139125185.968       -2419.258          46.000    26474572.272   106602611.993       -1853.652          50.000  
E21  29863882.979   156935720.303       -2748.090          40.000    29863890.139   120249442.503       -2105.479          46.000  
G05  25616941.868   134618142.125        1025.987          45.000    25616939.397   104897319.654         799.520          41.000  
E12  28006021.263   147172672.658        2275.256          40.000    28006024.077   112768733.625        1743.183          43.000  
E24                                                                  29047562.149   116962493.1761       1140.191          34.000  
> 2024 04 16 03 25 00.0050000  0 24                     
G25  22023945.028   115736672.800        -971.869          48.000    22023943.949    90184443.162        -757.442          44.000  
G18  23788829.132   125011157.331        2584.582          45.000    23788827.155    97411271.641        2014.118          43.000  
R16  23896746.060   127652068.057       -4022.155          49.000    23896748.821    99284962.567       -3128.320          44.000  
R09  20734041.422   110718653.590       -1049.265          52.000    20734039.738    86114607.594        -816.069          51.000  
R10  21915833.914   116823768.541        2098.961          45.000                                                                  
R21  24871494.980   133092360.482        3245.906          43.000    24871505.369   103516297.025        2524.641          38.000  
R20  20972655.086   112150272.137         653.671          41.000    20972656.628    87228048.018         508.521          44.000  
G29  22160842.840   116456089.119       -1140.393          49.000    22160840.362    90745050.887        -888.568          47.000  
S33  41185422.102   216430874.844        -700.174          42.000  
S31  40231716.741   211419139.028        -699.436          44.000  
G28  22865618.363   120159653.892         222.698          48.000    22865616.514    93630877.774         173.568          47.000  
G11  26049960.713   136893442.324       -3946.674          41.000    26049955.913   106670581.623       -3075.632          42.000  
R19  22365214.317   119639167.150       -3934.253          44.000    22365210.961    93052413.980       -3059.998          49.000  
G12  23919525.689   125697944.383       -2426.355          47.000    23919522.473    97946441.398       -1890.548          41.000  
E33  24999337.191   131372476.007         175.099          46.000    24999340.798   100662075.488         134.233          53.000  
E31  25376999.702   133357167.652         439.885          47.000    25377003.229   102182838.546         337.038          52.000  
G20  25339996.380   133162584.547        -618.921          38.000                                                                  
G31  24895512.600   130826738.479        2138.220          39.000    24895511.151   101943053.784        1665.866          39.000  
E14  22696777.491   119272532.637       -3960.523          48.000    22696780.609    91390615.021       -3034.682          53.000  
E26  26488414.266   139197927.560       -2430.034          46.000    26488414.400   106658349.108       -1861.971          50.000  
E21  29879581.666   157018212.824       -2751.391          42.000    29879588.558   120312650.877       -2108.201          47.000  
G05  25611112.178   134587507.726        1016.586          46.000    25611110.190   104873448.731         792.101          44.000  
E12  27993046.742   147104492.595        2270.480          40.000    27993049.715   112716492.079        1739.862          44.000  
E24                                                                  29039061.331   116928261.186        1141.849          38.000  
> 2024 04 16 03 25 30.0050000  0 24                     
G25  22029523.099   115765986.658        -982.195          48.000    22029522.295    90207285.120        -765.442          45.000  
G18  23774102.817   124933770.495        2574.361          47.000    23774101.274    97350970.280        2005.985          41.000  
R16  23919367.743   127772907.331       -4033.663          49.000    23919371.184    99378948.782       -3137.256          47.000  
R09  20739993.258   110750437.430       -1069.551          52.000    20739991.498    86139328.362        -831.817          51.000  
R10  21904051.717   116760962.762        2088.184          46.000                                                                  
R21  24853320.405   132995106.648        3237.895          44.000    24853332.814   103440655.758        2518.288          38.000  
R20  20969053.070   112131010.822         630.702          41.000    20969054.833    87213067.101         490.494          44.000  
G29  22167380.530   116490443.431       -1149.768          49.000    22167377.938    90771820.523        -895.824          47.000  
S33  41189417.658   216451872.617        -699.741          42.000  
S31  40235709.682   211440122.264        -699.252          44.000  
G28  22864400.805   120153256.768         203.749          48.000    22864398.950    93625893.131         158.781          47.000  
G11  26072514.491   137011965.284       -3954.628          42.000    26072509.743   106762937.215       -3081.573          41.000  
R19  22387312.648   119757378.685       -3946.125          43.000    22387308.935    93144356.322       -3069.428          48.000  
G12  23933400.557   125770860.473       -2434.414          46.000    23933397.253    98003259.133       -1896.974          42.000  
E33  24998376.812   131367428.379         161.410          46.000    24998380.102   100658207.869         123.646          53.000  
E31  25374497.933   133344022.464         436.498          47.000    25374501.694   102172766.292         334.529          52.000  
G20  25343576.398   133181401.953        -635.529          40.000                                                                  
G31  24883338.809   130762758.905        2127.352          41.000    24883335.758   101893199.666        1657.403          40.000  
E14  22719410.140   119391466.754       -3968.361          48.000    22719412.871    91481746.399       -3040.676          53.000  
E26  26502317.330   139270990.450       -2440.722          46.000    26502317.715   106714332.419       -1870.147          50.000  
E21  29895299.749   157100806.005       -2754.547          41.000    29895305.944   120375936.439       -2110.792          46.000  
G05  25605335.385   134557153.770        1006.896          45.000    25605333.436   104849796.418         784.767          42.000  
E12  27980098.092   147036449.626        2265.676          44.000    27980101.820   112664355.517        1736.130          49.000  
E24                                                                  29030549.271   116893983.901        1143.331          39.000  
> 2024 04 16 03 26 00.0050000  0 24                     
G25  22035160.286   115795611.307        -992.817          49.000    22035159.676    90230369.274        -773.597          44.000  
G18  23759433.903   124856689.225        2564.229          48.000    23759432.271    97290907.733        1997.891          43.000  
R16  23942051.985   127894085.232       -4044.954          52.000    23942056.332    99473197.877       -3146.201          48.000  
R09  20746058.598   110782828.103       -1089.922          52.000    20746057.690    86164521.101        -847.721          52.000  
R10  21892331.168   116698483.780        2077.173          46.000                                                                  
R21  24835191.311   132898095.169        3229.521          44.000    24835202.247   103365203.277        2511.912          39.000  
R20  20965579.800   112112437.099         607.474          41.000    20965582.020    87198620.853         472.485          45.000  
G29  22173970.754   116525076.806       -1159.131          49.000    22173968.553    90798807.612        -903.210          47.000  
S33  41193412.891   216472867.162        -699.276          42.000  
S31  40239701.999   211461102.186        -699.208          44.000  
G28  22863290.893   120147428.049         184.572          47.000    22863289.998    93621351.452         143.876          47.000  
G11  26095112.298   137130716.372       -3962.063          42.000    26095106.503   106855470.595       -3087.523          39.000  
R19  22409478.452   119875948.955       -3958.167          42.000    22409473.633    93236577.697       -3078.736          47.000  
G12  23947321.252   125844014.367       -2442.563          48.000    23947318.746    98060262.115       -1903.222          43.000  
E33  24997496.002   131362797.323         147.391          47.000    24997498.979   100654659.454         112.817          54.000  
E31  25372015.823   133330979.886         432.927          48.000    25372019.616   102162772.678         331.615          51.000  
G20  25347253.644   133200725.153        -652.777          41.000                                                                  
G31  24871227.986   130699112.091        2115.712          42.000    24871223.644   101843604.781        1648.693          40.000  
E14  22742088.665   119510638.270       -3976.536          49.000    22742090.563    91573059.678       -3046.917          53.000  
E26  26516281.716   139344375.006       -2451.638          46.000    26516282.758   106770562.174       -1878.453          50.000  
E21  29911035.761   157183501.824       -2758.241          42.000    29911042.268   120439300.559       -2113.468          47.000  
G05  25599613.814   134527083.209         997.484          46.000    25599610.872   104826364.887         777.027          43.000  
E12  27967176.186   146968547.415        2261.052          41.000    27967180.075   112612326.802        1732.328          47.000  
E24                                                                  29022024.228   116859663.356        1144.419          36.000  
> 2024 04 16 03 26 30.0050000  0 24                     
G25  22040858.208   115825551.840       -1003.541          49.000    22040856.905    90253699.568        -782.149          44.000  
G18  23744824.500   124779917.833        2553.618          32.000    23744822.722    97231086.256        1989.715          50.000  
R16  23964802.001   128015606.219       -4056.642          48.000    23964805.126    99567714.553       -3155.202          42.000  
R09  20752239.309   110815830.591       -1110.584          51.000    20752237.706    86190189.714        -863.744          51.000  
R10  21880673.075   116636338.680        2065.517          47.000                                                                  
R21  24817108.491   132801333.335        3221.063          46.000    24817118.434   103289945.156        2504.837          38.000  
R20  20962235.843   112094556.846         584.154          40.000    20962238.855    87184714.037         454.360          45.000  
G29  22180615.238   116559992.049       -1168.794          50.000    22180612.750    90826014.342        -910.663          47.000  
S33  41197408.160   216493862.205        -700.038          43.000  
S31  40243694.093   211482082.807        -699.302          45.000  
G28  22862290.808   120142172.718         165.398          48.000    22862289.797    93617256.581         128.793          47.000  
G11  26117753.669   137249696.938       -3970.207          42.000    26117747.738   106948182.772       -3093.541          37.000  
R19  22431710.985   119994877.261       -3970.557          42.000    22431706.664    93329077.534       -3088.184          48.000  
G12  23961287.849   125917410.140       -2450.835          48.000    23961285.097    98117453.558       -1909.593          43.000  
E33  24996695.279   131358587.148         133.038          47.000    24996697.741   100651433.535         101.974          53.000  
E31  25369554.705   133318044.835         429.142          48.000    25369557.801   102152861.438         328.885          51.000  
G20  25351028.094   133220559.679        -669.904          42.000                                                                  
G31  24859180.783   130635804.949        2104.327          41.000    24859176.555   101794274.524        1639.957          38.000  
E14  22764811.198   119630046.792       -3984.491          50.000    22764813.131    91664554.572       -3053.109          53.000  
E26  26530307.902   139418083.550       -2462.558          46.000    26530308.712   106827040.198       -1886.895          50.000  
E21  29926792.997   157266304.004       -2762.120          42.000    29926799.119   120502746.235       -2116.375          46.000  
G05  25593946.213   134497304.200         987.590          45.000    25593944.390   104803160.418         769.314          42.000  
E12  27954281.925   146900791.336        2255.998          40.000    27954285.910   112560410.026        1728.473          44.000  
E24                                                                  29013490.824   116825303.422        1145.954          36.000  
> 2024 04 16 03 27 00.0050000  0 24                     
G25  22046616.900   115855811.712       -1013.978          49.000    22046615.527    90277278.681        -790.187          44.000  
G18  23730275.346   124703464.082        2543.336          48.000    23730273.983    97171512.441        1981.453          41.000  
R16  23987614.579   128137468.093       -4067.657          49.000    23987617.552    99662495.798       -3164.151          44.000  
R09  20758534.405   110849448.485       -1130.860          51.000    20758533.101    86216336.958        -879.532          51.000  
R10  21869078.820   116574533.290        2054.412          47.000                                                                  
R21  24799071.982   132704825.130        3212.618          44.000    24799082.244   103214884.146        2499.003          38.000  
R20  20959022.350   112077372.184         561.194          41.000    20959024.663    87171348.494         436.604          45.000  
G29  22187313.124   116595190.036       -1178.015          48.000    22187310.946    90853441.394        -917.957          47.000  
S33  41201403.717   216514860.849        -699.697          42.000  
S31  40247687.024   211503066.138        -699.408          44.000  
G28  22861400.842   120137494.036         146.290          47.000    22861399.300    93613611.052         114.078          48.000  
G11  26140438.352   137368906.593       -3977.314          40.000    26140432.931   107041073.440       -3099.479          38.000  
R19  22454009.637   120114162.784       -3982.233          42.000    22454006.219    93421855.232       -3097.278          48.000  
G12  23975300.691   125991050.300       -2458.943          47.000    23975298.169    98174835.441       -1915.984          43.000  
E33  24995974.437   131354800.576         119.112          46.000    24995976.956   100648532.185          91.286          53.000  
E31  25367114.179   133305220.680         425.579          47.000    25367117.286   102143035.189         326.064          51.000  
G20  25354901.107   133240908.565        -687.201          39.000                                                                  
G31  24847199.238   130572842.840        2093.017          40.000    24847195.890   101745213.313        1630.902          38.000  
E14  22787578.718   119749690.469       -3992.025          49.000    22787580.393    91756229.634       -3058.778          53.000  
E26  26544396.514   139492116.867       -2473.174          46.000    26544396.845   106883767.084       -1895.070          50.000  
E21  29942569.862   157349215.045       -2765.696          37.000    29942575.805   120566275.354       -2119.045          41.000  
G05  25588335.769   134467822.018         977.740          45.000    25588333.778   104780187.524         761.746          42.000  
E12  27941417.037   146833185.416        2251.302          39.000    27941420.720   112508608.111        1724.836          41.000  
E24                                                                  29004948.546   116790906.215        1147.302          37.000  
> 2024 04 16 03 27 30.0050000  0 24                     
G25  22052434.899   115886386.949       -1024.489          49.000    22052433.761    90301103.553        -798.218          44.000  
G18  23715786.435   124627323.187        2532.259          38.000    23715784.889    97112183.502        1973.260          42.000  
R16  24010490.235   128259666.279       -4079.037          49.000    24010492.662    99757539.106       -3172.797          45.000  
R09  20764944.226   110883677.708       -1151.278          51.000    20764943.580    86242959.684        -895.487          52.000  
R10  21857547.759   116513066.559        2043.086          47.000                                                                  
R21  24781081.765   132608568.258        3204.777          40.000    24781094.112   103140018.614        2492.304          37.000  
R20  20955937.988   112060877.879         538.113          40.000    20955940.087    87158519.710         418.557          44.000  
G29  22194063.024   116630664.463       -1187.195          48.000    22194061.129    90881083.868        -925.110          47.000  
S33  41205399.071   216535856.392        -699.845          43.000  
S31  40251679.657   211524047.736        -699.508          44.000  
G28  22860618.983   120133387.411         127.131          47.000    22860617.645    93610411.014          99.026          49.000  
G11  26163164.614   137488337.634       -3984.763          40.000    26163159.829   107134136.623       -3104.745          38.000  
R19  22476373.436   120233796.316       -3993.830          41.000    22476370.515    93514903.585       -3106.183          47.000  
G12  23989360.310   126064930.381       -2466.577          46.000    23989358.208    98232404.255       -1922.151          42.000  
E33  24995333.867   131351432.868         105.123          47.000    24995336.016   100645951.776          80.672          53.000  
E31  25364693.781   133292503.337         422.057          47.000    25364697.078   102133290.785         323.347          51.000  
G20  25358869.831   133261767.447        -703.644          39.000                                                                  
G31  24835282.320   130510223.037        2081.733          40.000    24835279.592   101696418.780        1621.602          39.000  
E14  22810389.088   119869559.943       -3999.486          49.000    22810390.621    91848077.725       -3064.517          53.000  
E26  26558545.198   139566468.379       -2483.796          47.000    26558545.520   106940737.749       -1903.143          50.000  
E21  29958367.753   157432229.976       -2768.917          34.000    29958373.633   120629884.084       -2121.887          38.000  
G05  25582781.420   134438633.732         967.757          44.000    25582779.992   104757443.593         754.217          41.000  
E12  27928579.325   146765726.389        2246.363          36.000    27928583.699   112456918.702        1720.877          40.000  
E24                                                                  28996396.664   116756468.105        1148.526          36.000  
> 2024 04 16 03 28 00.0050000  0 24                     
G25  22058313.238   115917278.184       -1034.729          49.000    22058312.016    90325174.642        -806.213          44.000  
R16  24033428.032   128382197.170       -4089.898          40.000    24033431.621    99852840.765       -3181.185          35.000  
R09  20771469.461   110918518.931       -1171.371          51.000    20771468.048    86270058.405        -911.034          51.000  
R10  21846080.873   116451941.581        2031.963          47.000                                                                  
R21  24763139.476   132512564.828        3196.529          39.000    24763151.785   103065350.151        2485.611          38.000  
R20  20952982.335   112045074.237         515.386          42.000    20952983.826    87146228.408         400.998          45.000  
G29  22200866.139   116666413.543       -1195.959          49.000    22200863.554    90908940.344        -931.927          47.000  
S33  41209393.912   216556849.810        -698.941          43.000  
S31  40255671.653   211545026.338        -698.542          44.000  
G28  22859946.793   120129854.029         108.392          47.000    22859945.131    93607657.740          84.431          48.000  
G11  26185933.532   137607986.902       -3991.661          40.000    26185928.464   107227369.875       -3110.136          37.000  
R19  22498801.293   120353772.521       -4004.673          41.000    22498798.609    93608218.462       -3114.737          48.000  
G12  24003464.703   126139049.978       -2474.432          47.000    24003462.487    98290159.724       -1927.987          43.000  
E33  24994772.419   131348483.787          91.564          47.000    24994775.036   100643692.148          70.077          54.000  
E31  25362294.180   133279893.330         418.752          47.000    25362297.334   102123628.613         320.840          51.000  
G20  25362936.875   133283136.183        -720.642          37.000                                                                  
G31  24823431.405   130447947.377        2070.436          41.000    24823428.869   101647892.272        1612.979          38.000  
E14  22833241.434   119989650.533       -4006.363          49.000    22833242.899    91940095.240       -3069.885          53.000  
E26  26572752.781   139641135.954       -2494.051          46.000    26572754.635   106997950.618       -1911.074          50.000  
E21  29974182.852                       -2772.105          30.000    29974190.683   120693571.976       -2124.399          35.000  
G05  25577282.706   134409740.449         958.672          45.000    25577281.503   104734929.439         746.806          42.000  
E12  27915770.366   146698415.925        2241.610          41.000    27915774.973   112405343.302        1717.501          49.000  
E24                                                                  28987833.762   116721989.167        1150.361          37.000  
G18                                                                  23701355.929    97053091.6421       1965.186          40.000  
> 2024 04 16 03 28 30.0050000  0 24                     
G25  22064250.590   115948479.132       -1045.297          49.000    22064250.339    90349487.083        -814.423          44.000  
G18  23686987.038   124475956.7791       2511.854          46.000    23686985.318    96994250.866        1957.413          43.000  
R16  24056427.449   128505051.258       -4100.651          53.000    24056431.723    99948393.492       -3189.331          53.000  
R09  20778107.738   110953965.687       -1191.738          52.000    20778106.744    86297628.083        -926.933          52.000  
R10  21834676.953   116391154.644        2020.492          47.000                                                                  
R21  24745246.700   132416810.138        3187.232          38.000    24745256.143   102990875.142        2479.017          39.000  
R20  20950154.663   112029952.512         492.392          41.000    20950154.809    87134467.182         383.139          44.000  
G29  22207719.714   116702428.638       -1205.029          49.000    22207717.661    90937004.102        -939.032          47.000  
S33  41213386.694   216577833.304        -699.337          43.000  
S31  40259661.911   211565995.316        -698.937          44.000  
G28  22859382.547   120126887.013          89.293          46.000    22859381.106    93605345.633          69.568          47.000  
G11  26208741.907   137727844.342       -3998.797          40.000    26208736.785   107320765.381       -3115.920          35.000  
R19  22521291.865   120474080.567       -4015.613          41.000    22521288.948    93701791.453       -3123.405          48.000  
G12  24017613.593   126213402.445       -2482.563          48.000    24017610.489    98348096.720       -1934.404          43.000  
E33  24994289.967   131345946.289          77.563          47.000    24994292.156   100641747.878          59.580          54.000  
E31  25359913.754   133267384.275         415.259          46.000    25359916.962   102114043.794         318.259          51.000  
G20  25367098.908   133305009.296        -737.622          39.000                                                                  
G31  24811645.759   130386011.381        2058.974          40.000    24811642.499   101599630.407        1604.461          38.000  
E14  22856133.761   120109950.676       -4013.442          49.000    22856135.289    92032273.330       -3075.238          53.000  
E26  26587021.062   139716110.637       -2504.268          47.000    26587021.468   107055398.788       -1918.881          50.000  
E24  28979256.842                1       1502.745          28.000    28979259.035   116687464.082        1151.473          35.000  
G05  25571840.851   134381138.865         948.304          45.000    25571838.993   104712642.517         739.048          42.000  
E12  27902988.831   146631247.077        2236.601          38.000    27902994.075   112353876.169        1713.750          43.000  
E21                                                                  29990026.048                       -2126.783          31.000  
> 2024 04 16 03 29 00.0050000  0 24                     
G25  22070247.985   115979998.439       -1055.963          48.000    22070248.042    90374047.580        -822.988          45.000  
G18  23672678.852   124400769.0241       2501.103          45.000    23672675.569    96935653.1391       1948.567          35.000  
R16  24079488.083   128628234.906       -4111.588          47.000    24079491.201   100044202.617       -3197.694          45.000  
R09  20784860.346   110990026.683       -1212.155          51.000    20784859.076    86325675.521        -942.782          52.000  
R10  21823339.004   116330716.694        2008.857          47.000                                                                  
R21  24727399.910   132321314.258        3178.916          38.000    24727408.974   102916601.462        2472.386          39.000  
R20  20947454.727   112015522.029         469.541          40.000    20947456.244    87123243.683         365.260          44.000  
G29  22214625.131   116738715.919       -1213.983          49.000    22214622.892    90965279.944        -945.996          48.000  
S33  41217379.007   216598814.239        -699.280          43.000  
S31  40263651.714   211586961.857        -698.994          44.000  
G28  22858927.479   120124495.640          69.987          45.000    22858926.257    93603482.355          54.503          45.000  
G11  26231590.469   137847914.866       -4005.885          38.000    26231585.056   107414326.836       -3121.267          35.000  
R19  22543844.573   120594724.064       -4027.035          40.000    22543841.862    93795625.310       -3132.147          48.000  
G12  24031808.595   126287995.512       -2490.480          47.000    24031806.463    98406221.100       -1940.612          43.000  
E33  24993886.975   131343828.189          63.521          47.000    24993889.187   100640124.982          48.702          54.000  
E31  25357553.776   133254984.747         411.537          46.000    25357557.352   102104542.912         315.277          51.000  
G20  25371359.747   133327394.509        -754.675          39.000                                                                  
G31  24799926.813   130324424.880        2047.194          40.000    24799922.301   101551640.666        1595.373          38.000  
E14  22879065.917   120230463.714       -4020.652          49.000    22879068.276    92124614.542       -3080.763          53.000  
E26  26601347.515   139791398.406       -2514.590          47.000    26601348.244   107113086.879       -1926.881          49.000  
G05  25566454.735   134352838.864         938.324          44.000    25566453.762   104690590.695         731.073          42.000  
E12  27890236.478   146564230.202        2231.394          38.000    27890240.857   112302525.685        1709.937          42.000  
E24                                                                  28970673.337   116652898.586        1153.124          34.000  
E21                                                                  30005881.045                       -2129.011          30.000  
> 2024 04 16 03 29 30.0050000  0 24                     
G25  22076305.387   116011831.104       -1066.419          47.000    22076305.597    90398852.258        -830.785          44.000  
G18  23658430.153   124325899.766        2490.266          49.000    23658428.432    96877305.2441       1940.602          42.000  
R16  24102608.182   128751741.974       -4122.445          53.000    24102610.838   100140264.126       -3206.263          49.000  
R09  20791727.800   111026696.860       -1232.695          51.000    20791726.081    86354196.759        -958.711          51.000  
R10  21812066.353   116270625.062        1997.222          47.000                                                                  
R21  24709601.251   132226073.461        3170.385          38.000    24709609.469   102842526.148        2465.628          39.000  
R20  20944883.970   112001775.913         446.599          41.000    20944884.930    87112552.378         347.442          44.000  
G29  22221580.623   116775267.614       -1222.894          49.000    22221578.330    90993761.829        -952.838          48.000  
S33  41221369.925   216619786.507        -699.347          43.000  
S31  40267639.871   211607919.631        -698.842          44.000  
G28  22858580.747   120122674.453          50.891          48.000    22858579.199    93602063.464          39.745          49.000  
G11  26254477.577   137968189.672       -4012.125          36.000    26254472.553   107508047.489       -3126.606          35.000  
R19  22566459.163   120715693.000       -4037.943          40.000    22566455.288    93889712.341       -3140.446          47.000  
G12  24046047.463   126362823.409       -2498.286          46.000    24046045.986    98464528.486       -1946.738          43.000  
E33  24993561.337   131342123.689          49.819          46.000    24993564.920   100638818.998          38.202          54.000  
E31  25355214.185   133242689.644         408.013          46.000    25355217.757   102095122.033         312.577          51.000  
G20  25375715.260   133350286.464        -771.783          39.000                                                                  
G31  24788274.121   130263183.761        2035.534          42.000    24788269.074   101503919.873        1585.628          38.000  
E14  22902036.517   120351179.399       -4027.190          48.000    22902039.902    92217111.029       -3085.852          53.000  
E26  26615733.206   139866991.583       -2524.895          47.000    26615732.703   107171008.969       -1934.708          49.000  
E24  28962070.777                        1506.036          28.000    28962077.372   116618288.607        1154.515          32.000  
G05  25561126.175   134324836.891         928.118          45.000    25561124.265   104668771.073         723.336          40.000  
E12  27877512.377   146497360.677        2226.495          42.000    27877515.492   112251288.191        1705.959          48.000  
E21                                                                  30021755.168                       -2131.720          27.000  
