     3.00           OBSERVATION DATA    M: Mixed            RINEX VERSION / TYPE
CONVBIN 2.4.3                           20240416 044442 UTC PGM / RUN BY / DATE 
format: u-blox UBX                                          COMMENT             
log: /home/regis/git/gnsspwv/obsdata/VERT00CHL/2024-04-16/VECOMMENT             
{self.marker}                                               MARKER NAME         
                                                            MARKER NUMBER       
GEODETIC                                                    MARKER TYPE         
{self.observer}     {self.institution}                      OBSERVER / AGENCY   
UNKNOWN             UBLOX-ZED-F9P                           REC # / TYPE / VERS 
UNKNOWN             TWIVSP6037L                             ANT # / TYPE        
  1713381.0000 -5047934.0000 -3490983.0000                  APPROX POSITION XYZ 
        0.0000        0.0000        0.0000                  ANTENNA: DELTA H/E/N
G    8 C1C L1C D1C S1C C2L L2L D2L S2L                      SYS / # / OBS TYPES 
R    8 C1C L1C D1C S1C C2C L2C D2C S2C                      SYS / # / OBS TYPES 
E    8 C1C L1C D1C S1C C7Q L7Q D7Q S7Q                      SYS / # / OBS TYPES 
S    4 C1C L1C D1C S1C                                      SYS / # / OBS TYPES 
  2024    04    16    04    30   00.0070000     GPS         TIME OF FIRST OBS   
  2024    04    16    04    44   30.0070000     GPS         TIME OF LAST OBS    
                                                            END OF HEADER       
> 2024 04 16 04 30 00.0070000  0 23                     
G25  23298753.420   122435822.0691      -2514.529          48.000    23298753.922    95404555.8061      -1959.347          46.000  
G18  22514182.927   118312858.9971        675.365          48.000    22514181.146    92191805.6101        526.232          48.000  
G26  24639661.279   129482300.4071       2311.769          45.000    24639660.539   100895305.0291       1801.276          39.000  
R11  23919493.543   127818634.5001       3070.492          47.000    23919490.806    99414553.1941       2387.767          44.000  
R09  22472370.891   120001231.5171      -3647.497          51.000    22472370.297    93334388.0971      -2836.925          52.000  
R10  21128743.349   112628128.3121       -248.097          49.000                                                                  
R21  23032800.078   123253301.5441       1635.272          52.000    23032798.044    95863737.1741       1271.875          47.000  
R20  21529883.114   115130045.4061      -2025.430          40.000    21529882.914    89545654.9711      -1575.121          42.000  
G29  23363745.513   122777396.7851      -1991.611          47.000    23363742.470    95670748.0801      -1551.862          46.000  
S33  41694449.091   219105854.6931       -671.205          42.000  
S31  40740452.588   214092588.0361       -671.014          44.000  
G28  23624895.897   124149683.0941      -2213.737          47.000    23624893.450    96739991.4221      -1725.043          46.000  
R19  25545630.987                1      -4478.093          26.000    25545622.885   106284822.5421      -3483.107          36.000  
G12  26103606.728   137175320.5661      -3442.289          44.000    26103607.930   106889838.2021      -2682.078          41.000  
E33  25526841.625   134144532.2011      -1546.376          49.000    25526841.563   102786122.0951      -1184.852          53.000  
E31  25283436.951   132865500.6381       -292.614          47.000    25283440.293   101806108.0841       -224.295          51.000  
G31  23997392.871   126107073.7651        104.447          47.000    23997390.963    98265391.0031         81.533          44.000  
E14  25765490.315   135398736.9291      -4029.558          47.000    25765492.937   103747059.8571      -3087.595          54.000  
E26  28688628.615   150760149.4461      -3334.836          44.000    28688628.646   115517718.1961      -2555.178          48.000  
E24  27878612.193   146503120.4021       1563.073          44.000    27878614.324   112255655.8031       1197.715          47.000  
G05  25467007.238   133830253.9011       -799.071          40.000    25467004.072   104283387.2071       -622.830          40.000  
E12  26630612.216   139944899.3171       1280.886          43.000    26630613.359   107230581.5641        981.488          48.000  
E10  28344885.465   148953502.3401       2025.245          41.000    28344892.195   114133382.4151       1551.989          49.000  
> 2024 04 16 04 30 30.0070000  0 23                     
G25  23313146.479   122511454.585       -2527.439          48.000    23313146.367    95463490.145       -1969.491          46.000  
G18  22510380.259   118292874.668         657.078          49.000    22510378.428    92176233.466         512.022          49.000  
G26  24626477.604   129413018.129        2307.208          46.000    24626476.720   100841318.842        1797.633          40.000  
R11  23902281.977   127726660.688        3061.868          47.000    23902278.604    99343017.982        2381.389          43.000  
R09  22492913.289   120110925.846       -3665.084          52.000    22492912.506    93419705.918       -2850.605          52.000  
R10  21130208.793   112635944.135        -272.715          48.000                                                                  
R21  23023678.059   123204486.557        1619.421          52.000    23023675.887    95825770.066        1259.570          48.000  
R20  21541293.367   115191060.096       -2041.722          41.000    21541293.327    89593110.880       -1587.955          42.000  
G29  23375129.096   122837216.838       -1996.242          48.000    23375126.194    95717361.115       -1555.542          46.000  
S33  41698282.833   219126002.320        -671.408          42.000  
S31  40744284.800   214112726.958        -671.237          44.000  
G28  23637581.637   124216348.746       -2230.359          47.000    23637579.405    96791938.636       -1737.819          46.000  
R19  25570739.647                       -4476.774          27.000    25570731.454   106389293.087       -3481.478          34.000  
G12  26123279.469   137278702.133       -3449.574          43.000    26123281.370   106970395.239       -2688.248          40.000  
E33  25535703.292   134191102.439       -1558.045          48.000    25535703.727   102821805.753       -1193.885          53.000  
E31  25285133.166   132874412.466        -301.108          48.000    25285136.199   101812936.686        -230.630          52.000  
G31  23996852.041   126104233.172          85.195          47.000    23996850.552    98263177.385          66.476          43.000  
E14  25788482.078   135519557.480       -4024.894          47.000    25788484.332   103839636.630       -3083.977          53.000  
E26  28707676.550   150860248.092       -3338.421          43.000    28707677.101   115594417.226       -2557.893          48.000  
E24  27869695.052   146456260.698        1561.258          43.000    27869697.182   112219750.338        1196.306          46.000  
G05  25471622.239   133854495.481        -816.965          38.000    25471616.813   104302276.740        -636.324          40.000  
E12  26623330.324   139906634.905        1270.548          43.000    26623332.053   107201262.106         973.420          48.000  
E10  28333341.466   148892841.451        2018.859          41.000    28333348.643   114086902.147        1546.983          49.000  
> 2024 04 16 04 31 00.0070000  0 23                     
G25  23327611.471   122587464.479       -2540.204          48.000    23327611.029    95522718.559       -1979.415          46.000  
G18  22506680.229   118273430.359         638.820          48.000    22506678.023    92161081.995         497.806          48.000  
G26  24613317.725   129343863.027        2302.734          45.000    24613316.889   100787431.774        1794.681          38.000  
R11  23885117.223   127634934.604        3053.261          47.000    23885113.373    99271675.456        2374.695          44.000  
R09  22513552.619   120221137.065       -3682.671          51.000    22513551.852    93505425.741       -2864.205          51.000  
R10  21131811.638   112644488.851        -297.067          47.000                                                                  
R21  23014641.507   123156135.920        1603.797          51.000    23014640.139    95788164.146        1247.375          47.000  
R20  21552792.914   115252551.808       -2057.990          42.000    21552793.453    89640937.761       -1600.654          42.000  
G29  23386537.674   122897167.302       -2000.792          48.000    23386534.392    95764075.754       -1559.093          46.000  
S33  41702116.371   219146148.142        -671.606          42.000  
S31  40748116.699   214132862.783        -671.524          44.000  
G28  23650360.568   124283504.440       -2246.971          48.000    23650358.355    96844267.713       -1750.833          46.000  
R19  25595839.577                3      -4474.666          25.000    25595826.782   106493710.540       -3480.423          33.000  
G12  26142993.080   137382295.810       -3457.043          44.000    26142994.282   107051117.495       -2693.634          41.000  
E33  25544630.589   134238019.616       -1569.890          48.000    25544631.891   102857755.256       -1202.868          53.000  
E31  25286876.194   132883569.989        -309.623          48.000    25286879.157   101819953.441        -237.190          52.000  
G31  23996420.742   126101963.584          65.885          47.000    23996419.110    98261408.715          51.329          44.000  
E14  25811445.480   135640229.083       -4019.975          47.000    25811447.413   103932099.291       -3080.358          53.000  
E26  28726742.568   150960443.218       -3341.565          42.000    28726743.679   115671190.183       -2560.442          49.000  
E24  27860786.326   146409448.240        1559.433          43.000    27860789.093   112183881.141        1194.962          47.000  
G05  25476332.428   133879251.441        -833.985          37.000    25476327.378   104321567.216        -650.201          40.000  
E12  26616107.106   139868674.983        1260.061          43.000    26616108.456   107172175.943         965.520          48.000  
E10  28321834.176   148832367.919        2012.430          42.000    28321841.061   114040565.433        1541.945          50.000  
> 2024 04 16 04 31 30.0070000  0 23                     
G25  23342146.698   122663850.461       -2552.404          48.000    23342146.498    95582240.039       -1988.896          45.000  
G18  22503083.050   118254526.469         621.245          49.000    22503080.876    92146351.891         484.056          49.000  
G26  24600182.404   129274836.224        2298.843          46.000    24600181.308   100733644.703        1791.384          39.000  
R11  23867999.545   127543459.672        3044.966          47.000    23867995.367    99200528.263        2368.504          45.000  
R09  22534287.302   120331862.119       -3699.207          51.000    22534287.409    93591545.178       -2877.161          53.000  
R10  21133551.447   112653762.629        -321.278          48.000                                                                  
R21  23005692.533   123108248.919        1588.593          51.000    23005690.588    95750918.772        1235.675          47.000  
R20  21564380.289   115314516.325       -2073.246          41.000    21564381.342    89689132.337       -1612.322          42.000  
G29  23397970.422   122957246.255       -2004.756          48.000    23397967.477    95810890.513       -1562.104          46.000  
S33  41705948.862   219166287.486        -671.276          42.000  
S31  40751947.232   214152994.026        -670.523          43.000  
G28  23663232.367   124351147.032       -2262.794          47.000    23663230.743    96896976.197       -1763.069          46.000  
R19  25620926.081                3      -4470.560          26.000    25620907.527                       -3477.937          32.000  
G12  26162745.458   137486099.426       -3463.670          43.000    26162748.031   107132003.357       -2699.089          39.000  
E33  25553624.650   134285281.410       -1581.010          48.000    25553625.549   102893968.798       -1211.481          53.000  
E31  25288665.606   132892973.523        -317.433          48.000    25288668.473   101827158.720        -243.185          52.000  
G31  23996098.209   126100264.617          47.161          47.000    23996095.098    98260084.711          36.815          42.000  
E14  25834379.299   135760749.029       -4014.717          47.000    25834381.547   104024445.753       -3076.201          53.000  
E26  28745827.116   151060732.283       -3344.477          42.000    28745827.663   115748035.088       -2562.629          49.000  
E24  27851887.393   146362683.136        1557.911          43.000    27851889.700   112148048.199        1194.001          45.000  
G05  25481137.351   133904521.677        -851.495          35.000    25481136.121   104341258.281        -663.125          39.000  
E12  26608941.993   139831019.250        1250.166          43.000    26608942.460   107143322.903         957.925          48.000  
E10  28310361.746   148772081.899        2006.569          42.000    28310369.043   113994372.415        1537.519          51.000  
> 2024 04 16 04 32 00.0070000  0 24                     
G25  23356752.951   122740608.838       -2564.867          48.000    23356753.943    95642051.706       -1998.596          47.000  
G18  22499587.958   118236159.260         603.276          48.000    22499585.776    92132039.810         470.122          49.000  
G26  24587070.912   129205936.398        2294.585          45.000    24587070.098   100679956.519        1788.049          40.000  
R11  23850928.272   127452235.701        3036.679          47.000    23850924.476    99129576.303        2361.713          47.000  
R09  22555116.810   120443094.814       -3716.187          50.000    22555117.542    93678059.433       -2890.364          51.000  
R10  21135427.301   112663764.794        -345.512          47.000                                                                  
R21  22996830.324   123060823.139        1573.236          51.000    22996828.215    95714032.141        1223.584          48.000  
R20  21576055.952   115376947.688       -2088.686          42.000    21576056.109    89737690.050       -1624.734          42.000  
G29  23409426.469   123017449.262       -2008.816          48.000    23409423.542    95857801.955       -1565.427          46.000  
S33  41709779.676   219186417.606        -670.711          42.000  
S31  40755776.339   214173115.668        -670.728          44.000  
G28  23676195.358   124419271.023       -2278.667          46.000    23676194.721    96950059.786       -1775.646          47.000  
G20  26682784.207                2      -2830.761          27.000                                                                  
R19  25645994.871                       -4468.990          27.000    25645977.224   106702373.642       -3475.938          32.000  
G12  26182538.443   137590109.557       -3470.358          45.000    26182539.914   107213050.090       -2704.397          41.000  
E33  25562683.191   134332883.165       -1592.470          48.000    25562683.886   102930442.821       -1220.129          53.000  
E31  25290501.948   132902620.522        -325.635          48.000    25290504.336   101834550.445        -249.570          51.000  
G31  23995881.881   126099133.229          28.229          47.000    23995878.861    98259203.020          22.216          42.000  
E14  25857284.193   135881112.144       -4009.434          47.000    25857286.053   104116672.027       -3072.224          53.000  
E26  28764928.520   151161110.153       -3347.352          42.000    28764929.325   115824948.079       -2564.841          50.000  
E24  27842996.748   146315963.313        1556.674          45.000    27842999.022   112112250.035        1192.728          46.000  
G05  25486043.875   133930303.136        -867.656          39.000    25486041.587   104361347.774        -676.184          39.000  
E12  26601833.984   139793665.182        1240.242          44.000    26601834.235   107114701.036         950.216          48.000  
E10  28298925.325   148711981.199        2000.248          42.000    28298932.063   113948321.384        1532.650          51.000  
> 2024 04 16 04 32 30.0070000  0 24                     
G25  23371429.994   122817742.111       -2577.440          48.000    23371432.029    95702155.497       -2008.167          47.000  
G18  22496195.548   118218332.201         585.111          48.000    22496193.709    92118148.532         455.986          48.000  
G26  24573984.276   129137168.550        2289.953          44.000    24573983.982   100626371.130        1784.550          39.000  
R11  23833904.833   127361269.992        3027.837          46.000    23833902.133    99058825.170        2354.879          47.000  
R09  22576042.432   120554835.664       -3733.063          50.000    22576042.471    93764968.912       -2903.516          51.000  
R10  21137440.798   112674498.826        -370.127          47.000                                                                  
R21  22988053.798   123013861.488        1557.641          51.000    22988052.501    95677506.468        1211.493          49.000  
R20  21587818.210   115439845.072       -2104.287          42.000    21587818.636    89786610.202       -1636.801          41.000  
G29  23420907.108   123077778.477       -2013.132          49.000    23420903.399    95904811.730       -1568.541          46.000  
S33  41713609.448   219206543.105        -671.048          42.000  
S31  40759604.420   214193233.113        -670.777          44.000  
G28  23689250.859   124487876.991       -2294.900          46.000    23689249.481    97003518.920       -1788.151          47.000  
R19  25671049.096                3      -4465.160          25.000    25671034.589   106806615.170       -3474.200          33.000  
G12  26202370.580   137694327.639       -3477.289          44.000    26202372.052   107294258.851       -2709.578          40.000  
E33  25571806.231   134380826.402       -1603.856          48.000    25571807.450   102967178.515       -1228.932          53.000  
E31  25292383.858   132912515.137        -334.032          48.000    25292387.131   101842131.951        -255.938          52.000  
G31  23995775.212   126098572.775           9.170          46.000    23995772.695    98258766.181           7.081          42.000  
E14  25880159.450   136001319.646       -4004.293          47.000    25880160.826   104208779.119       -3068.287          53.000  
E26  28784046.888   151261578.007       -3350.462          41.000    28784047.651   115901929.985       -2567.286          50.000  
E24  27834115.668   146269292.655        1554.772          45.000    27834117.799   112076489.535        1191.335          47.000  
G05  25491050.013   133956598.806        -885.195          43.000    25491045.077   104381837.926        -689.612          39.000  
E12  26594783.591   139756616.160        1229.749          44.000    26594784.269   107086312.907         942.394          49.000  
E10  28287524.347   148652069.713        1993.802          42.000    28287530.958   113902415.346        1527.813          50.000  
G23                                                                  26483052.097                3       2111.683          26.000  
> 2024 04 16 04 33 00.0070000  0 24                     
G25  23386180.151   122895254.668       -2589.784          48.000    23386182.458    95762554.830       -2017.992          47.000  
G18  22492906.963   118201051.111         567.261          49.000    22492905.371    92104682.903         441.954          50.000  
G26  24560924.200   129068539.757        2285.603          45.000    24560924.450   100572894.189        1780.946          41.000  
G23  26467566.142                1       2710.951          29.000    26467574.142                        2112.229          29.000  
R11  23816930.877   127270570.919        3019.111          46.000    23816929.407    98988281.447        2348.235          47.000  
R09  22597064.325   120667086.560       -3749.841          51.000    22597063.473    93852275.106       -2916.553          51.000  
R10  21139594.077   112685971.674        -394.432          47.000                                                                  
R21  22979365.785   122967369.321        1542.194          50.000    22979364.753    95641345.992        1199.567          49.000  
R20  21599668.102   115503210.575       -2119.353          43.000    21599668.061    89835894.480       -1648.521          41.000  
G29  23432411.879   123138237.938       -2017.142          48.000    23432408.276    95951923.021       -1571.661          46.000  
S33  41717439.076   219226667.860        -670.120          42.000  
S31  40763432.632   214213349.054        -670.149          44.000  
G28  23702398.489   124556967.407       -2310.720          47.000    23702397.439    97057355.548       -1800.534          47.000  
R19  25696082.870                3      -4460.915          20.000    25696075.918                3      -3471.888          30.000  
G12  26222244.128   137798757.741       -3484.129          45.000    26222245.025   107375632.699       -2714.925          40.000  
E33  25580994.705   134429114.429       -1614.948          47.000    25580996.508   103004178.404       -1237.479          53.000  
E31  25294315.060   132922662.981        -342.323          47.000    25294318.154   101849907.468        -262.124          51.000  
G31  23995778.411   126098588.493          -9.794          46.000    23995775.664    98258778.345          -7.951          42.000  
E14  25903004.816   136121374.459       -3998.790          48.000    25903006.437   104300769.229       -3064.089          54.000  
E26  28803183.745   151362138.854       -3353.216          41.000    28803183.192   115978983.145       -2569.296          50.000  
E24  27825244.841   146222676.879        1553.265          44.000    27825247.104   112040771.009        1190.171          46.000  
G05  25496152.115   133983412.951        -901.994          42.000    25496147.599   104402732.125        -702.628          37.000  
E12  26587793.261   139719877.518        1219.816          45.000    26587793.219   107058162.567         934.673          49.000  
E10  28276160.317   148592353.277        1987.663          41.000    28276167.317   113856658.756        1522.982          50.000  
> 2024 04 16 04 33 30.0070000  0 24                     
G25  23401001.615   122973137.930       -2602.328          48.000    23401002.594    95823243.008       -2027.748          46.000  
G18  22489720.800   118184307.415         549.016          47.000    22489718.585    92091635.743         427.763          48.000  
G26  24547890.090   129000043.770        2280.843          44.000    24547890.487   100519520.717        1777.578          39.000  
G23  26452082.087   139006685.8951       2713.654          35.000    26452088.426   108316874.1691       2114.340          32.000  
R11  23800006.486   127180134.162        3009.955          45.000    23800005.545    98917941.704        2341.154          48.000  
R09  22618179.739   120779837.292       -3766.650          51.000    22618179.175    93939970.074       -2929.664          52.000  
R10  21141884.062   112698176.583        -419.115          47.000                                                                  
R21  22970764.112   122921338.746        1526.526          51.000    22970762.667    95605544.521        1187.390          49.000  
R20  21611603.168   115567032.463       -2135.112          42.000    21611602.760    89885533.737       -1660.745          42.000  
G29  23443939.234   123198818.830       -2021.398          48.000    23443937.084    95999128.924       -1575.258          47.000  
S33  41721266.590   219246783.201        -670.412          42.000  
S31  40767258.695   214233455.421        -670.354          44.000  
G28  23715636.839   124626531.877       -2326.725          47.000    23715634.882    97111561.579       -1813.142          46.000  
R19  25721095.656                3      -4459.178          20.000    25721101.839   107014868.9241      -3469.594          29.000  
G12  26242154.931   137903391.092       -3491.159          44.000    26242155.947   107457164.961       -2720.485          40.000  
E33  25590247.436   134477737.847       -1626.463          47.000    25590249.268   103041435.318       -1246.274          54.000  
E31  25296293.257   132933056.914        -350.720          48.000    25296296.080   101857871.537        -268.643          51.000  
G31  23995890.616   126099172.760         -29.042          46.000    23995887.150    98259233.475         -22.703          42.000  
E14  25925819.685   136241266.601       -3993.942          47.000    25925821.180   104392634.627       -3060.187          53.000  
E26  28822335.082   151462782.808       -3356.331          39.000    28822335.207   116056100.028       -2571.649          50.000  
E24  27816383.078   146176109.212        1551.326          45.000    27816385.393   112005089.361        1188.747          47.000  
G05  25501351.154   134010739.306        -919.508          42.000    25501348.345   104424025.491        -716.777          39.000  
E12  26580859.629   139683441.848        1209.242          45.000    26580859.676   107030244.394         926.611          49.000  
E10  28264832.984   148532824.872        1980.927          40.000    28264839.538   113811046.243        1517.902          50.000  
> 2024 04 16 04 34 00.0070000  0 24                     
G25  23415893.698   123051394.530       -2614.658          48.000    23415894.638    95884222.126       -2037.419          46.000  
G18  22486636.843   118168105.376         531.120          48.000    22486634.703    92079010.889         413.779          49.000  
G26  24534881.616   128931685.897        2276.361          45.000    24534882.580   100466254.904        1773.925          41.000  
G23  26436578.262   138925219.467        2717.234          38.000    26436584.903   108253394.218        2116.970          36.000  
R11  23783133.150   127089966.762        3001.112          46.000    23783132.122    98847811.504        2334.328          49.000  
R09  22639387.637   120893087.914       -3783.260          51.000    22639386.820    94028053.851       -2942.457          50.000  
R10  21144311.138   112711117.726        -443.509          47.000                                                                  
R21  22962250.037   122875773.179        1511.273          52.000    22962247.709    95570104.719        1175.476          49.000  
R20  21623622.842   115631311.078       -2149.948          41.000    21623623.004    89935528.189       -1672.117          42.000  
G29  23455490.754   123259523.064       -2025.394          47.000    23455488.457    96046430.912       -1578.169          47.000  
S33  41725093.333   219266892.312        -670.245          42.000  
S31  40771083.993   214253556.614        -669.960          44.000  
G28  23728964.851   124696571.118       -2342.324          47.000    23728963.112    97166137.572       -1825.154          46.000  
R19  25746108.577                3      -4455.425          19.000    25746110.702                       -3467.160          30.000  
G12  26262105.970   138008229.455       -3497.834          47.000    26262106.386   107538857.011       -2725.701          40.000  
E33  25599564.278   134526698.268       -1637.600          47.000    25599566.043   103078950.415       -1254.652          54.000  
E31  25298318.231   132943701.130        -358.748          46.000    25298321.578   101866027.476        -275.091          50.000  
G31  23996110.526   126100328.572         -47.919          47.000    23996107.137    98260133.954         -37.407          42.000  
E14  25948603.274   136360997.451       -3988.327          47.000    25948605.237   104484376.391       -3055.814          54.000  
E26  28841502.140   151563511.279       -3358.600          36.000    28841503.000   116133281.679       -2573.675          49.000  
E24  27807531.856   146129593.720        1549.709          45.000    27807533.800   111969447.648        1187.616          46.000  
G05  25506649.691   134038580.585        -936.648          42.000    25506646.063   104445720.000        -729.767          38.000  
E12  26573984.334   139647312.734        1199.257          45.000    26573984.307   107002561.115         918.955          49.000  
E10  28253541.895   148473488.584        1974.760          41.000    28253547.978   113765580.930        1513.156          50.000  
> 2024 04 16 04 34 30.0070000  0 24                     
G25  23430856.702   123130024.973       -2627.344          48.000    23430857.794    95945492.535       -2047.310          47.000  
G18  22483657.211   118152445.978         512.970          47.000    22483654.349    92066808.806         399.657          47.000  
G26  24521900.316   128863469.068        2271.456          44.000    24521901.635   100413098.957        1769.965          41.000  
G23  26421058.502   138843666.482        2719.440          40.000    26421065.446   108189846.796        2119.130          39.000  
R11  23766311.849   127000073.197        2991.743          47.000    23766309.786    98777894.251        2327.133          49.000  
R09  22660689.350   121006836.940       -3799.946          52.000    22660687.793    94116525.288       -2955.562          51.000  
R10  21146877.983   112724797.529        -468.348          48.000                                                                  
R21  22953821.758   122830673.883        1495.551          51.000    22953819.740    95535027.557        1163.251          48.000  
R20  21635727.529   115696044.440       -2165.505          41.000    21635728.364    89985876.291       -1684.133          42.000  
G29  23467065.906   123320351.188       -2029.539          46.000    23467063.618    96093829.461       -1581.747          46.000  
S33  41728919.061   219286996.632        -669.877          42.000  
S31  40774907.872   214273652.203        -669.784          44.000  
G28  23742383.568   124767083.791       -2358.286          47.000    23742381.798    97221082.458       -1837.822          46.000  
G12  26282094.689   138113272.911       -3504.872          46.000    26282095.326   107620708.878       -2731.258          39.000  
E33  25608945.056   134575995.278       -1648.952          47.000    25608946.988   103116723.432       -1263.380          54.000  
E31  25300392.086   132954597.416        -367.408          48.000    25300395.144   101874376.482        -281.462          52.000  
G31  23996440.482   126102058.243         -67.297          47.000    23996436.105    98261481.679         -52.191          42.000  
E14  25971356.673   136480566.467       -3982.993          47.000    25971358.501   104575994.253       -3051.936          54.000  
E26  28860685.850   151664323.542       -3361.794          36.000    28860686.843   116210527.460       -2575.936          49.000  
E24  27798690.541   146083132.595        1547.656          45.000    27798692.398   111933847.579        1185.976          46.000  
G05  25512047.110   134066938.194        -953.877          43.000    25512043.193   104467816.859        -743.311          39.000  
E12  26567167.135   139611491.748        1188.874          43.000    26567167.865   106975113.933         910.871          48.000  
E10  28242288.046   148414346.453        1968.013          41.000    28242293.339   113720264.370        1507.983          49.000  
R19                                                                  25771104.657                       -3464.726          28.000  
> 2024 04 16 04 35 00.0070000  0 24                     
G25  23445890.595   123209027.187       -2639.357          49.000    23445891.247    96007052.619       -2056.658          46.000  
G18  22480780.697   118137327.755         495.035          47.000    22480777.858    92055028.301         385.869          47.000  
G26  24508946.397   128795393.773        2267.097          43.000    24508947.469   100360053.259        1766.482          41.000  
G23  26405523.443   138762028.007        2722.941          42.000    26405529.607   108126232.789        2121.575          40.000  
R11  23749542.245   126910455.941        2982.799          48.000    23749539.110    98708191.923        2319.944          49.000  
R09  22682083.115   121121079.921       -3815.985          52.000    22682082.302    94205380.866       -2968.024          51.000  
R10  21149582.993   112739215.558        -492.749          47.000                                                                  
R21  22945480.543   122786039.458        1480.310          51.000    22945478.863    95500311.990        1151.312          48.000  
R20  21647916.984   115761227.554       -2180.305          41.000    21647918.369    90036574.224       -1695.643          41.000  
G29  23478664.051   123381300.661       -2033.379          47.000    23478662.007    96141322.563       -1584.543          46.000  
S33  41732743.481   219307093.386        -669.791          42.000  
S31  40778730.642   214293741.192        -669.146          44.000  
G28  23755890.319   124838065.889       -2373.768          47.000    23755889.013    97276393.141       -1849.459          46.000  
R19  25794077.571                3      -4009.000          11.000    25796083.128                3      -3461.751          22.000  
G12  26302122.458   138218518.982       -3511.234          44.000    26302122.132   107702718.670       -2735.885          37.000  
E33  25618388.778   134625625.757       -1659.582          46.000    25618391.388   103154751.974       -1271.682          54.000  
E31  25302513.275   132965745.091        -375.676          48.000    25302516.862   101882918.120        -287.750          53.000  
G31  23996878.205   126104359.444         -85.981          47.000    23996874.410    98263274.748         -67.147          43.000  
E14  25994077.964   136599970.026       -3977.154          47.000    25994080.096   104667485.239       -3047.326          53.000  
E26  28879884.393   151765216.081       -3364.577          35.000    28879885.935   116287834.800       -2577.719          50.000  
E24  27789859.043   146036725.319        1546.333          45.000    27789861.463   111898288.753        1184.778          47.000  
G05  25517541.507   134095810.450        -970.933          44.000    25517536.546   104490314.727        -756.179          37.000  
E12  26560408.717   139575977.822        1178.880          44.000    26560409.686   106947902.028         903.422          48.000  
E10  28231069.818   148355397.859        1961.896          40.000    28231075.473   113675096.105        1503.343          49.000  
> 2024 04 16 04 35 30.0070000  0 24                     
G25  23460994.385   123288398.131       -2652.080          49.000    23460994.616    96068900.064       -2066.650          46.000  
G18  22478005.941   118122748.923         476.837          47.000    22478003.725    92043668.288         371.489          48.000  
G26  24496018.930   128727459.748        2261.963          44.000    24496019.949   100307117.692        1762.569          43.000  
G23  26389971.764   138680304.339        2725.221          42.000    26389978.015   108062552.447        2123.454          39.000  
R11  23732823.711   126821116.243        2973.090          48.000    23732820.219    98638705.468        2312.313          49.000  
R09  22703569.370   121235811.703       -3832.716          52.000    22703567.949    94294616.616       -2980.927          52.000  
R10  21152425.427   112754370.801        -517.478          48.000                                                                  
R21  22937224.623   122741867.448        1464.496          50.000    22937224.416    95465956.060        1139.111          49.000  
R20  21660190.840   115826855.123       -2195.078          43.000    21660190.698    90087617.963       -1707.235          42.000  
G29  23490285.558   123442367.905       -2037.838          47.000    23490282.707    96188907.377       -1587.798          46.000  
S33  41736566.100   219327181.213        -669.451          42.000  
S31  40782551.394   214313819.865        -669.441          44.000  
G28  23769486.038   124909512.505       -2389.475          47.000    23769485.085    97332065.804       -1862.030          46.000  
G12  26322187.747   138323964.495       -3518.353          45.000    26322189.393   107784883.775       -2741.477          40.000  
E33  25627896.269   134675585.813       -1670.949          47.000    25627898.454   103193033.035       -1280.442          54.000  
E31  25304681.946   132977142.556        -384.345          47.000    25304685.822   101891651.140        -294.448          52.000  
G31  23997424.048   126107230.547        -105.434          47.000    23997421.229    98265511.909         -81.994          43.000  
E14  26016767.439   136719204.070       -3971.917          47.000    26016769.571   104758846.369       -3043.337          54.000  
E26  28899097.192   151866184.728       -3366.604          31.000    28899099.401   116365200.496       -2580.034          49.000  
E24  27781038.293   145990370.537        1543.975          44.000    27781040.560   111862770.143        1183.058          46.000  
G05  25523132.404   134125195.239        -988.344          43.000    25523128.152   104513212.017        -770.230          37.000  
E12  26553709.168   139540768.933        1168.298          44.000    26553709.679   106920923.832         895.244          48.000  
E10  28219889.473   148296641.301        1955.054          41.000    28219894.263   113630074.980        1498.154          48.000  
R19                                                                  25821037.878                3      -3460.111          21.000  
> 2024 04 16 04 36 00.0070000  0 24                     
G25  23476170.459   123368147.788       -2664.298          48.000    23476171.044    96131042.559       -2076.172          46.000  
G18  22475336.681   118108719.873         458.767          47.000    22475333.785    92032736.586         357.604          47.000  
G26  24483121.022   128659679.513        2257.073          43.000    24483122.006   100254301.944        1758.865          43.000  
G23  26374406.140   138598508.432        2728.024          41.000    26374411.628   107998815.734        2125.839          37.000  
R11  23716159.624   126732068.394        2963.847          48.000    23716156.350    98569445.995        2305.097          48.000  
R09  22725147.978   121351040.263       -3848.780          52.000    22725146.256    94384238.799       -2993.574          51.000  
R10  21155408.400   112770275.296        -542.195          46.000                                                                  
R21  22929059.236   122698168.937        1449.103          52.000    22929058.426    95431968.433        1126.959          49.000  
R20  21672548.357   115892934.130       -2209.877          42.000    21672547.258    90139012.767       -1718.603          41.000  
G29  23501930.957   123503563.092       -2041.588          47.000    23501927.406    96236591.974       -1590.804          46.000  
S33  41740388.405   219347269.445        -669.452          42.000  
S31  40786372.741   214333900.393        -669.137          44.000  
G28  23783172.246   124981431.700       -2404.856          47.000    23783170.799    97388106.681       -1873.962          45.000  
G12  26342293.665   138429618.469       -3525.080          44.000    26342295.385   107867211.357       -2746.732          39.000  
E33  25637468.512   134725884.469       -1681.967          47.000    25637470.045   103231573.536       -1288.719          53.000  
E31  25306900.183   132988801.406        -392.559          47.000    25306904.668   101900584.490        -300.855          53.000  
G31  23998080.674   126110682.015        -124.277          46.000    23998078.402    98268201.413         -97.091          43.000  
E14  26039426.304   136838277.344       -3966.123          46.000    26039428.292   104850084.279       -3038.937          53.000  
E26  28918326.526                       -3369.834          29.000    28918329.518   116442631.217       -2581.817          49.000  
E24  27772229.176   145944079.895        1542.197          45.000    27772231.754   111827300.686        1181.867          47.000  
G05  25528823.306   134155103.483       -1005.317          42.000    25528820.162   104536517.156        -783.301          38.000  
E12  26547068.913   139505876.270        1158.297          44.000    26547069.731   106894187.974         887.306          48.000  
E10  28208747.002   148238088.276        1948.616          41.000    28208751.956   113585209.813        1493.140          48.000  
R19                                                                  25845994.259                3      -3458.351          25.000  
> 2024 04 16 04 36 30.0070000  0 24                     
G25  23491416.550   123448267.855       -2676.790          48.000    23491417.008    96193473.707       -2085.809          45.000  
G18  22472770.389   118095233.094         440.530          47.000    22472767.062    92022227.350         343.158          47.000  
G26  24470251.203   128592047.498        2251.936          45.000    24470252.126   100201601.737        1754.847          45.000  
G23  26358826.263   138516635.392        2730.443          42.000    26358830.503   107935018.989        2127.665          37.000  
R11  23699548.856   126643308.685        2953.772          48.000    23699546.329    98500410.639        2297.447          48.000  
R09  22746817.724   121466755.245       -3865.193          52.000    22746816.388    94474239.289       -3006.264          52.000  
R10  21158531.211   112786921.849        -567.326          47.000                                                                  
R21  22920981.727   122654936.386        1433.349          53.000    22920978.626    95398343.214        1114.868          48.000  
R20  21684986.664   115959453.005       -2224.644          42.000    21684986.676    90190749.671       -1730.309          42.000  
G29  23513598.818   123564877.324       -2045.734          48.000    23513595.742    96284369.305       -1593.940          46.000  
S33  41744209.958   219367350.835        -669.098          42.000  
S31  40790192.330   214353973.475        -669.098          44.000  
G28  23796946.229   125053813.258       -2420.468          47.000    23796944.200    97444507.854       -1886.148          45.000  
R19  25869835.808                3      -4056.672          14.000    25870918.658                3      -3461.695          21.000  
G12  26362437.033   138535472.757       -3531.752          44.000    26362438.117   107949695.097       -2752.000          39.000  
E33  25647102.582   134776512.474       -1692.933          46.000    25647104.316   103270366.403       -1297.244          53.000  
E31  25309168.127   133000714.702        -401.228          47.000    25309171.788   101909712.805        -307.488          53.000  
G31  23998846.277   126114706.098        -143.714          46.000    23998844.288    98271337.107        -111.881          43.000  
E14  26062052.434   136957180.408       -3960.469          46.000    26062055.097   104941191.789       -3034.608          53.000  
E26  28937575.497   152068367.335       -3372.107          33.000    28937573.683   116520119.706       -2583.958          49.000  
E24  27763431.826   145897846.676        1540.130          44.000    27763433.976   111791875.225        1179.996          46.000  
G05  25534611.524   134185526.086       -1022.830          42.000    25534609.087   104560223.102        -796.926          38.000  
E12  26540487.665   139471292.473        1147.787          43.000    26540488.498   106867688.751         879.391          48.000  
E10  28197643.705   148179732.005        1942.001          42.000    28197646.737   113540495.382        1488.032          48.000  
> 2024 04 16 04 37 00.0070000  0 24                     
G25  23506733.973   123528761.947       -2689.443          48.000    23506734.370    96256196.320       -2095.649          45.000  
G18  22470307.142   118082293.530         422.010          47.000    22470304.989    92012144.709         328.842          49.000  
G26  24457410.485   128524569.841        2246.610          44.000    24457411.317   100149021.825        1750.393          44.000  
G23  26343232.756   138434692.205        2732.551          43.000    26343236.370   107871167.646        2129.090          37.000  
R11  23682993.921   126554845.065        2943.663          48.000    23682991.974    98431605.590        2289.598          48.000  
R09  22768577.320   121582957.559       -3881.648          51.000    22768577.849    94564618.758       -3019.025          52.000  
R10  21161793.916   112804316.516        -592.454          46.000                                                                  
R21  22912989.965   122612173.976        1417.480          52.000    22912987.258    95365083.626        1102.533          48.000  
R20  21697508.699   116026414.084       -2239.137          42.000    21697508.708    90242830.514       -1741.725          42.000  
G29  23525289.642   123626314.015       -2050.085          48.000    23525286.413    96332242.083       -1597.378          46.000  
S33  41748030.702   219387428.698        -669.403          42.000  
S31  40794011.402   214374043.172        -668.938          44.000  
G28  23810808.674   125126658.977       -2435.987          48.000    23810805.816    97501270.709       -1898.224          45.000  
G12  26382618.994   138641529.984       -3538.683          44.000    26382619.646   108032336.991       -2757.695          40.000  
E33  25656799.864   134827472.626       -1704.276          46.000    25656802.026   103309413.792       -1305.876          54.000  
E31  25311484.898   133012887.535        -410.235          47.000    25311488.277   101919039.996        -314.319          52.000  
G31  23999721.548   126119307.537        -163.188          45.000    23999719.957    98274922.665        -126.949          43.000  
E14  26084647.094   137075915.952       -3955.024          47.000    26084649.539   105032171.011       -3030.506          53.000  
E26  28956837.143   152169574.099       -3374.684          31.000    28956832.350   116597667.804       -2585.959          49.000  
E24  27754646.353   145851676.362        1537.915          45.000    27754648.018   111756497.982        1178.380          48.000  
G05  25540499.985   134216469.113       -1040.193          43.000    25540498.268   104584334.594        -810.592          39.000  
E12  26533966.338   139437022.234        1137.068          43.000    26533967.044   106841429.783         871.218          48.000  
E10  28186576.517   148121577.699        1934.901          40.000    28186580.672   113495935.700        1482.654          48.000  
R19                                                                  25895817.997                3      -3455.857          22.000  
> 2024 04 16 04 37 30.0070000  0 24                     
G25  23522123.364   123609632.225       -2702.034          48.000    23522123.929    96319212.070       -2105.597          46.000  
G18  22467949.668   118069903.384         403.776          47.000    22467947.887    92002490.044         314.622          49.000  
G26  24444600.005   128457251.510        2241.164          44.000    24444600.531   100096566.073        1745.956          42.000  
G23  26327626.346   138352684.215        2734.541          43.000    26327631.127   107807265.753        2130.913          39.000  
R11  23666496.229   126466684.195        2933.569          48.000    23666493.831    98363036.014        2281.416          49.000  
R09  22790429.678   121699647.408       -3897.797          51.000    22790430.119    94655377.433       -3031.628          51.000  
R10  21165198.029   112822462.784        -617.470          46.000                                                                  
R21  22905086.391   122569884.558        1401.703          52.000    22905085.165    95332191.910        1090.228          49.000  
R20  21710113.256   116093815.885       -2253.943          40.000    21710113.877    90295254.087       -1753.323          42.000  
G29  23537003.590   123687875.026       -2054.119          47.000    23537000.691    96380211.708       -1600.659          44.000  
S33  41751851.254   219407506.501        -669.493          42.000  
S31  40797830.852   214394112.787        -669.362          44.000  
G28  23824759.231   125199969.061       -2451.483          48.000    23824756.348    97558395.409       -1910.194          45.000  
G12  26402840.689   138747792.015       -3545.583          46.000    26402842.081   108115138.398       -2762.515          43.000  
E33  25666560.754   134878766.017       -1715.419          46.000    25666562.916   103348716.491       -1314.469          54.000  
E31  25313851.598   133025323.536        -418.922          47.000    25313854.606   101928568.845        -321.061          52.000  
G31  24000707.500   126124489.015        -182.344          45.000    24000705.433    98278960.228        -142.191          43.000  
E14  26107211.032   137194484.747       -3949.687          48.000    26107212.216   105123022.383       -3026.243          53.000  
E24  27745873.405   145805572.569        1535.614          46.000    27745874.413   111721171.665        1176.699          48.000  
G05  25546488.292   134247934.925       -1057.790          43.000    25546485.335   104608853.434        -824.042          37.000  
E12  26527505.398   139403068.715        1126.401          43.000    26527505.805   106815413.481         863.063          47.000  
E10  28175547.814   148063628.953        1928.024          38.000    28175553.406   113451533.571        1477.289          48.000  
E26                                                                  28976106.302   116675276.280       -2588.029          48.000  
R19                                                                  25920716.860                3      -3439.760          19.000  
> 2024 04 16 04 38 00.0070000  0 23                     
G25  23537582.773   123690871.992       -2714.224          48.000    23537583.940    96382515.705       -2114.869          46.000  
G18  22465695.544   118058057.299         385.833          48.000    22465693.771    91993259.468         300.590          49.000  
G26  24431819.196   128390088.488        2236.052          44.000    24431819.429   100044231.323        1742.334          43.000  
G23  26312007.752   138270608.054        2736.776          42.000    26312012.333   107743310.755        2132.885          39.000  
R11  23650054.628   126378823.554        2923.718          49.000    23650051.963    98294699.933        2273.855          48.000  
R09  22812372.896   121816815.971       -3913.538          53.000    22812371.693    94746508.483       -3043.878          52.000  
R10  21168743.313   112841355.605        -642.157          47.000                                                                  
R21  22897270.814   122528062.049        1386.286          52.000    22897268.785    95299663.330        1078.278          48.000  
R20  21722798.208   116161649.452       -2268.108          41.000    21722799.769    90348013.551       -1764.161          44.000  
G29  23548740.218   123749553.517       -2057.869          47.000    23548737.606    96428272.876       -1603.661          46.000  
S33  41755670.750   219427578.097        -669.061          42.000  
S31  40801648.684   214414176.001        -668.698          44.000  
G28  23838796.577   125273734.962       -2466.549          48.000    23838793.792    97615875.276       -1922.053          45.000  
G12  26423098.882   138854252.109       -3551.758          43.000    26423101.114   108198094.233       -2768.037          40.000  
E33  25676384.034   134930385.219       -1726.162          46.000    25676385.385   103388268.870       -1322.650          53.000  
E31  25316266.628   133038017.500        -427.411          47.000    25316270.030   101938295.346        -327.539          51.000  
G31  24001802.544   126130244.401        -201.398          45.000    24001800.202    98283445.011        -156.719          43.000  
E14  26129740.903   137312879.117       -3943.638          48.000    26129741.843   105213740.131       -3021.712          53.000  
E24  27737112.842   145759530.453        1533.494          45.000    27737113.032   111685892.594        1175.192          47.000  
G05  25552574.445   134279917.644       -1074.800          43.000    25552569.615   104633775.024        -837.310          35.000  
E12  26521103.394   139369426.362        1116.294          43.000    26521104.203   106789635.622         855.301          48.000  
E10  28164558.232   148005880.685        1921.227          37.000    28164563.567   113407285.011        1472.476          46.000  
E26                                                                  28995393.678   116752939.160       -2589.574          48.000  
> 2024 04 16 04 38 30.0070000  0 23                     
G25  23553111.307   123772478.291       -2726.310          48.000    23553112.861    96446104.978       -2124.297          45.000  
G18  22463544.692   118046752.590         367.833          48.000    22463542.253    91984450.625         286.631          49.000  
G26  24419068.167   128323080.552        2230.972          44.000    24419068.032    99992017.401        1738.498          43.000  
G23  26296375.795   138188464.094        2739.295          43.000    26296380.661   107679302.977        2134.303          40.000  
R11  23633669.234   126291264.790        2913.662          48.000    23633665.815    98226598.658        2266.163          47.000  
R09  22834403.686   121934457.901       -3929.163          52.000    22834402.407    94838007.650       -3056.054          51.000  
R10  21172428.755   112860993.383        -666.975          46.000                                                                  
R21  22889542.050   122486704.302        1370.825          52.000    22889540.610    95267496.280        1066.193          48.000  
R20  21735563.574   116229909.443       -2281.942          41.000    21735564.266    90401104.651       -1774.992          42.000  
G29  23560498.939   123811346.170       -2061.558          46.000    23560496.436    96476422.986       -1606.355          45.000  
S33  41759488.474   219447639.994        -668.581          42.000  
S31  40805464.801   214434230.155        -668.541          44.000  
G28  23852919.948   125347951.703       -2481.401          48.000    23852917.206    97673706.447       -1933.480          45.000  
G12  26443394.981   138960906.531       -3558.221          44.000    26443396.765   108281201.375       -2772.639          39.000  
E33  25686267.176   134982326.340       -1736.601          45.000    25686269.192   103428067.955       -1330.654          53.000  
E31  25318731.320   133050967.984        -436.007          47.000    25318734.683   101948218.413        -333.985          52.000  
G31  24003006.253   126136571.614        -220.322          45.000    24003004.195    98288375.440        -171.876          42.000  
E14  26152236.445   137431095.248       -3937.406          48.000    26152237.663   105304321.339       -3017.052          53.000  
E26  29014693.758                1      -3381.605          30.000    29014694.506   116830653.283       -2591.312          49.000  
E24  27728362.489   145713548.858        1531.901          45.000    27728363.068   111650659.939        1173.741          48.000  
G05  25558757.596   134312414.232       -1091.941          43.000    25558753.399   104659097.088        -850.745          36.000  
E12  26514761.361   139336093.259        1105.983          44.000    26514761.115   106764094.692         847.449          48.000  
E10  28153605.546   147948331.423        1915.113          35.000    28153612.006   113363188.973        1467.475          46.000  
> 2024 04 16 04 39 00.0070000  0 23                     
G25  23568710.749   123854454.098       -2738.727          48.000    23568711.871    96509982.148       -2133.915          45.000  
G18  22461497.269   118035993.092         349.482          48.000    22461494.507    91976066.610         272.428          49.000  
G26  24406346.945   128256233.357        2225.598          44.000    24406347.658    99939928.773        1734.094          44.000  
G23  26280731.888   138106258.749        2741.027          42.000    26280737.354   107615247.364        2136.147          41.000  
R11  23617341.422   126204015.135        2903.030          48.000    23617337.908    98158737.817        2257.944          47.000  
R09  22856523.264   122052573.919       -3945.172          52.000    22856521.257    94929875.533       -3068.378          50.000  
R10  21176252.595   112881381.512        -692.181          46.000                                                                  
R21  22881900.590   122445815.096        1355.109          51.000    22881899.308    95235693.650        1053.967          48.000  
R20  21748407.917   116298595.665       -2296.407          40.000    21748408.159    90454527.241       -1786.061          42.000  
G29  23572279.770   123873256.085       -2065.713          46.000    23572277.286    96524664.494       -1609.613          45.000  
S33  41763304.983   219467696.950        -668.741          42.000  
S31  40809279.732   214454278.657        -668.337          44.000  
G28  23867128.263   125422620.398       -2496.536          47.000    23867126.692    97731889.803       -1945.276          47.000  
G12  26463728.865   139067757.788       -3565.158          46.000    26463728.683   108364462.005       -2777.708          40.000  
E33  25696211.973   135034591.428       -1747.650          45.000    25696214.546   103468115.336       -1339.120          53.000  
E31  25321244.906   133064179.593        -444.792          47.000    25321248.538   101958341.659        -340.837          52.000  
G31  24004319.655   126143474.328        -239.741          45.000    24004318.173    98293754.205        -186.728          43.000  
E14  26174699.067   137549134.871       -3931.708          48.000    26174699.928   105394767.260       -3012.590          53.000  
E24  27719624.766   145667632.440        1529.308          46.000    27719625.525   111615477.231        1171.781          48.000  
G05  25565040.913   134345429.120       -1109.272          44.000    25565035.872   104684823.027        -864.289          37.000  
E12  26508477.653   139303073.464        1095.295          44.000    26508477.822   106738793.877         839.248          49.000  
E10  28142691.826   147890985.778        1907.762          36.000    28142700.519   113319248.949        1461.884          47.000  
E26                                                                  29034007.635   116908420.040       -2593.124          49.000  
> 2024 04 16 04 39 30.0070000  0 23                     
G25  23584382.781   123936810.189       -2751.787          48.000    23584383.932    96574155.655       -2144.019          44.000  
G18  22459555.834   118025790.500         330.723          47.000    22459553.160    91968116.579         257.614          47.000  
G26  24393659.818   128189560.554        2219.531          43.000    24393660.246    99887975.988        1729.509          43.000  
G23  26265079.178   138024006.116        2742.259          43.000    26265084.929   107551154.901        2137.022          41.000  
R11  23601074.253   126117090.351        2891.871          48.000    23601071.354    98091129.662        2249.331          48.000  
R09  22878733.007   122171173.049       -3961.450          52.000    22878731.889    95022119.207       -3081.207          50.000  
R10  21180220.373   112902532.182        -718.034          46.000                                                                  
R21  22874347.533   122405405.693        1338.849          51.000    22874346.825    95204264.182        1041.412          48.000  
R20  21761333.767   116367717.140       -2311.403          40.000    21761334.705    90508288.428       -1797.746          43.000  
G29  23584085.683   123935293.908       -2070.281          46.000    23584082.911    96573005.664       -1612.953          44.000  
S33  41767122.778   219487759.345        -669.066          42.000  
S31  40813096.067   214474332.725        -669.099          44.000  
G28  23881424.897   125497749.923       -2512.098          47.000    23881423.886    97790432.257       -1957.490          46.000  
G12  26484100.989   139174816.518       -3572.152          44.000    26484101.931   108447884.335       -2783.149          38.000  
E33  25706221.709   135087190.376       -1758.971          46.000    25706223.620   103508418.506       -1347.838          52.000  
E31  25323811.805   133077664.332        -454.160          47.000    25323815.020   101968674.105        -347.998          52.000  
G31  24005745.094   126150963.788        -259.653          45.000    24005743.422    98299590.161        -202.358          43.000  
E14  26197129.600   137667008.000       -3926.445          48.000    26197130.650   105485085.653       -3008.590          53.000  
E24  27710902.023   145621793.850        1526.484          47.000    27710902.683   111580354.145        1169.804          50.000  
G05  25571424.848   134378973.510       -1126.874          44.000    25571419.843   104710961.543        -878.070          38.000  
E12  26502255.220   139270378.735        1084.356          43.000    26502256.333   106713742.111         830.839          49.000  
E10  28131822.238   147833856.092        1900.710          38.000    28131829.360   113275474.390        1456.416          47.000  
E26                                                                  29053335.616   116986246.927       -2595.311          48.000  
> 2024 04 16 04 40 00.0070000  0 24                     
G25  23600126.541   124019540.492       -2763.743          49.000    23600126.574    96638620.742       -2153.586          44.000  
G18  22457718.213   118016139.392         312.742          47.000    22457715.510    91960596.312         243.563          47.000  
G26  24381004.978   128123058.781        2214.204          43.000    24381005.356    99836156.498        1725.047          43.000  
G23  26249417.588   137941703.578        2744.388          44.000    26249423.094   107487023.536        2138.504          43.000  
R11  23584867.501   126030488.834        2881.514          47.000    23584865.160    98023772.905        2241.131          48.000  
R09  22901031.911   122290246.960       -3976.892          52.000    22901031.283    95114732.137       -3093.133          51.000  
R10  21184329.813   112924440.681        -742.671          46.000                                                                  
R21  22866886.686   122365471.121        1323.395          52.000    22866884.768    95173204.035        1029.248          48.000  
R20  21774340.079   116437264.534       -2325.275          42.000    21774340.284    90562380.879       -1808.336          44.000  
G29  23595914.198   123997453.407       -2073.917          45.000    23595911.988    96621441.651       -1615.979          45.000  
S33  41770940.425   219507821.139        -668.511          42.000  
S31  40816912.202   214494386.751        -668.251          44.000  
G28  23895807.399   125573332.297       -2526.851          47.000    23895806.412    97849327.608       -1969.013          47.000  
E26  29072669.415                       -3388.655          31.000    29072676.808   117064128.480       -2596.878          46.000  
G12  26504511.281   139282075.925       -3578.636          44.000    26504513.142   108531463.015       -2788.491          42.000  
E33  25716293.853   135140116.131       -1769.442          46.000    25716295.054   103548972.042       -1355.823          52.000  
E31  25326428.886   133091418.007        -462.792          47.000    25326432.317   101979212.719        -354.642          53.000  
G31  24007281.478   126159034.833        -278.724          46.000    24007279.205    98305879.286        -217.115          44.000  
E14  26219526.994   137784707.483       -3920.291          48.000    26219528.193   105575270.965       -3003.804          53.000  
E24  27702192.568   145576028.765        1524.446          47.000    27702193.999   111545287.405        1168.075          50.000  
G05  25577907.040   134413041.180       -1144.240          43.000    25577902.542   104737507.794        -891.585          39.000  
E12  26496094.705   139238004.216        1073.971          44.000    26496095.487   106688935.696         822.860          49.000  
E10  28120991.342   147776937.896        1893.996          39.000    28120997.077   113231861.864        1451.224          46.000  
R19                                                                  26044892.892                3      -3434.328          16.000  
> 2024 04 16 04 40 30.0070000  0 23                     
G25  23615940.139   124102641.491       -2776.378          48.000    23615939.931    96703374.704       -2163.479          44.000  
G18  22455985.834   118007037.021         294.001          47.000    22455982.303    91953503.693         229.130          47.000  
G26  24368383.050   128056727.391        2207.762          44.000    24368382.824    99784469.724        1720.607          44.000  
G23  26233745.774   137859350.910        2745.422          45.000    26233751.310   107422853.144        2139.307          43.000  
R11  23568721.362   125944211.429        2870.291          47.000    23568720.077    97956668.242        2232.438          48.000  
R09  22923418.213   122409789.593       -3992.780          51.000    22923417.851    95207709.626       -3105.493          51.000  
R10  21188581.174   112947104.960        -768.386          45.000                                                                  
R21  22859511.514   122326008.186        1307.379          52.000    22859510.138    95142510.665        1016.809          49.000  
R20  21787425.144   116507232.501       -2339.482          43.000    21787425.149    90616800.454       -1819.553          45.000  
G29  23607765.865   124059730.768       -2078.013          46.000    23607762.893    96669969.485       -1619.335          46.000  
S33  41774757.587   219527880.112        -668.574          42.000  
S31  40820727.875   214514438.898        -668.561          44.000  
G28  23910275.082   125649362.056       -2542.070          46.000    23910273.886    97908571.520       -1980.757          46.000  
E26  29092024.504   152879667.4431      -3391.105          33.000    29092031.468   117142061.139       -2598.779          46.000  
G12  26524958.492   139389532.125       -3585.559          44.000    26524961.446   108615194.990       -2793.680          41.000  
E33  25726426.453   135193364.233       -1780.617          46.000    25726428.079   103589772.505       -1364.286          52.000  
E31  25329097.308   133105438.143        -472.064          47.000    25329100.418   101989955.376        -361.747          53.000  
G31  24008927.814   126167684.471        -298.076          48.000    24008925.685    98312619.268        -232.197          44.000  
E14  26241889.654   137902228.829       -3914.579          47.000    26241891.901   105665319.778       -2999.535          54.000  
E24  27693497.186   145530335.422        1521.726          45.000    27693498.826   111510275.620        1165.993          50.000  
G05  25584489.089   134447630.024       -1161.830          44.000    25584485.725   104764460.173        -905.392          40.000  
E12  26489993.274   139205947.330        1063.276          43.000    26489995.312   106664372.693         814.543          49.000  
E10  28110199.873   147720229.177        1886.610          40.000    28110205.471   113188409.829        1445.561          45.000  
> 2024 04 16 04 41 00.0070000  0 23                     
G25  23631823.671   124186108.387       -2788.445          48.000    23631823.850    96768413.790       -2172.792          45.000  
G18  22454357.867   117998478.945         275.979          48.000    22454354.632    91946835.067         215.093          47.000  
G26  24355792.723   127990564.451        2202.262          46.000    24355792.676    99732914.253        1716.052          45.000  
G23  26218064.518   137776946.879        2747.529          45.000    26218069.468   107358642.712        2140.870          43.000  
R11  23552636.467   125858257.633        2859.512          47.000    23552634.731    97889815.255        2224.156          48.000  
R09  22945890.281   122529793.844       -4007.916          50.000    22945890.495    95301046.105       -3117.218          51.000  
R10  21192974.449   112970522.030        -793.103          45.000                                                                  
R21  22852223.830   122287012.626        1291.870          52.000    22852223.555    95112180.840        1004.865          49.000  
R20  21800586.350   116577613.082       -2352.970          42.000    21800586.456    90671540.923       -1829.945          43.000  
G29  23619637.718   124122121.416       -2081.738          46.000    23619635.606    96718585.590       -1622.006          46.000  
S33  41778573.418   219547932.397        -668.251          42.000  
S31  40824542.190   214534482.952        -668.386          44.000  
G28  23924827.623   125725832.534       -2556.450          47.000    23924825.491    97968158.853       -1992.026          45.000  
E26  29111391.074   152981437.092       -3393.416          32.000    29111397.818   117220040.470       -2600.095          46.000  
G12  26545443.860   139497180.137       -3591.490          44.000    26545446.004   108699076.425       -2798.343          42.000  
E33  25736619.773   135246929.210       -1790.925          46.000    25736621.260   103630815.779       -1372.262          52.000  
E31  25331815.510   133119722.051        -480.637          47.000    25331818.417   102000900.286        -368.334          53.000  
G31  24010682.979   126176908.387        -317.168          46.000    24010681.183    98319806.758        -247.223          43.000  
E14  26264217.980   138019566.440       -3908.409          47.000    26264220.514   105755227.783       -2994.731          53.000  
E24  27684815.146   145484710.951        1519.399          45.000    27684816.845   111475316.599        1164.243          50.000  
G05  25591169.875   134482735.603       -1178.791          43.000    25591165.967   104791815.226        -918.808          40.000  
E12  26483954.006   139174204.616        1052.732          44.000    26483954.784   106640050.402         806.559          49.000  
E10  28099446.595   147663726.790        1879.860          40.000    28099453.183   113145115.916        1440.362          45.000  
> 2024 04 16 04 41 30.0070000  0 23                     
G25  23647776.973   124269946.695       -2800.837          48.000    23647778.235    96833742.264       -2182.406          45.000  
G18  22452834.370   117990471.539         257.583          47.000    22452831.675    91940595.474         200.824          47.000  
G26  24343235.659   127924578.236        2196.535          44.000    24343236.089    99681496.482        1711.535          44.000  
G23  26202375.565   137694500.437        2748.922          45.000    26202379.416   107294399.232        2141.972          43.000  
R11  23536614.277   125772638.018        2848.320          48.000    23536611.591    97823222.206        2215.472          46.000  
R09  22968451.428   122650263.107       -4023.352          51.000    22968450.454    95394744.260       -3129.162          50.000  
R10  21197510.460   112994698.392        -818.543          48.000                                                                  
R21  22845024.849   122248490.868        1276.160          51.000    22845023.711    95082219.564         992.615          48.000  
R20  21813826.208   116648409.288       -2366.743          42.000    21813825.629    90726604.644       -1840.991          43.000  
G29  23631533.052   124184630.629       -2085.710          47.000    23631530.484    96767294.071       -1625.150          46.000  
S33  41782389.043   219567983.000        -668.446          42.000  
S31  40828356.154   214554526.599        -668.044          44.000  
G28  23939463.813   125802747.285       -2571.259          47.000    23939462.173    98028092.383       -2003.521          45.000  
E26  29130775.301   153083272.179       -3395.729          36.000    29130776.530   117298069.940       -2601.983          47.000  
G12  26565966.084   139605024.628       -3598.022          44.000    26565968.412   108783110.965       -2803.860          41.000  
E33  25746874.008   135300815.668       -1801.648          46.000    25746875.495   103672105.391       -1380.499          52.000  
E31  25334584.315   133134276.466        -489.705          46.000    25334587.823   102012052.420        -375.238          53.000  
G31  24012548.754   126186712.979        -336.489          46.000    24012547.327    98327446.703        -262.300          45.000  
E14  26286511.340   138136725.013       -3902.297          46.000    26286514.961   105844998.653       -2990.021          53.000  
E24  27676147.250   145439162.730        1516.905          45.000    27676149.276   111440416.030        1162.385          50.000  
G05  25597949.445   134518363.461       -1196.344          42.000    25597946.384   104819577.195        -932.166          42.000  
E12  26477974.596   139142782.435        1042.057          44.000    26477975.247   106615973.713         798.357          48.000  
E10  28088735.911   147607437.840        1872.799          40.000    28088742.130   113101985.536        1434.902          45.000  
> 2024 04 16 04 42 00.0070000  0 23                     
G25  23663801.982   124354159.616       -2813.166          47.000    23663803.143    96899362.668       -2192.073          44.000  
G18  22451416.234   117983018.742         239.190          48.000    22451414.006    91934788.008         186.459          47.000  
G26  24330713.984   127858774.978        2190.688          44.000    24330713.851    99630221.261        1706.889          44.000  
G23  26186679.140   137612018.322        2750.248          45.000    26186683.073   107230127.971        2143.089          42.000  
R11  23520655.455   125687360.319        2837.196          48.000    23520652.728    97756895.083        2206.714          46.000  
R09  22991097.934   122771198.433       -4038.849          50.000    22991098.088    95488804.937       -3141.327          51.000  
R10  21202189.228   113019639.640        -843.944          47.000                                                                  
R21  22837915.986   122210446.884        1260.376          51.000    22837913.525    95052629.841         980.310          48.000  
R20  21827143.050   116719622.392       -2380.382          42.000    21827142.604    90781992.622       -1851.639          44.000  
G29  23643451.591   124247261.664       -2089.578          48.000    23643448.355    96816097.487       -1628.279          44.000  
S33  41786205.123   219588037.767        -668.281          42.000  
S31  40832171.055   214574572.798        -668.140          44.000  
G28  23954184.907   125880107.582       -2586.021          47.000    23954183.743    98088373.108       -2015.039          45.000  
E26  29150168.462   153185174.826       -3397.600          39.000    29150167.726   117376151.198       -2603.418          47.000  
G12  26586526.800   139713069.110       -3604.634          43.000    26586529.109   108867301.392       -2808.994          39.000  
E33  25757189.579   135355026.063       -1812.169          46.000    25757191.471   103713643.244       -1388.559          53.000  
E31  25337405.826   133149106.234        -498.854          46.000    25337409.761   102023415.523        -382.100          53.000  
G31  24014525.368   126197102.239        -355.882          46.000    24014524.254    98335542.256        -277.235          44.000  
E14  26308772.679   138253706.831       -3896.237          46.000    26308775.827   105934634.048       -2985.485          53.000  
E24  27667495.418   145393695.804        1514.306          44.000    27667497.148   111405577.754        1160.351          50.000  
G05  25604829.578   134554518.275       -1213.796          42.000    25604825.390   104847749.822        -945.685          40.000  
E12  26472056.588   139111685.068        1031.407          43.000    26472057.057   106592145.892         790.186          47.000  
E10  28078067.597   147551367.128        1865.713          41.000    28078072.016   113059022.402        1429.500          45.000  
> 2024 04 16 04 42 30.0070000  0 23                     
G25  23679897.539   124438740.512       -2825.787          47.000    23679898.337    96965269.796       -2201.851          44.000  
G18  22450102.317   117976115.266         220.760          48.000    22450100.240    91929408.920         171.881          49.000  
G26  24318226.332   127793150.754        2184.059          44.000    24318225.965    99579085.550        1701.910          44.000  
G23  26170974.642   137529497.335        2751.044          44.000    26170979.195   107165826.415        2143.792          42.000  
R11  23504760.242   125602422.199        2825.354          48.000    23504757.471    97690832.127        2197.518          47.000  
R09  23013831.311   122892591.060       -4054.205          51.000    23013830.671    95583221.325       -3153.253          51.000  
R10  21207010.228   113045339.948        -869.627          46.000                                                                  
R21  22830894.685   122172874.343        1244.336          51.000    22830891.992    95023406.856         967.828          47.000  
R20  21840535.986   116791242.656       -2394.526          41.000    21840536.445    90837697.179       -1862.209          43.000  
G29  23655391.961   124310007.744       -2093.740          49.000    23655388.049    96864990.559       -1631.400          45.000  
S33  41790020.880   219608087.994        -668.493          42.000  
S31  40835984.877   214594615.400        -668.228          44.000  
G28  23968989.161   125957904.855       -2600.658          47.000    23968988.158    98148994.316       -2026.699          46.000  
E26  29169571.647   153287137.457       -3400.031          40.000    29169570.730   117454278.420       -2605.201          46.000  
G12  26607123.017   139821305.830       -3611.575          43.000    26607126.070   108951641.509       -2814.126          38.000  
E33  25767565.414   135409552.823       -1823.113          45.000    25767567.470   103755423.490       -1396.810          53.000  
E31  25340279.044   133164206.384        -507.959          46.000    25340282.920   102034985.942        -389.271          52.000  
G31  24016612.290   126208069.641        -375.411          46.000    24016610.694    98344088.273        -292.485          44.000  
E14  26330998.556   138370504.596       -3890.247          46.000    26331001.379   106024128.473       -2980.883          53.000  
E24  27658857.979   145348305.412        1511.445          43.000    27658859.706   111370798.107        1158.187          50.000  
G05  25611809.697   134591193.850       -1231.410          44.000    25611803.418   104876328.208        -959.456          40.000  
E12  26466199.606   139080907.029        1020.484          43.000    26466199.798   106568562.753         781.912          47.000  
E10  28067436.603   147495509.587        1858.043          40.000    28067441.721   113016222.601        1423.639          43.000  
> 2024 04 16 04 43 00.0070000  0 23                     
G25  23696062.590   124523688.264       -2837.849          48.000    23696063.422    97031462.813       -2211.223          44.000  
G18  22448892.302   117969759.760         202.596          47.000    22448890.632    91924456.671         157.877          48.000  
G26  24305772.587   127727707.475        2178.238          45.000    24305772.525    99528090.832        1697.446          44.000  
G23  26155263.698   137446940.029        2752.597          44.000    26155267.616   107101496.581        2145.077          41.000  
R11  23488929.596   125517827.204        2813.938          48.000    23488926.829    97625035.995        2188.484          48.000  
R09  23036649.238   123014437.373       -4069.025          52.000    23036649.053    95677990.540       -3164.996          51.000  
R10  21211973.782   113071799.343        -894.801          47.000                                                                  
R21  22823961.793   122135772.957        1228.802          52.000    22823958.616    94994550.308         955.695          48.000  
R20  21854004.381   116863265.830       -2407.653          41.000    21854005.321    90893715.198       -1872.518          43.000  
G29  23667354.618   124372867.940       -2097.373          49.000    23667350.088    96913972.548       -1634.376          45.000  
S33  41793835.504   219628134.621        -668.153          42.000  
S31  40839798.468   214614654.661        -667.981          44.000  
G28  23983875.609   126036136.118       -2615.228          46.000    23983874.599    98209953.700       -2037.561          45.000  
E26  29188985.790   153389158.049       -3401.638          40.000    29188984.670   117532450.048       -2606.470          45.000  
G12  26627756.542   139929733.981       -3617.395          43.000    26627758.300   109036130.851       -2819.097          40.000  
E33  25778001.195   135464394.047       -1833.213          46.000    25778003.243   103797444.727       -1404.701          52.000  
E31  25343204.303   133179577.335        -517.144          46.000    25343207.654   102046763.811        -396.126          53.000  
G31  24018809.392   126219614.850        -394.624          46.000    24018807.852    98353084.470        -307.446          43.000  
E14  26353189.049   138487116.287       -3884.099          46.000    26353191.547   106113480.273       -2976.118          53.000  
E24  27650234.415   145302992.393        1508.990          42.000    27650236.865   111336077.764        1156.277          49.000  
G05  25618887.114   134628389.590       -1248.542          43.000    25618881.966   104905311.969        -973.184          40.000  
E12  26460403.520   139050448.360        1009.872          44.000    26460403.731   106545224.318         773.734          47.000  
E10  28056848.716   147439865.798        1851.196          41.000    28056852.597   112973586.583        1418.347          43.000  
> 2024 04 16 04 43 30.0070000  0 23                     
G25  23712295.633   124608997.110       -2849.648          47.000    23712297.705    97097937.165       -2220.595          44.000  
G18  22447786.862   117963947.304         184.586          48.000    22447784.407    91919927.534         143.908          48.000  
G26  24293352.608   127662442.200        2172.360          45.000    24293353.111    99477234.814        1692.663          45.000  
G23  26139546.099   137364344.153        2753.635          44.000    26139549.310   107037136.700        2145.596          41.000  
R11  23473163.398   125433574.338        2802.542          48.000    23473160.389    97559505.950        2179.672          47.000  
R09  23059551.655   123136729.555       -4083.948          51.000    23059550.936    95773106.528       -3176.385          49.000  
R10  21217079.375   113099013.713        -919.946          46.000                                                                  
R21  22817115.537   122099137.567        1213.293          52.000    22817112.634    94966056.200         943.799          47.000  
R20  21867547.487   116935685.125       -2420.583          42.000    21867547.102    90950041.371       -1882.881          44.000  
G29  23679336.586   124435836.483       -2100.853          48.000    23679332.716    96963038.955       -1636.874          45.000  
S33  41797648.222   219648172.281        -667.940          42.000  
S31  40843609.985   214634684.644        -668.071          44.000  
G28  23998844.350   126114793.676       -2629.155          47.000    23998843.883    98271245.256       -2048.640          46.000  
E26  29208409.377   153491229.837       -3403.369          40.000    29208408.656   117610660.929       -2607.791          44.000  
G12  26648425.313   140038347.049       -3623.631          43.000    26648426.827   109120764.199       -2823.455          40.000  
E33  25788495.821   135519543.073       -1843.428          46.000    25788497.622   103839701.771       -1412.526          52.000  
E31  25346179.667   133195214.554        -525.794          45.000    25346183.411   102058745.599        -402.923          51.000  
G31  24021114.953   126231732.903        -413.648          46.000    24021112.881    98362527.109        -322.250          43.000  
E14  26375343.299   138603535.476       -3877.535          47.000    26375345.481   106202684.618       -2971.133          53.000  
E24  27641625.691   145257752.899        1506.829          42.000    27641627.826   111301413.777        1154.479          49.000  
G05  25626062.448   134666100.158       -1265.865          43.000    25626058.678   104934696.925        -986.495          39.000  
E12  26454667.090   139020304.330         999.463          43.000    26454667.604   106522126.968         765.760          47.000  
E10  28046300.283   147384431.619        1844.054          42.000    28046303.501   112931111.141        1413.143          43.000  
> 2024 04 16 04 44 00.0070000  0 23                     
G25  23728599.108   124694670.177       -2862.002          47.000    23728600.381    97164695.320       -2230.170          44.000  
G18  22446785.574   117958681.743         166.097          48.000    22446782.281    91915824.542         129.414          48.000  
G26  24280967.374   127597361.086        2165.928          44.000    24280968.452    99426522.269        1687.756          44.000  
G23  26123822.118   137281716.344        2754.422          44.000    26123825.788   106972751.930        2146.579          42.000  
R11  23457462.741   125349671.077        2790.581          48.000    23457458.881    97494247.829        2170.373          47.000  
R09  23082536.532   123259468.235       -4098.975          50.000    23082535.213    95868569.820       -3188.177          48.000  
R10  21222326.933   113126988.062        -945.365          47.000                                                                  
R21  22810357.052   122062971.885        1197.388          52.000    22810354.113    94937927.404         931.342          48.000  
R20  21881164.256   117008499.910       -2434.209          41.000    21881163.699    91006675.030       -1893.126          43.000  
G29  23691339.416   124498916.192       -2104.760          47.000    23691336.771    97012191.997       -1640.192          45.000  
S33  41801460.480   219668204.415        -668.075          43.000  
S31  40847420.524   214654709.499        -667.771          44.000  
G28  24013894.213   126193878.670       -2643.534          47.000    24013892.816    98332869.875       -2059.963          46.000  
E26  29227843.168   153593355.021       -3405.407          41.000    29227842.551   117688912.711       -2609.274          45.000  
G12  26669129.360   140147147.808       -3630.039          41.000    26669130.967   109205543.937       -2828.888          38.000  
E33  25799050.174   135575002.329       -1854.176          47.000    25799051.309   103882196.585       -1420.749          53.000  
E31  25349207.423   133211123.203        -535.156          47.000    25349210.682   102070935.441        -410.038          53.000  
G31  24023530.293   126244427.184        -433.139          45.000    24023527.643    98372418.780        -337.510          42.000  
E14  26397461.503   138719764.466       -3871.494          47.000    26397463.171   106291743.204       -2966.398          53.000  
E24  27633031.486   145212591.971        1503.657          42.000    27633033.921   111266809.977        1152.181          49.000  
G05  25633337.894   134704329.312       -1283.193          42.000    25633331.611   104964485.935        -999.879          38.000  
E12  26448991.042   138990479.168         988.567          43.000    26448992.274   106499273.906         757.420          47.000  
E10  28035791.600   147329211.726        1836.873          41.000    28035795.165   112888799.910        1407.460          43.000  
> 2024 04 16 04 44 30.0070000  0 23                     
G25  23744972.187   124780708.111       -2874.210          48.000    23744973.678    97231737.791       -2239.581          45.000  
G18  22445887.062   117953963.989         148.078          48.000    22445884.589    91912148.254         115.163          49.000  
G26  24268618.486   127532467.849        2159.445          43.000    24268619.928    99375956.099        1682.923          44.000  
G23  26108092.999   137199060.831        2755.333          44.000    26108096.532   106908345.543        2147.260          43.000  
R11  23441827.928   125266123.102        2778.837          48.000    23441824.785    97429266.061        2161.260          48.000  
R09  23105604.758   123382651.981       -4113.711          52.000    23105604.274    95964379.232       -3199.485          51.000  
R10  21227718.932   113155723.609        -970.800          46.000                                                                  
R21  22803686.927   122027276.944        1181.793          53.000    22803684.823    94910164.751         919.159          48.000  
R20  21894854.291   117081708.698       -2446.982          40.000    21894854.726    91063615.211       -1903.250          42.000  
G29  23703364.090   124562108.338       -2108.456          45.000    23703361.618    97061432.603       -1642.781          45.000  
S33  41805271.798   219688232.766        -667.721          43.000  
S31  40851230.343   214674730.673        -667.454          44.000  
G28  24029024.472   126273389.876       -2657.631          47.000    24029022.062    98394826.631       -2070.819          44.000  
E26  29247287.051   153695533.369       -3407.030          42.000    29247286.364   117767205.244       -2610.563          45.000  
G12  26689869.058   140256136.533       -3635.992          42.000    26689871.201   109290470.130       -2833.407          39.000  
E33  25809662.015   135630771.299       -1864.323          46.000    25809663.895   103924928.539       -1428.558          52.000  
E31  25352286.314   133227305.354        -544.221          46.000    25352289.999   102083334.809        -416.992          52.000  
G31  24026055.156   126257699.125        -452.333          45.000    24026052.814    98382760.575        -352.474          42.000  
E14  26419543.116   138835803.211       -3865.008          47.000    26419544.774   106380656.007       -2961.519          53.000  
E24  27624453.110   145167512.309        1501.052          43.000    27624455.492   111232268.456        1150.133          50.000  
G05  25640710.795   134743078.130       -1300.545          41.000    25640706.758   104994679.885       -1013.362          38.000  
E12  26443376.563   138960974.698         978.036          43.000    26443378.033   106476666.593         749.161          48.000  
E10  28025325.340   147274208.501        1829.569          42.000    28025328.788   112846654.693        1401.868          44.000  
