     3.00           OBSERVATION DATA    M: Mixed            RINEX VERSION / TYPE
CONVBIN 2.4.3                           20240416 222942 UTC PGM / RUN BY / DATE 
format: u-blox UBX                                          COMMENT             
log: /home/regis/git/gnsspwv/obsdata/VERT00CHL/2024-04-16/VECOMMENT             
{self.marker}                                               MARKER NAME         
                                                            MARKER NUMBER       
GEODETIC                                                    MARKER TYPE         
{self.observer}     {self.institution}                      OBSERVER / AGENCY   
UNKNOWN             UBLOX-ZED-F9P                           REC # / TYPE / VERS 
UNKNOWN             TWIVSP6037L                             ANT # / TYPE        
  1713381.0000 -5047934.0000 -3490983.0000                  APPROX POSITION XYZ 
        0.0000        0.0000        0.0000                  ANTENNA: DELTA H/E/N
G    8 C1C L1C D1C S1C C2L L2L D2L S2L                      SYS / # / OBS TYPES 
R    8 C1C L1C D1C S1C C2C L2C D2C S2C                      SYS / # / OBS TYPES 
E    8 C1C L1C D1C S1C C7Q L7Q D7Q S7Q                      SYS / # / OBS TYPES 
S    4 C1C L1C D1C S1C                                      SYS / # / OBS TYPES 
  2024    04    16    22    15   00.0080000     GPS         TIME OF FIRST OBS   
  2024    04    16    22    29   30.0080000     GPS         TIME OF LAST OBS    
                                                            END OF HEADER       
> 2024 04 16 22 15 00.0080000  0 27                     
G13  22827650.882   119960221.3131      -2303.522          49.000                                                                  
G15  23047411.308   121115026.2581       -546.484          48.000    23047410.868    94375393.4571       -425.824          47.000  
G19  23655768.662   124312352.4271       -155.208          48.000                                                                  
G24  24739451.740   130006857.7561       1245.305          47.000    24739453.504   101304144.3731        970.431          45.000  
R09  24526263.367   130969068.2241       1236.228          47.000    24526269.399   101864926.6201        961.477          47.000  
R05  23771468.915   127072282.5121      -4770.527          50.000    23771476.065    98833859.1901      -3710.369          48.000  
R16  22497609.087   120178354.1941      -1316.878          52.000    22497609.229    93472445.5101      -1024.201          50.000  
R06  22379118.362   119419379.2561       -447.603          44.000                                                                  
R07  25157514.965   134670130.2801       2792.139          40.000    25157514.759   104743449.3171       2171.900          41.000  
G12  25453727.381   133760332.2311       1655.077          43.000    25453734.074   104229102.9721       1289.851          40.000  
E08  26102101.926   137167624.2961      -2094.110          48.000    26102105.999   105102531.6031      -1604.540          53.000  
S31  41189303.895   216451216.8141       -788.503          44.000  
S33  42141234.982   221453624.6291       -789.109          42.000  
E03  29514824.463   155101265.5181      -3660.564          43.000    29514846.207   118843816.0471      -2804.843          45.000  
R15  24531870.359   131091273.4501      -3372.904          51.000    24531871.345   101959741.8011      -2623.447          47.000  
R17  25050315.789   134049424.6021        163.167          45.000    25050318.271   104260758.7851        126.951          47.000  
R18  25441360.966   135807885.8821       2486.805          49.000    25441371.715   105628335.4611       1934.173          48.000  
E07  26691577.430   140265343.4541        668.899          48.000    26691582.255   107476085.2471        512.607          51.000  
E27  29288623.774   153912945.3331       1365.588          42.000    29288640.826   117933458.8771       1046.270          37.000  
G30  27551764.494   144785648.0301      -3370.819          42.000    27551770.610   112820093.2231      -2626.328          39.000  
E30  25996153.864   136611148.7841       -396.368          48.000    25996158.296   104676336.7941       -303.656          51.000  
G14  26313244.413   138277253.7421      -3979.956          41.000    26313243.818   107748674.4151      -3101.141          37.000  
E02  26994779.274   141858791.3971      -2610.891          48.000    26994781.798   108697186.5641      -2000.527          52.000  
G22  24093062.764   126610268.1351      -3389.990          49.000                                                                  
G17  24075894.269   126520034.8381      -1464.870          46.000    24075894.646    98587241.8831      -1141.521          45.000  
E18  23457072.071   123268175.4371      -3996.937          50.000                                                                  
G05                                                                  27146162.468                       -2873.870          29.000  
> 2024 04 16 22 15 30.0080000  0 27                     
G13  22840846.638   120029566.650       -2319.705          48.000                                                                  
G15  23050580.500   121131679.932        -563.826          49.000    23050578.872    94388370.354        -439.419          46.000  
G19  23656707.150   124317286.447        -173.940          48.000                                                                  
G24  24732344.985   129969512.567        1244.198          47.000    24732346.751   101275044.341         969.611          45.000  
R09  24519334.452   130932073.543        1229.919          48.000    24519340.951   101836153.321         956.617          47.000  
R05  23798273.743   127215566.678       -4781.938          50.000    23798280.222    98945301.924       -3719.162          48.000  
R16  22505022.267   120217956.392       -1323.483          52.000    22505023.510    93503247.267       -1029.391          51.000  
R06  22381709.576   119433205.535        -474.054          44.000                                                                  
R07  25141901.197   134586558.819        2778.915          39.000    25141904.383   104678449.486        2161.595          39.000  
G12  25444301.360   133710799.304        1646.891          43.000    25444307.488   104190506.245        1283.060          40.000  
E08  26114088.267   137230613.384       -2105.261          47.000    26114092.674   105150795.920       -1613.066          53.000  
S31  41193801.530   216474853.282        -787.474          44.000  
S33  42145737.577   221477284.120        -788.308          42.000  
E03  29535730.812   155211125.321       -3663.840          43.000    29535752.863   118927993.281       -2807.268          45.000  
R15  24550803.098   131192442.499       -3371.854          51.000    24550804.341   102038428.863       -2622.597          48.000  
R17  25049462.387   134044853.439         141.401          45.000    25049463.046   104257203.617         109.944          46.000  
R18  25427402.560   135733378.805        2480.184          47.000    25427413.625   105570385.999        1929.095          47.000  
E07  26687784.336   140245414.947         659.461          47.000    26687790.102   107460815.409         505.332          51.000  
E27  29280839.889   153872049.183        1360.717          40.000    29280857.435   117902123.424        1042.555          37.000  
G30  27571009.996   144886786.177       -3372.336          40.000    27571016.901   112898902.269       -2627.915          40.000  
E30  25998438.102   136623150.724        -404.072          49.000    25998442.167   104685533.157        -309.547          51.000  
G14  26335961.412   138396636.772       -3979.199          40.000    26335961.577   107841700.278       -3100.616          35.000  
E02  27009690.924   141937156.193       -2613.519          47.000    27009694.016   108757232.365       -2002.600          52.000  
G22  24112434.628   126712067.936       -3396.935          49.000                                                                  
G17  24084313.727   126564277.611       -1484.818          45.000    24084314.194    98621716.852       -1156.945          46.000  
E18  23479954.909   123388422.271       -4019.524          50.000                                                                  
G05                                                                  27167209.954                       -2871.203          26.000  
> 2024 04 16 22 16 00.0080000  0 27                     
G13  22854133.004   120099384.185       -2335.077          49.000                                                                  
G15  23053845.701   121148841.509        -580.549          48.000    23053844.784    94401743.006        -452.350          47.000  
G19  23657751.205   124322774.021        -192.065          48.000                                                                  
G24  24725242.495   129932187.974        1243.950          47.000    24725244.173   101245960.331         969.334          45.000  
R09  24512439.571   130895256.967        1224.225          48.000    24512446.604   101807518.525         952.073          48.000  
R05  23825139.273   127359174.563       -4792.362          51.000    23825146.225    99056996.432       -3727.282          48.000  
R16  22512470.308   120257745.888       -1329.272          51.000    22512472.258    93534194.722       -1033.980          51.000  
R06  22384447.954   119447815.694        -500.100          44.000                                                                  
R07  25126361.515   134503372.563        2766.576          43.000    25126362.753   104613749.241        2151.530          33.000  
G12  25434920.978   133661508.388        1639.361          43.000    25434927.227   104152098.147        1277.028          41.000  
E08  26126135.546   137293924.847       -2115.759          47.000    26126140.374   105199307.269       -1621.164          53.000  
S31  41198292.932   216498455.308        -786.103          44.000  
S33  42150232.960   221500909.531        -786.938          42.000  
E03  29556653.350   155321068.231       -3666.004          44.000    29556675.247   119012234.175       -2809.142          45.000  
R15  24569727.736   131293567.703       -3370.057          51.000    24569727.788   102117081.874       -2621.241          47.000  
R17  25048727.635   134040925.628         120.254          43.000    25048728.858   104254148.890          93.772          46.000  
R18  25413478.879   135659060.386        2474.126          46.000    25413489.949   105512583.294        1924.252          47.000  
E07  26684044.037   140225757.730         650.816          47.000    26684049.504   107445753.434         498.667          51.000  
E27  29273082.790   153831286.007        1356.700          40.000    29273100.541   117870889.818        1039.493          39.000  
G05  27188197.493                3      -3679.329          25.000    27188251.103                3      -2872.555          22.000  
G30  27590261.621   144987955.136       -3372.751          39.000    27590268.219   112977735.234       -2628.489          38.000  
E30  26000763.674   136635373.310        -411.078          49.000    26000768.003   104694898.605        -315.034          51.000  
G14  26358672.533   138515986.150       -3977.624          42.000    26358672.928   107934699.929       -3099.677          37.000  
E02  27024617.111   142015593.387       -2615.647          48.000    27024620.185   108817333.630       -2004.242          52.000  
G22  24131843.464   126814063.824       -3403.098          49.000                                                                  
G17  24092843.487   126609106.455       -1504.112          44.000    24092844.197    98656648.511       -1172.023          45.000  
E18  23502961.434   123509331.873       -4041.219          49.000                                                                  
> 2024 04 16 22 16 30.0080000  0 27                     
G13  22867507.245   120169664.114       -2350.219          49.000                                                                  
G15  23057206.214   121166502.500        -596.936          49.000    23057205.745    94415504.822        -465.118          47.000  
G19  23658899.139   124328807.299        -210.052          47.000                                                                  
G24  24718142.232   129894876.089        1243.720          47.000    24718144.236   101216886.244         969.041          45.000  
R09  24505577.193   130858609.178        1218.864          48.000    24505583.387   101779015.008         947.983          48.000  
R05  23852062.897   127503093.021       -4802.223          52.000    23852069.866    99168932.502       -3735.072          48.000  
R16  22519952.573   120297712.049       -1335.032          52.000    22519953.291    93565279.561       -1038.372          50.000  
R06  22387331.109   119463201.257        -525.546          44.000                                                                  
R07  25110891.332   134420566.371        2753.730          40.000    25110896.929                1       2141.866          31.000  
G12  25425585.496   133612451.555        1631.492          43.000    25425591.291   104113872.465        1271.061          40.000  
E08  26138242.791   137357549.510       -2125.895          46.000    26138247.753   105248058.601       -1628.988          53.000  
S31  41202775.967   216522014.765        -784.534          44.000  
S33  42154720.643   221524493.013        -785.189          42.000  
E03  29577588.935   155431084.240       -3668.349          44.000    29577611.605   119096531.074       -2810.687          45.000  
R15  24588642.481   131394639.079       -3367.981          51.000    24588642.570   102195692.955       -2619.648          48.000  
R17  25048112.534   134037634.984          99.116          43.000    25048114.262   104251589.663          77.113          47.000  
R18  25399591.237   135584926.541        2468.081          48.000    25399601.269   105454924.123        1919.662          46.000  
E07  26680354.039   140206364.474         642.119          47.000    26680359.090   107430893.711         492.115          52.000  
E27  29265348.132   153790647.243        1352.729          39.000    29265366.659   117839751.582        1036.569          40.000  
G30  27609516.901   145089146.160       -3373.253          39.000    27609524.383   113056585.486       -2628.471          39.000  
E30  26003129.888   136647807.058        -417.863          49.000    26003134.195   104704425.847        -320.227          52.000  
G14  26381376.073   138635291.663       -3976.062          42.000    26381376.472   108027665.402       -3098.322          38.000  
E02  27039555.472   142094092.944       -2617.526          48.000    27039558.224   108877482.670       -2005.650          52.000  
G22  24151288.026   126916244.900       -3408.960          49.000                                                                  
G17  24101485.255   126654512.113       -1522.907          46.000    24101482.851    98692029.623       -1186.537          43.000  
E18  23526093.707   123630890.928       -4062.472          49.000                                                                  
G05                                                                  27209203.071                3      -2863.106          25.000  
> 2024 04 16 22 17 00.0080000  0 27                     
G13  22880969.271   120240403.903       -2365.852          49.000                                                                  
G15  23060661.153   121184661.021        -613.782          48.000    23060661.275    94429654.339        -478.259          47.000  
G19  23660150.432   124335385.429        -228.650          46.000                                                                  
G24  24711044.231   129857575.625        1242.868          47.000    24711046.493   101187821.050         968.474          46.000  
R09  24498744.851   130822127.627        1213.090          48.000    24498751.602   101750640.808         943.496          49.000  
R05  23879043.978   127647315.560       -4812.707          52.000    23879050.092    99281105.037       -3743.314          48.000  
R16  22527466.893   120337851.258       -1341.033          51.000    22527466.806    93596499.027       -1043.210          49.000  
R06  22390359.587   119479360.509        -552.036          43.000                                                                  
R07  25095491.211   134338142.443        2740.711          36.000    25095500.292                        2130.970          31.000  
G12  25416295.173   133563627.010        1623.364          45.000    25416299.461   104075827.718        1264.984          41.000  
E08  26150409.237   137421484.742       -2136.611          46.000    26150413.998   105297047.878       -1637.132          53.000  
S31  41207250.763   216545529.264        -783.362          44.000  
S33  42159199.787   221548030.671        -784.034          42.000  
E03  29598537.427   155541169.776       -3670.902          44.000    29598561.264   119180881.229       -2812.733          45.000  
R15  24607546.074   131495653.799       -3366.400          51.000    24607544.721   102274260.004       -2618.401          46.000  
R17  25047616.437   134034981.399          77.515          46.000    25047618.051   104249525.981          60.319          46.000  
R18  25385739.256   135510979.419        2461.535          49.000    25385748.342   105397410.157        1914.451          47.000  
E07  26676713.557   140187234.366         633.098          48.000    26676718.692   107416235.624         485.048          52.000  
E27  29257637.911   153750130.940        1348.195          39.000    29257656.836   117808707.141        1032.931          42.000  
G30  27628776.066   145190357.253       -3375.184          37.000    27628783.941   113135451.245       -2629.327          38.000  
E30  26005535.397   136660448.991        -425.077          49.000    26005539.890   104714112.603        -325.700          52.000  
G14  26404069.282   138754549.574       -3974.722          42.000    26404070.233   108120593.755       -3096.826          37.000  
E02  27054504.993   142172651.356       -2619.830          48.000    27054507.155   108937676.811       -2007.396          52.000  
G22  24170766.203   127018606.697       -3415.250          48.000                                                                  
G17  24110235.328   126700492.033       -1542.460          46.000    24110233.277    98727858.208       -1202.189          44.000  
E18  23549348.106   123753092.617       -4084.291          49.000                                                                  
G05                                                                  27230201.082                3      -2855.168          22.000  
> 2024 04 16 22 17 30.0080000  0 27                     
G13  22894519.057   120311611.348       -2381.532          49.000                                                                  
G15  23064213.774   121203326.647        -630.793          48.000    23064213.385    94444198.974        -491.505          47.000  
G19  23661508.123   124342517.793        -247.227          47.000                                                                  
G24  24703950.143   129820296.240        1242.145          47.000    24703952.342   101158772.273         967.834          46.000  
R09  24491945.246   130785820.317        1207.094          48.000    24491951.894   101722402.103         938.932          48.000  
R05  23906081.171   127791846.931       -4822.986          52.000    23906087.951    99393517.770       -3751.211          48.000  
R16  22535014.223   120378170.790       -1347.264          51.000    22535015.446    93627858.714       -1047.818          50.000  
R06  22393533.564   119496302.996        -578.060          43.000                                                                  
R07  25080165.411   134256113.549        2727.429          34.000    25080181.518                        2121.663          29.000  
G12  25407050.109   133515043.914        1615.352          45.000    25407054.034   104037971.160        1258.622          41.000  
E08  26162636.347   137485738.801       -2147.314          46.000    26162641.122   105346281.467       -1645.337          52.000  
S31  41211718.481   216569007.125        -782.355          44.000  
S33  42163671.991   221571531.792        -783.116          42.000  
E03  29619501.739   155651332.285       -3673.606          44.000    29619525.330   119265290.315       -2814.734          45.000  
R15  24626439.679   131596619.731       -3364.928          51.000    24626439.287   102352789.109       -2617.183          46.000  
R17  25047241.744   134032976.069          55.861          46.000    25047243.427   104247966.531          43.525          46.000  
R18  25371923.937   135437232.685        2454.673          50.000    25371932.678   105340052.028        1909.096          47.000  
E07  26673125.423   140168377.565         623.809          48.000    26673130.310   107401786.954         477.944          51.000  
E27  29249953.108   153709746.076        1344.038          39.000    29249972.020   117777763.394        1029.646          44.000  
G30  27648042.805   145291596.887       -3375.107          39.000    27648048.625   113214339.294       -2630.177          38.000  
E30  26007982.434   136673307.035        -432.490          49.000    26007986.543   104723964.948        -331.302          52.000  
G14  26426755.192   138873767.061       -3973.296          42.000    26426756.727   108213490.652       -3096.385          39.000  
E02  27069466.615   142251276.076       -2622.049          48.000    27069469.086   108997921.774       -2009.151          52.000  
G22  24190281.429   127121155.284       -3421.680          48.000                                                                  
G17  24119095.814   126747054.090       -1561.973          45.000    24119093.382    98764140.408       -1217.149          43.000  
E18  23572725.188   123875941.018       -4105.884          49.000                                                                  
G05                                                                  27251152.111                3      -2863.845          20.000  
> 2024 04 16 22 18 00.0080000  0 27                     
G13  22908159.330   120383290.712       -2397.725          49.000                                                                  
G15  23067863.468   121222505.041        -648.415          49.000    23067863.207    94459143.184        -505.275          48.000  
G19  23662972.261   124350210.698        -266.287          47.000                                                                  
G24  24696861.128   129783043.961        1240.704          47.000    24696863.429   101129744.634         966.701          45.000  
R09  24485179.522   130749691.721        1200.795          47.000    24485185.916   101694302.423         934.045          48.000  
R05  23933177.249   127936688.105       -4833.713          52.000    23933184.384    99506171.450       -3759.597          48.000  
R16  22542596.851   120418674.281       -1353.813          52.000    22542596.875    93659361.495       -1052.915          49.000  
R06  22396856.801   119514034.045        -604.761          44.000                                                                  
R07  25064920.057   134174488.977        2714.058          37.000    25064933.320   104357935.0371       2110.365          35.000  
G12  25397851.985   133466708.071        1606.647          45.000    25397856.694   104000307.283        1251.853          41.000  
E08  26174925.158   137550316.339       -2158.570          47.000    26174929.880   105395762.910       -1653.892          52.000  
S31  41216180.288   216592453.887        -781.658          44.000  
S33  42168137.915   221595002.258        -782.475          42.000  
E03  29640481.067   155761575.459       -3676.732          43.000    29640504.861   119349761.153       -2817.155          45.000  
R15  24645325.071   131697541.184       -3363.919          50.000    24645326.176   102431283.645       -2616.279          46.000  
R17  25046990.166   134031626.355          33.583          47.000    25046991.096   104246916.982          26.150          46.000  
R18  25358147.631   135363695.916        2447.221          50.000    25358156.663   105282857.225        1903.234          48.000  
E07  26669590.355   140149800.579         614.027          48.000    26669594.873   107387552.695         470.517          51.000  
E27  29242292.924   153669497.955        1338.494          38.000    29242312.671   117746924.433        1025.775          44.000  
G30  27667315.126   145392870.216       -3377.116          38.000    27667319.798   113293253.604       -2631.197          38.000  
E30  26010471.159   136686385.503        -440.225          49.000    26010475.003   104733986.205        -337.291          51.000  
G14  26449434.912   138992947.795       -3972.650          43.000    26449436.326   108306358.876       -3095.772          38.000  
E02  27084441.053   142329970.972       -2624.818          48.000    27084444.144   109058220.500       -2011.311          53.000  
G22  24209831.610   127223894.300       -3428.371          48.000                                                                  
G17  24128066.936   126794202.559       -1581.787          45.000    24128065.708    98800879.561       -1232.557          43.000  
E18  23596225.602   123999436.626       -4127.852          49.000                                                                  
G05                                                                  27272014.139                3      -2859.102          20.000  
> 2024 04 16 22 18 30.0080000  0 27                     
G13  22921891.242   120455452.299       -2413.318          49.000                                                                  
G15  23071612.986   121242207.614        -665.485          49.000    23071612.617    94474495.826        -518.531          48.000  
G19  23664544.590   124358475.864        -285.076          47.000                                                                  
G24  24689779.669   129745830.319        1240.017          47.000    24689781.151   101100747.099         965.965          45.000  
R09  24478449.850   130713752.149        1194.932          49.000    24478454.450   101666349.708         929.338          47.000  
R05  23960332.217   128081845.306       -4843.831          51.000    23960339.938    99619070.924       -3767.350          48.000  
R16  22550215.853   120459371.109       -1359.705          52.000    22550215.508    93691014.628       -1057.519          50.000  
R06  22400329.693   119532564.887        -630.958          44.000                                                                  
R07  25049752.080                        2699.847          30.000    25049765.758   104294775.825        2100.194          34.000  
G12  25388703.484   133418630.791        1598.377          46.000    25388707.734   103962844.847        1245.336          42.000  
E08  26187277.557   137615227.527       -2169.172          47.000    26187282.012   105445500.011       -1662.081          52.000  
S31  41220638.222   216615880.635        -780.537          44.000  
S33  42172600.417   221618451.846        -781.133          42.000  
E03  29661477.849   155871908.632       -3679.284          43.000    29661502.006   119434300.902       -2819.088          45.000  
R15  24664205.081   131798428.474       -3362.235          51.000    24664206.177   102509751.566       -2615.119          45.000  
R17  25046862.588   134030945.002          11.573          48.000    25046864.326   104246387.306           9.064          46.000  
R18  25344413.104   135290384.578        2439.846          49.000    25344422.539   105225837.817        1897.730          47.000  
E07  26666111.121   140131515.478         604.650          48.000    26666115.179   107373542.097         463.371          51.000  
E27  29234661.660   153629397.398        1334.342          39.000    29234680.724   117716198.547        1022.233          44.000  
G30  27686594.827   145494187.816       -3377.677          38.000    27686600.177   113372202.496       -2631.948          39.000  
E30  26013004.135   136699694.287        -447.340          49.000    26013007.541   104744183.932        -342.811          51.000  
G14  26472109.073   139112100.936       -3971.225          42.000    26472110.445   108399205.570       -3094.477          37.000  
E02  27099431.055   142408745.408       -2627.187          48.000    27099434.524   109118580.168       -2012.905          53.000  
G22  24229419.554   127326832.111       -3434.629          48.000                                                                  
G17  24137151.729   126841948.138       -1601.422          45.000    24137150.213    98838084.001       -1248.100          42.000  
E18  23619849.972   124123585.395       -4149.063          48.000                                                                  
G05                                                                  27292900.470                3      -2846.892          16.000  
> 2024 04 16 22 19 00.0080000  0 27                     
G13  22935713.396   120528089.851       -2429.128          49.000                                                                  
G15  23075461.201   121262428.831        -682.706          49.000    23075460.566    94490252.614        -531.924          47.000  
G19  23666224.544   124367308.355        -303.819          46.000                                                                  
G24  24682705.118   129708650.825        1238.814          48.000    24682705.434   101071776.131         965.230          44.000  
R09  24471753.602   130677995.650        1188.831          48.000    24471758.719   101638539.400         924.814          48.000  
R05  23987544.214   128227309.294       -4853.742          51.000    23987551.998    99732208.945       -3775.046          48.000  
R16  22557868.888   120500253.998       -1365.725          51.000    22557868.729    93722812.474       -1062.253          49.000  
R06  22403950.640   119551890.118        -657.242          43.000                                                                  
R07  25034662.566                1       2686.031          31.000    25034670.309   104231941.573        2089.197          37.000  
G12  25379602.597   133370806.754        1589.934          46.000    25379607.802   103925579.682        1238.898          43.000  
E08  26199692.427   137680466.392       -2179.953          47.000    26199696.841   105495488.197       -1670.371          53.000  
S31  41225090.965   216639280.455        -779.539          44.000  
S33  42177057.917   221641875.367        -780.185          42.000  
E03  29682490.400   155982325.004       -3681.932          43.000    29682514.980   119518904.349       -2821.125          45.000  
R15  24683077.255   131899274.625       -3360.721          50.000    24683078.155   102588187.562       -2613.879          45.000  
R17  25046859.195   134030928.567         -10.476          47.000    25046859.598   104246374.745          -8.068          44.000  
R18  25330721.173   135217297.697        2432.384          49.000    25330730.519   105168992.952        1891.845          48.000  
E07  26662685.813   140113518.134         595.175          48.000    26662690.287   107359751.987         456.065          51.000  
E27  29227058.553   153589439.150        1329.821          39.000    29227076.400   117685581.674        1018.967          45.000  
G30  27705882.780   145595544.265       -3378.925          39.000    27705888.248   113451181.586       -2632.994          39.000  
E30  26015578.666   136713227.137        -454.750          49.000    26015582.738   104754553.331        -348.448          52.000  
G14  26494776.537   139231219.509       -3969.929          42.000    26494776.645   108492025.300       -3093.511          38.000  
E02  27114435.444   142487592.619       -2629.324          48.000    27114438.723   109178995.596       -2014.703          53.000  
G22  24249044.551   127429960.894       -3440.635          48.000                                                                  
G17  24146350.143   126890284.173       -1620.907          44.000    24146349.522    98875748.478       -1262.881          44.000  
E18  23643596.840   124248377.176       -4170.259          47.000                                                                  
G05                                                                  27313778.482                3      -2854.279          15.000  
> 2024 04 16 22 19 30.0080000  0 26                     
G13  22949627.360   120601208.205       -2445.442          48.000                                                                  
G15  23079409.203   121283175.384        -700.311          49.000    23079408.608    94506418.759        -545.747          47.000  
G19  23668014.547   124376714.793        -323.124          46.000                                                                  
G24  24675638.084   129671512.365        1237.255          47.000    24675637.834   101042837.177         964.056          44.000  
R09  24465092.999   130642427.677        1182.438          49.000    24465096.932   101610875.823         919.665          47.000  
R05  24014814.433   128373081.404       -4864.139          50.000    24014822.467    99845586.602       -3783.200          48.000  
R16  22565557.926   120541327.631       -1372.389          51.000    22565557.741    93754758.661       -1067.352          49.000  
R06  22407722.512   119572016.276        -684.196          42.000                                                                  
R07  25019662.192   133932012.9131       2671.398          32.000    25019655.411   104169440.236        2077.556          38.000  
G12  25370550.801   133323242.327        1581.274          47.000    25370556.618   103888516.851        1232.009          43.000  
E08  26212169.892   137746038.496       -2191.331          47.000    26212174.872   105545731.712       -1679.091          53.000  
S31  41229539.936   216662660.402        -779.125          44.000  
S33  42181511.030   221665278.547        -779.652          42.000  
E03  29703519.619   156092829.442       -3685.071          43.000    29703544.753   119603575.291       -2823.609          45.000  
R15  24701943.279   132000085.515       -3359.867          51.000    24701944.106   102666596.084       -2613.274          45.000  
R17  25046981.420   134031585.513         -33.069          48.000    25046981.878   104246885.975         -25.792          44.000  
R18  25317072.565   135144446.153        2424.430          49.000    25317082.074   105112331.089        1885.620          48.000  
E07  26659316.654   140095816.024         585.113          47.000    26659321.708   107346188.082         448.394          51.000  
E27  29219483.002   153549629.483        1324.419          40.000    29219500.718   117655078.661        1014.768          45.000  
G30  27725179.120   145696945.484       -3380.528          39.000    27725185.094   113530195.607       -2633.869          41.000  
E30  26018197.145   136726989.280        -462.758          48.000    26018201.576   104765098.430        -354.502          52.000  
G14  26517438.652   139350308.058       -3969.169          44.000    26517437.413   108584821.614       -3092.902          39.000  
E02  27129454.853   142566517.403       -2632.125          48.000    27129457.335   109239470.466       -2016.881          53.000  
G22  24268706.303   127533284.113       -3447.322          48.000                                                                  
G17  24155661.080   126939215.931       -1641.138          44.000    24155659.446    98913877.246       -1278.700          42.000  
E18  23667467.744   124373813.403       -4192.012          47.000                                                                  
> 2024 04 16 22 20 00.0080000  0 26                     
G13  22963633.569   120674813.265       -2461.776          48.000                                                                  
G15  23083458.437   121304454.114        -718.466          49.000    23083457.535    94522999.575        -559.891          47.000  
G19  23669915.806   124386703.076        -342.854          47.000                                                                  
G24  24668579.714   129634422.337        1235.380          47.000    24668579.197   101013935.982         962.510          43.000  
R09  24458467.668   130607054.062        1175.581          48.000    24458471.968   101583363.314         914.470          48.000  
R05  24042142.120   128519164.244       -4874.821          50.000    24042150.672    99959205.939       -3791.462          48.000  
R16  22573283.774   120582596.947       -1379.155          52.000    22573283.448    93786857.102       -1072.765          50.000  
R06  22411645.355   119592949.929        -711.689          42.000                                                                  
R07  25004730.770   133852092.159        2657.205          34.000    25004720.737   104107280.043        2066.485          38.000  
G12  25361549.803   133275944.652        1571.742          48.000    25361555.027   103851661.803        1224.732          42.000  
E08  26224713.114   137811949.667       -2202.960          47.000    26224717.630   105596235.022       -1687.944          53.000  
S31  41233986.257   216686026.776        -779.111          43.000  
S33  42185962.092   221688668.547        -779.843          42.000  
E03  29724566.404   156203426.892       -3688.288          42.000    29724592.371   119688317.484       -2826.084          46.000  
R15  24720802.069   132100866.676       -3359.222          50.000    24720803.118   102744981.526       -2612.583          43.000  
R17  25047230.010   134032924.435         -56.338          47.000    25047232.445   104247927.606         -43.696          45.000  
R18  25303471.787   135071840.835        2415.814          50.000    25303480.332   105055860.787        1878.869          48.000  
E07  26656005.959   140078416.862         574.724          47.000    26656010.783   107332856.304         440.294          51.000  
E27  29211936.375   153509974.856        1319.122          40.000    29211953.855   117624694.443        1010.650          45.000  
G30  27744484.242   145798397.786       -3382.474          39.000    27744490.085   113609249.467       -2635.719          38.000  
E30  26020860.242   136740986.210        -470.655          48.000    26020865.112   104775823.448        -360.650          52.000  
G14  26540095.433   139469371.433       -3968.482          43.000    26540093.984   108677598.383       -3092.435          39.000  
E02  27144489.014   142645524.826       -2635.201          49.000    27144491.994   109300008.665       -2019.057          52.000  
G22  24288405.734   127636806.509       -3454.341          48.000                                                                  
G17  24165086.728   126988749.318       -1661.433          46.000    24165087.870    98952474.787       -1294.615          45.000  
E18  23691458.880   124499895.608       -4213.561          46.000                                                                  
> 2024 04 16 22 20 30.0080000  0 26                     
G13  22977735.651   120748917.206       -2478.664          48.000                                                                  
G15  23087611.693   121326278.540        -736.731          49.000    23087609.932    94540005.616        -574.194          47.000  
G19  23671929.680   124397286.868        -362.987          47.000                                                                  
G24  24661533.363   129597394.823        1232.891          46.000    24661533.302   100985083.462         960.874          44.000  
R09  24451880.209   130571887.229        1168.529          47.000    24451886.732   101556011.618         908.870          49.000  
R05  24069530.350   128665566.954       -4885.603          51.000    24069538.406   100073074.050       -3799.922          47.000  
R16  22581048.033   120624073.756       -1386.198          51.000    22581048.311    93819116.863       -1078.208          49.000  
R06  22415722.256   119614704.654        -738.780          42.000                                                                  
R07  24989880.043   133772627.457        2641.052          38.000    24989874.737   104045474.279        2054.171          41.000  
G12  25352602.141   133228927.070        1562.479          47.000    25352607.232   103815025.052        1217.394          43.000  
E08  26237322.979   137878212.535       -2214.697          47.000    26237327.359   105647007.826       -1696.986          53.000  
S31  41238432.608   216709391.763        -779.167          44.000  
S33  42190412.753   221712057.676        -779.888          42.000  
E03  29745633.054   156314129.236       -3691.872          42.000    29745660.012   119773140.027       -2828.944          46.000  
R15  24739658.442   132201630.757       -3358.692          49.000    24739659.100   102823353.711       -2612.435          44.000  
R17  25047610.871   134034960.482         -79.603          48.000    25047612.634   104249511.456         -61.936          45.000  
R18  25289919.559   134999499.982        2406.708          49.000    25289928.178   104999596.088        1871.883          48.000  
E07  26652755.843   140061335.190         563.983          48.000    26652760.191   107319767.799         432.152          51.000  
E27  29204423.134   153470488.651        1313.160          42.000    29204439.330   117594439.271        1006.206          45.000  
G30  27763802.310   145899914.375       -3385.077          38.000    27763808.039   113688353.366       -2637.749          38.000  
E30  26023571.579   136755230.342        -479.013          49.000    26023575.614   104786737.861        -367.005          52.000  
G14  26562749.761   139588421.414       -3968.109          44.000    26562748.891   108770364.661       -3092.002          38.000  
E02  27159541.639   142724626.853       -2638.449          49.000    27159544.406   109360619.361       -2021.664          52.000  
G22  24308145.143   127740538.660       -3461.379          48.000                                                                  
G17  24174630.339   127038896.494       -1681.883          47.000    24174628.975    98991550.603       -1310.495          44.000  
E18  23715576.471   124626632.343       -4235.655          46.000                                                                  
> 2024 04 16 22 21 00.0080000  0 26                     
G13  22991932.788   120823524.582       -2495.711          49.000                                                                  
G15  23091869.365   121348654.498        -755.505          48.000    23091868.131    94557441.416        -588.617          47.000  
G19  23674058.205   124408472.394        -383.357          46.000                                                                  
G24  24654500.069   129560436.229        1230.383          47.000    24654500.755   100956284.676         958.640          45.000  
R09  24445333.519   130536932.105        1161.129          47.000    24445340.904   101528824.647         903.271          49.000  
R05  24096979.437   128812290.459       -4896.543          52.000    24096986.365   100187191.677       -3808.351          46.000  
R16  22588851.208   120665762.195       -1393.501          51.000    22588851.583    93851541.247       -1083.858          49.000  
R06  22419954.279   119637285.978        -766.932          42.000                                                                  
R07  24975119.279   133693627.946        2625.154          37.000    24975116.323   103984030.401        2041.887          42.000  
G12  25343708.678   133182195.584        1552.717          47.000    25343714.578   103778611.223        1209.841          43.000  
E08  26250000.008   137944832.053       -2227.005          47.000    26250004.527   105698053.880       -1706.332          53.000  
S31  41242880.336   216732762.846        -779.594          43.000  
S33  42194864.397   221735451.533        -780.241          42.000  
E03  29766721.026   156424940.531       -3695.889          42.000    29766748.139   119858046.045       -2831.856          46.000  
R15  24758511.895   132302382.382       -3358.460          49.000    24758513.743   102901716.129       -2612.217          43.000  
R17  25048122.838   134037701.250        -103.480          48.000    25048124.009   104251643.367         -80.428          42.000  
R18  25276419.473   134927433.386        2397.246          49.000    25276427.370   104943544.725        1864.532          48.000  
E07  26649567.517   140044577.806         552.752          48.000    26649571.383   107306927.769         423.636          51.000  
E27  29196941.531   153431176.546        1307.302          42.000    29196957.947   117564317.478        1001.570          46.000  
G30  27783133.860   146001500.767       -3388.001          38.000    27783139.044   113767511.626       -2639.471          38.000  
E30  26026330.807   136769726.289        -487.751          49.000    26026333.975   104797845.231        -373.731          52.000  
G14  26585401.958   139707461.976       -3968.169          45.000    26585401.841   108863123.643       -3091.867          38.000  
E02  27174613.405   142803827.631       -2642.028          49.000    27174615.717   109421305.717       -2024.388          52.000  
G22  24327925.061   127844483.619       -3468.752          48.000                                                                  
G17  24184290.198   127089662.010       -1702.803          47.000    24184290.851    99031108.209       -1327.013          45.000  
E18  23739818.390   124754024.264       -4257.578          46.000                                                                  
> 2024 04 16 22 21 30.0080000  0 26                     
G13  23006227.770   120898643.784       -2512.641          49.000                                                                  
G15  23096233.843   121371591.141        -774.072          48.000    23096232.646    94575314.109        -603.094          46.000  
G19  23676302.962   124420269.162        -403.537          46.000                                                                  
G24  24647481.530   129523556.559        1227.597          46.000    24647482.823   100927547.344         956.753          45.000  
R09  24438830.743   130502197.729        1153.915          49.000    24438835.703   101501809.332         897.585          47.000  
R05  24124489.171   128959339.787       -4907.184          51.000    24124497.150   100301562.717       -3816.669          48.000  
R16  22596696.809   120707669.950       -1400.709          51.000    22596696.429    93884136.230       -1089.490          48.000  
R06  22424342.757   119660703.200        -794.844          42.000                                                                  
R07  24960450.592   133615107.107        2608.930          35.000    24960446.239   103922958.796        2029.299          42.000  
G12  25334871.924   133135759.499        1542.764          47.000    25334877.919   103742427.585        1202.060          43.000  
E08  26262747.586   138011816.596       -2239.066          48.000    26262751.253   105749379.657       -1715.699          53.000  
S31  41247329.808   216756146.875        -779.869          44.000  
S33  42199318.913   221758859.726        -780.573          42.000  
E03  29787831.088   156535868.320       -3699.537          42.000    29787858.419   119943041.277       -2834.712          47.000  
R15  24777365.553   132403129.997       -3358.324          48.000    24777366.776   102980075.480       -2611.950          44.000  
R17  25048769.031   134041157.669        -127.310          48.000    25048769.434   104254331.886         -98.931          41.000  
R18  25262972.375   134855654.890        2387.501          49.000    25262980.357   104887717.427        1857.030          48.000  
E07  26646441.934   140028155.020         541.665          48.000    26646446.079   107294344.139         415.073          52.000  
E27  29189494.839   153392047.633        1301.032          41.000    29189511.427   117534336.055         996.893          46.000  
G30  27802478.849   146103165.653       -3390.398          35.000    27802485.375   113846731.060       -2641.742          38.000  
E30  26029138.052   136784482.179        -496.320          49.000    26029141.620   104809151.796        -380.387          51.000  
G14  26608054.048   139826500.698       -3968.117          45.000    26608054.666   108955881.216       -3091.937          39.000  
E02  27189704.655   142883134.890       -2645.446          49.000    27189707.184   109482073.675       -2027.069          51.000  
G22  24347746.231   127948648.612       -3475.998          46.000                                                                  
G17  24194070.326   127141054.305       -1723.617          48.000    24194069.402    99071154.275       -1343.171          44.000  
E18  23764186.044   124882075.662       -4279.435          47.000                                                                  
> 2024 04 16 22 22 00.0080000  0 26                     
G13  23020619.556   120974272.816       -2529.635          48.000                                                                  
G15  23100704.990   121395088.325        -792.719          48.000    23100703.843    94593623.578        -617.639          46.000  
G19  23678664.385   124432677.064        -423.838          46.000                                                                  
G24  24640478.451   129486755.948        1225.219          46.000    24640480.496   100898871.652         954.625          46.000  
R09  24432367.192   130467682.420        1146.742          50.000    24432370.975   101474964.390         892.008          46.000  
R05  24152057.521   129106709.991       -4917.731          50.000    24152067.336   100416183.241       -3824.858          49.000  
R16  22604582.845   120749794.309       -1407.926          51.000    22604582.831    93916899.687       -1095.041          49.000  
R06  22428888.041   119684955.643        -822.418          43.000                                                                  
R07  24945873.066   133537068.048        2593.378          35.000    24945866.553   103862261.906        2017.048          42.000  
G12  25326091.328   133089618.355        1533.008          47.000    25326097.011   103706473.744        1194.547          42.000  
E08  26275562.285   138079164.812       -2251.154          47.000    26275566.979   105800984.092       -1724.814          52.000  
S31  41251782.013   216779543.613        -780.131          44.000  
S33  42203775.869   221782280.084        -780.835          42.000  
E03  29808962.941   156646910.510       -3703.256          42.000    29808990.053   120028124.111       -2837.505          46.000  
R15  24796218.744   132503872.267       -3358.068          48.000    24796218.746   103058430.600       -2611.871          44.000  
R17  25049549.095   134045330.987        -151.129          49.000    25049548.211   104257577.982        -117.632          40.000  
R18  25249580.015   134784168.375        2377.894          49.000    25249588.862   104832117.218        1849.510          48.000  
E07  26643380.442   140012067.411         530.430          47.000    26643384.767   107282017.318         406.555          52.000  
E27  29182082.286   153353101.259        1295.222          41.000    29182099.639   117504494.524         992.303          46.000  
G30  27821840.378   146204908.333       -3393.131          37.000    27821845.828   113926011.089       -2643.596          37.000  
E30  26031994.708   136799496.430        -504.860          48.000    26031998.317   104820656.294        -386.723          51.000  
G14  26630705.054   139945535.324       -3967.879          45.000    26630707.210   109048635.616       -3091.760          40.000  
E02  27204815.762   142962546.621       -2648.870          49.000    27204818.762   109542921.667       -2029.653          51.000  
G22  24367610.215   128053030.553       -3483.126          47.000                                                                  
G17  24203969.545   127193071.510       -1744.603          49.000    24203967.815    99111687.259       -1359.213          44.000  
E18  23788677.438   125010780.972       -4301.055          47.000                                                                  
> 2024 04 16 22 22 30.0080000  0 26                     
G13  23035106.824   121050406.279       -2545.985          49.000                                                                  
G15  23105282.488   121419141.747        -810.803          49.000    23105281.377    94612366.493        -631.580          46.000  
G19  23681140.228   124445692.124        -443.793          45.000                                                                  
G24  24633490.552   129450030.875        1223.141          46.000    24633491.915   100870254.796         953.168          46.000  
R09  24425943.031   130433380.377        1140.112          49.000    24425946.063   101448285.327         886.577          46.000  
R05  24179684.938   129254392.027       -4927.708          51.000    24179694.612   100531046.308       -3832.554          48.000  
R16  22612507.598   120792129.612       -1414.516          51.000    22612508.317    93949827.238       -1100.140          50.000  
R06  22433588.559   119710038.371        -849.540          43.000                                                                  
R07  24931383.834   133459510.182        2577.287          34.000    24931378.052   103801939.415        2004.568          42.000  
G12  25317366.435   133043768.269        1523.756          45.000    25317370.884   103670746.725        1187.017          43.000  
E08  26288446.173   138146871.585       -2262.547          47.000    26288451.104   105852863.266       -1733.743          52.000  
S31  41256236.012   216802949.513        -779.995          44.000  
S33  42208234.059   221805708.937        -780.950          42.000  
E03  29830114.932   156758061.230       -3706.761          43.000    29830142.253   120113290.129       -2840.037          46.000  
R15  24815069.789   132604603.570       -3357.346          49.000    24815068.497   103136777.217       -2611.213          43.000  
R17  25050463.550   134050218.385        -174.559          49.000    25050461.103   104261379.498        -135.858          41.000  
R18  25236241.425   134712973.810        2368.357          47.000    25236250.715   104776744.114        1842.124          47.000  
E07  26640381.803   139996311.789         519.804          48.000    26640386.488   107269944.884         398.330          52.000  
E27  29174706.020   153314333.111        1289.532          42.000    29174721.955   117474789.538         988.025          47.000  
G30  27841215.518   146306724.155       -3394.718          38.000    27841220.665   114005348.143       -2645.357          36.000  
E30  26034899.343   136814763.604        -512.930          48.000    26034903.489   104832354.602        -393.102          51.000  
G14  26653354.149   140064559.884       -3967.004          44.000    26653357.159   109141382.177       -3090.973          40.000  
E02  27219946.081   143042056.982       -2651.786          49.000    27219948.978   109603845.253       -2031.944          51.000  
G22  24387513.311   128157622.536       -3489.760          48.000                                                                  
G17  24213985.622   127245708.057       -1764.612          47.000    24213984.250    99152702.849       -1375.142          44.000  
E18  23813291.024   125140130.921       -4322.131          46.000                                                                  
> 2024 04 16 22 23 00.0080000  0 26                     
G13  23049689.787   121127036.525       -2562.703          50.000                                                                  
G15  23109963.722   121443744.863        -829.413          48.000    23109962.992    94631537.748        -646.271          46.000  
G19  23683730.205   124459308.484        -463.951          45.000                                                                  
G24  24626515.427   129413375.606        1220.577          46.000    24626516.766   100841692.363         950.831          46.000  
R09  24419556.945   130399284.881        1132.900          47.000    24419561.226   101421766.926         881.274          47.000  
R05  24207368.240   129402374.800       -4937.801          50.000    24207378.177   100646143.312       -3840.440          48.000  
R16  22620471.366   120834667.525       -1421.418          52.000    22620471.454    93982912.347       -1105.438          51.000  
R06  22438443.265   119735944.571        -877.377          42.000                                                                  
R07  24916976.867   133382430.900        2560.634          34.000    24916979.356   103741988.973        1992.081          45.000  
G12  25308695.379   132998202.831        1514.075          46.000    25308699.892   103635241.490        1179.635          43.000  
E08  26301397.439   138214929.688       -2274.550          47.000    26301402.094   105905011.611       -1742.709          52.000  
S31  41260690.094   216826356.161        -780.361          44.000  
S33  42212692.841   221829139.644        -781.140          42.000  
E03  29851286.661   156869312.389       -3710.138          44.000    29851313.701   120198533.081       -2842.658          46.000  
R15  24833915.325   132705316.721       -3356.788          46.000    24833915.990   103215109.756       -2610.854          44.000  
R17  25051508.969   134055814.971        -198.453          48.000    25051508.054   104265732.592        -154.266          43.000  
R18  25222958.552   134642068.856        2358.486          48.000    25222966.392   104721596.248        1834.347          45.000  
E07  26637445.444   139980882.791         508.847          48.000    26637450.431   107258122.719         389.878          52.000  
E27  29167359.969   153275736.541        1283.744          41.000    29167376.837   117445216.028         983.674          47.000  
G30  27860602.516   146408606.353       -3397.300          39.000    27860608.846   114084736.949       -2647.287          38.000  
E30  26037851.078   136830276.228        -521.153          48.000    26037855.407   104844240.971        -399.345          51.000  
G14  26676000.537   140183566.354       -3966.656          45.000    26676003.213   109234114.642       -3090.959          42.000  
E02  27235094.103   143121658.110       -2654.911          50.000    27235096.704   109664838.371       -2034.367          52.000  
G22  24407455.263   128262415.784       -3496.496          47.000                                                                  
G17  24224117.373   127298956.392       -1785.139          46.000    24224116.799    99194195.134       -1391.136          44.000  
E18  23838026.159   125270114.048       -4343.148          46.000                                                                  
> 2024 04 16 22 23 30.0080000  0 26                     
G13  23064366.436   121204162.081       -2579.189          50.000                                                                  
G15  23114749.973   121468897.807        -847.607          48.000    23114749.609    94651137.447        -660.614          46.000  
G19  23686436.522   124473526.626        -484.093          46.000                                                                  
G24  24619553.330   129376790.546        1218.117          46.000    24619554.899   100813184.604         949.398          46.000  
R09  24413210.189   130365394.172        1126.169          49.000    24413215.022   101395407.771         875.882          49.000  
R05  24235106.915   129550653.245       -4947.623          50.000    24235116.964   100761470.295       -3848.029          47.000  
R16  22628472.277   120877405.880       -1428.019          52.000    22628472.780    94016153.375       -1110.739          51.000  
R06  22443451.962   119762673.655        -904.906          42.000                                                                  
R07  24902668.345   133305833.172        2544.673          35.000    24902670.185   103682413.193        1979.443          44.000  
G12  25300079.123   132952921.906        1504.568          47.000    25300083.659   103599957.955        1172.188          44.000  
E08  26314415.741   138283337.833       -2286.152          47.000    26314419.934   105957428.171       -1751.653          52.000  
S31  41265144.640   216849764.751        -780.621          44.000  
S33  42217151.613   221852571.450        -780.669          42.000  
E03  29872476.872   156980661.926       -3713.234          44.000    29872504.337   120283851.364       -2845.257          45.000  
R15  24852759.958   132806010.077       -3356.189          47.000    24852758.886   103293426.883       -2610.367          44.000  
R17  25052686.484   134062121.681        -222.152          46.000    25052688.194   104270637.998        -172.722          44.000  
R18  25209730.147   134571457.582        2348.689          48.000    25209737.867   104666676.779        1826.871          46.000  
E07  26634571.818   139965781.120         497.823          48.000    26634576.666   107246551.346         381.551          52.000  
E27  29160047.224   153237311.107        1278.008          40.000    29160064.188   117415773.623         979.105          46.000  
G30  27880002.265   146510554.271       -3399.417          39.000    27880009.439   114164176.979       -2648.551          39.000  
E30  26040849.430   136846032.832        -529.339          47.000    26040853.984   104856314.285        -405.645          51.000  
G14  26698643.358   140302552.654       -3965.834          46.000    26698645.478   109326831.361       -3090.308          44.000  
E02  27250259.113   143201348.086       -2657.849          50.000    27250261.036   109725899.547       -2036.481          51.000  
G22  24427434.522   128367408.102       -3503.150          47.000                                                                  
G17  24234366.457   127352815.166       -1805.688          46.000    24234364.648    99236163.105       -1407.216          42.000  
E18  23862880.304   125400724.934       -4364.139          45.000                                                                  
> 2024 04 16 22 24 00.0080000  0 26                     
G13  23079136.431   121281781.070       -2595.850          49.000                                                                  
G15  23119641.290   121494599.258        -866.248          48.000    23119640.777    94671164.536        -674.982          47.000  
G19  23689257.747   124488345.809        -504.452          47.000                                                                  
G24  24612604.398   129340275.736        1215.489          46.000    24612605.844   100784731.620         947.237          46.000  
R09  24406901.507   130331706.876        1119.174          49.000    24406906.314   101369206.839         870.507          49.000  
R05  24262901.048   129699222.576       -4957.425          51.000    24262910.334   100877023.500       -3855.720          47.000  
R16  22636509.907   120920342.007       -1434.887          52.000    22636509.730    94049548.180       -1116.071          50.000  
R06  22448614.880   119790224.284        -932.260          42.000                                                                  
R07  24888451.144   133229719.787        2529.185          38.000    24888451.072   103623214.111        1966.809          45.000  
G12  25291516.103   132907924.691        1494.884          46.000    25291521.161   103564895.508        1164.847          44.000  
E08  26327499.136   138352094.510       -2298.010          47.000    26327504.052   106010111.799       -1760.802          53.000  
S31  41269598.842   216873172.106        -780.619          44.000  
S33  42221610.519   221876002.661        -781.321          42.000  
E03  29893685.425   157092107.615       -3716.819          44.000    29893713.252   120369243.271       -2847.808          45.000  
R15  24871600.634   132906682.254       -3355.691          47.000    24871597.935   103371727.515       -2610.113          43.000  
R17  25053996.056   134069139.395        -246.200          44.000    25053999.783   104276096.426        -191.261          42.000  
R18  25196557.633   134501143.492        2338.453          48.000    25196565.634   104611988.546        1818.643          46.000  
E07  26631760.395   139951007.145         486.624          48.000    26631765.443   107235231.070         372.927          52.000  
E27  29152767.198   153199055.941        1272.030          41.000    29152784.212   117386461.717         974.521          47.000  
G30  27899414.373   146612566.933       -3401.712          42.000    27899421.015   114243667.420       -2650.892          38.000  
E30  26043894.167   136862031.586        -537.679          48.000    26043898.503   104868573.141        -411.998          52.000  
G14  26721280.968   140421516.465       -3965.541          45.000    26721283.045   109419530.504       -3089.786          44.000  
E02  27265439.627   143281124.779       -2661.004          50.000    27265441.954   109787027.184       -2038.911          51.000  
G22  24447451.181   128472595.757       -3509.891          47.000                                                                  
G17  24244730.442   127407282.481       -1826.020          45.000    24244729.107    99278605.230       -1422.891          42.000  
E18  23887852.754   125531957.876       -4385.007          45.000                                                                  
> 2024 04 16 22 24 30.0080000  0 26                     
G13  23094002.585   121359900.185       -2612.201          50.000                                                                  
G15  23124637.761   121520857.664        -884.521          48.000    23124637.645    94691625.620        -689.349          47.000  
G19  23692193.587   124503774.253        -524.414          46.000                                                                  
G24  24605671.371   129303840.190        1213.273          46.000    24605671.871   100756340.397         945.290          46.000  
R09  24400633.082   130298230.324        1112.474          50.000    24400637.070   101343169.805         865.170          49.000  
R05  24290748.817   129848086.349       -4966.870          50.000    24290759.598   100992805.658       -3863.135          48.000  
R16  22644586.008   120963482.927       -1441.331          52.000    22644585.444    94083102.296       -1121.063          50.000  
R06  22453933.743   119818604.288        -959.990          42.000                                                                  
R07  24874327.855   133154103.292        2512.235          36.000    24874325.296   103564401.378        1954.073          45.000  
G12  25283008.144   132863219.457        1485.471          46.000    25283012.997   103530060.598        1157.561          44.000  
E08  26340651.101   138421207.055       -2309.733          48.000    26340655.777   106063068.098       -1769.690          53.000  
S31  41274054.719   216896588.014        -780.489          44.000  
S33  42226070.838   221899441.984        -781.471          42.000  
E03  29914913.200   157203656.061       -3720.023          43.000    29914941.513   120454713.884       -2850.328          45.000  
R15  24890437.105   133007340.449       -3354.938          48.000    24890436.232   103450017.308       -2609.320          45.000  
R17  25055444.048   134076877.922        -270.030          44.000    25055445.244   104282115.421        -209.904          43.000  
R18  25183443.165   134431139.281        2328.314          48.000    25183451.706   104557541.266        1810.946          47.000  
E07  26629013.015   139936570.142         475.697          47.000    26629018.197   107224168.996         364.429          52.000  
E27  29145520.441   153160979.186        1266.284          41.000    29145538.001   117357286.477         970.296          47.000  
G30  27918840.216   146714652.222       -3404.086          41.000    27918846.510   114323214.439       -2653.043          38.000  
E30  26046986.226   136878279.598        -545.679          48.000    26046990.172   104881022.984        -418.153          51.000  
G14  26743917.048   140540464.348       -3964.514          45.000    26743917.687   109512217.270       -3089.098          42.000  
E02  27280638.645   143360994.889       -2663.805          50.000    27280640.508   109848226.388       -2041.089          51.000  
G22  24467505.393   128577984.301       -3516.056          47.000                                                                  
G17  24255212.540   127462365.066       -1846.199          45.000    24255212.194    99321526.804       -1438.536          44.000  
E18  23912943.006   125663816.038       -4405.496          44.000                                                                  
> 2024 04 16 22 25 00.0080000  0 26                     
G13  23108962.950   121438516.385       -2629.175          49.000                                                                  
G15  23129740.730   121547670.879        -903.412          48.000    23129739.935    94712519.013        -703.925          46.000  
G19  23695244.223   124519810.469        -544.968          47.000                                                                  
G24  24598753.096   129267482.570        1210.208          47.000    24598753.255   100728009.889         943.134          46.000  
R09  24394402.407   130264961.307        1105.026          50.000    24394406.919   101317294.171         859.528          48.000  
R05  24318651.222   129997237.711       -4976.756          50.000    24318662.120   101108811.483       -3870.798          48.000  
R16  22652699.299   121006824.368       -1448.344          51.000    22652699.544    94116812.352       -1126.374          50.000  
R06  22459406.575   119847811.157        -987.715          42.000                                                                  
R07  24860294.938   133078985.017        2495.231          39.000    24860291.719   103505976.145        1940.844          45.000  
G12  25274555.525   132818804.337        1475.460          46.000    25274559.737   103495451.738        1149.497          42.000  
E08  26353870.526   138490672.438       -2321.680          48.000    26353874.705   106116294.773       -1778.974          53.000  
S31  41278511.820   216920009.539        -781.157          44.000  
S33  42230532.580   221922887.127        -782.036          42.000  
E03  29936160.053   157315303.558       -3723.366          42.000    29936188.610   120540260.397       -2852.910          44.000  
R15  24909270.419   133107981.735       -3354.734          47.000    24909270.631   103528293.894       -2609.180          45.000  
R17  25057025.805   134085336.603        -294.304          44.000    25057025.186   104288694.489        -228.845          42.000  
R18  25170387.791   134361447.292        2317.490          49.000    25170395.528   104503336.805        1802.515          48.000  
E07  26626329.694   139922469.084         464.064          47.000    26626334.835   107213364.323         355.622          52.000  
E27  29138307.620   153123078.603        1260.125          41.000    29138325.503   117328246.241         965.520          47.000  
G30  27938279.936   146816807.714       -3406.650          41.000    27938285.929   114402816.148       -2654.790          38.000  
E30  26050125.031   136894773.719        -554.209          48.000    26050128.764   104893661.401        -424.610          51.000  
G14  26766548.074   140659392.599       -3964.149          45.000    26766549.000   109604888.779       -3089.054          42.000  
E02  27295854.404   143440954.874       -2667.164          50.000    27295856.247   109909494.464       -2043.603          50.000  
G22  24487597.575   128683569.412       -3523.053          46.000                                                                  
G17  24265810.835   127518059.509       -1866.863          46.000    24265810.005    99364925.180       -1454.679          45.000  
E18  23938153.656   125796292.288       -4426.388          45.000                                                                  
> 2024 04 16 22 25 30.0080000  0 26                     
G13  23124017.650   121517629.809       -2645.312          49.000                                                                  
G15  23134949.064   121575040.672        -921.460          48.000    23134947.720    94733846.112        -718.134          46.000  
G19  23698412.294   124536456.585        -564.973          47.000                                                                  
G24  24591849.248   129231205.514        1207.922          47.000    24591849.727   100699742.169         941.365          46.000  
R09  24388211.399   130231901.021        1098.611          50.000    24388215.261   101291580.861         854.448          48.000  
R05  24346606.992   130146674.274       -4985.863          50.000    24346618.599   101225039.093       -3877.775          49.000  
R16  22660850.611   121050366.817       -1454.721          51.000    22660850.980    94150678.738       -1131.478          50.000  
R06  22465035.186   119877846.097       -1014.814          43.000                                                                  
R07  24846352.059   133004370.818        2478.714          38.000    24846352.413   103447943.035        1928.006          45.000  
G12  25266159.160   132774681.460        1465.739          46.000    25266162.076   103461070.603        1142.263          41.000  
E08  26367157.168   138560491.632       -2333.228          49.000    26367161.005   106169792.536       -1787.738          52.000  
S31  41282970.186   216943438.155        -781.036          44.000  
S33  42234995.117   221946339.054        -781.609          42.000  
E03  29957426.444   157427050.382       -3726.589          43.000    29957454.767   120625883.004       -2855.197          45.000  
R15  24928101.370   133208607.000       -3353.909          48.000    24928102.221   103606558.033       -2608.482          46.000  
R17  25058741.585   134094518.414        -317.952          44.000    25058742.635   104295836.077        -247.430          44.000  
R18  25157391.680   134292073.587        2307.066          50.000    25157398.848   104449379.903        1794.352          47.000  
E07  26623709.912   139908706.855         453.178          46.000    26623716.016   107202819.279         347.247          52.000  
E27  29131130.861   153085355.940        1254.663          42.000    29131146.994   117299342.315         961.208          47.000  
G30  27957733.281   146919034.847       -3408.684          42.000    27957739.093   114482473.740       -2656.664          39.000  
E30  26053310.800   136911514.614        -562.109          48.000    26053314.570   104906488.910        -430.682          52.000  
G14  26789175.196   140778301.504       -3963.278          44.000    26789177.243   109697545.221       -3088.289          41.000  
E02  27311087.031   143521005.076       -2669.787          50.000    27311089.354   109970831.682       -2045.624          50.000  
G22  24507727.005   128789351.210       -3529.025          46.000                                                                  
G17  24276526.304   127574366.547       -1887.187          47.000    24276525.531    99408800.865       -1470.572          45.000  
E18  23963481.245   125929383.429       -4446.486          46.000                                                                  
> 2024 04 16 22 26 00.0080000  0 26                     
G13  23139165.515   121597231.239       -2661.627          49.000                                                                  
G15  23140261.850   121602958.764        -939.941          48.000    23140260.803    94755600.426        -732.263          47.000  
G19  23701694.768   124553704.937        -585.182          46.000                                                                  
G24  24584959.379   129195001.451        1205.335          46.000    24584960.338   100671531.314         939.212          46.000  
R09  24382056.244   130199039.847        1091.751          48.000    24382060.550   101266022.427         849.294          47.000  
R05  24374614.175   130296382.688       -4994.938          51.000    24374624.882   101341478.127       -3884.935          47.000  
R16  22669037.369   121094099.908       -1461.110          52.000    22669037.659    94184693.408       -1136.471          50.000  
R06  22470817.287   119908700.168       -1042.353          42.000                                                                  
R07  24832500.599   132930255.521        2462.073          39.000    24832506.944   103390297.958        1914.864          45.000  
G12  25257817.048   132730842.597        1456.483          46.000    25257819.345   103426910.778        1134.867          41.000  
E08  26380508.754   138630655.340       -2344.607          49.000    26380512.615   106223554.280       -1796.549          52.000  
S31  41287428.116   216966864.982        -780.920          44.000  
S33  42239457.583   221969789.680        -781.924          42.000  
E03  29978708.736   157538886.437       -3729.357          43.000    29978738.099   120711574.007       -2857.647          45.000  
R15  24946926.589   133309206.927       -3352.924          46.000    24946927.329   103684802.531       -2607.877          45.000  
R17  25060591.591   134104416.272        -342.040          42.000    25060590.793   104303534.487        -265.925          40.000  
R18  25144453.760   134223014.058        2296.562          49.000    25144461.303   104395667.341        1786.117          46.000  
E07  26621154.390   139895276.159         442.073          46.000    26621160.172   107192528.256         338.788          52.000  
E27  29123984.758   153047802.637        1248.787          43.000    29124000.061   117270568.196         956.748          47.000  
G30  27977198.549   147021325.025       -3411.129          42.000    27977204.035   114562180.410       -2657.836          38.000  
E30  26056542.153   136928492.855        -570.073          49.000    26056545.558   104919498.274        -436.790          52.000  
G14  26811797.388   140897181.047       -3962.311          45.000    26811798.112   109790178.787       -3087.664          41.000  
E02  27326335.873   143601135.683       -2672.406          50.000    27326337.893   110032230.503       -2047.663          51.000  
G22  24527891.983   128895318.741       -3535.494          44.000                                                                  
G17  24287356.375   127631276.641       -1907.025          46.000    24287355.195    99453146.475       -1486.039          45.000  
E18  23988922.850   126063075.996       -4466.296          46.000                                                                  
> 2024 04 16 22 26 30.0080000  0 26                     
G13  23154405.837   121677320.832       -2677.765          49.000                                                                  
G15  23145678.823   121631426.437        -958.112          48.000    23145678.425    94777782.978        -746.442          47.000  
G19  23705091.655   124571556.892        -605.039          45.000                                                                  
G24  24578084.186   129158872.938        1203.055          45.000    24578085.295   100643379.301         937.452          46.000  
R09  24375939.938   130166378.701        1085.342          49.000    24375943.556   101240619.600         844.257          47.000  
R05  24402671.450   130446360.450       -5003.642          50.000    24402681.771   101458126.656       -3891.808          47.000  
R16  22677260.293   121138023.835       -1467.256          52.000    22677260.559    94218856.497       -1141.337          50.000  
R06  22476753.274   119940374.159       -1069.479          43.000                                                                  
R07  24818752.345   132856644.465        2445.384          41.000    24818756.689   103333045.048        1901.854          47.000  
G12  25249528.666   132687289.182        1447.113          46.000    25249530.912   103392973.365        1127.334          41.000  
E08  26393926.287   138701164.421       -2356.119          49.000    26393929.865   106277580.652       -1805.285          52.000  
S31  41291886.141   216990291.749        -780.953          44.000  
S33  42243920.110   221993240.460        -781.974          42.000  
E03  30000007.910   157650811.911       -3732.307          42.000    30000038.570   120797333.527       -2859.667          46.000  
R15  24965748.550   133409782.381       -3352.195          47.000    24965747.712   103763027.956       -2606.978          44.000  
R17  25062571.259   134115033.545        -365.626          33.000    25062574.057   104311792.498        -284.730          39.000  
R18  25131575.526   134154274.765        2285.826          49.000    25131584.249   104342203.831        1777.875          48.000  
E07  26618661.882   139882179.730         431.071          46.000    26618667.708   107182493.375         330.277          52.000  
E27  29116870.039   153010420.297        1243.318          43.000    29116885.993   117241925.070         952.694          47.000  
G30  27996676.027   147123679.651       -3412.930          42.000    27996680.998   114641937.315       -2659.399          37.000  
E30  26059818.548   136945709.068        -577.873          49.000    26059821.776   104932689.969        -442.738          52.000  
G14  26834413.950   141016031.362       -3961.177          46.000    26834413.799   109882789.523       -3086.505          43.000  
E02  27341599.149   143681346.993       -2675.153          49.000    27341601.683   110093691.151       -2049.775          51.000  
G22  24548091.608   129001470.864       -3541.351          43.000                                                                  
G17  24298300.059   127688790.017       -1927.237          45.000    24298299.860    99497962.180       -1501.663          45.000  
E18  24014476.345   126197366.674       -4486.347          45.000                                                                  
> 2024 04 16 22 27 00.0080000  0 26                     
G13  23169738.142   121757893.161       -2693.939          49.000                                                                  
G15  23151200.344   121660439.809        -976.385          48.000    23151199.406    94800390.787        -760.828          47.000  
G19  23708602.063   124590008.817        -625.282          44.000                                                                  
G24  24571222.910   129122816.795        1200.637          45.000    24571223.553   100615283.708         935.420          46.000  
R09  24369860.320   130133912.615        1078.707          49.000    24369862.878   101215368.456         838.918          47.000  
R05  24430777.168   130596598.829       -5012.442          50.000    24430787.690   101574977.858       -3898.475          46.000  
R16  22685517.573   121182132.767       -1473.495          52.000    22685517.257    94253163.509       -1146.035          50.000  
R06  22482841.730   119972863.551       -1096.656          43.000                                                                  
R07  24805098.311   132783537.608        2428.252          45.000    24805100.110   103276184.283        1888.697          47.000  
G12  25241294.170   132644017.345        1437.430          46.000    25241297.227   103359255.375        1120.294          41.000  
E08  26407408.440   138772013.957       -2367.477          48.000    26407411.952   106331867.895       -1813.967          52.000  
S31  41296342.831   217013714.068        -781.190          44.000  
S33  42248381.497   222016685.930        -781.703          42.000  
E03  30021323.523   157762821.137       -3734.874          43.000    30021355.004   120883157.242       -2861.846          46.000  
R15  24984562.376   133510328.477       -3351.209          45.000    24984565.340   103841230.555       -2606.684          46.000  
R17  25064690.024   134126366.977        -389.941          41.000    25064691.243   104320607.482        -303.646          39.000  
R18  25118757.882   134085856.013        2275.045          49.000    25118765.884   104288989.661        1769.507          47.000  
E07  26616232.586   139869414.645         419.710          46.000    26616238.472   107172712.372         321.727          52.000  
E27  29109788.225   152973204.749        1237.613          44.000    29109803.693   117213409.745         948.237          47.000  
G30  28016164.596   147226094.384       -3415.041          41.000    28016169.370   114721741.044       -2661.230          37.000  
E30  26063138.823   136963158.116        -585.760          48.000    26063142.265   104946060.088        -448.742          52.000  
G14  26857023.423   141134846.935       -3960.057          45.000    26857023.345   109975373.187       -3085.688          45.000  
E02  27356877.333   143761633.547       -2677.659          49.000    27356879.644   110155209.446       -2051.721          51.000  
G22  24568325.505   129107801.593       -3547.777          43.000                                                                  
G17  24309358.876   127746901.337       -1947.231          46.000    24309357.602    99543243.796       -1517.409          45.000  
E18  24040142.759   126332246.419       -4505.878          45.000                                                                  
> 2024 04 16 22 27 30.0080000  0 26                     
G13  23185162.644   121838948.476       -2709.967          49.000                                                                  
G15  23156825.370   121689999.947        -994.604          48.000    23156824.166    94823424.621        -775.079          46.000  
G19  23712227.921   124609061.887        -645.309          46.000                                                                  
G24  24564375.688   129086835.190        1198.147          45.000    24564376.107   100587246.164         933.601          45.000  
R09  24363816.962   130101641.898        1072.276          49.000    24363819.969   101190269.254         834.027          48.000  
R05  24458931.818   130747094.480       -5020.998          51.000    24458942.277   101692029.107       -3905.219          47.000  
R16  22693809.299   121226426.581       -1479.779          52.000    22693808.265    94287614.282       -1150.765          48.000  
R06  22489082.882   120006168.932       -1124.156          43.000                                                                  
R07  24791537.076   132710939.885        2411.318          44.000    24791537.262   103219719.503        1875.411          47.000  
G12  25233113.313   132601028.698        1427.989          47.000    25233116.335   103325758.047        1112.667          41.000  
E08  26420955.580   138843204.357       -2378.857          48.000    26420959.223   106386416.322       -1822.726          52.000  
S31  41300799.456   217037133.465        -780.718          44.000  
S33  42252842.371   222040128.259        -781.687          42.000  
E03  30042655.492   157874913.909       -3738.072          43.000    30042686.896   120969045.021       -2864.005          46.000  
R15  25003373.209   133610845.808       -3350.246          46.000    25003374.842   103919410.752       -2605.895          44.000  
R17  25066943.996   134138419.345        -413.883          39.000    25066942.167   104329981.783        -321.949          38.000  
R18  25106003.609   134017763.457        2264.127          50.000    25106011.071   104236029.245        1760.961          50.000  
E07  26613866.678   139856983.270         408.575          46.000    26613872.951   107163187.077         313.146          52.000  
E27  29102738.051   152936157.204        1231.918          44.000    29102753.442   117185023.113         944.006          48.000  
G30  28035665.078   147328570.203       -3417.094          41.000    28035670.428   114801592.401       -2663.126          36.000  
E30  26066502.628   136980840.201        -593.367          48.000    26066506.975   104959608.769        -454.624          52.000  
G14  26879626.942   141253627.506       -3958.934          45.000    26879626.262   110067929.565       -3084.912          45.000  
E02  27372169.953   143841995.264       -2680.188          49.000    27372172.065   110216785.339       -2053.611          51.000  
G22  24588593.516   129214309.779       -3553.161          43.000                                                                  
G17  24320530.801   127805610.282       -1967.218          45.000    24320528.693    99588991.097       -1532.687          44.000  
E18  24065921.265   126467711.500       -4525.289          46.000                                                                  
> 2024 04 16 22 28 00.0080000  0 26                     
G13  23200680.547   121920493.609       -2726.526          50.000                                                                  
G15  23162556.558   121720114.830       -1013.269          49.000    23162554.226    94846890.734        -789.417          46.000  
G19  23715969.447   124628724.660        -665.695          45.000                                                                  
G24  24557544.512   129050937.234        1194.925          45.000    24557545.090   100559273.817         931.167          45.000  
R09  24357811.448   130069574.119        1065.462          50.000    24357816.426   101165327.884         828.739          50.000  
R05  24487134.290   130897851.509       -5029.712          50.000    24487144.959   101809283.581       -3911.903          47.000  
R16  22702136.781   121270911.783       -1486.175          52.000    22702136.517    94322213.954       -1155.857          50.000  
R06  22495478.410   120040297.926       -1151.416          42.000                                                                  
R07  24778073.749   132638863.084        2393.862          45.000    24778072.224   103163659.898        1861.839          47.000  
G12  25224988.564   132558331.226        1418.361          47.000    25224990.733   103292487.600        1105.307          41.000  
E08  26434569.426   138914742.943       -2390.513          48.000    26434572.552   106441231.520       -1831.668          52.000  
S31  41305256.971   217060556.994        -780.966          44.000  
S33  42257304.535   222063576.314        -781.701          42.000  
E03  30064004.296   157987096.864       -3741.045          43.000    30064036.068   121055001.991       -2866.501          46.000  
R15  25022180.634   133711341.926       -3349.646          44.000    25022180.046   103997574.453       -2605.155          44.000  
R17  25069334.566   134151200.364        -437.695          37.000    25069328.272   104339922.652        -340.748          34.000  
R18  25093310.174   133950009.802        2252.574          50.000    25093317.524   104183332.327        1752.045          49.000  
E07  26611567.189   139844894.884         397.060          46.000    26611572.426   107153924.593         304.393          52.000  
E27  29095720.350   152899285.728        1225.965          43.000    29095736.662   117156771.417         939.299          48.000  
G30  28055179.589   147431115.100       -3419.583          41.000    28055183.829   114881497.521       -2664.484          36.000  
E30  26069912.491   136998762.505        -601.554          47.000    26069917.146   104973341.507        -460.883          52.000  
G14  26902224.398   141372379.765       -3957.952          45.000    26902223.769   110160463.916       -3084.379          45.000  
E02  27387476.813   143922438.961       -2682.818          49.000    27387479.707   110278424.060       -2055.745          50.000  
G22  24608896.055   129321001.322       -3559.648          44.000                                                                  
G17  24331816.918   127864923.634       -1987.331          45.000    24331815.316    99635209.351       -1548.513          44.000  
E18  24091812.088   126603765.088       -4545.012          47.000                                                                  
> 2024 04 16 22 28 30.0080000  0 26                     
G13  23216290.105   122002520.747       -2742.431          50.000                                                                  
G15  23168391.150   121750777.852       -1031.427          49.000    23168389.914    94870783.943        -803.577          46.000  
G19  23719826.309   124648990.980        -685.771          46.000                                                                  
G24  24550728.119   129015117.252        1192.653          46.000    24550728.830   100531362.233         929.305          46.000  
R09  24351842.089   130037701.897        1058.966          49.000    24351847.867   101140538.629         823.754          49.000  
R05  24515384.726   131048858.812       -5037.911          51.000    24515395.086   101926732.692       -3918.241          47.000  
R16  22710498.404   121315580.211       -1492.138          51.000    22710498.690    94356956.086       -1160.485          50.000  
R06  22502027.039   120075243.136       -1178.635          42.000                                                                  
R07  24764705.880   132567304.514        2376.582          45.000    24764704.860   103108003.407        1848.347          48.000  
G12  25216917.078   132515918.399        1408.838          47.000    25216920.036   103259438.933        1097.836          42.000  
E08  26448246.731   138986622.252       -2401.894          48.000    26448250.899   106496307.799       -1840.325          52.000  
S31  41309714.137   217083978.902        -780.767          44.000  
S33  42261765.873   222087021.871        -781.530          42.000  
E03  30085368.489   158099361.851       -3743.686          43.000    30085400.568   121141021.834       -2868.524          46.000  
R15  25040980.599   133811809.463       -3348.570          44.000    25040982.292   104075715.925       -2604.488          44.000  
R17  25071858.337   134164704.389        -462.323          38.000    25071853.572   104350425.917        -359.365          38.000  
R18  25080679.423   133882592.856        2241.382          48.000    25080687.593   104130897.349        1743.324          49.000  
E07  26609330.701   139833144.027         385.736          46.000    26609336.332   107144920.748         295.632          52.000  
E27  29088736.896   152862583.675        1220.358          44.000    29088752.097   117128649.524         935.090          48.000  
G30  28074705.276   147533722.290       -3421.396          41.000    28074708.918   114961451.206       -2666.375          35.000  
E30  26073366.758   137016917.419        -609.231          47.000    26073371.845   104987252.486        -466.819          52.000  
G14  26924815.380   141491095.742       -3956.733          45.000    26924814.358   110252969.977       -3083.069          45.000  
E02  27402799.133   144002956.722       -2685.352          49.000    27402801.608   110340119.525       -2057.619          50.000  
G22  24629232.264   129427867.273       -3565.231          44.000                                                                  
G17  24343217.237   127924833.896       -2007.047          44.000    24343216.031    99681892.762       -1563.944          43.000  
E18  24117812.088   126740395.653       -4564.171          47.000                                                                  
> 2024 04 16 22 29 00.0080000  0 26                     
G13  23231990.791   122085032.462       -2758.527          48.000                                                                  
G15  23174331.250   121781992.995       -1049.725          49.000    23174329.844    94895107.413        -817.969          46.000  
G19  23723798.900   124669864.838        -706.000          46.000                                                                  
G24  24543927.367   128979380.324        1189.686          46.000    24543928.489   100503515.370         927.083          46.000  
R09  24345910.871   130006028.266        1052.193          49.000    24345915.563   101115903.831         818.379          50.000  
R05  24543681.480   131200116.161       -5046.242          51.000    24543692.426   102044376.260       -3924.705          48.000  
R16  22718894.947   121360434.644       -1498.386          51.000    22718895.881    94391842.885       -1165.333          50.000  
R06  22508729.528   120111007.719       -1206.204          42.000                                                                  
R07  24751435.880   132496271.994        2358.974          44.000    24751435.049   103052756.001        1834.730          47.000  
G12  25208900.343   132473794.580        1399.215          46.000    25208904.565   103226615.502        1090.287          42.000  
E08  26461989.858   139058845.525       -2413.244          47.000    26461995.072   106551647.640       -1849.141          52.000  
S31  41314171.194   217107401.764        -781.021          44.000  
S33  42266227.826   222110468.808        -781.841          42.000  
E03  30106748.773   158211711.471       -3746.389          43.000    30106781.296   121227106.583       -2870.566          46.000  
R15  25059775.601   133912251.487       -3347.707          41.000    25059777.196   104153837.587       -2603.838          43.000  
R17  25074510.935   134178936.749        -486.950          34.000    25074515.991   104361495.883        -378.623          42.000  
R18  25068115.041   133815521.061        2229.835          49.000    25068122.078   104078730.814        1734.298          49.000  
E07  26607159.787   139821735.872         374.524          46.000    26607165.584   107136179.485         286.966          52.000  
E27  29081785.065   152826055.048        1214.728          43.000    29081799.947   117100660.501         930.750          47.000  
G30  28094243.600   147636395.539       -3423.424          41.000    28094247.407   115041456.294       -2667.535          34.000  
E30  26076866.191   137035308.016        -617.048          47.000    26076871.378   105001344.045        -472.855          52.000  
G14  26947399.460   141609778.095       -3955.642          44.000    26947398.664   110345449.869       -3082.227          45.000  
E02  27418135.911   144083551.299       -2687.780          50.000    27418138.183   110401873.864       -2059.597          50.000  
G22  24649602.660   129534909.777       -3571.322          45.000                                                                  
G17  24354731.813   127985343.785       -2027.225          45.000    24354731.173    99729043.396       -1579.490          44.000  
E18  24143920.649   126877602.259       -4583.185          47.000                                                                  
> 2024 04 16 22 29 30.0080000  0 26                     
G13  23247782.754   122168020.941       -2774.225          48.000                                                                  
G15  23180374.651   121813753.678       -1067.902          48.000    23180374.028    94919855.957        -832.098          46.000  
G19  23727885.113   124691340.227        -726.066          45.000                                                                  
G24  24537142.210   128943720.924        1187.180          46.000    24537142.823   100475728.903         925.105          46.000  
R09  24340014.876   129974545.806        1045.989          50.000    24340019.170   101091417.652         813.629          49.000  
R05  24572022.336   131351612.313       -5053.914          50.000    24572034.534   102162205.561       -3930.916          49.000  
R16  22727325.481   121405466.747       -1504.221          51.000    22727326.424    94426867.875       -1169.950          50.000  
R06  22515584.321   120147584.264       -1232.864          42.000                                                                  
R07  24738261.625   132425762.485        2341.247          44.000    24738262.383   102997915.383        1820.933          47.000  
G12  25200938.101   132431953.677        1389.891          47.000    25200942.308   103194012.516        1082.945          42.000  
E08  26475797.719   139131405.359       -2424.362          48.000    26475802.648   106607245.364       -1857.625          52.000  
S31  41318627.719   217130820.930        -780.603          44.000  
S33  42270688.850   222133911.345        -781.443          43.000  
E03  30128143.560   158324137.689       -3748.945          44.000    30128176.983   121313250.091       -2872.454          47.000  
R15  25078567.082   134012661.323       -3346.550          46.000    25078567.397   104231934.163       -2602.937          44.000  
R17  25077306.240   134193892.094        -510.769          40.000    25077310.249   104373127.955        -397.292          40.000  
R18  25055614.544   133748792.299        2218.348          48.000    25055621.078   104026831.063        1725.512          48.000  
E07  26605052.461   139810665.032         363.220          46.000    26605058.860   107127696.689         278.315          52.000  
E27  29074865.283   152789693.283        1209.186          43.000    29074880.707   117072799.309         926.453          47.000  
G30  28113793.128   147739128.160       -3425.605          39.000    28113797.620                       -2668.684          32.000  
E30  26080409.147   137053926.701        -624.497          47.000    26080414.379   105015610.366        -478.524          52.000  
G14  26969975.533   141728418.843       -3954.208          43.000    26969975.727   110437897.330       -3081.089          46.000  
E02  27433485.311   144164214.915       -2690.043          49.000    27433487.714   110463681.099       -2061.153          49.000  
G22  24670004.126   129642120.036       -3576.650          45.000                                                                  
G17  24366358.203   128046444.778       -2046.847          45.000    24366357.802    99776654.658       -1594.727          44.000  
E18  24170137.203   127015373.477       -4601.860          47.000                                                                  
