     3.00           OBSERVATION DATA    M: Mixed            RINEX VERSION / TYPE
CONVBIN 2.4.3                           20240416 024442 UTC PGM / RUN BY / DATE 
format: u-blox UBX                                          COMMENT             
log: /home/regis/git/gnsspwv/obsdata/VERT00CHL/2024-04-16/VECOMMENT             
{self.marker}                                               MARKER NAME         
                                                            MARKER NUMBER       
GEODETIC                                                    MARKER TYPE         
{self.observer}     {self.institution}                      OBSERVER / AGENCY   
UNKNOWN             UBLOX-ZED-F9P                           REC # / TYPE / VERS 
UNKNOWN             TWIVSP6037L                             ANT # / TYPE        
  1713381.0000 -5047934.0000 -3490983.0000                  APPROX POSITION XYZ 
        0.0000        0.0000        0.0000                  ANTENNA: DELTA H/E/N
G    8 C1C L1C D1C S1C C2L L2L D2L S2L                      SYS / # / OBS TYPES 
R    8 C1C L1C D1C S1C C2C L2C D2C S2C                      SYS / # / OBS TYPES 
E    8 C1C L1C D1C S1C C7Q L7Q D7Q S7Q                      SYS / # / OBS TYPES 
S    4 C1C L1C D1C S1C                                      SYS / # / OBS TYPES 
  2024    04    16    02    30   00.0030000     GPS         TIME OF FIRST OBS   
  2024    04    16    02    44   30.0040000     GPS         TIME OF LAST OBS    
                                                            END OF HEADER       
> 2024 04 16 02 30 00.0030000  0 25                     
G25  21722250.417   114151242.5251        -72.913          49.000    21722250.511    88949039.6541        -56.830          45.000  
G18  25644839.420   134764533.9771       3134.560          32.000    25644853.168   105011375.0881       2442.635          46.000  
G24  24094701.449   126618519.2401      -4150.276          43.000    24094703.167    98663786.0651      -3233.786          41.000  
G32  24966756.167   131201145.0941      -2678.234          47.000    24966761.408   102234689.5011      -2086.848          47.000  
E09  27823734.341   146214720.6271      -1744.480          47.000    27823739.361   112034688.8541      -1336.644          50.000  
R16  21852762.589   116733504.9221      -2545.923          52.000    21852762.739    90792716.1891      -1980.078          48.000  
R09  20699785.630   110535717.8831        785.117          52.000    20699783.051    85972322.1121        610.691          50.000  
R10  23446422.789   124982647.1401       2643.275          35.000                                                                  
R20  22103382.288   118196690.2761       2866.913          37.000    22103389.949    91930819.8331       2229.899          36.000  
G29  21823055.822   114680973.4991        135.907          48.000    21823056.033    89361835.3951        105.951          45.000  
S33  40744191.931   214112154.2541       -708.420          47.000  
S31  39790838.705   209102325.9101       -707.834          45.000  
G28  23592939.681   123981736.6961       1953.014          46.000    23592939.243    96609120.2061       1521.738          45.000  
G11  23950539.816   125861206.2761      -2576.074          39.000    23950538.289    98073774.4361      -2007.182          43.000  
R18  23005235.097   122803580.7991      -4467.198          51.000    23005233.998    95513926.9681      -3474.534          47.000  
R19  20514137.428   109737130.7151      -1824.171          41.000    20514134.684    85350823.7351      -1418.946          49.000  
E04  27956064.381   146910094.2261      -3172.894          30.000    27956075.264                1      -2431.102          32.000  
G12  22651450.004   119034170.0061      -1652.753          50.000    22651446.091    92753891.9811      -1287.819          43.000  
E33  25559444.251   134315799.1051       1531.783          44.000    25559450.576   102917334.3841       1173.836          50.000  
E31  25736963.525   135248770.6581        656.415          46.000    25736968.538   103632242.4371        503.025          50.000  
G20  25472241.599   133857662.2731        903.140          39.000                                                                  
E14  20690021.529   108726915.6541      -2100.638          49.000    20690026.590    83310196.9071      -1609.618          53.000  
E26  25392907.749   133440982.6791       -992.137          46.000    25392909.898   102247178.0201       -760.236          50.000  
E21  28267155.388   148544867.8361      -2401.956          41.000    28267160.232   113820091.9191      -1840.628          46.000  
E13                                                                  28971308.401                3      -2433.256          25.000  
> 2024 04 16 02 30 30.0030000  0 25                     
G25  21722684.267   114153522.807         -79.413          49.000    21722684.737    88950816.537         -61.786          45.000  
G18  25626947.427   134670511.3921       3134.139          43.000    25626960.809   104938115.179        2441.589          32.000  
G24  24118415.790   126743139.483       -4158.049          41.000    24118417.111    98760892.984       -3240.013          43.000  
G32  24982073.867   131281637.478       -2688.339          49.000    24982078.040   102297410.464       -2094.593          46.000  
E09  27833724.437   146267220.267       -1755.897          40.000    27833729.893   112074915.437       -1345.630          38.000  
R16  21867099.761   116810094.674       -2560.370          52.000    21867099.968    90852286.065       -1991.412          48.000  
R09  20695408.942   110512347.566         772.607          52.000    20695406.766    85954145.240         600.972          50.000  
R10  23431546.681   124903356.220        2642.668          37.000                                                                  
R20  22087342.689   118110918.551        2850.650          36.000    22087350.572    91864108.284        2217.408          45.000  
G29  21822318.483   114677094.819         122.339          48.000    21822317.878    89358813.180          95.233          46.000  
S33  40748235.883   214133405.426        -708.698          45.000  
S31  39794878.704   209123558.144        -707.966          41.000  
G28  23581822.861   123923318.997        1941.106          46.000    23581822.954    96563599.939        1512.634          45.000  
G11  23965293.345   125938737.576       -2593.481          39.000    23965293.778    98134188.471       -2020.436          44.000  
R18  23030369.243   122937750.343       -4477.776          51.000    23030368.839    95618281.167       -3482.786          47.000  
R19  20524438.309   109792235.066       -1849.544          41.000    20524435.840    85393682.967       -1438.632          46.000  
E04  27974182.814   147005302.849       -3174.592          42.000    27974194.671   112640478.8351      -2432.675          44.000  
G12  22660901.889   119083841.593       -1658.974          49.000    22660898.383    92792597.223       -1292.823          42.000  
E33  25550726.783   134269990.358        1521.801          45.000    25550732.797   102882234.685        1166.134          51.000  
E31  25733218.219   135229090.157         655.514          46.000    25733223.358   103617162.669         502.131          51.000  
G20  25467114.438   133830719.590         892.773          38.000                                                                  
E14  20702087.577   108790323.201       -2126.661          50.000    20702092.481    83358782.090       -1629.623          53.000  
E26  25398612.882   133470962.756       -1006.901          47.000    25398614.286   102270150.163        -771.600          50.000  
E21  28280876.082   148616969.803       -2405.021          41.000    28280880.568   113875338.856       -1842.662          46.000  
E13                                                                  28989457.346                3      -2438.716          26.000  
> 2024 04 16 02 31 00.0030000  0 25                     
G25  21723152.181   114155982.944         -85.510          48.000    21723152.378    88952733.592         -66.577          45.000  
G18  25609054.164   134576502.104        3133.401          33.000    25609068.942   104864864.9311       2443.058          44.000  
G24  24142170.550   126867976.755       -4165.108          46.000    24142171.436    98858168.390       -3245.405          44.000  
G32  24997447.051   131362418.797       -2697.731          48.000    24997451.546   102360356.131       -2102.170          44.000  
E09  27843777.989   146320054.631       -1767.107          43.000    27843784.491   112115398.261       -1354.048          43.000  
R16  21881516.883   116887109.840       -2574.799          52.000    21881516.833    90912186.664       -2002.716          47.000  
R09  20691100.972   110489344.709         760.101          52.000    20691098.583    85936254.163         591.300          50.000  
R10  23416673.791   124824065.208        2642.424          39.000                                                                  
R20  22071390.646   118025611.811        2835.398          38.000    22071399.747    91797758.422        2205.099          38.000  
G29  21821656.135   114673615.186         108.929          49.000    21821654.813    89356101.936          84.985          45.000  
S33  40752279.174   214154652.361        -708.269          36.000  
S31  39798918.729   209144787.302        -708.137          44.000  
G28  23570772.679   123865249.766        1929.223          46.000    23570772.155    96518351.217        1503.475          45.000  
G11  23980141.891   126016766.068       -2609.912          41.000    23980140.051    98194990.025       -2033.514          43.000  
R18  23055560.755   123072225.533       -4488.072          51.000    23055561.297    95722873.111       -3490.682          49.000  
R19  20534880.974   109848092.080       -1874.941          43.000    20534877.954    85437127.137       -1458.416          50.000  
E04  27992311.055   147100566.004       -3176.954          37.000    27992323.863   112713472.120       -2434.342          40.000  
G12  22670387.176   119133690.421       -1665.108          50.000    22670383.902    92831440.434       -1297.501          43.000  
E33  25542067.039   134224478.819        1511.776          45.000    25542072.148   102847361.968        1158.346          49.000  
E31  25729478.326   135209434.760         654.335          46.000    25729483.141   103602102.115         501.317          51.000  
G20  25462042.605   133804068.420         883.059          40.000                                                                  
E14  20714300.530   108854503.770       -2152.681          50.000    20714305.401    83407959.586       -1649.458          53.000  
E26  25404401.203   133501377.981       -1021.706          46.000    25404401.816   102293455.590        -782.829          48.000  
E21  28294611.201   148689150.277       -2407.898          42.000    28294616.363   113930646.012       -1844.996          47.000  
E13                                                                  29007645.639                3      -2444.541          25.000  
> 2024 04 16 02 31 30.0030000  0 25                     
G25  21723655.576   114158628.932         -91.632          49.000    21723655.717    88954795.449         -71.228          45.000  
G18  25591168.157   134482465.0881       3134.817          38.000    25591185.350                        2442.980          25.000  
G24  24165967.900   126993031.541       -4172.405          41.000    24165969.396    98955613.307       -3251.353          40.000  
G32  25012874.978   131443491.730       -2707.672          48.000    25012880.045   102423529.037       -2109.824          43.000  
E09  27853897.487   146373227.984       -1778.369          45.000    27853903.584   112156141.008       -1362.480          49.000  
R16  21896015.488   116964556.487       -2589.199          53.000    21896015.597    90972422.902       -2013.808          47.000  
R09  20686863.446   110466716.747         747.611          52.000    20686861.458    85918654.675         581.456          51.000  
R10  23401802.129   124744781.593        2642.419          41.000                                                                  
R20  22055526.351   117940778.642        2819.611          38.000    22055535.359    91731777.158        2192.850          43.000  
G29  21821070.103   114670538.580          95.496          48.000    21821069.046    89353704.711          74.554          45.000  
S33  40756322.918   214175900.489        -708.816          41.000  
S31  39802958.062   209166016.751        -708.005          43.000  
G28  23559790.716   123807536.462        1917.465          46.000    23559788.797    96473379.863        1494.055          45.000  
G11  23995087.034   126095294.839       -2626.181          41.000    23995082.445    98256181.314       -2046.482          42.000  
R18  23080809.895   123207007.273       -4498.103          50.000    23080810.381    95827703.485       -3498.536          49.000  
R19  20545464.308   109904705.939       -1900.025          42.000    20545461.753    85481160.316       -1478.001          49.000  
E04  28010450.628   147195883.697       -3178.896          34.000    28010463.406   112786507.010       -2435.330          43.000  
G12  22679907.455   119183722.478       -1671.188          48.000    22679904.690    92870426.484       -1302.149          41.000  
E33  25533464.101   134179271.241        1501.343          46.000    25533470.209   102812721.671        1150.417          51.000  
E31  25725744.180   135189809.677         653.446          46.000    25725748.713   103587064.803         500.591          51.000  
G20  25457028.236   133777716.337         872.893          39.000                                                                  
E14  20726660.629   108919457.611       -2178.387          49.000    20726665.130    83457729.577       -1669.122          53.000  
E26  25410271.671   133532233.666       -1036.251          48.000    25410272.661   102317098.861        -794.087          51.000  
E21  28308361.878   148761414.580       -2410.351          43.000    28308367.846   113986017.354       -1846.985          48.000  
E13                                                                  29025876.466                3      -2448.873          25.000  
> 2024 04 16 02 32 00.0030000  0 25                     
G25  21724193.981   114161459.884         -97.540          49.000    21724194.417    88957001.455         -75.916          45.000  
G18  25573279.806   134388465.2921       3133.860          41.000    25573299.100   104718317.381        2442.051          37.000  
G24  24189805.677   127118303.479       -4179.371          43.000    24189807.084    99053228.323       -3256.865          44.000  
G32  25028357.575   131524851.773       -2716.895          48.000    25028362.406   102486925.842       -2117.012          44.000  
E09  27864080.306   146426736.976       -1789.319          41.000    27864086.500   112197141.202       -1370.910          44.000  
R16  21910594.553   117042432.177       -2603.067          53.000    21910593.518    91032992.900       -2024.515          48.000  
R09  20682696.099   110444464.600         735.289          52.000    20682694.818    85901347.503         571.887          51.000  
R10  23386930.385   124665505.468        2642.303          41.000                                                                  
R20  22039749.979   117856419.490        2803.931          42.000    22039758.632    91666164.989        2180.888          45.000  
G29  21820560.563   114667862.525          82.446          47.000    21820559.719    89351619.597          64.404          45.000  
S33  40760365.869   214197147.591        -708.471          44.000  
S31  39806997.412   209187245.224        -707.795          42.000  
G28  23548876.062   123750179.685        1905.690          46.000    23548873.613    96428686.310        1484.987          44.000  
G11  24010123.829   126174319.972       -2642.527          41.000    24010120.741    98317759.454       -2059.059          44.000  
R18  23106116.086   123342089.251       -4507.774          51.000    23106115.942    95932767.349       -3506.059          49.000  
R19  20556187.907   109962071.677       -1924.881          43.000    20556185.192    85525778.468       -1497.052          49.000  
E04  28028597.705   147291252.701       -3179.886          39.000    28028612.637   112859581.219       -2436.684          34.000  
G12  22689463.566   119233936.366       -1676.881          50.000    22689460.343    92909554.154       -1306.751          45.000  
E33  25524920.383   134134369.237        1491.488          48.000    25524926.017   102778315.886        1142.714          53.000  
E31  25722014.808   135170213.379         652.664          46.000    25722019.917   103572049.548         500.099          52.000  
G20  25452071.914   133751664.275         863.173          42.000                                                                  
E14  20739166.624   108985178.050       -2203.363          49.000    20739170.901    83508086.966       -1688.326          52.000  
E26  25416226.702   133563525.880       -1050.393          46.000    25416226.928   102341076.078        -804.933          46.000  
E21  28322130.357   148833761.143       -2413.005          44.000    28322135.056   114041451.714       -1848.907          48.000  
E13                                                                  29044150.167                3      -2454.139          25.000  
> 2024 04 16 02 32 30.0030000  0 25                     
G25  21724768.509   114164478.155        -104.053          49.000    21724769.032    88959353.412         -80.939          45.000  
G18  25555391.518   134294455.236        3133.102          39.000    25555410.576   104645063.495        2441.387          39.000  
G24  24213685.107   127243788.353       -4186.316          42.000    24213685.348    99150990.9621      -3261.724          36.000  
G32  25043895.150   131606495.943       -2726.430          45.000    25043899.650   102550543.457       -2124.594          41.000  
E09  27874327.036   146480580.092       -1800.505          44.000    27874333.253   112238396.785       -1379.548          48.000  
R16  21925252.910   117120738.008       -2617.473          51.000    21925252.399    91093897.293       -2035.813          47.000  
R09  20678599.484   110422592.269         722.565          52.000    20678598.956    85884335.714         562.074          51.000  
R10  23372058.816   124586240.029        2641.895          39.000                                                                  
R20  22024063.409   117772539.303        2788.418          33.000    22024070.827    91600925.380        2168.250          40.000  
G29  21820127.828   114665587.718          68.970          48.000    21820126.830    89349847.169          53.662          45.000  
S33  40764409.417   214218395.266        -708.113          41.000  
S31  39811036.830   209208474.753        -707.788          42.000  
G28  23538030.034   123693183.245        1893.638          47.000    23538027.512    96384273.554        1475.428          45.000  
G11  24025256.552   126253840.916       -2659.092          43.000    24025252.263    98379723.863       -2071.761          43.000  
R18  23131477.127   123477468.792       -4517.684          51.000    23131476.345    96038062.657       -3513.719          48.000  
R19  20567051.573   110020187.404       -1949.653          42.000    20567048.915    85570979.533       -1516.464          47.000  
E04  28046755.886   147386672.799       -3181.288          41.000    28046770.994   112932694.924       -2437.876          50.000  
G12  22699054.425   119284333.820       -1683.165          50.000    22699050.300    92948824.819       -1311.451          44.000  
E33  25516434.497   134089775.401        1481.196          47.000    25516440.068   102744146.626        1134.901          52.000  
E31  25718290.906   135150647.544         651.503          46.000    25718296.595   103557057.638         499.339          52.000  
G20  25447172.361   133725916.194         852.981          40.000                                                                  
E14  20751818.073   109051661.667       -2228.936          49.000    20751821.858    83559029.138       -1707.915          52.000  
E26  25422264.636   133595255.059       -1065.071          46.000    25422265.229   102365387.279        -816.103          48.000  
E21  28335912.725   148906191.567       -2415.770          44.000    28335917.877   114096950.371       -1851.120          48.000  
E13                                                                  29062464.603                3      -2460.371          25.000  
> 2024 04 16 02 33 00.0030000  0 25                     
G25  21725377.043   114167678.613        -109.998          48.000    21725377.945    88961847.330         -85.815          45.000  
G18  25537502.481   134200456.041        3132.659          41.000    25537519.904   104571820.122        2441.223          41.000  
G24  24237602.538   127369476.871       -4193.080          42.000    24237604.006    99248929.751       -3267.279          43.000  
G32  25059484.937   131688416.689       -2735.286          45.000    25059490.128   102614377.012       -2131.564          43.000  
E09  27884636.073   146534750.833       -1811.320          46.000    27884642.055   112279903.586       -1387.904          51.000  
R16  21939991.338   117199468.581       -2631.651          53.000    21939991.898    91155132.151       -2046.773          49.000  
R09  20674573.840   110401095.787         709.996          52.000    20674573.022    85867616.275         552.235          51.000  
R10  23357188.774   124506981.386        2641.585          40.000                                                                  
R20  22008465.852   117689134.916        2772.034          42.000    22008473.104    91536055.856        2155.932          44.000  
G29  21819769.765   114663707.163          55.902          48.000    21819769.119    89348381.920          43.567          46.000  
S33  40768451.508   214239636.963        -708.334          43.000  
S31  39815075.506   209229698.536        -707.522          42.000  
G28  23527251.526   123636543.489        1881.721          47.000    23527249.492    96340138.732        1466.283          45.000  
G11  24040481.450   126333849.442       -2675.397          43.000    24040478.450    98442068.230       -2084.523          45.000  
R18  23156891.466   123613135.411       -4527.271          50.000    23156890.656    96143581.234       -3521.266          48.000  
R19  20578054.632   110079044.891       -1974.474          42.000    20578051.420    85616757.701       -1535.719          48.000  
E04  28064923.156   147482134.375       -3182.967          41.000    28064937.496   113005840.080       -2438.867          47.000  
G12  22708678.241   119334909.099       -1688.990          50.000    22708674.713    92988234.007       -1316.129          44.000  
E33  25508005.895   134045484.291        1470.998          46.000    25508011.660   102710209.188        1127.183          52.000  
E31  25714572.643   135131106.361         650.661          46.000    25714577.754   103542084.603         498.645          52.000  
G20  25442329.264   133700468.285         842.764          37.000                                                                  
E14  20764612.512   109118897.499       -2253.739          49.000    20764616.099    83610547.676       -1727.014          52.000  
E26  25428385.297   133627416.851       -1079.403          47.000    25428385.803   102390030.446        -827.238          48.000  
E21  28349711.024   148978700.042       -2418.526          44.000    28349715.435   114152508.812       -1853.166          48.000  
E13                                                                  29080820.121                3      -2466.676          25.000  
> 2024 04 16 02 33 30.0030000  0 25                     
G25  21726022.031   114171065.735        -116.077          49.000    21726022.113    88964486.685         -90.472          45.000  
G18  25519614.174   134106482.4423       3132.676          45.000    25519631.847   104498633.7571       2440.754          46.000  
G24  24261559.257   127495372.019       -4199.846          41.000    24261560.822    99347036.9061      -3272.521          42.000  
G32  25075127.231   131770614.064       -2744.696          46.000    25075132.804   102678426.185       -2138.767          43.000  
E09  27895007.521   146589251.221       -1822.367          39.000    27895013.665   112321663.058       -1396.352          43.000  
R16  21954811.150   117278627.055       -2645.861          53.000    21954810.907    91216699.766       -2057.910          48.000  
R09  20670620.251   110379981.701         697.274          52.000    20670619.661    85851194.258         542.330          51.000  
R10  23342322.226   124427734.813        2641.140          41.000                                                                  
R20  21992958.282   117606212.379        2755.968          39.000    21992966.195    91471561.081        2143.381          40.000  
G29  21819487.603   114662223.463          42.822          48.000    21819486.648    89347225.917          33.362          45.000  
S33  40772493.430   214260876.327        -707.963          41.000  
S31  39819113.332   209250919.089        -707.354          44.000  
G28  23516542.019   123580266.386        1869.780          46.000    23516540.635    96296286.485        1456.683          44.000  
G11  24055799.083   126414346.928       -2691.479          44.000    24055796.658    98504793.669       -2097.174          44.000  
R18  23182359.671   123749088.485       -4536.663          49.000    23182358.634    96249322.632       -3528.524          48.000  
R19  20589196.814   110138644.792       -1998.911          42.000    20589193.412    85663113.401       -1555.003          49.000  
E04  28083098.992   147577638.133       -3184.090          34.000    28083112.395   113079017.135       -2439.834          35.000  
G12  22718337.245   119385666.934       -1695.110          50.000    22718333.521    93027785.646       -1321.006          44.000  
E33  25499636.658   134001502.315        1460.764          48.000    25499641.681   102676509.247        1119.285          52.000  
E31  25710859.586   135111593.585         649.936          46.000    25710864.319   103527133.358         497.935          51.000  
G20  25437543.621   133675326.796         832.758          37.000                                                                  
E14  20777549.264   109186884.218       -2278.838          48.000    20777553.732    83662641.566       -1746.063          52.000  
E26  25434588.049   133660013.561       -1093.938          47.000    25434589.186   102415006.908        -838.286          49.000  
E21  28363524.523   149051290.264       -2421.161          45.000    28363528.926   114208129.901       -1855.153          48.000  
E13                                                                  29099215.790                3      -2470.869          24.000  
> 2024 04 16 02 34 00.0030000  0 25                     
G25  21726702.381   114174640.707        -122.650          49.000    21726702.158    88967272.424         -95.435          45.000  
G18  25501731.064   134012510.7471       3128.751          36.000    25501747.083   104425413.892        2439.665          35.000  
G24  24285555.832   127621468.896       -4206.837          45.000    24285556.112    99445293.401       -3278.145          42.000  
G32  25090821.702   131853085.411       -2753.973          48.000    25090827.515   102742689.071       -2145.575          44.000  
E09  27905440.958   146644080.428       -1833.464          40.000    27905447.573   112363674.871       -1405.059          42.000  
R16  21969710.139   117358213.475       -2660.346          53.000    21969709.822    91278600.136       -2069.053          48.000  
R09  20666738.468   110359252.842         684.139          52.000    20666737.546    85835071.828         532.312          51.000  
R10  23327459.724   124348503.393        2640.242          43.000                                                                  
R20  21977542.537   117523775.970        2739.482          38.000    21977550.116    91407444.533        2130.650          39.000  
G29  21819280.432   114661136.120          29.260          48.000    21819279.104    89346378.762          23.053          45.000  
S33  40776534.685   214282113.139        -708.231          43.000  
S31  39823150.831   209272137.866        -707.706          42.000  
G28  23505901.802   123524354.568        1857.266          45.000    23505901.289    96252718.840        1447.311          45.000  
G11  24071210.643   126495331.571       -2707.907          45.000    24071208.227    98567898.676       -2110.074          45.000  
R18  23207881.257   123885323.987       -4546.110          49.000    23207879.478    96355283.673       -3535.755          47.000  
R19  20600475.497   110198984.466       -2024.013          40.000    20600473.184    85710044.218       -1574.120          49.000  
E04  28101279.888   147673185.285       -3185.895          35.000    28101295.064   113152228.338       -2441.256          41.000  
G12  22728030.639   119436607.270       -1701.365          49.000    22728027.210    93067479.415       -1325.732          44.000  
E33  25491326.304   133957829.661        1450.169          48.000    25491330.779   102643046.072        1111.207          52.000  
E31  25707151.865   135092109.733         648.626          46.000    25707156.362   103512204.256         497.054          51.000  
G20  25432818.093   133650494.316         821.742          37.000                                                                  
E14  20790628.252   109255617.074       -2303.896          49.000    20790633.376    83715307.175       -1765.205          53.000  
E26  25440873.651   133693045.424       -1108.528          46.000    25440874.970   102440317.198        -849.370          47.000  
E21  28377353.326   149123962.713       -2424.169          44.000    28377358.428   114263813.983       -1857.402          49.000  
E13                                                                  29117647.499                3      -2474.273          21.000  
> 2024 04 16 02 34 30.0030000  0 25                     
G25  21727418.872   114178403.077        -128.876          49.000    21727418.379    88970204.197        -100.256          45.000  
G18  25483847.588   133918527.8541       3131.416          42.000    25483863.762   104352211.959        2440.079          41.000  
G24  24309588.978   127747765.215       -4213.421          44.000    24309590.280    99543704.5211      -3282.847          42.000  
G32  25106566.713   131935825.976       -2762.689          48.000    25106573.423   102807161.931       -2152.865          43.000  
E09  27915936.198   146699235.465       -1844.020          42.000    27915943.121   112405935.696       -1413.046          48.000  
R16  21984688.334   117438226.627       -2674.573          53.000    21984687.663    91340832.429       -2080.171          49.000  
R09  20662928.924   110338909.851         671.380          52.000    20662927.477    85819249.559         522.228          51.000  
R10  23312599.052   124269287.224        2639.785          43.000                                                                  
R20  21962216.470   117441827.022        2722.909          38.000    21962222.294    91343682.0861       2118.134          46.000  
G29  21819148.292   114660442.897          16.339          48.000    21819146.832    89345838.721          12.671          44.000  
S33  40780574.860   214303346.384        -707.838          45.000  
S31  39827187.384   209293351.990        -707.000          43.000  
G28  23495331.468   123468809.021        1845.151          45.000    23495331.316    96209436.610        1437.789          44.000  
G11  24086712.478   126576799.834       -2723.947          44.000    24086709.884    98631380.513       -2122.461          44.000  
R18  23233453.552   124021836.298       -4555.287          47.000    23233453.335    96461459.990       -3542.908          48.000  
R19  20611892.841   110260059.050       -2048.262          40.000    20611891.122    85757546.350       -1593.238          48.000  
E04  28119468.819   147768770.043       -3187.001          40.000    28119483.539   113225468.273       -2441.900          45.000  
G12  22737758.365   119487729.406       -1707.455          48.000    22737755.427    93107314.863       -1330.349          43.000  
E33  25483073.462   133914466.770        1440.256          48.000    25483078.757   102609820.170        1103.643          53.000  
E31  25703449.564   135072653.695         647.835          46.000    25703453.881   103497296.476         496.351          51.000  
G20  25428151.625   133625971.557         811.788          39.000                                                                  
E14  20803848.639   109325089.806       -2328.365          48.000    20803853.329    83768539.692       -1783.991          53.000  
E26  25447241.667   133726509.426       -1122.925          47.000    25447242.952   102465958.465        -860.358          48.000  
E21  28391198.657   149196716.193       -2426.797          45.000    28391203.284   114319560.158       -1859.423          49.000  
E13                                                                  29136121.086                3      -2487.594          19.000  
> 2024 04 16 02 35 00.0030000  0 25                     
G25  21728171.338   114182359.035        -135.181          49.000    21728171.787    88973286.808        -105.420          46.000  
G18  25465970.420   133824584.4931       3131.670          45.000    25465986.641   104278957.8391       2439.523          49.000  
G24  24333660.856   127874262.515       -4220.045          38.000    24333662.845    99642272.851       -3288.260          38.000  
G32  25122363.604   132018837.735       -2771.563          48.000    25122370.062   102871846.091       -2159.622          45.000  
E09  27926494.462   146754719.249       -1854.849          40.000    27926501.342   112448444.3661      -1421.248          46.000  
R16  21999748.076   117518671.824       -2688.733          53.000    21999747.887    91403400.830       -2091.166          49.000  
R09  20659192.796   110318960.682         658.348          52.000    20659191.370    85803733.580         511.985          51.000  
R10  23297742.377   124190093.866        2639.375          43.000                                                                  
R20  21946984.261   117360372.576        2707.128          40.000    21946991.417    91280328.875        2105.457          43.000  
G29  21819092.216   114660148.026           3.149          47.000    21819090.664    89345609.077           2.362          45.000  
S33  40784615.808   214324579.699        -707.809          42.000  
S31  39831224.437   209314567.088        -707.294          42.000  
G28  23484832.683   123413637.349        1832.734          44.000    23484831.849    96166445.723        1428.223          45.000  
G11  24102307.409   126658754.737       -2740.150          46.000    24102305.888    98695241.542       -2134.895          45.000  
R18  23259078.700   124158626.470       -4564.277          47.000    23259079.041    96567852.453       -3550.020          49.000  
R19  20623448.794   110321872.517       -2072.866          41.000    20623446.220    85805623.627       -1612.241          49.000  
E04  28137667.244   147864394.152       -3188.302          38.000    28137680.910   113298737.620       -2442.907          43.000  
G12  22747522.545   119539039.615       -1713.530          48.000    22747518.950    93147297.156       -1335.369          43.000  
E33  25474882.850   133871417.042        1429.713          48.000    25474888.237   102576832.548        1095.521          52.000  
E31  25699753.437   135053230.969         646.844          46.000    25699757.845   103482414.219         495.596          51.000  
G20  25423545.083   133601767.099         801.346          38.000                                                                  
E14  20817210.188   109395302.650       -2352.777          49.000    20817214.204    83822339.313       -1802.842          52.000  
E26  25453693.018   133760410.070       -1137.241          46.000    25453693.699   102491934.137        -871.459          47.000  
E21  28405059.727   149269556.110       -2429.479          45.000    28405064.209   114375372.575       -1861.574          49.000  
E13                                                                  29154634.983                3      -2483.938          20.000  
> 2024 04 16 02 35 30.0030000  0 25                     
G25  21728960.251   114186505.299        -141.559          49.000    21728960.868    88976517.724        -110.492          46.000  
G18  25448097.580   133730656.9641       3130.256          38.000    25448110.292   104205755.789        2439.016          49.000  
G24  24357770.007   128000945.4033      -4226.258          42.000    24357772.427    99740992.158       -3293.516          39.000  
G32  25138210.912   132102113.038       -2780.496          47.000    25138216.584   102936735.515       -2166.669          43.000  
E09  27937113.775   146810525.793       -1866.060          39.000    27937121.140   112491205.305       -1429.316          38.000  
R16  22014887.393   117599544.081       -2702.931          52.000    22014887.985    91466301.222       -2102.453          49.000  
R09  20655530.425   110299403.647         645.176          52.000    20655529.031    85788522.580         501.913          51.000  
R10  23282889.061   124110921.146        2638.413          42.000                                                                  
R20  21931844.211   117279412.595        2690.418          40.000    21931851.180    91217360.301        2092.351          43.000  
G29  21819110.448   114660246.587          -9.998          48.000    21819109.942    89345685.983          -7.800          46.000  
S33  40788655.984   214345810.200        -707.820          40.000  
S31  39835260.854   209335779.511        -707.137          43.000  
G28  23474405.570   123358837.710        1820.255          45.000    23474403.388    96123744.735        1418.442          45.000  
G11  24117995.295   126741189.934       -2755.997          46.000    24117992.234    98759476.820       -2147.413          45.000  
R18  23284754.592   124295686.021       -4573.194          44.000    23284754.984    96674454.438       -3556.896          49.000  
R19  20635140.797   110384417.341       -2097.329          40.000    20635138.527    85854269.601       -1631.113          51.000  
E04  28155870.922   147960052.893       -3189.215          39.000    28155885.643   113372033.726       -2443.749          43.000  
G12  22757320.828   119590532.621       -1719.614          48.000    22757317.919    93187421.594       -1340.021          44.000  
E33  25466750.971   133828683.223        1419.183          47.000    25466756.558   102544088.181        1087.358          52.000  
E31  25696063.125   135033837.608         645.849          46.000    25696067.535   103467554.471         494.854          51.000  
G20  25418999.650   133577878.894         790.715          40.000                                                                  
E14  20830710.875   109466246.393       -2377.016          50.000    20830713.907    83876698.947       -1821.274          52.000  
E26  25460226.695   133794743.237       -1151.779          47.000    25460226.938   102518241.407        -882.587          48.000  
E21  28418936.180   149342478.470       -2432.272          44.000    28418940.846   114431248.147       -1863.720          48.000  
E13                                                                  29173187.452                3      -2492.988          19.000  
> 2024 04 16 02 36 00.0030000  0 25                     
G25  21729783.790   114190833.555        -147.711          48.000    21729784.348    88979890.437        -115.076          46.000  
G18  25430229.197   133636757.2521       3129.408          41.000    25430244.270   104132595.011        2437.184          41.000  
G24  24381915.288   128127820.0021      -4232.744          44.000    24381917.037    99839854.993       -3298.165          41.000  
G32  25154106.149   132185639.601       -2789.035          46.000    25154111.687   103001820.652       -2173.150          42.000  
E09  27947794.033   146866643.599       -1876.158          43.000    27947800.360   112534204.313       -1437.255          44.000  
R16  22030105.256   117680834.472       -2717.082          53.000    22030105.217    91529526.960       -2113.191          49.000  
R09  20651940.688   110280231.657         632.284          53.000    20651938.719    85773611.083         491.751          51.000  
R10  23268038.607   124031762.137        2637.891          43.000                                                                  
R20  21916796.144   117198940.874        2674.117          41.000    21916802.202    91154771.473        2079.615          44.000  
G29  21819202.258   114660728.337         -22.864          47.000    21819202.161    89346061.464         -17.609          46.000  
S33  40792693.791   214367028.619        -707.465          40.000  
S31  39839294.882   209356978.202        -706.709          43.000  
G28  23464046.781   123304403.138        1807.995          45.000    23464044.393    96081328.228        1408.823          44.000  
G11  24133770.397   126824093.895       -2771.632          45.000    24133768.422    98824077.390       -2159.748          45.000  
R18  23310478.090   124433001.274       -4581.852          44.000    23310478.470    96781255.243       -3563.544          48.000  
R19  20646966.307   110447680.664       -2121.284          38.000    20646964.362    85903474.582       -1649.762          48.000  
E04  28174078.028   148055734.262       -3189.850          36.000    28174094.110   113445347.157       -2444.459          42.000  
G12  22767152.696   119642201.128       -1725.633          50.000    22767149.456    93227682.920       -1344.771          44.000  
E33  25458676.817   133786255.122        1408.684          48.000    25458683.360   102511578.034        1079.302          55.000  
E31  25692376.969   135014464.577         645.029          46.000    25692380.874   103452710.303         494.305          51.000  
G20  25414513.360   133554300.016         780.486          39.000                                                                  
E14  20844347.735   109537906.730       -2401.015          50.000    20844350.513    83931607.653       -1839.672          52.000  
E26  25466840.875   133829498.557       -1165.948          47.000    25466840.745   102544872.105        -893.251          47.000  
E21  28432826.676   149415474.114       -2434.769          44.000    28432831.674   114487179.871       -1865.460          48.000  
E13                                                                  29191777.834                3      -2492.449          20.000  
> 2024 04 16 02 36 30.0040000  0 26                     
G25  21730642.902   114195348.159        -153.650          49.000    21730643.144    88983408.371        -119.820          45.000  
G18  25412365.791   133542882.4953       3129.152          34.000    25412381.824   104059442.488        2438.171          40.000  
G24  24406094.994   128254884.445       -4238.338          33.000    24406097.384    99938888.3771      -3301.813          31.000  
G32  25170048.935   132269420.507       -2796.844          45.000    25170055.166   103067104.087       -2179.321          40.000  
E09  27958532.919   146923075.362       -1886.336          45.000    27958540.005   112577442.995       -1445.293          49.000  
R16  22045401.588   117762549.035       -2730.866          54.000    22045403.274    91593082.752       -2124.066          51.000  
R09  20648424.106   110261450.430         619.395          53.000    20648421.937    85759003.504         481.792          51.000  
R10  23253192.398   123952619.159        2637.700          44.000                                                                  
R20  21901838.906   117118959.938        2657.458          38.000    21901844.910    91092564.362        2067.004          39.000  
G29  21819367.415   114661595.608         -35.333          47.000    21819367.073    89346737.391         -27.681          46.000  
S33  40796729.333   214388237.471        -706.740          40.000  
S31  39843327.051   209378167.576        -706.233          43.000  
G28  23453757.884   123250337.528        1795.730          45.000    23453756.171    96039199.221        1399.338          44.000  
G11  24149637.118   126907470.532       -2787.053          46.000    24149634.163    98889046.263       -2171.681          46.000  
R18  23336249.194   124570575.937       -4589.864          42.000    23336249.342    96888257.837       -3569.987          47.000  
R19  20658926.804   110511664.609       -2145.050          38.000    20658925.295    85953239.791       -1668.154          48.000  
E04  28192291.817   148151443.301       -3190.689          39.000    28192307.289   113518682.020       -2444.727          44.000  
G12  22777019.394   119694049.890       -1731.322          48.000    22777016.183    93268084.584       -1349.009          43.000  
E33  25450661.477   133744137.204        1398.693          48.000    25450668.314   102479306.171        1071.508          56.000  
E31  25688693.317   134995114.819         644.551          46.000    25688698.574   103437883.963         493.872          51.000  
G20  25410085.295   133531035.442         769.983          39.000                                                                  
E14  20858119.676   109610284.352       -2424.303          50.000    20858123.888    83987065.989       -1857.624          53.000  
E26  25473534.389   133864680.479       -1179.868          47.000    25473535.293   102571829.990        -904.030          48.000  
E21  28446731.976   149488548.997       -2437.113          44.000    28446737.080   114543172.316       -1867.278          47.000  
E13                                                                  29210404.402                3      -2499.148          19.000  
G05                                                                  26346404.352                3       1148.685          19.000  
> 2024 04 16 02 37 00.0040000  0 26                     
G25  21731536.054   114200042.911        -159.588          49.000    21731536.577    88987066.683        -124.377          45.000  
G18  25394507.155   133449035.7183       3128.323          43.000    25394525.676   103986323.2331       2438.313          43.000  
G24  24430306.476   128382119.635       -4244.004          43.000    24430308.068   100038033.118       -3306.985          36.000  
G32  25186037.665   132353441.190       -2804.894          49.000    25186042.988   103132574.986       -2185.463          46.000  
E09  27969329.010   146979819.9141      -1896.521          39.000    27969337.646   112620915.831       -1453.569          41.000  
R16  22060776.517   117844674.753       -2744.617          52.000    22060776.398    91656958.387       -2134.698          47.000  
R09  20644979.130   110243056.071         606.467          53.000    20644977.650    85744696.815         471.752          51.000  
R10  23238349.266   123873493.021        2637.105          44.000                                                                  
R20  21886973.936   117039472.259        2641.431          40.000    21886979.409    91030740.972        2054.272          41.000  
G29  21819604.067   114662840.388         -47.955          48.000    21819603.062    89347707.481         -37.403          45.000  
S33  40800762.069   214409428.671        -706.229          43.000  
S31  39847356.450   209399341.316        -705.739          44.000  
G28  23443539.401   123196639.933        1783.560          43.000    23443538.064    95997356.951        1389.914          45.000  
G11  24165589.847   126991305.139       -2802.408          44.000    24165586.491    98954372.022       -2183.445          44.000  
R18  23362067.001   124708389.535       -4597.934          42.000    23362066.825    96995446.281       -3576.150          47.000  
R19  20671019.238   110576355.731       -2168.319          37.000    20671018.375    86003555.076       -1686.392          48.000  
E04  28210508.519   148247162.761       -3190.978          40.000    28210523.313   113592024.409       -2444.970          44.000  
G12  22786918.578   119746069.338       -1737.074          49.000    22786915.008    93308619.396       -1353.733          43.000  
E33  25442705.055   133702325.072        1388.205          46.000    25442711.779   102447268.266        1063.902          51.000  
E31  25685014.531   134975783.025         643.751          46.000    25685019.822   103423071.375         493.378          51.000  
G20  25405715.978   133508082.128         759.354          39.000                                                                  
E14  20872025.076   109683362.485       -2447.882          49.000    20872030.066    84043061.087       -1875.708          54.000  
E26  25480307.961   133900278.241       -1193.784          46.000    25480309.417   102599106.395        -914.794          48.000  
E21  28460651.158   149561691.539       -2439.610          43.000    28460655.253   114599216.617       -1869.146          46.000  
E13                                                                  29229063.260                3      -2508.398          16.000  
G05                                                                  26337920.509                3       1156.368          21.000  
> 2024 04 16 02 37 30.0040000  0 26                     
G25  21732463.890   114204921.075        -165.926          49.000    21732464.532    88990867.882        -129.316          45.000  
G18  25376653.707   133355191.8571       3127.234          45.000    25376671.685   103913230.571        2436.923          45.000  
G24  24454551.863   128509522.715       -4249.576          39.000    24454554.058   100137303.3821      -3313.360          32.000  
G32  25202071.242   132437701.442       -2813.001          46.000    25202078.005   103198232.163       -2191.953          42.000  
E09  27980185.442   147036860.794       -1906.602          43.000    27980192.659   112664621.317       -1460.916          48.000  
R16  22076227.633   117927216.201       -2758.484          52.000    22076227.673    91721157.407       -2145.605          48.000  
R09  20641607.630   110225053.133         593.410          53.000    20641606.074    85730694.572         461.517          52.000  
R10  23223508.682   123794385.138        2636.324          45.000                                                                  
R20  21872201.594   116960479.516        2624.756          40.000    21872207.645    90969302.318        2041.388          44.000  
G29  21819913.816   114664464.062         -60.516          49.000    21819911.292    89348972.829         -47.266          45.000  
S33  40804791.601   214430605.685        -705.982          41.000  
S31  39851382.398   209420499.185        -705.184          45.000  
G28  23433392.063   123143313.072        1771.187          44.000    23433390.254    95955803.561        1380.141          44.000  
G11  24181629.547   127075600.330       -2817.665          44.000    24181627.629    99020056.668       -2195.622          45.000  
R18  23387928.791   124846444.757       -4606.177          42.000    23387928.865    97102822.649       -3582.510          47.000  
R19  20683245.453   110641755.088       -2191.701          39.000    20683244.920    86054421.295       -1704.824          48.000  
E04  28228727.711   148342897.875       -3191.568          43.000    28228741.492   113665379.130       -2445.404          46.000  
G12  22796850.392   119798263.391       -1742.892          49.000    22796847.616    93349290.268       -1357.969          44.000  
E33  25434806.895   133660821.491        1378.194          45.000    25434813.919   102415466.791        1055.986          51.000  
E31  25681339.485   134956470.973         643.150          46.000    25681344.810   103408273.906         492.873          51.000  
G20  25401408.015   133485444.045         749.371          39.000                                                                  
E14  20886064.420   109757140.615       -2471.066          50.000    20886069.065    84099592.540       -1893.414          53.000  
E26  25487160.634   133936294.968       -1207.780          46.000    25487162.989   102626703.969        -925.516          48.000  
E21  28474582.433   149634906.505       -2441.664          41.000    28474587.652   114655316.424       -1870.940          46.000  
E13                                                                  29247763.569                3      -2512.031          17.000  
G05                                                                  26329435.856                3       1158.953          23.000  
> 2024 04 16 02 38 00.0040000  0 26                     
G25  21733428.779   114209992.857        -172.406          48.000    21733429.467    88994819.972        -134.369          46.000  
G18  25358804.227   133261392.200        3125.872          44.000    25358820.492   103840141.864        2435.863          45.000  
G24  24478831.851   128637105.765       -4255.740          44.000    24478834.129   100236714.664       -3315.642          35.000  
G32  25218152.240   132522208.184       -2821.278          46.000    25218159.947   103264081.425       -2198.367          43.000  
E09  27991101.220   147094215.033       -1917.129          42.000    27991108.248   112708566.961       -1469.078          44.000  
R16  22091758.985   118010182.344       -2772.742          52.000    22091760.027    91785686.447       -2156.519          47.000  
R09  20638311.207   110207453.110         579.807          52.000    20638309.697    85717005.697         450.915          51.000  
R10  23208673.982   123715307.685        2635.222          44.000                                                                  
R20  21857524.847   116881995.103        2607.536          40.000    21857530.617    90908259.188        2028.143          43.000  
G29  21820296.044   114666475.082         -73.622          48.000    21820293.354    89350539.979         -57.460          44.000  
S33  40808820.312   214451776.416        -705.527          43.000  
S31  39855407.300   209441650.865        -704.937          44.000  
G28  23423317.626   123090368.512        1758.407          45.000    23423315.299    95914548.087        1370.144          44.000  
G11  24197759.713   127160363.180       -2833.065          43.000    24197757.820    99086105.723       -2207.634          46.000  
R18  23413838.134   124984746.759       -4614.204          42.000    23413837.221    97210390.970       -3588.876          47.000  
R19  20695605.910   110707869.619       -2215.614          41.000    20695604.090    86105843.815       -1723.366          49.000  
E04  28246949.556   148438653.450       -3192.371          37.000    28246963.615   113738749.075       -2445.948          41.000  
G12  22806817.821   119850641.670       -1749.162          48.000    22806814.465    93390104.553       -1362.986          43.000  
E33  25426970.509   133619638.129        1367.297          45.000    25426976.392   102383911.220        1047.733          51.000  
E31  25677670.066   134937188.240         642.191          46.000    25677675.402   103393498.920         492.133          51.000  
G20  25397163.205   133463132.856         738.238          41.000                                                                  
E14  20900238.088   109831622.956       -2494.422          50.000    20900241.689    84156663.582       -1911.281          52.000  
E26  25494096.018   133972739.037       -1222.120          46.000    25494097.383   102654629.051        -936.383          47.000  
E21  28488530.721   149708203.396       -2444.799          42.000    28488535.651   114711478.975       -1873.306          45.000  
G05  26320944.372   138317524.7441       1484.779          28.000    26320957.824                        1157.202          26.000  
E13                                                                  29266497.032                3      -2513.711          16.000  
> 2024 04 16 02 38 30.0040000  0 26                     
G25  21734430.476   114215257.186        -178.979          48.000    21734431.132    88998922.103        -139.397          46.000  
G18  25340959.719   133167626.268        3124.544          41.000    25340975.392   103767079.080        2434.771          43.000  
G24  24503144.610   128764862.846       -4261.723          43.000    24503148.751   100336292.5021      -3320.777          41.000  
G32  25234279.426   132606956.362       -2829.070          47.000    25234286.569   103330118.866       -2204.447          42.000  
E09  28002074.578   147151879.544       -1927.833          45.000    28002081.771   112752750.821       -1476.966          48.000  
R16  22107370.579   118093571.326       -2787.030          52.000    22107371.223    91850544.366       -2167.676          47.000  
R09  20635090.799   110190256.623         566.155          53.000    20635089.091    85703630.691         440.369          51.000  
R10  23193843.526   123636260.143        2634.049          44.000                                                                  
R20  21842942.890   116804018.969        2590.281          41.000    21842948.306    90847611.538        2014.912          44.000  
G29  21820751.439   114668870.202         -86.511          48.000    21820749.404    89352406.415         -67.370          45.000  
S33  40812847.544   214472940.059        -705.725          44.000  
S31  39859430.985   209462795.509        -704.994          44.000  
G28  23413315.528   123037806.529        1745.483          44.000    23413313.703    95873590.732        1360.165          44.000  
G11  24213977.535   127245589.394       -2848.897          44.000    24213976.186    99152515.849       -2219.779          46.000  
R18  23439792.416   125123289.299       -4622.241          44.000    23439790.638    97318146.371       -3595.146          47.000  
R19  20708097.746   110774693.478       -2239.477          40.000    20708096.029    86157818.051       -1741.821          49.000  
E04  28265173.849   148534427.328       -3193.005          39.000    28265189.195   113812133.365       -2446.463          44.000  
G12  22816819.553   119903202.588       -1755.409          49.000    22816816.535    93431061.204       -1367.865          44.000  
E33  25419194.708   133578772.905        1356.524          49.000    25419199.925   102352599.231        1039.415          55.000  
E31  25674006.380   134917933.103         641.028          47.000    25674011.129   103378745.076         491.166          51.000  
G20  25392979.940   133441148.917         727.078          38.000                                                                  
E14  20914544.092   109906802.353       -2517.910          50.000    20914547.977    84214268.724       -1929.358          52.000  
E26  25501112.553   134009607.185       -1236.359          47.000    25501112.735   102682878.830        -947.348          48.000  
E21  28502494.455   149781580.263       -2447.441          43.000    28502498.753   114767702.806       -1875.345          45.000  
G05  26312466.779                        1484.959          30.000    26312476.920                        1156.987          28.000  
E13                                                                  29285267.698                3      -2518.515          17.000  
> 2024 04 16 02 39 00.0040000  0 26                     
G25  21735468.372   114220709.871        -185.084          49.000    21735468.820    89003171.010        -144.061          46.000  
G18  25323121.196   133073893.118        3123.760          41.000    25323136.618   103694042.245        2434.148          45.000  
G24  24527485.787   128892811.6341      -4267.156          38.000    24527493.184   100435981.3661      -3324.779          43.000  
G32  25250451.125   132691937.609       -2836.722          47.000    25250457.479   103396337.977       -2210.515          43.000  
E09  28013105.137   147209846.663       -1937.534          43.000    28013112.796   112797166.523       -1484.541          47.000  
R16  22123058.904   118177377.898       -2800.592          52.000    22123059.474    91915727.295       -2178.442          47.000  
R09  20631945.232   110173460.859         552.933          52.000    20631943.908    85690567.361         430.029          51.000  
R10  23179019.146   123557240.124        2633.180          44.000                                                                  
R20  21828454.517   116726548.626        2573.279          40.000    21828460.691    90787357.317        2001.825          44.000  
G29  21821278.296   114671643.176         -98.841          47.000    21821277.718    89354567.298         -76.941          45.000  
S33  40816871.979   214494089.424        -704.901          44.000  
S31  39863452.125   209483926.641        -704.241          44.000  
G28  23403384.774   122985624.277        1732.792          45.000    23403384.216    95832929.282        1350.168          44.000  
G11  24230282.840   127331271.531       -2863.755          43.000    24230280.920    99219281.216       -2231.477          45.000  
R18  23465789.312   125262062.936       -4629.807          46.000    23465787.616    97426081.486       -3600.976          46.000  
R19  20720720.629   110842218.137       -2262.677          41.000    20720719.213    86210337.375       -1759.871          49.000  
E04  28283403.021   148630210.693       -3192.967          40.000    28283417.549   113885524.829       -2446.738          41.000  
G12  22826855.193   119955942.233       -1761.112          49.000    22826852.445    93472157.091       -1372.269          45.000  
E33  25411477.382   133538221.645        1346.334          47.000    25411483.207   102321527.456        1031.610          54.000  
E31  25670346.793   134898700.676         640.501          47.000    25670351.267   103364008.633         490.759          51.000  
G20  25388858.693   133419489.332         716.473          40.000                                                                  
E14  20928981.365   109982668.528       -2540.312          50.000    20928985.340    84272400.085       -1946.500          53.000  
E26  25508208.315   134046892.934       -1250.103          47.000    25508208.153   102711448.082        -957.911          47.000  
E21  28516471.132   149855032.139       -2449.869          43.000    28516476.070   114823984.094       -1877.120          46.000  
G05  26303988.734   138228419.892        1484.280          33.000    26303995.276                        1156.728          27.000  
E13                                                                  29304072.264                3      -2532.015          13.000  
> 2024 04 16 02 39 30.0040000  0 26                     
G25  21736542.687   114226354.845        -191.865          50.000    21736543.199    89007569.756        -149.593          46.000  
G18  25305289.469   132980196.872        3122.099          42.000    25305305.248   103621034.110        2432.583          42.000  
G24  24551864.858   129020906.127       -4273.007          44.000    24551869.864   100535806.764       -3329.718          40.000  
G32  25266666.892   132777151.190       -2844.873          47.000    25266672.901   103462737.998       -2216.670          42.000  
E09  28024194.687   147268118.021       -1947.984          44.000    28024202.060   112841815.565       -1492.651          46.000  
R16  22138827.545   118261603.950       -2815.094          53.000    22138826.351    91981236.322       -2189.368          47.000  
R09  20628875.672   110157071.443         538.939          52.000    20628874.584    85677820.100         419.238          52.000  
R10  23164201.958   123478252.334        2631.887          44.000                                                                  
R20  21814062.231   116649591.055        2556.112          39.000    21814069.050    90727501.979        1988.201          43.000  
G29  21821878.409   114674796.075        -111.984          48.000    21821877.708    89357024.235         -87.159          45.000  
S33  40820894.554   214515228.463        -704.922          43.000  
S31  39867471.577   209505047.134        -704.375          41.000  
G28  23393527.650   122933827.038        1719.645          45.000    23393528.275    95792567.829        1339.908          45.000  
G11  24246674.693   127417410.168       -2879.470          42.000    24246672.069    99286402.287       -2243.644          45.000  
R18  23491828.514   125401066.565       -4637.823          46.000    23491827.728    97534195.508       -3607.169          47.000  
R19  20733475.475   110910443.877       -2286.084          41.000    20733472.627    86263401.964       -1778.289          47.000  
E04  28301632.344   148726005.827       -3193.937          40.000    28301647.311   113958925.736       -2447.274          45.000  
G12  22836925.990   120008862.840       -1767.558          50.000    22836922.846    93513393.711       -1377.302          46.000  
E33  25403820.853   133497989.288        1335.163          47.000    25403827.269   102290699.994        1022.991          54.000  
E31  25666692.034   134879494.223         639.135          47.000    25666696.162   103349292.082         489.767          51.000  
G20  25384800.188   133398159.307         704.796          42.000                                                                  
E14  20943548.371   110059219.291       -2563.589          50.000    20943552.556    84331056.018       -1964.324          53.000  
E26  25515383.816   134084599.090       -1264.365          46.000    25515383.567   102740339.322        -968.898          45.000  
E21  28530462.374   149928562.130       -2452.893          41.000    28530468.109   114880325.223       -1879.406          45.000  
G05  26295512.720   138183881.670        1483.950          38.000    26295515.201   107675774.7261       1156.019          29.000  
E13                                                                  29322912.056                3      -2528.773          13.000  
> 2024 04 16 02 40 00.0040000  0 25                     
G25  21737654.593   114232196.636        -198.109          50.000    21737655.056    89012121.851        -154.359          47.000  
G18  25287466.216   132886545.207        3120.621          41.000    25287481.380   103548061.133        2431.785          41.000  
G24  24576273.368   129149167.264       -4278.527          41.000    24576278.136   100635750.2401      -3333.461          33.000  
G32  25282926.588   132862597.912       -2852.217          46.000    25282932.844   103529319.766       -2222.158          37.000  
E09  28035341.487   147326695.941       -1957.812          44.000    28035349.011   112886699.920       -1500.101          47.000  
R16  22154673.211   118346253.595       -2828.766          52.000    22154673.658    92047074.916       -2200.195          49.000  
R09  20625884.072   110141094.255         525.500          52.000    20625883.058    85665393.431         408.752          52.000  
R10  23149390.859   123399302.861        2631.011          44.000                                                                  
R20  21799767.542   116573152.023        2539.362          40.000    21799774.065    90668049.920        1974.999          43.000  
G29  21822551.669   114678331.682        -124.286          48.000    21822549.310    89359779.362         -96.826          44.000  
S33  40824915.999   214536361.410        -704.480          43.000  
S31  39871489.268   209526160.393        -703.831          44.000  
G28  23383745.084   122882420.714        1706.781          44.000    23383745.591    95752510.971        1330.073          45.000  
G11  24263152.745   127504006.466       -2894.359          42.000    24263150.182    99353880.051       -2255.490          44.000  
R18  23517912.200   125540299.472       -4645.050          47.000    23517911.664    97642487.879       -3612.704          48.000  
R19  20746359.859   110979371.036       -2309.219          40.000    20746357.566    86317012.077       -1796.091          47.000  
E04  28319865.312   148821812.472       -3193.923          39.000    28319879.262   114032335.261       -2447.236          41.000  
G12  22847032.260   120061968.770       -1773.488          47.000    22847028.955    93554774.706       -1381.954          41.000  
E33  25396227.077   133458081.175        1324.697          47.000    25396232.727   102260121.152        1015.034          54.000  
E31  25663042.658   134860317.616         638.725          47.000    25663046.898   103334598.410         489.331          51.000  
G20  25380805.186   133377165.248         694.019          39.000                                                                  
E14  20958244.969   110136453.091       -2585.931          50.000    20958249.518    84390235.301       -1981.378          53.000  
E26  25522640.254   134122729.844       -1278.154          48.000    25522639.480   102769556.432        -979.364          47.000  
E21  28544471.181   150002173.976       -2455.054          43.000    28544475.967   114936729.098       -1881.196          45.000  
G05  26287039.758   138139360.391        1483.593          40.000    26287045.501   107641084.221        1156.031          33.000  
> 2024 04 16 02 40 30.0040000  0 25                     
G25  21738803.857   114238235.786        -204.767          49.000    21738804.036    89016827.748        -159.657          47.000  
G18  25269652.610   132792937.046        3118.759          37.000    25269667.310   103475120.858        2430.646          40.000  
G24  24600714.089   129277592.430       -4283.914          37.000    24600717.722                       -3338.887          31.000  
G32  25299229.693   132948274.031       -2859.801          48.000    25299236.405   103596080.185       -2228.327          44.000  
E09  28046546.606   147385577.339       -1968.012          43.000    28046553.729   112931816.683       -1507.779          47.000  
R16  22170599.160   118431325.635       -2842.969          53.000    22170600.569    92113241.934       -2211.255          49.000  
R09  20622970.020   110125531.259         511.711          52.000    20622968.528    85653288.954         397.997          52.000  
R10  23134587.274   123320393.377        2629.512          43.000                                                                  
R20  21785569.833   116497233.569        2521.401          40.000    21785577.424    90609002.723        1961.308          45.000  
G29  21823297.099   114682248.407        -136.993          48.000    21823294.240    89362831.479        -107.028          44.000  
S33  40828935.530   214557485.825        -704.119          41.000  
S31  39875505.386   209547266.151        -703.503          46.000  
G28  23374038.639   122831407.158        1693.662          45.000    23374037.847    95712760.145        1319.794          45.000  
G11  24279718.416   127591057.834       -2909.330          41.000    24279714.827    99421712.337       -2267.231          44.000  
R18  23544036.908   125679757.217       -4652.481          47.000    23544036.219    97750955.121       -3618.558          47.000  
R19  20759375.050   111048995.754       -2332.655          41.000    20759372.661    86371164.756       -1814.395          47.000  
E04  28338098.010   148917628.990       -3193.973          39.000    28338113.285   114105752.589       -2447.432          43.000  
G12  22857174.138   120115260.250       -1779.536          48.000    22857170.062    93596300.233       -1386.752          41.000  
E33  25388693.350   133418496.943        1313.838          46.000    25388700.208   102229790.006        1006.785          53.000  
E31  25659398.398   134841170.746         637.626          47.000    25659403.124   103319927.516         488.568          51.000  
G20  25376873.159   133356508.635         682.857          36.000                                                                  
E14  20973070.475   110214364.301       -2608.383          50.000    20973075.075    84449933.646       -1998.659          53.000  
E26  25529976.061   134161282.359       -1292.385          48.000    25529976.201   102799096.473        -990.289          47.000  
E21  28558494.488   150075867.369       -2458.009          43.000    28558499.247   114993195.448       -1883.390          45.000  
G05  26278570.302   138094858.372        1482.906          43.000    26278575.976   107606408.764        1155.488          37.000  
> 2024 04 16 02 41 00.0040000  0 25                     
G25  21739992.241   114244479.991        -211.597          50.000    21739992.231    89021693.421        -164.875          47.000  
G18  25251849.594   132699384.254        3117.428          43.000    25251863.593   103402224.026        2428.958          44.000  
G24  24625185.886   129406223.9171      -4289.209          42.000    24625189.354   100836026.052       -3342.433          35.000  
G32  25315578.296   133034182.896       -2867.392          46.000    25315585.136   103663021.866       -2234.292          43.000  
E09  28057810.235   147444767.728       -1978.150          41.000    28057816.745   112977170.550       -1515.760          43.000  
R16  22186605.400   118516826.629       -2857.273          52.000    22186604.822    92179742.622       -2222.293          48.000  
R09  20620134.501   110110391.843         497.444          52.000    20620132.984    85641513.890         386.960          51.000  
R10  23119793.328   123241533.021        2627.593          44.000                                                                  
R20  21771470.303   116421846.449        2504.085          39.000    21771479.136    90550368.825        1947.601          45.000  
G29  21824115.696   114686552.119        -149.964          48.000    21824113.805    89366185.101        -116.804          44.000  
S33  40832955.161   214578609.418        -704.182          43.000  
S31  39879521.448   209568370.684        -703.704          44.000  
G28  23364407.957   122780795.329        1680.286          46.000    23364406.956    95673322.412        1309.245          45.000  
G11  24296370.741   127678568.524       -2924.891          40.000    24296367.511    99489902.558       -2278.980          44.000  
R18  23570204.894   125819442.368       -4659.959          47.000    23570203.465    97859599.221       -3624.320          46.000  
R19  20772522.780   111119322.109       -2356.155          41.000    20772519.974    86425863.138       -1832.350          48.000  
E04  28356333.352   149013459.543       -3194.526          38.000    28356349.568   114179180.665       -2447.683          43.000  
G12  22867351.111   120168744.672       -1786.052          47.000    22867348.135    93637976.322       -1391.842          42.000  
E33  25381224.199   133379246.360        1302.548          46.000    25381230.939   102199715.009         998.154          53.000  
E31  25655762.132   134822060.675         636.216          47.000    25655766.708   103305284.805         487.535          51.000  
G20  25373009.130   133336198.585         671.150          35.000                                                                  
E14  20988025.686   110292954.522       -2630.990          49.000    20988029.993    84510152.256       -2015.966          53.000  
E26  25537394.239   134200263.511       -1306.679          47.000    25537394.183   102828965.156       -1001.208          47.000  
E21  28572535.125   150149649.230       -2460.909          43.000    28572539.571   115049729.577       -1885.591          45.000  
G05  26270106.160   138050385.580        1481.778          44.000    26270111.589   107571756.047        1154.442          38.000  
> 2024 04 16 02 41 30.0040000  0 26                     
G25  21741219.469   114250929.065        -218.470          50.000    21741219.140    89026718.726        -170.234          47.000  
G18  25234056.780   132605889.621        3115.480          43.000    25234070.035   103329373.210        2427.642          42.000  
G24  24649688.523   129534985.775       -4294.665          47.000    24649692.045   100936368.7181      -3346.632          44.000  
G32  25331969.906   133120320.605       -2875.031          44.000    25331976.360   103730141.973       -2240.222          41.000  
E09  28069132.180   147504262.983       -1988.352          42.000    28069138.798   113022757.414       -1523.395          45.000  
R16  22202691.230   118602755.152       -2871.460          52.000    22202691.824    92246575.757       -2233.388          49.000  
R09  20617378.717   110095677.344         483.443          52.000    20617377.203    85630069.333         375.965          51.000  
R10  23105008.945   123162723.225        2626.250          44.000                                                                  
R20  21757472.483   116346991.235        2486.149          39.000    21757479.703    90492148.588        1933.887          44.000  
G29  21825008.329   114691240.268        -162.696          48.000    21825006.433    89369838.314        -126.715          45.000  
S33  40836974.259   214599730.015        -703.964          45.000  
S31  39883537.288   209589473.010        -703.228          44.000  
G28  23354854.067   122730586.400        1666.840          46.000    23354852.516    95634198.609        1298.821          46.000  
G11  24313110.222   127766535.101       -2939.927          40.000    24313107.671    99558448.000       -2290.700          45.000  
R18  23596415.057   125959349.680       -4667.373          49.000    23596412.502    97968416.116       -3630.219          45.000  
R19  20785799.609   111190345.163       -2379.320          41.000    20785797.000    86481103.396       -1850.352          48.000  
E04  28374572.211   149109300.727       -3194.798          38.000    28374587.226   114252616.997       -2447.822          40.000  
G12  22877565.788   120222421.229       -1792.437          49.000    22877561.989    93679802.132       -1396.834          44.000  
E33  25373818.912   133340329.102        1291.621          46.000    25373825.135   102169895.580         989.727          53.000  
E31  25652132.378   134802986.595         635.086          47.000    25652137.229   103290669.659         486.663          51.000  
G20  25369208.282   133316236.403         659.621          34.000                                                                  
E14  21003109.586   110372217.407       -2653.343          50.000    21003113.114    84570886.284       -2033.036          53.000  
E26  25544892.302   134239671.044       -1320.682          47.000    25544893.215   102859160.650       -1011.937          47.000  
E21  28586593.055   150223518.552       -2463.955          43.000    28586596.964   115106330.708       -1887.872          46.000  
G05  26261646.620   138005942.994        1480.910          39.000    26261654.876   107537126.899        1153.699          40.000  
E12                                                                  29187086.664                        1888.793          33.000  
> 2024 04 16 02 42 00.0040000  0 26                     
G25  21742486.291   114257584.846        -225.184          50.000    21742485.791    89031905.095        -175.415          47.000  
G18  25216275.128   132512460.662        3112.974          42.000    25216287.315   103256576.284        2425.549          43.000  
G32  25348404.372   133206684.390       -2882.416          45.000    25348410.531   103797438.188       -2246.393          41.000  
E09  28080511.779   147564062.981       -1998.271          40.000    28080518.632   113068577.893       -1531.116          43.000  
R16  22218856.618   118689111.635       -2885.481          51.000    22218857.685    92313741.845       -2244.275          47.000  
R09  20614702.969   110081390.912         469.305          51.000    20614701.790    85618957.705         365.034          52.000  
R10  23090235.045   123083967.144        2624.447          45.000                                                                  
R20  21743574.060   116272671.725        2468.768          39.000    21743580.935    90434345.014        1920.062          44.000  
G29  21825973.755   114696312.822        -175.337          49.000    21825971.611    89373791.087        -136.677          45.000  
S33  40840993.103   214620850.007        -703.726          45.000  
S31  39887552.532   209610573.234        -703.026          45.000  
G28  23345376.770   122680783.427        1653.525          46.000    23345375.068    95595391.119        1288.356          46.000  
G11  24329936.284   127854955.921       -2954.526          38.000    24329934.393    99627347.430       -2302.431          45.000  
R18  23622665.033   126099475.827       -4674.216          49.000    23622662.851    98077403.227       -3635.518          45.000  
R19  20799206.003   111262062.581       -2402.061          41.000    20799203.249    86536883.720       -1868.186          48.000  
E04  28392810.151   149205151.177       -3194.628          36.000    28392826.791   114326060.570       -2447.905          41.000  
G12  22887817.012   120276291.049       -1798.670          48.000    22887813.581    93721778.531       -1401.752          43.000  
E33  25366476.758   133301747.190        1280.442          45.000    25366482.681   102140333.249         981.287          52.000  
E31  25648509.685   134783949.612         634.074          47.000    25648514.719   103276082.941         485.896          51.000  
G20  25365475.515   133296624.972         648.251          33.000                                                                  
E14  21018319.957   110452148.485       -2675.301          50.000    21018323.356    84632132.328       -2049.912          53.000  
E26  25552473.233   134279504.876       -1334.792          48.000    25552473.991   102889682.816       -1022.682          48.000  
E21  28600665.531   150297476.272       -2466.424          42.000    28600670.777   115162999.626       -1890.008          46.000  
G05  26253194.665   137961534.246        1479.689          40.000    26253203.401   107502523.952        1153.048          38.000  
E12                                                                  29173020.871                3       1888.783          30.000  
G24                                                                  24674222.596                1      -3350.496          26.000  
> 2024 04 16 02 42 30.0040000  0 26                     
G25  21743792.286   114264446.938        -232.232          50.000    21743791.506    89037252.239        -181.080          47.000  
G18  25198502.590   132419088.315        3111.823          42.000    25198512.314   103183696.2641       2424.630          38.000  
G24  24698786.259   129792994.4461      -4305.433          39.000    24698791.009                1      -3354.811          32.000  
G32  25364880.634   133293269.857       -2889.995          44.000    25364887.904   103864907.160       -2251.958          41.000  
E09  28091947.964   147624165.038       -2008.565          41.000    28091956.007   113114629.999       -1539.022          48.000  
R16  22235103.087   118775894.567       -2900.022          53.000    22235103.402    92381239.724       -2255.608          48.000  
R09  20612107.803   110067533.486         454.629          52.000    20612107.136    85608179.755         353.622          52.000  
R10  23075471.356   123005265.765        2622.271          44.000                                                                  
R20  21729776.546   116198889.078        2450.476          39.000    21729782.175    90376958.974        1905.970          44.000  
G29  21827011.202   114701767.307        -188.276          49.000    21827009.896    89378041.441        -146.791          46.000  
S33  40845011.426   214641966.132        -704.024          45.000  
S31  39891567.476   209631670.645        -703.228          44.000  
G28  23335976.206   122631387.352        1639.469          46.000    23335974.970    95556900.685        1277.703          46.000  
G11  24346848.557   127943827.276       -2970.139          40.000    24346844.472    99696597.954       -2314.391          44.000  
R18  23648955.500   126239815.441       -4681.587          50.000    23648953.802    98186556.354       -3641.333          45.000  
R19  20812741.031   111334469.739       -2425.102          40.000    20812739.735    86593200.474       -1886.108          48.000  
E04  28411050.451   149301006.985       -3195.405          34.000    28411068.289   114399508.067       -2448.266          39.000  
G12  22898104.907   120330352.830       -1805.403          48.000    22898101.317    93763904.451       -1406.700          43.000  
E33  25359198.731   133263500.029        1269.110          46.000    25359204.095   102111027.291         972.510          52.000  
E31  25644893.781   134764948.747         632.727          47.000    25644898.983   103261523.904         484.719          51.000  
G20  25361810.768   133277365.466         635.931          35.000                                                                  
E14  21033656.600   110532741.332       -2697.501          50.000    21033659.746    84693885.417       -2066.878          53.000  
E26  25560133.948   134319762.905       -1349.081          48.000    25560135.076   102920530.106       -1033.673          48.000  
E21  28614755.897   150371521.251       -2469.787          42.000    28614760.791   115219735.380       -1892.434          46.000  
G05  26244750.456   137917161.435        1478.274          41.000    26244757.996   107467948.976        1152.154          41.000  
E12                                                                  29158949.917                        1888.568          30.000  
> 2024 04 16 02 43 00.0040000  0 26                     
G25  21745137.546   114271519.866        -239.117          49.000    21745137.103    89042763.652        -186.285          46.000  
G18  25180746.880   132325707.4391       3109.766          44.000    25180759.759   103110983.464        2422.711          42.000  
G24  24723380.112   129922238.260       -4310.485          37.000    24723384.718                3      -3350.943          19.000  
G32  25381399.629   133380077.152       -2897.280          45.000    25381408.026   103932548.890       -2257.589          42.000  
E09  28103443.526   147684570.476       -2018.210          40.000    28103451.367   113160914.555       -1546.594          47.000  
R16  22251429.535   118863106.594       -2914.048          52.000    22251427.764    92449071.288       -2266.549          46.000  
R09  20609594.253   110054111.372         440.243          52.000    20609593.929    85597740.361         342.460          52.000  
R10  23060717.871   122926624.683        2620.383          44.000                                                                  
R20  21716079.834   116125649.577        2432.342          39.000    21716085.075    90319995.376        1891.752          44.000  
G29  21828121.835   114707606.326        -200.861          48.000    21828120.256    89382591.421        -156.452          45.000  
S33  40849029.299   214663081.049        -703.865          45.000  
S31  39895581.985   209652767.002        -702.932          43.000  
G28  23326654.484   122582403.933        1625.994          45.000    23326653.477    95518731.848        1267.051          45.000  
G11  24363845.689   128033150.281       -2984.754          40.000    24363842.242    99766200.366       -2325.864          44.000  
R18  23675285.856   126380367.942       -4688.471          50.000    23675284.452    98295875.084       -3646.527          46.000  
R19  20826406.013   111407567.177       -2447.809          41.000    20826404.617    86650054.165       -1903.949          48.000  
E04  28429295.187   149396869.826       -3195.244          36.000    28429310.673   114472961.074       -2448.311          38.000  
G12  22908429.701   120384611.448       -1811.717          48.000    22908426.102    93806183.751       -1411.897          42.000  
E33  25351985.289   133225593.201        1258.034          47.000    25351990.066   102081982.382         963.859          53.000  
E31  25641286.053   134745987.862         631.543          47.000    25641290.724   103246995.501         483.862          51.000  
G20  25358216.227   133258463.999         624.266          37.000                                                                  
E14  21049118.593   110613994.201       -2719.212          50.000    21049121.448    84756144.232       -2083.591          53.000  
E26  25567875.281   134360448.536       -1363.298          48.000    25567876.734   102951705.550       -1044.708          48.000  
E21  28628863.644   150445657.106       -2472.578          42.000    28628868.204   115276540.774       -1894.583          46.000  
G05  26236312.399   137872829.266        1476.880          41.000    26236321.275   107433405.669        1151.094          40.000  
E12                                                                  29144877.608                1       1890.336          31.000  
> 2024 04 16 02 43 30.0040000  0 26                     
G25  21746522.395   114278799.805        -246.128          49.000    21746522.346    89048436.393        -191.858          47.000  
G18  25163003.775   132232457.928        3106.879          38.000    25163017.088   103038319.399        2421.362          36.000  
G24  24748001.723   130051628.3371      -4315.846          45.000    24748003.937   101338940.3001      -3363.148          43.000  
G32  25397959.288   133467098.305       -2904.365          45.000    25397967.903   104000357.320       -2263.301          41.000  
E09  28114994.007   147745272.511       -2028.505          39.000    28115002.445   113207426.233       -1554.236          45.000  
R16  22267834.205   118950742.613       -2928.355          52.000    22267835.510    92517232.610       -2277.624          49.000  
R09  20607161.690   110041121.738         425.682          52.000    20607161.099    85587637.371         331.089          52.000  
R10  23045975.645   122848041.675        2618.272          43.000                                                                  
R20  21702484.132   116052951.264        2414.463          37.000    21702489.182    90263452.644        1877.773          43.000  
G29  21829304.636   114713823.767        -213.616          48.000    21829302.534    89387436.307        -166.602          44.000  
S33  40853046.408   214684191.538        -703.816          44.000  
S31  39899595.611   209673858.704        -703.263          45.000  
G28  23317411.715   122533830.667        1611.977          45.000    23317409.770    95480882.557        1256.183          45.000  
G11  24380927.878   128122917.739       -2999.780          40.000    24380923.065    99836149.109       -2337.530          44.000  
R18  23701654.399   126521124.210       -4695.314          51.000    23701652.433    98405352.295       -3651.997          45.000  
R19  20840198.426   111481346.388       -2470.754          42.000    20840196.595    86707438.065       -1921.630          47.000  
E04  28447539.398   149492732.599       -3195.486          37.000    28447552.352   114546414.041       -2448.192          36.000  
G12  22918791.635   120439062.568       -1818.347          48.000    22918788.705    93848613.369       -1416.861          44.000  
E33  25344834.729   133188023.443        1246.529          47.000    25344840.246   102053196.190         955.223          54.000  
E31  25637684.144   134727062.470         630.011          47.000    25637689.164   103232494.304         482.733          51.000  
G20  25354687.115   133239917.725         612.617          35.000                                                                  
E14  21064703.624   110695897.042       -2741.047          50.000    21064706.626    84818901.075       -2100.274          53.000  
E26  25575697.205   134401554.492       -1377.350          48.000    25575698.315   102983202.742       -1055.369          48.000  
E21  28642987.030   150519879.130       -2475.794          42.000    28642992.243   115333412.212       -1897.000          46.000  
G05  26227884.116   137828536.456        1475.696          43.000    26227890.892   107398893.007        1149.831          39.000  
E12                                                                  29130803.477                3       1889.985          25.000  
> 2024 04 16 02 44 00.0040000  0 26                     
G25  21747948.086   114286290.673        -253.151          49.000    21747947.695    89054273.479        -197.168          47.000  
G18  25145273.327   132139288.522        3104.364          44.000    25145285.354   102965745.8861       2418.988          43.000  
G24  24772654.623   130181167.314       -4320.975          39.000    24772659.627   101439890.423       -3366.995          38.000  
G32  25414559.762   133554333.482       -2911.383          45.000    25414569.069   104068332.665       -2268.659          41.000  
E09  28126603.069   147806272.510       -2038.154          42.000    28126610.688   113254166.219       -1561.669          46.000  
R16  22284319.594   119038805.286       -2942.481          51.000    22284321.584    92585725.716       -2288.552          49.000  
R09  20604811.072   110028570.225         410.957          52.000    20604810.489    85577875.108         319.743          52.000  
R10  23031244.134   122769521.834        2616.236          42.000                                                                  
R20  21688991.299   115980800.046        2395.753          38.000    21688995.961    90207335.407        1863.598          43.000  
G29  21830559.940   114720421.674        -226.271          48.000    21830558.550    89392577.628        -176.443          45.000  
S33  40857063.499   214705300.339        -703.438          43.000  
S31  39903609.217   209694948.770        -702.882          44.000  
G28  23308248.475   122485672.614        1598.410          46.000    23308245.449    95443356.830        1245.440          45.000  
G11  24398095.109   128213130.052       -3014.520          40.000    24398090.729    99906444.500       -2348.961          44.000  
R18  23728060.578   126662083.308       -4702.033          51.000    23728058.622    98514987.237       -3656.929          44.000  
R19  20854118.410   111555807.150       -2493.540          41.000    20854115.321    86765352.076       -1939.260          47.000  
E04  28465782.147   149588596.040       -3195.491          37.000    28465791.638                       -2447.666          30.000  
G12  22929189.457   120493708.493       -1824.767          48.000    22929187.536    93891194.603       -1421.848          43.000  
E33  25337749.852   133150793.839        1235.335          47.000    25337754.970   102024670.509         946.550          54.000  
E31  25634090.248   134708175.880         628.999          47.000    25634094.918   103218022.832         481.901          51.000  
G20  25351225.102   133221731.781         599.555          35.000                                                                  
E14  21080411.883   110778447.541       -2762.459          49.000    21080415.254    84882154.183       -2116.617          53.000  
E26  25583599.713   134443083.440       -1391.276          49.000    25583600.490   103015024.018       -1065.981          50.000  
E21  28657128.673   150594190.417       -2478.594          44.000    28657133.254   115390352.030       -1899.130          46.000  
G05  26219463.398   137784287.829        1474.080          44.000    26219468.660   107364414.691        1148.591          37.000  
E12  29116722.879                1       2465.970          30.000    29116729.527                1       1889.349          32.000  
> 2024 04 16 02 44 30.0040000  0 26                     
G25  21749413.215   114293992.731        -260.304          49.000    21749413.657    89060275.155        -202.852          47.000  
G18  25127555.744   132046185.528        3102.240          39.000    25127568.001   102893187.812        2417.120          34.000  
G24  24797334.262   130310868.0951      -4325.519          38.000    24797339.803                1      -3370.501          33.000  
G32  25431200.635   133641778.350       -2918.353          46.000    25431209.246   104136471.432       -2274.015          41.000  
E09  28138268.052   147867567.754       -2048.338          42.000    28138274.704   113301132.346       -1569.307          45.000  
R16  22300885.963   119127293.186       -2956.785          52.000    22300887.410    92654549.580       -2299.806          50.000  
R09  20602543.014   110016458.654         396.281          52.000    20602541.999    85568455.048         308.252          52.000  
R10  23016526.099   122691067.390        2613.711          43.000                                                                  
R20  21675601.992   115909197.581        2377.612          40.000    21675606.043    90151644.995        1849.156          44.000  
G29  21831888.448   114727398.202        -238.967          49.000    21831886.249    89398013.940        -186.103          45.000  
S33  40861079.204   214726404.629        -703.500          42.000  
S31  39907621.545   209716034.640        -702.878          45.000  
G28  23299163.811   122437931.309        1584.270          46.000    23299160.622    95406155.853        1234.497          45.000  
G11  24415345.213   128303784.080       -3029.336          40.000    24415342.275    99977084.102       -2360.255          45.000  
R18  23754503.901   126803240.276       -4708.513          51.000    23754502.731    98624776.071       -3662.237          45.000  
R19  20868163.916   111630945.212       -2515.934          41.000    20868161.211    86823792.878       -1956.901          48.000  
E04  28484023.023   149684457.098       -3195.052          38.000    28484034.040   114693319.213       -2447.857          31.000  
G12  22939625.428   120548549.332       -1831.280          48.000    22939623.959    93933927.772       -1427.198          44.000  
E33  25330730.535   133113904.268        1223.780          47.000    25330735.090   101996404.916         937.593          53.000  
E31  25630503.937   134689327.747         627.535          47.000    25630508.151   103203580.820         480.835          51.000  
G20  25347831.366   133203907.456         587.855          34.000                                                                  
E14  21096243.092   110861639.724       -2783.927          49.000    21096246.125    84945898.970       -2133.152          53.000  
E26  25591582.904   134485032.655       -1405.333          49.000    25591583.206   103047166.732       -1076.778          49.000  
E21  28671286.712   150668590.378       -2481.556          43.000    28671291.369   115447359.803       -1901.467          47.000  
G05  26211050.860   137740086.825        1472.437          43.000    26211056.423   107329973.430        1147.135          38.000  
E12  29102647.609                        2465.508          28.000    29102657.313                        1888.939          34.000  
