     3.00           OBSERVATION DATA    M: Mixed            RINEX VERSION / TYPE
CONVBIN 2.4.3                           20240416 124442 UTC PGM / RUN BY / DATE 
format: u-blox UBX                                          COMMENT             
log: /home/regis/git/gnsspwv/obsdata/VERT00CHL/2024-04-16/VECOMMENT             
{self.marker}                                               MARKER NAME         
                                                            MARKER NUMBER       
GEODETIC                                                    MARKER TYPE         
{self.observer}     {self.institution}                      OBSERVER / AGENCY   
UNKNOWN             UBLOX-ZED-F9P                           REC # / TYPE / VERS 
UNKNOWN             TWIVSP6037L                             ANT # / TYPE        
  1713381.0000 -5047934.0000 -3490983.0000                  APPROX POSITION XYZ 
        0.0000        0.0000        0.0000                  ANTENNA: DELTA H/E/N
G    8 C1C L1C D1C S1C C2L L2L D2L S2L                      SYS / # / OBS TYPES 
R    8 C1C L1C D1C S1C C2C L2C D2C S2C                      SYS / # / OBS TYPES 
E    8 C1C L1C D1C S1C C7Q L7Q D7Q S7Q                      SYS / # / OBS TYPES 
S    4 C1C L1C D1C S1C                                      SYS / # / OBS TYPES 
  2024    04    16    12    30   00.4970000     GPS         TIME OF FIRST OBS   
  2024    04    16    12    44   30.4980000     GPS         TIME OF LAST OBS    
                                                            END OF HEADER       
> 2024 04 16 12 30 00.4970000  0 24                     
G31  22545034.283   118475009.7701        591.767          47.000    22545035.864    92318166.6911        460.985          42.000  
G02  19198842.761   100890599.6531      -1160.504          50.000                                                                  
G03  20298608.865   106669919.8521       -104.828          48.000    20298611.178    83119373.4681        -81.675          47.000  
G04  20469829.949   107569633.2441       1799.736          44.000    20469831.974    83820467.0811       1402.360          47.000  
R23  19954517.875   106743277.1451      -3780.243          51.000                                                                  
R24  18470176.059    98768136.7061        238.370          51.000    18470173.973    76819763.6671        185.276          48.000  
R02  20302632.290   108338421.4691       1646.817          51.000    20302635.054    84263287.5571       1280.825          47.000  
R08  21600470.561   115669463.4701      -4367.465          48.000    21600470.551    89965161.6461      -3396.887          48.000  
G21  19101593.181   100379499.0121      -2106.014          50.000                                                                  
S33  38931028.108   204583924.2901       -752.207          42.000  
S31  37978684.205   199579355.3721       -752.856          44.000  
E36  22667794.346   119120036.1751        -45.441          47.000    22667798.886    91273853.0391        -34.795          51.000  
E11  23065211.051   121208453.9801      -2277.216          47.000    23065212.313    92874051.4551      -1744.966          46.000  
R01  18663455.754    99767021.9121      -1620.784          48.000    18663457.034    77596417.4101      -1260.521          44.000  
R17  21711285.504   116181360.6321       3192.673          41.000    21711284.205    90363266.4421       2483.321          41.000  
G08  22764022.720   119625698.4971      -4383.769          40.000    22764029.369    93214821.4721      -3415.910          39.000  
E04  25584611.304   134447992.2501      -3220.324          45.000    25584616.643   103018599.3591      -2467.549          48.000  
G28  22749323.783   119548471.7241       -973.248          38.000    22749329.683    93154658.1931       -758.373          42.000  
E09  22692374.707   119249262.7221      -1168.071          49.000    22692377.544    91372781.9721       -894.984          49.000  
E34  25512841.381   134070897.3861       1648.767          43.000    25512849.051   102729626.9471       1263.489          46.000  
E05  22562717.358   118567812.3031       1427.790          49.000    22562722.962    90850676.5271       1094.015          51.000  
G17  21570325.801   113352789.3001       1041.936          42.000    21570324.691    88326854.8751        812.083          40.000  
E10  26393853.035   138700682.7691      -3009.746          43.000    26393865.594   106277305.5181      -2306.210          49.000  
E18  27299774.319   143461231.2481      -1639.143          42.000                                                                  
> 2024 04 16 12 30 30.4970000  0 24                     
G31  22541700.036   118457489.482         576.245          48.000    22541700.302    92304514.612         448.900          40.000  
G02  19205527.470   100925729.849       -1181.557          50.000                                                                  
G03  20299231.263   106673189.703        -113.153          48.000    20299233.213    83121921.381         -88.041          47.000  
G04  20459603.892   107515891.005        1782.832          45.000    20459604.994    83778590.068        1389.161          47.000  
R23  19975776.270   106856995.295       -3801.075          50.000                                                                  
R24  18468911.918    98761382.134         211.989          51.000    18468909.976    76814510.048         164.759          47.000  
R02  20293424.735   108289292.426        1628.413          51.000    20293428.536    84225076.128        1266.626          48.000  
R08  21624950.865   115800553.730       -4371.671          48.000    21624950.936    90067120.492       -3400.342          47.000  
G21  19113678.681   100443010.726       -2128.312          49.000                                                                  
S33  38935332.096   204606540.486        -755.310          42.000  
S31  37982990.452   199601985.910        -755.900          44.000  
E36  22668084.291   119121565.397         -56.403          46.000    22668089.777    91275024.764         -43.322          50.000  
E11  23078243.621   121276946.978       -2288.768          46.000    23078246.365    92926533.001       -1753.750          47.000  
R01  18672604.042    99815924.844       -1639.461          49.000    18672604.431    77634452.997       -1275.238          44.000  
R17  21693409.197   116085702.622        3184.238          40.000    21693408.711    90288865.789        2476.499          40.000  
G08  22789063.271   119757286.784       -4388.849          40.000    22789070.556    93317357.538       -3419.885          39.000  
E04  25603018.833   134544721.553       -3228.235          45.000    25603024.261   103092716.431       -2473.564          49.000  
G28  22754940.904   119577979.815        -994.051          40.000    22754944.020    93177651.395        -774.728          41.000  
E09  22699086.423   119284532.039       -1183.205          48.000    22699089.430    91399806.457        -906.554          50.000  
E34  25503439.165   134021484.173        1645.160          43.000    25503446.035   102691764.835        1260.784          46.000  
E05  22554600.327   118525157.239        1415.803          49.000    22554605.732    90817992.823        1084.898          51.000  
G17  21564438.535   113321861.148        1020.030          42.000    21564438.754    88302754.981         794.761          40.000  
E10  26411061.607   138791110.445       -3018.618          43.000    26411073.325   106346593.961       -2312.961          48.000  
E18  27309143.646   143510464.122       -1643.043          42.000                                                                  
> 2024 04 16 12 31 00.4970000  0 24                     
G31  22538454.566   118440432.456         560.503          47.000    22538454.599    92291223.470         436.488          41.000  
G02  19212331.735   100961486.985       -1202.627          50.000                                                                  
G03  20299900.122   106676703.668        -121.442          49.000    20299901.702    83124659.528         -94.630          47.000  
G04  20449472.282   107462651.209        1765.818          45.000    20449473.886    83737104.592        1376.173          47.000  
R23  19997150.129   106971331.882       -3821.753          50.000                                                                  
R24  18467795.366    98755411.664         185.633          51.000    18467793.484    76809866.332         144.319          47.000  
R02  20284319.901   108240707.551        1610.085          51.000    20284324.217    84187287.971        1252.271          48.000  
R08  21649452.916   115931760.544       -4375.742          47.000    21649453.209    90169169.946       -3403.245          48.000  
G21  19125891.105   100507186.257       -2150.513          49.000                                                                  
S33  38939652.580   204629243.619        -758.584          42.000  
S31  37987313.438   199624702.021        -758.999          44.000  
E36  22668437.192   119123420.326         -67.619          46.000    22668442.519    91276446.032         -51.755          50.000  
E11  23091341.603   121345777.212       -2300.434          46.000    23091344.394    92979272.945       -1762.593          47.000  
R01  18681857.027    99865384.591       -1658.082          49.000    18681857.209    77672921.635       -1289.661          45.000  
R17  21675581.977   115990305.726        3175.209          42.000    21675582.368    90214668.190        2469.694          41.000  
G08  22814130.340   119889013.361       -4393.665          40.000    22814137.566    93420001.371       -3423.578          39.000  
E04  25621467.057   134641675.072       -3235.880          44.000    25621473.540   103167005.309       -2479.350          49.000  
G28  22760674.653   119608107.114       -1015.092          41.000    22760676.370    93201127.110        -790.846          40.000  
E09  22705882.788   119320247.963       -1198.258          49.000    22705886.259    91427173.158        -918.137          50.000  
E34  25494056.334   133972174.545        1641.638          44.000    25494062.816   102653982.102        1257.952          47.000  
E05  22546549.546   118482853.327        1403.970          48.000    22546555.757    90785578.207        1075.818          51.000  
G17  21558677.829   113291590.168         997.783          42.000    21558679.553    88279167.137         777.442          41.000  
E10  26428319.388   138881797.263       -3027.414          44.000    26428330.493   106416081.013       -2319.715          48.000  
E18  27318533.905   143559810.442       -1647.153          42.000                                                                  
> 2024 04 16 12 31 30.4970000  0 25                     
G31  22535298.525   118423850.988         544.700          46.000    22535299.230    92278302.910         424.479          41.000  
G02  19219257.174   100997881.755       -1223.845          49.000                                                                  
G03  20300616.886   106680471.367        -129.933          49.000    20300619.065    83127595.386        -101.199          47.000  
G04  20439438.924   107409925.484        1749.003          46.000    20439439.641    83696019.675        1362.891          46.000  
R23  20018641.214   107086294.572       -3842.615          50.000                                                                  
R24  18466828.335    98750237.736         159.202          52.000    18466826.855    76805842.144         123.688          48.000  
R02  20275318.682   108192677.323        1591.680          51.000    20275323.315    84149931.192        1237.996          49.000  
R08  21673977.115   116063091.189       -4379.667          45.000    21673977.210    90271315.732       -3406.445          47.000  
G21  19138231.362   100572035.114       -2172.889          49.000                                                                  
S33  38943991.001   204652042.426        -761.333          42.000  
S31  37991654.448   199647515.041        -762.184          44.000  
E36  22668854.013   119125612.248         -78.705          46.000    22668859.617    91278125.538         -60.195          50.000  
E11  23104505.744   121414954.900       -2311.652          46.000    23104508.236    93032279.120       -1771.264          47.000  
R01  18691215.668    99915409.234       -1676.716          50.000    18691216.195    77711829.685       -1304.172          45.000  
R17  21657806.231   115895184.167        3166.122          41.000    21657806.920    90140684.732        2462.651          43.000  
G08  22839224.382   120020885.334       -4397.870          39.000    22839232.506    93522758.470       -3426.966          38.000  
E04  25639961.001   134738861.319       -3243.365          43.000    25639968.543   103241472.505       -2485.271          50.000  
G28  22766527.253   119638864.024       -1035.898          39.000    22766529.818    93225093.402        -806.978          41.000  
E09  22712765.598   119356419.596       -1213.122          48.000    22712769.631    91454889.041        -929.580          50.000  
E34  25484694.674   133922979.712        1637.950          44.000    25484701.524   102616287.354        1254.901          47.000  
E05  22538568.036   118440911.543        1392.080          48.000    22538574.256    90753441.038        1066.617          51.000  
G17  21553045.239   113261988.135         975.601          42.000    21553047.157    88256100.544         760.407          41.000  
E10  26445627.590   138972752.885       -3036.209          44.000    26445638.474   106485774.006       -2326.456          47.000  
E18  27327947.075   143609279.826       -1651.066          42.000                                                                  
G09                                                                  23800605.647                3       2153.656          26.000  
> 2024 04 16 12 32 00.4970000  0 25                     
G31  22532233.275   118407745.818         529.071          45.000    22532234.616    92265753.526         412.144          41.000  
G02  19226305.198   101034913.494       -1244.955          50.000                                                                  
G03  20301382.409   106684491.087        -138.136          49.000    20301384.179    83130727.607        -107.582          47.000  
G04  20429503.562   107357714.255        1731.816          47.000    20429504.460    83655335.638        1349.599          47.000  
R23  20040248.148   107201879.771       -3863.074          49.000                                                                  
R24  18466010.239    98745861.283         132.653          51.000    18466008.819    76802438.212         103.294          48.000  
R02  20266421.658   108145201.441        1573.388          50.000    20266425.284    84113005.577        1223.698          47.000  
R08  21698524.911   116194542.354       -4383.654          46.000    21698525.952    90373555.203       -3409.479          49.000  
G21  19150699.933   100637555.958       -2195.115          50.000                                                                  
S33  38948347.659   204674937.611        -764.617          42.000  
S31  37996013.823   199670423.577        -765.155          44.000  
E36  22669335.315   119128141.209         -89.710          46.000    22669340.979    91280063.287         -68.838          50.000  
E11  23117735.862   121484478.871       -2323.236          46.000    23117738.305    93085550.636       -1780.146          47.000  
R01  18700678.319    99965994.945       -1695.321          49.000    18700678.933    77751174.095       -1318.549          45.000  
R17  21640082.232   115800340.094        3156.919          43.000    21640084.064    90066917.098        2455.303          43.000  
G08  22864346.821   120152898.444       -4402.466          41.000    22864353.873    93625625.572       -3430.206          37.000  
E04  25658499.508   134836277.327       -3250.879          44.000    25658506.305   103316115.730       -2490.837          49.000  
G28  22772498.299   119670249.693       -1056.643          41.000    22772503.536    93249549.729        -823.010          43.000  
E09  22719734.783   119393044.750       -1228.209          48.000    22719739.019    91482952.423        -941.132          50.000  
E34  25475355.338   133873899.637        1634.309          43.000    25475362.087   102578680.497        1252.248          47.000  
E05  22530656.177   118399331.475        1380.120          48.000    22530661.619    90721581.023        1057.509          51.000  
G17  21547539.823   113233055.503         953.438          42.000    21547540.883    88233555.562         742.875          41.000  
E10  26462986.944   139063975.646       -3045.250          44.000    26462997.700   106555671.706       -2333.215          46.000  
E18  27337383.706   143658870.511       -1655.037          42.000                                                                  
G09                                                                  23784850.289                3       2146.514          26.000  
> 2024 04 16 12 32 30.4970000  0 25                     
G31  22529257.970   118392111.624         513.201          45.000    22529260.453    92253571.092         399.914          43.000  
G02  19233471.953   101072575.344       -1265.850          50.000                                                                  
G03  20302193.515   106688754.949        -146.399          47.000    20302194.664    83134050.070        -114.150          47.000  
G04  20419664.573   107306011.657        1714.884          46.000    20419665.591    83615047.984        1336.243          46.000  
R23  20061969.674   107318077.567       -3883.502          49.000                                                                  
R24  18465339.579    98742277.374         106.254          51.000    18465338.962    76799650.708          82.689          48.000  
R02  20257627.541   108098272.697        1555.109          51.000    20257631.545    84076505.567        1209.547          47.000  
R08  21723092.664   116326103.076       -4387.177          44.000    21723094.575    90475879.981       -3412.273          49.000  
G21  19163294.079   100703740.720       -2217.252          49.000                                                                  
S33  38952721.078   204697919.229        -767.575          42.000  
S31  38000390.103   199693419.080        -767.969          44.000  
E36  22669880.191   119131001.020        -100.996          47.000    22669885.051    91282254.525         -77.287          50.000  
E11  23131030.786   121554341.720       -2334.469          46.000    23131033.008    93139081.805       -1788.744          47.000  
R01  18710244.390   100017131.193       -1713.792          50.000    18710245.332    77790946.682       -1332.875          45.000  
R17  21622408.850   115705769.960        3147.864          43.000    21622410.879    89993362.535        2448.055          43.000  
G08  22889493.492   120285042.188       -4406.842          40.000    22889500.423    93728594.527       -3433.966          37.000  
E04  25677079.176   134933914.096       -3258.375          43.000    25677085.788   103390928.119       -2496.676          49.000  
G28  22778589.189   119702257.033       -1077.191          41.000    22778594.114    93274490.481        -839.368          43.000  
E09  22726789.045   119430115.020       -1243.183          48.000    22726793.141    91511356.861        -952.487          50.000  
E34  25466036.000   133824928.035        1630.507          43.000    25466043.161   102541156.769        1249.288          47.000  
E05  22522811.062   118358106.531        1368.171          48.000    22522816.466    90689993.107        1048.360          51.000  
G17  21542161.716   113204787.250         931.135          43.000    21542161.093    88211528.291         725.604          40.000  
E10  26480394.777   139155457.669       -3053.796          43.000    26480406.618   106625768.083       -2339.862          46.000  
E18  27346842.148   143708574.563       -1658.791          43.000                                                                  
G09                                                                  23769138.320                3       2142.297          25.000  
> 2024 04 16 12 33 00.4970000  0 25                     
G31  22526375.781   118376958.052         496.981          47.000    22526376.962    92241763.133         387.278          43.000  
G02  19240759.502   101110875.040       -1287.179          50.000                                                                  
G03  20303051.536   106693269.776        -154.724          46.000    20303053.278    83137568.083        -120.466          46.000  
G04  20409924.436   107254826.521        1697.593          47.000    20409925.075    83575163.519        1322.799          46.000  
R23  20083807.103   107434892.800       -3904.078          49.000                                                                  
R24  18464819.310    98739495.740          79.349          51.000    18464818.648    76797487.197          61.748          48.000  
R02  20248937.445   108051898.968        1536.597          51.000    20248940.536    84040437.244        1195.149          48.000  
R08  21747682.300   116457779.173       -4391.042          43.000    21747684.992    90578294.424       -3415.291          49.000  
G21  19176015.791   100770596.309       -2239.653          49.000                                                                  
S33  38957112.662   204720997.409        -770.953          42.000  
S31  38004784.306   199716510.280        -771.251          44.000  
E36  22670490.228   119134200.184        -112.340          48.000    22670493.911    91284705.805         -85.848          50.000  
E11  23144391.130   121624550.727       -2345.958          46.000    23144393.210    93192878.222       -1797.424          46.000  
R01  18719914.897   100068823.316       -1732.271          49.000    18719915.614    77831151.601       -1347.155          45.000  
R17  21604789.144   115611484.652        3138.128          42.000    21604791.182    89920029.455        2440.659          43.000  
G08  22914665.545   120417320.872       -4411.346          39.000    22914672.324    93831668.577       -3437.482          37.000  
E04  25695702.494   135031777.139       -3265.825          43.000    25695708.951   103465913.876       -2502.347          49.000  
G28  22784801.156   119734893.610       -1098.248          43.000    22784803.559    93299921.523        -855.841          43.000  
E09  22733929.456   119467636.667       -1258.122          49.000    22733933.307    91540107.171        -964.010          50.000  
E34  25456738.586   133776073.322        1626.633          42.000    25456746.396   102503722.598        1246.361          47.000  
E05  22515035.134   118317244.754        1356.096          48.000    22515041.024    90658683.487        1039.037          51.000  
G17  21536910.197   113177191.871         908.598          43.000    21536909.379    88190025.361         708.043          40.000  
E10  26497852.578   139247205.792       -3062.602          41.000    26497866.412   106696068.315       -2346.671          47.000  
E18  27356323.254   143758398.740       -1662.867          43.000                                                                  
G09                                                                  23753468.974                        2135.705          26.000  
> 2024 04 16 12 33 30.4970000  0 25                     
G31  22523582.744   118362281.684         481.500          47.000    22523584.465    92230327.060         375.158          44.000  
G02  19248167.994   101149807.598       -1308.051          49.000                                                                  
G03  20303957.213   106698029.768        -162.782          46.000    20303959.828    83141277.136        -126.718          47.000  
G04  20400282.050   107204155.071        1680.658          46.000    20400282.176    83535679.310        1309.678          46.000  
R23  20105761.029   107552317.769       -3924.086          51.000                                                                  
R24  18464448.069    98737512.915          52.976          50.000    18464447.968    76795944.980          41.204          48.000  
R02  20240350.367   108006075.193        1518.406          52.000    20240352.683    84004796.622        1180.963          48.000  
R08  21772294.198   116589562.017       -4394.501          45.000    21772294.546    90680791.930       -3417.932          49.000  
G21  19188864.638   100838117.044       -2261.604          49.000                                                                  
S33  38961521.245   204744163.815        -773.699          42.000  
S31  38009195.416   199739691.358        -773.954          44.000  
E36  22671163.138   119137734.519        -123.277          48.000    22671166.850    91287413.939         -94.547          50.000  
G09  23737833.892                3       2734.777          31.000    23737824.867                3       2131.596          25.000  
E11  23157816.850   121695100.598       -2356.937          47.000    23157818.240    93246935.838       -1806.071          46.000  
R01  18729687.240   100121063.114       -1750.254          49.000    18729687.800    77871782.526       -1361.409          45.000  
R17  21587223.451   115517482.503        3128.866          44.000    21587223.720    89846916.597        2433.348          43.000  
G08  22939860.904   120549726.121       -4415.375          38.000    22939868.486    93934841.246       -3440.588          39.000  
E04  25714366.334   135129859.511       -3272.780          42.000    25714373.137   103541067.696       -2507.719          48.000  
G28  22791131.054   119768154.259       -1118.738          43.000    22791132.167    93325838.853        -871.838          43.000  
E09  22741155.135   119505603.358       -1272.906          49.000    22741158.001    91569198.489        -975.254          50.000  
E34  25447463.382   133727331.310        1623.013          42.000    25447471.025   102466374.788        1243.618          47.000  
E05  22507328.033   118276741.621        1344.217          48.000    22507333.296    90627648.699        1029.993          51.000  
G17  21531785.618   113150265.142         886.214          42.000    21531786.771    88169043.464         690.929          41.000  
E10  26515361.514   139339214.156       -3070.882          41.000    26515375.911   106766567.949       -2353.153          47.000  
E18  27365827.015   143808337.182       -1666.512          44.000                                                                  
> 2024 04 16 12 34 00.4970000  0 25                     
G31  22520879.800   118348080.403         465.429          45.000    22520881.911    92219261.168         362.566          43.000  
G02  19255697.293   101189369.589       -1329.312          51.000                                                                  
G03  20304909.296   106703030.270        -170.855          46.000    20304911.764    83145173.629        -133.159          47.000  
G04  20390736.188   107153994.684        1663.359          45.000    20390736.883    83496593.337        1296.056          45.000  
R23  20127824.365   107670345.552       -3944.495          51.000                                                                  
R24  18464226.820    98736326.997          26.168          51.000    18464226.126    76795022.579          20.250          48.000  
R02  20231864.700   107960797.546        1500.040          51.000    20231867.979    83969580.766        1166.744          48.000  
R08  21796922.830   116721445.000       -4397.727          44.000    21796922.550    90783367.293       -3420.439          49.000  
G21  19201839.253   100906298.366       -2283.700          49.000                                                                  
S33  38965946.040   204767416.278        -776.722          42.000  
S31  38013622.774   199762957.169        -777.029          44.000  
E36  22671898.419   119141601.130        -134.465          48.000    22671902.751    91290376.637        -103.048          50.000  
G09  23722247.084   124661249.8243       2727.607          33.000    23722247.886                        2124.812          26.000  
E11  23171306.485   121765987.176       -2368.476          47.000    23171307.764    93301251.423       -1814.750          46.000  
R01  18739560.291   100173843.686       -1768.443          49.000    18739560.519    77912834.049       -1375.601          44.000  
R17  21569710.253   115423763.198        3119.172          45.000    21569709.830    89774023.791        2426.114          43.000  
G08  22965079.529   120682250.737       -4419.324          38.000    22965088.051    94038106.894       -3443.951          39.000  
E04  25733070.391   135228155.374       -3280.213          40.000    25733079.179   103616385.099       -2513.380          49.000  
G28  22797578.761   119802035.136       -1139.478          43.000    22797579.255    93352239.470        -888.019          42.000  
E09  22748463.562   119544009.909       -1287.589          49.000    22748466.479    91598626.842        -986.590          50.000  
E34  25438208.609   133678698.974        1619.194          41.000    25438216.714   102429111.023        1240.617          46.000  
E05  22499687.395   118236593.682        1332.230          47.000    22499693.568    90596886.060        1020.788          51.000  
G17  21526788.905   113124005.230         863.682          43.000    21526789.681    88148581.162         673.337          41.000  
E10  26532920.479   139431478.177       -3079.643          42.000    26532933.203   106837263.464       -2359.654          47.000  
E18  27375350.718   143858385.180       -1670.145          44.000                                                                  
> 2024 04 16 12 34 30.4970000  0 25                     
G31  22518266.080   118334351.976         449.822          45.000    22518268.750    92208563.704         350.560          43.000  
G02  19263344.711   101229557.160       -1349.794          50.000                                                                  
G03  20305905.612   106708266.646        -178.221          46.000    20305907.972    83149253.898        -138.944          47.000  
G04  20381287.598   107104342.725        1645.983          45.000    20381289.376    83457903.524        1283.160          46.000  
R23  20150000.027   107788969.474       -3963.839          51.000                                                                  
R24  18464153.822    98735936.025          -0.101          51.000    18464152.816    76794718.479          -0.066          48.000  
R02  20223481.352   107916062.479        1482.172          51.000    20223484.933    83934786.946        1152.789          48.000  
R08  21821568.461   116853421.465       -4400.631          43.000    21821568.901    90886015.370       -3422.773          49.000  
G21  19214939.257   100975135.538       -2305.418          50.000                                                                  
S33  38970386.437   204790750.293        -778.993          42.000  
S31  38018065.672   199786304.434        -779.509          44.000  
E36  22672696.330   119145797.007        -145.050          47.000    22672701.277    91293591.636        -111.325          50.000  
G09  23706702.507   124579555.1381       2719.774          34.000    23706712.559                        2118.887          29.000  
E11  23184858.297   121837206.256       -2379.452          46.000    23184860.697    93355821.802       -1823.223          46.000  
R01  18749534.827   100227157.961       -1785.878          49.000    18749534.411    77954300.670       -1389.108          44.000  
R17  21552248.538   115330326.159        3110.068          44.000    21552248.736    89701350.561        2418.760          43.000  
G08  22990320.586   120814887.537       -4422.986          39.000    22990327.758    94141459.951       -3446.313          38.000  
E04  25751816.324   135326658.849       -3286.961          41.000    25751823.605   103691861.584       -2518.403          49.000  
G28  22804143.730   119836532.245       -1160.321          43.000    22804144.150    93379120.318        -904.034          42.000  
E09  22755854.803   119582851.109       -1301.791          49.000    22755857.734    91628388.236        -997.393          50.000  
E34  25428973.905   133630173.295        1615.613          41.000    25428982.560   102391928.962        1238.263          46.000  
E05  22492114.390   118196797.464        1320.925          47.000    22492120.454    90566392.910        1012.154          51.000  
G17  21521918.230   113098409.520         842.177          42.000    21521918.259    88128636.410         656.545          41.000  
E10  26550526.177   139523993.111       -3087.762          43.000    26550538.263   106908151.282       -2366.119          47.000  
E18  27384893.806   143908538.005       -1673.324          44.000                                                                  
> 2024 04 16 12 35 00.4970000  0 25                     
G31  22515742.904   118321089.229         434.191          46.000    22515745.476    92198229.109         338.384          43.000  
G02  19271109.309   101270361.615       -1370.474          50.000                                                                  
G03  20306944.967   106713729.449        -185.965          46.000    20306947.198    83153510.620        -144.881          47.000  
G04  20371934.082   107055191.590        1629.962          45.000    20371936.491    83419604.018        1270.019          47.000  
R23  20172284.342   107908177.827       -3983.293          50.000                                                                  
R24  18464228.138    98736332.741         -26.364          51.000    18464227.520    76795027.021         -20.595          48.000  
R02  20215198.269   107871861.279        1464.374          52.000    20215201.869    83900408.338        1138.932          49.000  
R08  21846228.464   116985479.398       -4403.215          40.000    21846229.347    90988726.801       -3424.895          49.000  
G21  19228161.652   101044619.180       -2326.888          50.000                                                                  
S33  38974840.380   204814156.015        -781.466          42.000  
S31  38022522.489   199809724.059        -781.772          44.000  
E36  22673556.125   119150314.417        -155.936          47.000    22673561.024    91297052.989        -119.556          50.000  
G09  23691194.687   124498071.378        2712.331          36.000    23691204.055                        2113.591          31.000  
E11  23198472.470   121908748.829       -2390.187          47.000    23198474.907    93410640.039       -1831.455          46.000  
R01  18759605.692   100280994.282       -1803.222          49.000    18759605.771    77996173.309       -1402.602          44.000  
R17  21534839.484   115237165.984        3100.832          44.000    21534839.317    89628892.649        2411.397          43.000  
G08  23015580.319   120947624.491       -4425.934          39.000    23015587.528    94244891.019       -3449.060          36.000  
E04  25770598.555   135425359.394       -3293.360          41.000    25770605.976   103767489.052       -2523.362          49.000  
G28  22810822.656   119871636.691       -1180.341          41.000    22810825.407    93406474.410        -919.940          44.000  
E09  22763326.509   119622116.912       -1315.963          49.000    22763329.943    91658474.979       -1008.329          50.000  
E34  25419759.259   133581746.419        1612.541          41.000    25419767.123   102354822.640        1235.572          46.000  
E05  22484606.567   118157344.818        1309.247          47.000    22484612.858    90536163.032        1003.200          51.000  
G17  21517171.698   113073470.481         820.430          41.000    21517172.043    88109203.381         639.185          40.000  
E10  26568177.330   139616749.504       -3095.816          44.000    26568189.164   106979224.086       -2372.334          47.000  
E18  27394455.684   143958786.171       -1676.652          44.000                                                                  
> 2024 04 16 12 35 30.4970000  0 25                     
G31  22513308.308   118308290.773         418.914          46.000    22513310.430    92188256.300         326.458          44.000  
G02  19278991.185   101311780.093       -1390.836          50.000                                                                  
G03  20308026.955   106719414.581        -193.170          46.000    20308029.086    83157940.594        -150.545          47.000  
G04  20362676.276   107006539.236        1613.361          45.000    20362677.564    83381693.099        1257.253          46.000  
R23  20194677.295   108027964.403       -4002.506          50.000                                                                  
R24  18464449.956    98737515.701         -52.441          51.000    18464448.840    76795947.093         -40.872          49.000  
R02  20207014.444   107828190.659        1446.890          51.000    20207018.236    83866442.394        1125.372          49.000  
R08  21870903.984   117117612.794       -4406.003          37.000    21870904.034    91091496.934       -3426.520          49.000  
G21  19241506.083   101114745.108       -2348.259          50.000                                                                  
S33  38979307.739   204837629.871        -783.640          42.000  
S31  38026992.152   199833211.925        -784.084          44.000  
E36  22674475.683   119155150.848        -166.403          47.000    22674481.035    91300758.795        -127.558          50.000  
G09  23675728.286   124416795.991        2706.066          37.000    23675736.519                        2108.192          31.000  
E11  23212146.954   121980611.260       -2400.732          46.000    23212150.002    93465703.358       -1839.562          46.000  
R01  18769773.559   100335346.365       -1820.277          50.000    18769774.415    78038447.098       -1415.878          45.000  
R17  21517481.858   115144282.767        3091.575          46.000    21517481.816    89556650.120        2404.336          44.000  
G08  23040857.985   121080455.028       -4429.504          38.000    23040862.733    94348394.983       -3451.062          32.000  
E04  25789418.687   135524251.588       -3299.516          41.000    25789424.810   103843263.375       -2528.184          49.000  
G28  22817617.716   119907345.120       -1200.177          42.000    22817620.668    93434299.143        -935.419          44.000  
E09  22770877.616   119661802.642       -1329.703          48.000    22770882.025    91688883.484       -1018.904          50.000  
E34  25410563.267   133533415.921        1609.498          42.000    25410570.129   102317790.165        1233.158          46.000  
E05  22477163.298   118118232.796        1298.088          47.000    22477169.738    90506194.127         994.691          51.000  
G17  21512549.729   113049186.060         798.458          41.000    21512551.509    88090280.422         622.343          41.000  
E10  26585874.467   139709743.197       -3103.842          45.000    26585885.268   107050478.757       -2378.063          46.000  
E18  27404035.191   144009125.491       -1679.326          44.000                                                                  
> 2024 04 16 12 36 00.4970000  0 25                     
G31  22510961.819   118295959.821         403.172          47.000    22510963.396    92178647.771         314.036          42.000  
G02  19286990.317   101353814.005       -1411.404          51.000                                                                  
G03  20309152.046   106725322.748        -200.814          47.000    20309152.893    83162544.339        -156.429          46.000  
G04  20353513.217   106958388.177        1596.408          45.000    20353514.134    83344172.845        1243.988          46.000  
R23  20217178.247   108148327.535       -4021.822          51.000                                                                  
R24  18464818.384    98739488.147         -79.012          51.000    18464817.239    76797481.203         -61.590          49.000  
R02  20198929.217   107785051.951        1428.982          50.000    20198933.864    83832890.175        1111.326          50.000  
R08  21895592.090   117249820.249       -4408.436          35.000    21895593.181    91194324.646       -3428.587          48.000  
G21  19254971.664   101185513.724       -2369.706          48.000                                                                  
S33  38983787.655   204861173.402        -786.140          42.000  
S31  38031475.004   199856769.260        -786.400          45.000  
E36  22675457.174   119160308.668        -177.419          47.000    22675462.338    91304710.875        -136.008          49.000  
G09  23660301.649   124335732.085        2697.894          36.000    23660306.867                        2102.504          28.000  
E11  23225883.494   122052794.621       -2411.582          46.000    23225886.226    93521012.561       -1847.851          46.000  
R01  18780037.528   100390212.695       -1837.603          50.000    18780038.190    78081120.861       -1429.227          45.000  
R17  21500176.084   115051681.334        3081.779          45.000    21500176.915    89484626.760        2397.143          44.000  
G08  23066151.737   121213377.114       -4432.507          38.000    23066155.475                       -3453.766          29.000  
E04  25808273.122   135623334.961       -3306.126          40.000    25808280.002   103919184.184       -2533.275          49.000  
G28  22824527.822   119943658.710       -1220.831          41.000    22824530.999    93462595.405        -951.312          44.000  
E09  22778509.997   119701908.342       -1343.948          48.000    22778514.297    91719613.784       -1029.819          51.000  
E34  25401385.778   133485184.079        1605.859          43.000    25401392.008   102280833.267        1230.474          46.000  
E05  22469785.848   118079463.271        1286.509          47.000    22469792.327    90476487.656         985.683          51.000  
G17  21508054.701   113025558.743         776.620          43.000    21508055.512    88071869.492         605.051          41.000  
E10  26603615.413   139802974.764       -3111.655          44.000    26603627.478   107121915.691       -2384.426          47.000  
E18  27413632.663   144059556.553       -1682.679          45.000                                                                  
> 2024 04 16 12 36 30.4970000  0 25                     
G31  22508704.472   118284094.249         388.105          47.000    22508705.170    92169401.870         302.554          41.000  
G02  19295105.625   101396459.659       -1431.563          50.000                                                                  
G03  20310318.232   106731449.516        -207.669          47.000    20310319.191    83167318.431        -161.750          47.000  
G04  20344446.096   106910735.970        1580.258          46.000    20344446.332    83307041.315        1231.276          46.000  
R23  20239785.800   108269260.329       -4040.394          51.000                                                                  
R24  18465334.419    98742247.970        -104.991          52.000    18465334.208    76799627.700         -81.671          49.000  
R02  20190945.232   107742441.617        1411.729          51.000    20190948.996    83799748.914        1097.969          50.000  
R08  21920292.590   117382095.193       -4410.234          35.000    21920295.448    91297204.921       -3430.167          49.000  
G21  19268560.116   101256920.419       -2390.626          48.000                                                                  
S33  38988280.400   204884782.116        -787.837          42.000  
S31  38035970.031   199880392.305        -788.281          45.000  
E36  22676499.367   119165785.108        -187.798          47.000    22676504.294    91308907.084        -143.860          49.000  
G09  23644914.580   124254877.479        2691.927          37.000    23644921.597                        2097.200          26.000  
E11  23239680.448   122125294.910       -2421.739          46.000    23239682.391    93576564.618       -1855.542          46.000  
R01  18790395.678   100445586.684       -1854.073          49.000    18790397.003    78124189.465       -1442.063          44.000  
R17  21482923.877   114959361.476        3072.700          46.000    21482925.839    89412822.469        2389.917          45.000  
G08  23091462.015   121346383.950       -4435.180          35.000    23091468.787    94555611.746       -3455.430          30.000  
E04  25827163.461   135722603.894       -3311.907          40.000    25827170.654   103995247.161       -2537.644          50.000  
G28  22831553.186   119980573.644       -1240.338          42.000    22831555.595    93491360.221        -966.486          44.000  
E09  22786220.172   119742429.020       -1357.523          47.000    22786225.217    91750662.059       -1040.123          51.000  
E34  25392225.499   133437048.115        1603.147          42.000    25392232.305   102243949.863        1228.382          46.000  
E05  22462473.333   118041032.996        1275.517          47.000    22462479.325    90447041.119         977.328          52.000  
G17  21503683.631   113002586.417         755.070          43.000    21503684.623    88053968.914         588.458          42.000  
E10  26621402.577   139896439.786       -3119.180          45.000    26621414.309   107193531.461       -2389.967          48.000  
E18  27423246.066   144110074.873       -1685.192          45.000                                                                  
> 2024 04 16 12 37 00.4970000  0 25                     
G31  22506534.594   118272692.782         372.240          46.000    22506534.364    92160517.574         290.050          41.000  
G02  19303336.167   101439713.983       -1452.016          50.000                                                                  
G03  20311525.228   106737791.267        -215.014          47.000    20311526.884    83172260.035        -167.552          47.000  
G04  20335473.062   106863580.790        1563.468          46.000    20335473.133    83270297.078        1218.175          47.000  
R23  20262498.045   108390757.380       -4059.419          50.000                                                                  
R24  18465998.379    98745794.187        -131.445          52.000    18465996.537    76802385.848        -102.279          49.000  
R02  20183058.088   107700356.556        1393.888          51.000    20183062.356    83767016.222        1084.247          50.000  
R08  21944999.808   117514432.102       -4412.577          35.000    21945008.704    91400133.247       -3431.872          48.000  
G21  19282269.442   101328961.385       -2411.952          49.000                                                                  
S33  38992785.284   204908453.690        -790.004          42.000  
S31  38040477.337   199904077.027        -790.571          44.000  
E36  22677602.536   119171578.157        -198.524          47.000    22677606.228    91313345.889        -152.100          48.000  
G09  23629567.069   124174230.837        2684.534          35.000    23629572.050                1       2091.666          28.000  
E11  23253536.182   122198108.907       -2432.309          46.000    23253538.335    93632357.081       -1863.818          45.000  
R01  18800848.664   100501462.191       -1870.865          49.000    18800849.566    78167648.148       -1455.213          45.000  
R17  21465725.679   114867323.969        3063.027          47.000    21465727.388    89341237.729        2382.291          47.000  
G08  23116785.396                1      -4437.789          32.000    23116795.008                       -3457.584          27.000  
E04  25846088.128   135822053.538       -3318.362          38.000    25846095.317   104071448.623       -2542.479          50.000  
G28  22838692.443   120018086.771       -1260.583          39.000    22838694.666    93520591.211        -982.196          44.000  
E09  22794009.599   119783360.336       -1371.290          48.000    22794014.414    91782024.987       -1050.751          51.000  
E34  25383082.548   133389006.022        1599.693          42.000    25383090.476   102207138.396        1225.757          46.000  
E05  22455224.136   118002939.491        1263.975          47.000    22455230.532    90417852.633         968.484          52.000  
G17  21499436.307   112980267.349         733.109          44.000    21499437.126    88036577.414         571.354          42.000  
E10  26639232.262   139990134.457       -3127.009          45.000    26639243.738   107265323.220       -2396.082          48.000  
E18  27432875.366   144160676.720       -1688.129          45.000                                                                  
> 2024 04 16 12 37 30.4980000  0 25                     
G31  22504453.121   118261758.246         357.113          45.000    22504454.527    92151997.148         278.333          41.000  
G02  19311683.212   101483579.867       -1471.879          50.000                                                                  
G03  20312772.751   106744348.940        -221.735          47.000    20312774.265    83177369.894        -172.839          47.000  
G04  20326594.349   106816923.653        1547.327          47.000    20326594.113    83233940.923        1205.499          46.000  
R23  20285316.890   108512821.279       -4077.594          50.000                                                                  
R24  18466808.191    98750129.859        -157.369          51.000    18466807.508    76805758.032        -122.350          49.000  
R02  20175270.121   107658796.899        1376.880          51.000    20175273.856    83734692.183        1070.959          49.000  
R08  21969725.595   117646834.135       -4413.832          35.000    21969733.896    91503112.340       -3432.918          48.000  
G21  19296099.687   101401639.704       -2432.654          49.000                                                                  
S33  38997301.642   204932188.922        -791.743          42.000  
S31  38044996.759   199927826.460        -792.324          44.000  
E36  22678765.842   119177690.362        -208.791          48.000    22678769.318    91318029.246        -159.923          48.000  
G09  23614259.976   124093792.370        2678.237          33.000    23614267.723                        2087.740          30.000  
E11  23267452.917   122271240.121       -2442.417          46.000    23267454.718    93688392.566       -1871.381          45.000  
R01  18811395.041   100557839.655       -1886.986          49.000    18811396.291    78211497.237       -1467.762          45.000  
R17  21448579.634   114775570.459        3053.923          48.000    21448581.722    89269873.894        2375.281          47.000  
G08  23142125.657                1      -4439.832          33.000    23142134.049                       -3459.485          29.000  
E04  25865046.499   135921686.701       -3323.976          38.000    25865054.946   104147790.710       -2546.586          49.000  
G28  22845943.305   120056200.615       -1280.411          39.000    22845946.292    93550290.270        -997.135          43.000  
E09  22801877.925   119824703.785       -1384.531          49.000    22801881.641    91813703.690       -1060.837          51.000  
E34  25373957.807   133341058.534        1596.988          41.000    25373966.349   102170399.415        1223.537          46.000  
E05  22448039.579   117965183.387        1253.233          47.000    22448045.786    90388922.683         960.280          52.000  
G17  21495314.370   112958603.072         711.564          45.000    21495313.659    88019696.160         554.570          41.000  
E10  26657106.291   140084062.610       -3134.431          45.000    26657117.512   107337293.832       -2401.468          48.000  
E18  27442521.275   144211364.379       -1690.481          45.000                                                                  
> 2024 04 16 12 38 00.4980000  0 25                     
G31  22502460.845   118251287.201         341.621          44.000    22502461.842    92143837.878         266.000          42.000  
G02  19320145.577   101528049.076       -1492.183          50.000                                                                  
G03  20314060.652   106751115.638        -228.717          47.000    20314061.447    83182642.630        -178.186          46.000  
G04  20317810.346   106770763.053        1530.701          47.000    20317809.818    83197971.667        1192.859          46.000  
R23  20308237.904   108635434.942       -4096.063          50.000                                                                  
R24  18467765.120    98755250.665        -183.539          51.000    18467765.489    76809740.874        -142.822          49.000  
R02  20167579.797   107617759.767        1359.552          52.000    20167582.237    83702774.502        1057.434          48.000  
R08  21994463.804   117779283.760       -4415.419          39.000    21994469.071    91606128.437       -3434.166          48.000  
G21  19310049.717   101474943.997       -2453.625          50.000                                                                  
S33  39001829.198   204955980.731        -793.772          42.000  
S31  38049526.939   199951631.809        -794.212          45.000  
E36  22679988.869   119184116.429        -219.161          48.000    22679992.384    91322953.105        -167.895          49.000  
G09  23598993.758   124013563.290        2670.933          34.000    23599004.970    96633951.1101       2081.308          33.000  
E11  23281427.506   122344677.569       -2452.881          46.000    23281429.224    93744662.724       -1879.424          45.000  
R01  18822033.307   100614706.747       -1903.334          49.000    18822034.309    78255727.144       -1480.519          45.000  
R17  21431487.480   114684104.841        3044.350          48.000    21431489.247    89198733.984        2367.939          47.000  
G08  23167482.429                3      -4441.650          33.000    23167486.620                       -3461.353          31.000  
E04  25884036.373   136021489.072       -3329.565          36.000    25884046.772   104224262.451       -2551.030          49.000  
G28  22853310.758   120094906.581       -1299.626          40.000    22853312.635    93580450.757       -1012.625          44.000  
E09  22809821.425   119866449.399       -1397.955          48.000    22809825.511    91845690.557       -1071.171          51.000  
E34  25364850.377   133293203.975        1594.064          41.000    25364860.000   102133731.630        1221.353          47.000  
E05  22440918.167   117927761.811        1242.155          46.000    22440924.585    90360249.067         951.772          52.000  
G17  21491314.670   112937589.970         689.877          44.000    21491315.732    88003322.301         537.712          42.000  
E10  26675022.154   140178211.329       -3141.705          44.000    26675032.815   107409433.486       -2407.275          46.000  
E18  27452181.713   144262127.897       -1693.062          46.000                                                                  
> 2024 04 16 12 38 30.4980000  0 25                     
G31  22500555.647   118241278.155         325.654          43.000    22500557.293    92136038.616         253.793          43.000  
G02  19328722.514   101573120.221       -1512.397          50.000                                                                  
G03  20315387.102   106758088.106        -235.913          47.000    20315388.445    83188075.715        -183.795          47.000  
G04  20309120.472   106725095.827        1514.032          47.000    20309119.616    83162386.841        1179.724          45.000  
R23  20331261.751   108758596.724       -4114.490          49.000                                                                  
R24  18468869.366    98761155.588        -209.980          51.000    18468869.515    76814333.573        -163.298          49.000  
R02  20159986.382   107577240.981        1341.840          52.000    20159989.749    83671260.002        1043.707          48.000  
R08  22019209.965   117911779.878       -4417.325          43.000    22019211.614    91709180.700       -3435.735          47.000  
G21  19324118.145   101548872.390       -2474.798          50.000                                                                  
S33  39006367.179   204979826.740        -795.842          42.000  
S31  38054067.293   199975491.915        -796.337          44.000  
E36  22681271.291   119190854.764        -229.966          48.000    22681274.790    91328116.244        -176.215          49.000  
G09  23583765.871   123933539.569        2664.047          33.000    23583778.453    96571594.990        2074.856          33.000  
E11  23295460.737   122418420.645       -2463.381          47.000    23295462.308    93801167.043       -1887.594          45.000  
R01  18832762.572   100672059.260       -1919.854          49.000    18832764.152    78300334.590       -1493.279          45.000  
R17  21414448.681   114592924.479        3034.416          49.000    21414450.258    89127815.934        2360.178          48.000  
G08  23192846.793                3      -4443.384          31.000    23192853.616    94970757.914       -3462.799          35.000  
E04  25903061.675   136121459.305       -3335.162          38.000    25903071.003   104300862.797       -2555.568          50.000  
G28  22860789.517   120134202.989       -1319.596          40.000    22860790.818    93611071.322       -1028.697          44.000  
E09  22817841.200   119908594.465       -1411.492          48.000    22817845.473    91877983.505       -1081.604          51.000  
E34  25355761.484   133245439.006        1590.376          41.000    25355770.706   102097132.466        1218.796          47.000  
E05  22433860.088   117890671.193        1230.800          46.000    22433866.268    90331829.048         942.986          52.000  
G17  21487439.127   112917226.742         667.722          43.000    21487441.422    87987454.810         520.469          42.000  
E10  26692979.520   140272580.218       -3149.355          44.000    26692991.151   107481741.832       -2413.186          46.000  
E18  27461855.735   144312965.416       -1695.959          46.000                                                                  
> 2024 04 16 12 39 00.4980000  0 25                     
G31  22498737.937   118231731.556         310.470          43.000    22498740.552    92128599.717         242.029          43.000  
G02  19337413.517   101618791.805       -1532.502          50.000                                                                  
G03  20316752.788   106765264.422        -242.767          48.000    20316754.893    83193667.636        -189.136          47.000  
G04  20300524.229   106679921.781        1497.583          47.000    20300523.456    83127186.311        1166.919          45.000  
R23  20354387.587   108882302.239       -4132.593          50.000                                                                  
R24  18470121.017    98767844.831        -236.108          51.000    18470120.184    76819536.302        -183.656          49.000  
R02  20152490.032   107537239.091        1324.707          52.000    20152493.124    83640147.518        1030.310          48.000  
R08  22043960.755   118044318.757       -4418.406          40.000    22043961.442    91812266.221       -3436.813          47.000  
G21  19338305.086   101623423.156       -2495.439          51.000                                                                  
S33  39010915.009   205003725.279        -797.194          42.000  
S31  38058617.370   199999404.152        -798.137          44.000  
E36  22682612.079   119197904.988        -240.274          48.000    22682616.473    91333518.364        -184.138          49.000  
G09  23568577.879   123853721.427        2657.430          34.000    23568590.991                        2070.653          32.000  
E11  23309551.775   122492467.622       -2473.423          47.000    23309553.179    93857904.204       -1895.237          45.000  
R01  18843581.488   100729893.039       -1935.776          49.000    18843583.059    78345316.355       -1505.557          45.000  
R17  21397462.576   114502032.270        3024.871          48.000    21397463.982    89057122.006        2352.734          47.000  
G08  23218221.149   122012577.5621      -4446.283          33.000    23218230.262    95074665.409       -3464.764          37.000  
E04  25922117.985   136221594.215       -3340.654          40.000    25922125.951   104377589.342       -2559.707          50.000  
G28  22868379.601   120174088.267       -1339.420          39.000    22868381.040    93642150.717       -1043.709          44.000  
E09  22825936.801   119951136.363       -1424.617          49.000    22825941.294    91910580.524       -1091.617          52.000  
E34  25346689.541   133197763.258        1587.403          41.000    25346698.422   102060601.677        1216.596          47.000  
E05  22426864.042   117853910.652        1219.826          45.000    22426870.963    90303661.915         934.720          51.000  
G17  21483688.273   112897513.163         646.139          44.000    21483689.655    87972093.569         503.654          41.000  
E10  26710978.541   140367167.189       -3156.382          43.000    26710990.211   107554217.239       -2418.519          45.000  
E18  27471542.787   144363874.856       -1698.082          45.000                                                                  
> 2024 04 16 12 39 30.4980000  0 25                     
G31  22497008.764   118222644.609         295.391          42.000    22497012.480    92121518.970         230.138          44.000  
G02  19346217.599   101665059.465       -1551.979          49.000                                                                  
G03  20318156.480   106772639.439        -248.975          48.000    20318158.038    83199414.366        -194.092          47.000  
G04  20292020.982   106635237.541        1481.470          48.000    20292020.622    83092367.457        1154.437          46.000  
R23  20377614.143   109006544.379       -4150.104          50.000                                                                  
R24  18471517.935    98775315.508        -261.787          51.000    18471517.106    76825346.811        -203.660          49.000  
R02  20145088.152   107497749.552        1308.002          51.000    20145092.508    83609433.499        1017.383          48.000  
R08  22068718.922   118176892.916       -4419.412          43.000    22068719.683    91915379.133       -3437.311          47.000  
G21  19352608.479   101698590.834       -2515.569          50.000                                                                  
S33  39015471.963   205027671.315        -798.653          42.000  
S31  38063177.190   200023364.520        -799.180          44.000  
E36  22684012.932   119205263.587        -250.328          48.000    22684016.672    91339156.741        -191.795          49.000  
G09  23553430.883                        2650.682          32.000    23553432.941                        2066.266          30.000  
E11  23323698.781   122566813.785       -2482.985          46.000    23323700.970    93914870.622       -1902.552          45.000  
R01  18854489.261   100788200.879       -1951.232          49.000    18854490.560    78390666.862       -1517.584          45.000  
R17  21380529.550   114411427.048        3015.574          47.000    21380531.607    88986651.274        2345.487          46.000  
G08  23243610.224   122145975.350       -4447.271          35.000    23243616.106    95178611.406       -3465.198          38.000  
E04  25941203.325   136321887.442       -3345.554          41.000    25941211.451   104454437.199       -2563.384          50.000  
G28  22876080.849   120214557.620       -1358.718          38.000    22876082.161    93673685.238       -1058.453          42.000  
E09  22834106.749   119994069.229       -1437.325          49.000    22834111.175    91943477.110       -1101.373          52.000  
E34  25337633.364   133150173.216        1585.101          42.000    25337642.605   102024136.589        1214.560          48.000  
E05  22419931.471   117817476.145        1209.224          46.000    22419937.394    90275744.612         926.463          51.000  
G17  21480060.285   112878445.343         624.952          45.000    21480060.361    87957235.484         487.068          41.000  
E10  26729017.812   140461966.982       -3163.500          42.000    26729029.847   107626855.722       -2423.714          44.000  
E18  27481243.652   144414850.986       -1700.173          46.000                                                                  
> 2024 04 16 12 40 00.4980000  0 25                     
G31  22495366.935   118214012.728         279.953          46.000    22495370.263    92114792.861         218.068          44.000  
G02  19355134.693   101711917.224       -1571.812          49.000                                                                  
G03  20319596.350   106780206.482        -255.499          48.000    20319597.623    83205310.720        -199.048          46.000  
G04  20283610.525   106591038.195        1465.015          48.000    20283610.567    83057926.439        1141.663          46.000  
R23  20400938.893   109131313.282       -4167.857          50.000                                                                  
R24  18473060.361    98783563.093        -287.929          51.000    18473059.332    76831761.568        -223.958          49.000  
R02  20137783.219   107458766.215        1290.875          52.000    20137787.203    83579113.197        1004.077          48.000  
R08  22093481.319   118309493.958       -4420.473          43.000    22093482.438    92018512.983       -3438.245          47.000  
G21  19367028.888   101774368.374       -2536.081          50.000                                                                  
S33  39020037.033   205051659.397        -800.490          43.000  
S31  38067744.069   200047366.030        -800.870          44.000  
E36  22685470.575   119212925.394        -260.559          47.000    22685474.904    91345027.454        -199.678          49.000  
E11  23337903.015   122641452.746       -2492.896          47.000    23337904.666    93972061.374       -1910.005          45.000  
R01  18865483.994   100846973.132       -1966.928          49.000    18865485.666    78436378.579       -1529.878          45.000  
R17  21363650.712   114321106.409        3005.921          47.000    21363652.483    88916401.928        2337.805          47.000  
G08  23269001.520   122279413.397       -4448.456          35.000    23269009.270    95282588.806       -3466.516          37.000  
E04  25960318.100   136422331.087       -3350.847          41.000    25960325.421   104531400.300       -2567.430          50.000  
G28  22883890.227   120255604.665       -1377.901          37.000    22883892.057    93705669.922       -1073.776          41.000  
E09  22842349.373   120037385.650       -1450.246          49.000    22842354.187    91976667.572       -1111.263          52.000  
E34  25328592.351   133102663.849        1582.273          41.000    25328601.986   101987733.311        1212.312          48.000  
E05  22413058.848   117781362.046        1198.444          47.000    22413065.098    90248072.799         918.277          51.000  
G17  21476552.773   112860018.434         603.451          44.000    21476553.310    87942876.834         470.137          40.000  
E10  26747097.554   140556972.671       -3170.335          43.000    26747109.382   107699652.000       -2429.302          45.000  
E18  27490955.129   144465886.947       -1702.137          45.000                                                                  
G09                                                                  23538316.000    96385476.864        2060.532          31.000  
> 2024 04 16 12 40 30.4980000  0 25                     
G31  22493814.003   118205842.940         264.444          47.000    22493815.228    92108426.781         205.951          44.000  
G02  19364165.370   101759370.671       -1591.831          49.000                                                                  
G03  20321073.944   106787970.475        -262.256          48.000    20321075.440    83211360.558        -204.425          47.000  
G04  20275292.851   106547330.379        1448.517          47.000    20275292.655    83023868.436        1128.833          46.000  
R23  20424362.231   109256612.285       -4185.694          50.000                                                                  
R24  18474749.772    98792594.673        -314.406          52.000    18474748.414    76838786.097        -244.548          49.000  
R02  20130574.235   107420294.917        1273.657          52.000    20130577.547    83549191.142         990.539          49.000  
R08  22118250.117   118442124.756       -4421.697          43.000    22118251.893    92121669.920       -3439.074          49.000  
G21  19381564.993   101850759.908       -2556.670          49.000                                                                  
S33  39024610.367   205075694.070        -801.832          42.000  
S31  38072320.695   200071414.259        -802.671          44.000  
E36  22686988.012   119220896.970        -271.095          48.000    22686991.796    91351135.511        -207.703          49.000  
G09  23523238.584   123615430.9781       2636.784          33.000    23523244.650    96323752.934        2054.539          33.000  
E11  23352163.356   122716389.701       -2502.935          47.000    23352164.868    94029480.493       -1917.799          45.000  
R01  18876566.503   100906212.853       -1982.568          49.000    18876567.890    78482453.865       -1542.150          46.000  
R17  21346826.875   114231079.429        2995.831          48.000    21346829.123    88846380.964        2330.057          47.000  
G08  23294401.115   122412894.092       -4450.299          34.000    23294410.125    95386599.433       -3468.097          37.000  
E04  25979460.260   136522928.871       -3355.900          40.000    25979468.692   104608481.539       -2571.432          49.000  
G28  22891811.064   120297234.775       -1397.622          37.000    22891813.864    93738108.959       -1089.040          39.000  
E09  22850666.324   120081089.855       -1463.457          49.000    22850670.883    92010155.162       -1121.315          53.000  
E34  25319568.141   133055241.739        1578.973          41.000    25319577.757   101951396.892        1209.918          48.000  
E05  22406248.010   117745574.381        1187.286          46.000    22406254.849    90220651.101         909.735          51.000  
G17  21473169.461   112842238.715         581.685          45.000    21473170.548    87929022.495         453.071          41.000  
E10  26765217.157   140652189.094       -3177.620          43.000    26765229.049   107772609.732       -2434.845          45.000  
E18  27500678.830   144516987.579       -1704.528          44.000                                                                  
> 2024 04 16 12 41 00.4980000  0 25                     
G31  22492347.903   118198141.338         249.230          47.000    22492348.927    92102425.584         193.940          44.000  
G02  19373309.622   101807423.979       -1611.491          49.000                                                                  
G03  20322589.893   106795935.103        -268.628          49.000    20322591.025    83217566.731        -209.222          46.000  
G04  20267069.693   106504119.495        1432.306          47.000    20267069.705    82990197.658        1116.125          46.000  
R23  20447884.584   109382442.203       -4202.875          50.000                                                                  
R24  18476586.712    98802416.161        -340.312          51.000    18476585.196    76846425.017        -264.687          49.000  
R02  20123462.119   107382339.494        1256.781          52.000    20123466.056    83519670.330         977.478          50.000  
R08  22143024.111   118574787.322       -4422.228          45.000    22143025.016    92224851.597       -3439.571          46.000  
G21  19396220.108   101927769.158       -2576.955          50.000                                                                  
S33  39029193.970   205099779.729        -803.602          42.000  
S31  38076907.007   200095513.732        -803.920          44.000  
E36  22688565.339   119229183.557        -281.211          48.000    22688568.899    91357484.948        -215.580          50.000  
G09  23508208.506   123536429.678        2629.816          37.000    23508214.055    96262193.442        2049.288          34.000  
E11  23366480.285   122791628.652       -2512.466          46.000    23366482.146    94087130.997       -1925.221          45.000  
R01  18887736.086   100965921.439       -1997.871          49.000    18887737.087    78528893.817       -1554.017          45.000  
R17  21330060.444   114141354.339        2986.031          49.000    21330062.011    88776594.826        2322.441          47.000  
G08  23319809.440   122546418.531       -4450.750          33.000    23319818.808    95490644.129       -3468.768          36.000  
E04  25998635.339   136623683.244       -3360.709          41.000    25998642.024   104685682.755       -2575.194          50.000  
G28  22899844.822   120339451.869       -1416.762          38.000    22899847.752    93771005.374       -1104.080          40.000  
E09  22859057.543   120125184.755       -1476.011          49.000    22859061.994    92043942.118       -1130.997          53.000  
E34  25310561.415   133007912.127        1576.607          41.000    25310571.214   101915131.364        1207.961          48.000  
E05  22399500.945   117710117.876        1176.679          47.000    22399507.913    90193483.133         901.582          51.000  
G17  21469911.250   112825112.371         560.272          46.000    21469912.001    87915677.240         436.486          41.000  
E10  26783377.191   140747619.705       -3184.266          44.000    26783389.870   107845731.593       -2439.898          46.000  
E18  27510415.738   144568156.395       -1706.302          44.000                                                                  
> 2024 04 16 12 41 30.4980000  0 25                     
G31  22490969.759   118190901.925         233.580          46.000    22490970.949    92096784.503         182.080          44.000  
G02  19382566.156   101856068.915       -1631.325          49.000                                                                  
G03  20324141.802   106804091.773        -275.208          49.000    20324142.892    83223922.554        -214.410          46.000  
G04  20258939.731   106461398.599        1415.833          47.000    20258940.785    82956908.695        1103.156          47.000  
R23  20471504.373   109508792.157       -4220.391          50.000                                                                  
R24  18478569.931    98813021.074        -366.627          52.000    18478568.265    76854673.262        -285.081          49.000  
R02  20116444.134   107344892.394        1239.709          51.000    20116448.958    83490544.849         964.331          50.000  
R08  22167801.565   118707470.460       -4423.284          44.000    22167803.149    92328049.320       -3440.170          47.000  
G21  19410989.933   102005387.105       -2597.498          50.000                                                                  
S33  39033785.038   205123907.254        -804.752          42.000  
S31  38081500.684   200119654.821        -805.624          44.000  
E36  22690200.502   119237778.038        -291.571          48.000    22690204.661    91364070.315        -223.471          50.000  
G09  23493214.750   123457632.796        2623.172          37.000    23493219.210    96200793.284        2043.715          35.000  
E11  23380852.990   122867161.318       -2522.744          45.000    23380855.231    94145006.566       -1932.899          44.000  
R01  18898991.127   101026087.825       -2013.229          49.000    18898992.010    78575689.816       -1565.757          45.000  
R17  21313348.464   114051926.351        2975.819          48.000    21313350.050    88707039.770        2314.451          47.000  
G08  23345226.497   122679975.616       -4452.649          34.000    23345234.330    95594714.240       -3469.812          35.000  
E04  26017834.823   136724584.355       -3366.005          39.000    26017842.743   104762996.344       -2578.942          49.000  
G28  22907989.433   120382247.659       -1436.071          39.000    22907991.827    93804352.633       -1119.155          40.000  
E09  22867521.458   120169660.938       -1488.874          49.000    22867525.720    92078021.228       -1140.854          53.000  
E34  25301571.460   132960668.056        1573.369          41.000    25301580.998   101878931.374        1205.511          48.000  
E05  22392816.843   117674984.880        1165.626          48.000    22392822.624    90166563.062         893.183          51.000  
G17  21466775.193   112808632.268         538.399          46.000    21466775.338    87902835.544         419.663          41.000  
E10  26801576.634   140843255.711       -3191.259          43.000    26801589.206   107919010.851       -2445.331          47.000  
E18  27520164.269   144619384.608       -1708.634          44.000                                                                  
> 2024 04 16 12 42 00.4980000  0 25                     
G31  22489679.550   118184123.686         218.184          47.000    22489681.398    92091502.824         170.099          44.000  
G02  19391935.571   101905303.254       -1650.956          49.000                                                                  
G03  20325730.392   106812437.478        -281.305          50.000    20325730.962    83230425.672        -219.189          46.000  
G04  20250903.494   106419166.362        1399.670          47.000    20250904.217    82924000.465        1090.662          47.000  
R23  20495219.897   109635656.587       -4237.414          49.000                                                                  
R24  18480698.848    98824408.250        -392.667          51.000    18480698.256    76863529.937        -305.324          49.000  
R02  20109521.218   107307950.588        1222.992          52.000    20109525.062    83461812.396         951.227          49.000  
R08  22192583.215   118840169.980       -4423.525          44.000    22192585.348    92431259.745       -3440.612          47.000  
G21  19425875.379   102083610.278       -2617.618          49.000                                                                  
S33  39038383.945   205148074.506        -806.217          42.000  
S31  38086102.449   200143836.464        -806.691          44.000  
E36  22691894.228   119246679.005        -301.772          48.000    22691898.420    91370890.516        -231.185          50.000  
G09  23478258.787   123379039.614        2616.344          37.000    23478262.662    96139551.838        2038.568          36.000  
E11  23395282.058   122942984.889       -2532.423          45.000    23395284.382    94203105.041       -1940.441          45.000  
R01  18910331.776   101086706.519       -2028.143          49.000    18910331.919    78622837.637       -1577.318          44.000  
R17  21296692.492   113962797.057        2966.018          48.000    21296694.339    88637717.030        2306.797          48.000  
G08  23370647.188   122813559.698       -4453.119          30.000    23370653.722    95698805.412       -3469.916          33.000  
E04  26037063.827   136825627.890       -3370.388          40.000    26037070.846   104840419.145       -2582.600          48.000  
G28  22916242.153   120425619.253       -1455.832          35.000    22916246.670    93838148.630       -1133.782          39.000  
E09  22876056.808   120214514.684       -1501.436          49.000    22876061.232    92112389.635       -1150.424          53.000  
E34  25292596.662   132913508.184        1570.722          40.000    25292606.574   101842795.909        1203.543          48.000  
E05  22386192.380   117640173.480        1154.972          48.000    22386198.132    90139889.418         885.032          51.000  
G17  21463761.716   112792796.552         517.121          46.000    21463762.317    87890495.976         402.850          42.000  
E10  26819814.378   140939093.917       -3197.908          43.000    26819827.011   107992445.038       -2450.374          47.000  
E18  27529923.358   144670669.105       -1710.406          44.000                                                                  
> 2024 04 16 12 42 30.4980000  0 25                     
G31  22488476.269   118177799.395         203.322          47.000    22488478.265    92086574.871         158.405          44.000  
G02  19401414.132   101955118.385       -1670.266          48.000                                                                  
G03  20327352.523   106820963.161        -287.213          49.000    20327353.094    83237069.033        -223.663          46.000  
G04  20242958.615   106377415.379        1383.588          46.000    20242959.024    82891467.247        1078.168          46.000  
R23  20519030.580   109763023.732       -4253.955          50.000                                                                  
R24  18482973.523    98836570.453        -418.306          51.000    18482972.423    76872989.426        -325.453          49.000  
R02  20102690.833   107271505.581        1206.525          51.000    20102695.788    83433466.358         938.367          50.000  
R08  22217364.006   118972874.295       -4423.534          44.000    22217367.049    92534473.907       -3440.439          46.000  
G21  19440873.785   102162428.974       -2637.170          49.000                                                                  
S33  39042988.886   205172273.254        -807.400          42.000  
S31  38090709.828   200168048.734        -807.523          44.000  
E36  22693645.235   119255878.912        -311.774          48.000    22693649.284    91377939.773        -238.870          50.000  
G09  23463339.934   123300643.128        2609.597          38.000    23463343.891    96078463.671        2033.502          37.000  
E11  23409764.445   123019090.552       -2541.844          45.000    23409767.190    94261419.627       -1947.528          45.000  
R01  18921754.390   101147766.410       -2042.536          49.000    18921755.046    78670328.624       -1588.892          44.000  
R17  21280090.724   113873961.177        2956.332          48.000    21280093.118    88568622.484        2299.337          47.000  
G08  23396070.101                1      -4453.415          26.000    23396073.825                       -3470.989          32.000  
E04  26056317.155   136926803.741       -3374.861          40.000    26056324.045   104917943.229       -2585.814          48.000  
G28  22924603.313   120469557.932       -1473.992          40.000    22924608.010    93872386.469       -1148.739          40.000  
E09  22884661.625   120259736.118       -1513.469          49.000    22884666.295    92147039.790       -1159.761          53.000  
E34  25283637.401   132866425.109        1568.042          40.000    25283646.812   101806719.291        1201.456          48.000  
E05  22379627.271   117605675.552        1144.813          47.000    22379633.108    90113455.992         877.071          51.000  
G17  21460869.928   112777598.185         496.118          46.000    21460870.149    87878653.067         386.603          42.000  
E10  26838088.266   141035125.037       -3204.179          42.000    26838101.562   108066027.070       -2455.235          47.000  
E18  27539691.637   144722000.697       -1711.907          44.000                                                                  
> 2024 04 16 12 43 00.4980000  0 25                     
G31  22487360.816   118171938.231         187.637          47.000    22487362.806    92082007.769         146.288          44.000  
G02  19411005.316   102005521.167       -1689.824          48.000                                                                  
G03  20329009.851   106829675.469        -293.347          49.000    20329010.959    83243857.831        -228.625          46.000  
G04  20235105.299   106336153.869        1367.224          45.000    20235107.018    82859315.480        1065.454          46.000  
R23  20542935.175   109890898.222       -4270.917          50.000                                                                  
R24  18485393.853    98849516.668        -444.555          51.000    18485392.990    76883058.660        -345.637          49.000  
R02  20095955.042   107235564.682        1189.600          51.000    20095959.857    83405512.410         925.293          49.000  
R08  22242146.899   119105588.645       -4424.001          43.000    22242150.214    92637695.829       -3440.703          45.000  
G21  19455987.002   102241849.258       -2657.398          49.000                                                                  
S33  39047601.245   205196509.771        -808.160          42.000  
S31  38095324.661   200192299.612        -808.788          44.000  
E36  22695453.575   119265385.938        -321.868          48.000    22695458.288    91385224.350        -246.632          50.000  
G09  23448459.372   123222452.011        2603.111          37.000    23448465.019    96017535.585        2027.941          37.000  
E11  23424302.427   123095485.219       -2551.413          46.000    23424304.332    94319955.695       -1954.997          44.000  
R01  18933259.844   101209271.379       -2057.385          49.000    18933259.765    78718165.770       -1600.433          43.000  
R17  21263545.976   113785430.164        2945.927          48.000    21263548.851    88499765.069        2291.359          47.000  
E04  26075596.127   137028117.141       -3379.220          40.000    26075603.222   104995572.784       -2589.281          46.000  
G28  22933075.570   120514070.446       -1492.960          40.000    22933081.210    93907071.432       -1163.545          40.000  
E09  22893337.917   120305331.082       -1525.963          49.000    22893342.489    92181976.146       -1169.215          53.000  
E34  25274694.942   132819427.084        1565.204          41.000    25274703.204   101770707.822        1199.427          48.000  
E05  22373124.853   117571498.792        1133.940          48.000    22373129.046    90087268.625         868.854          51.000  
G17  21458100.444   112763045.157         474.244          46.000    21458100.990    87867313.014         369.702          43.000  
E10  26856400.185   141131355.496       -3210.876          42.000    26856413.667   108139761.824       -2460.317          47.000  
E18  27549470.074   144773385.803       -1713.651          44.000                                                                  
G08                                                                  23421500.299                       -3470.760          26.000  
> 2024 04 16 12 43 30.4980000  0 25                     
G31  22486332.962   118166539.610         172.443          47.000    22486335.616    92077801.123         134.365          44.000  
G02  19420708.333   102056510.076       -1709.368          48.000                                                                  
G03  20330702.565   106838572.123        -299.567          49.000    20330704.311    83250790.268        -233.704          46.000  
G04  20227346.487   106295381.152        1350.983          45.000    20227347.050    82827544.593        1052.551          46.000  
R23  20566933.985   110019275.009       -4287.503          49.000                                                                  
R24  18487960.836    98863246.194        -470.693          51.000    18487960.592    76893737.167        -366.082          49.000  
R02  20089313.636   107200125.714        1172.906          51.000    20089317.743    83377948.830         912.152          48.000  
R08  22266930.682   119238308.322       -4424.052          44.000    22266933.693    92740921.961       -3440.957          42.000  
G21  19471213.643   102321868.426       -2677.183          48.000                                                                  
S33  39052220.197   205220782.379        -809.537          42.000  
S31  38099946.448   200216585.438        -810.142          45.000  
E36  22697321.134   119275199.334        -332.217          47.000    22697325.880    91392743.682        -254.598          50.000  
G09  23433619.004   123144466.215        2595.842          37.000    23433625.353    95956767.465        2022.768          38.000  
E11  23438894.330   123172166.801       -2560.782          45.000    23438896.349    94378711.597       -1962.136          44.000  
R01  18944847.917   101271217.020       -2072.202          49.000    18944848.325    78766345.662       -1611.802          44.000  
R17  21247059.430   113697205.837        2935.637          49.000    21247061.652    88431146.189        2283.288          47.000  
E04  26094901.089   137129564.649       -3383.882          40.000    26094908.719   105073305.076       -2592.768          47.000  
G28  22941654.526   120559154.601       -1512.300          37.000    22941659.913    93942201.796       -1178.278          36.000  
E09  22902085.293   120351296.498       -1538.423          49.000    22902089.566    92217196.352       -1178.784          53.000  
E34  25265767.383   132772513.421        1562.333          41.000    25265775.527   101734761.027        1197.101          47.000  
E05  22366681.480   117537641.852        1123.298          48.000    22366686.620    90061326.312         860.738          51.000  
G17  21455453.629   112749136.727         452.873          46.000    21455454.803    87856475.247         352.932          43.000  
E10  26874750.222   141227782.760       -3217.412          43.000    26874763.495   108213647.381       -2465.236          47.000  
E18  27559258.137   144824821.984       -1715.265          44.000                                                                  
G08                                                                  23446929.491                3      -3476.763          22.000  
> 2024 04 16 12 44 00.4980000  0 25                     
G31  22485393.702   118161600.902         156.834          48.000    22485394.881    92073952.831         122.134          44.000  
G02  19430522.573   102108080.434       -1728.788          48.000                                                                  
G03  20332430.455   106847648.269        -305.566          49.000    20332431.875    83257862.571        -238.086          47.000  
G04  20219681.333   106255093.966        1334.790          46.000    20219680.237    82796151.977        1039.874          45.000  
R23  20591025.944   110148146.702       -4304.086          49.000                                                                  
R24  18490675.164    98877756.144        -496.662          51.000    18490674.073    76905022.653        -386.288          49.000  
R02  20082765.709   107165184.534        1156.347          51.000    20082768.783    83350772.410         899.469          48.000  
R08  22291716.722   119371026.933       -4423.819          46.000    22291717.214    92844147.290       -3440.613          43.000  
G21  19486554.630   102402480.819       -2697.043          49.000                                                                  
S33  39056845.142   205245086.574        -811.196          42.000  
S31  38104574.303   200240903.880        -811.299          44.000  
E36  22699246.003   119285315.702        -342.203          47.000    22699250.979    91400495.155        -262.286          50.000  
G09  23418818.620   123066682.912        2589.041          37.000    23418824.471    95896157.139        2017.689          38.000  
E11  23453540.339   123249130.663       -2570.134          45.000    23453542.168    94437683.785       -1969.136          45.000  
R01  18956517.356   101333595.924       -2086.590          49.000    18956517.766    78814862.531       -1622.900          44.000  
R17  21230629.600   113609287.506        2925.457          48.000    21230632.112    88362765.340        2275.269          47.000  
E04  26114229.937   137231140.184       -3388.014          40.000    26114238.284   105151135.439       -2596.050          47.000  
G28  22950338.935   120604805.707       -1531.325          35.000    22950345.178    93977774.060       -1193.023          37.000  
E09  22910900.993   120397626.668       -1550.452          49.000    22910905.900    92252696.057       -1188.029          53.000  
E34  25256855.590   132725680.903        1559.846          42.000    25256863.526   101698876.408        1195.116          47.000  
E05  22360298.546   117504100.867        1112.633          48.000    22360303.675    90035626.105         852.566          51.000  
G17  21452928.174   112735869.463         431.534          45.000    21452930.317    87846137.104         336.379          44.000  
E10  26893138.599   141324401.727       -3223.836          45.000    26893149.330   108287679.819       -2470.351          46.000  
E18  27569054.969   144876304.216       -1717.008          43.000                                                                  
G08                                                                  23472366.075                3      -3463.665          19.000  
> 2024 04 16 12 44 30.4980000  0 26                     
G31  22484541.111   118157124.711         141.699          48.000    22484543.332    92070464.951         110.308          44.000  
G02  19440446.752   102160233.084       -1748.013          48.000                                                                  
G19  23745802.840                        1579.478          27.000                                                                  
G03  20334191.541   106856904.437        -311.499          49.000    20334193.615    83265075.159        -242.761          47.000  
G04  20212107.971   106215294.394        1318.549          46.000    20212107.292    82765139.333        1027.441          45.000  
R23  20615209.233   110277511.186       -4320.176          49.000                                                                  
R24  18493534.258    98893048.882        -522.672          50.000    18493533.779    76916916.960        -406.488          49.000  
R02  20076311.788   107130741.783        1139.750          52.000    20076315.277    83323983.666         886.479          49.000  
R08  22316501.051   119503743.122       -4423.853          45.000    22316502.875    92947370.672       -3440.563          44.000  
G21  19502007.663   102483686.670       -2716.640          49.000                                                                  
S33  39061476.437   205269423.540        -811.824          42.000  
S31  38109207.630   200265254.096        -811.907          44.000  
E36  22701229.274   119295737.159        -352.405          47.000    22701233.868    91408480.391        -269.953          50.000  
G09  23404055.462   122989104.612        2582.698          35.000    23404061.762    95835706.570        2012.449          35.000  
E11  23468239.598   123326377.539       -2579.299          45.000    23468242.436    94496872.845       -1976.383          45.000  
R01  18968267.000   101396406.323       -2100.715          49.000    18968268.333    78863714.990       -1633.955          44.000  
R17  21214257.889   113521680.053        2915.122          48.000    21214260.227    88294626.276        2267.301          47.000  
E04  26133583.631   137332842.963       -3392.101          40.000    26133591.891   105229063.313       -2598.965          46.000  
G28  22959132.365                       -1549.922          30.000    22959138.664    94013788.532       -1207.874          36.000  
E09  22919786.515   120444321.311       -1562.349          49.000    22919791.749    92288475.038       -1197.191          53.000  
E34  25247959.624   132678931.729        1557.037          43.000    25247967.142   101663055.632        1193.094          47.000  
E05  22353975.614   117470877.245        1102.401          48.000    22353981.613    90010169.077         844.630          51.000  
G17  21450525.945   112723245.686         410.265          46.000    21450528.664    87836300.379         319.795          44.000  
E10  26911559.883   141421212.664       -3230.088          44.000    26911571.588   108361859.363       -2475.035          46.000  
E18  27578861.079   144927832.850       -1718.302          43.000                                                                  
G08                                                                  23497809.705                3      -3482.833          16.000  
