     3.00           OBSERVATION DATA    M: Mixed            RINEX VERSION / TYPE
CONVBIN 2.4.3                           20240416 034441 UTC PGM / RUN BY / DATE 
format: u-blox UBX                                          COMMENT             
log: /home/regis/git/gnsspwv/obsdata/VERT00CHL/2024-04-16/VECOMMENT             
{self.marker}                                               MARKER NAME         
                                                            MARKER NUMBER       
GEODETIC                                                    MARKER TYPE         
{self.observer}     {self.institution}                      OBSERVER / AGENCY   
UNKNOWN             UBLOX-ZED-F9P                           REC # / TYPE / VERS 
UNKNOWN             TWIVSP6037L                             ANT # / TYPE        
  1713381.0000 -5047934.0000 -3490983.0000                  APPROX POSITION XYZ 
        0.0000        0.0000        0.0000                  ANTENNA: DELTA H/E/N
G    8 C1C L1C D1C S1C C2L L2L D2L S2L                      SYS / # / OBS TYPES 
R    8 C1C L1C D1C S1C C2C L2C D2C S2C                      SYS / # / OBS TYPES 
E    8 C1C L1C D1C S1C C7Q L7Q D7Q S7Q                      SYS / # / OBS TYPES 
S    4 C1C L1C D1C S1C                                      SYS / # / OBS TYPES 
  2024    04    16    03    30   00.0050000     GPS         TIME OF FIRST OBS   
  2024    04    16    03    44   30.0050000     GPS         TIME OF LAST OBS    
                                                            END OF HEADER       
> 2024 04 16 03 30 00.0050000  0 24                     
G25  22082423.694   116043983.2981      -1077.179          48.000    22082423.978    90423905.9111       -839.325          44.000  
G18  23644244.141   124251353.6771       2479.466          42.000    23644243.047    96819218.6521       1931.899          41.000  
R16  24125789.098   128875574.1021      -4133.169          46.000    24125792.343   100236578.3621      -3214.617          42.000  
R09  20798709.872   111063982.3741      -1253.183          50.000    20798708.259    86383196.5901       -974.694          52.000  
R10  21800860.405   116210888.4871       1985.161          48.000                                                                  
R21  24691846.509   132131095.8361       3161.481          33.000    24691860.182   102768655.5451       2458.698          39.000  
R20  20942442.367   111988720.2071        423.358          41.000    20942444.019    87102397.9861        329.542          44.000  
G29  22228586.587   116812087.8791      -1231.934          48.000    22228584.809    91022452.9951       -959.802          47.000  
S33  41225360.310   216640755.5261       -699.222          43.000  
S31  40271627.217   211628874.2731       -698.352          44.000  
G28  22858343.652   120121428.7561         31.804          47.000    22858342.353    93601092.8361         24.918          49.000  
G11  26277403.928   138088671.3281      -4020.131          34.000    26277399.409   107601929.3141      -3132.288          34.000  
R19  22589134.050   120836988.2771      -4048.547          39.000    22589129.940    93984053.1431      -3148.822          48.000  
G12  24060332.364   126437890.9491      -2506.300          45.000    24060330.585    98523022.6431      -1953.004          43.000  
E33  24993317.478   131340838.1441         35.769          47.000    24993320.227   100637834.0311         27.379          54.000  
E31  25352895.448   133230505.1131        404.180          47.000    25352899.045   102085785.8801        309.719          51.000  
G20  25380168.355   133373690.9891       -788.837          38.000                                                                  
G31  24776688.746   130202296.3681       2023.559          43.000    24776684.228   101456474.5961       1576.990          39.000  
E14  22925046.716   120472098.7381      -4034.120          48.000    22925050.054    92309763.5511      -3091.063          53.000  
E26  26630176.739   139942893.6651      -2535.229          48.000    26630176.447   107229167.7591      -1942.677          49.000  
E24  28953474.062   152151512.7321       1507.992          33.000    28953469.128                        1155.968          31.000  
G05  25555856.276   134297140.7931        918.008          46.000    25555852.499   104647189.7931        715.424          39.000  
E12  27864816.710   146430644.8931       2221.045          41.000    27864820.173   112200168.4661       1701.853          45.000  
E21                                                                  30037647.252                3      -2133.878          26.000  
> 2024 04 16 03 30 30.0050000  0 24                     
G25  22088603.310   116076457.252       -1087.966          48.000    22088603.275    90449210.319        -847.837          44.000  
G18  23630120.887   124177137.091        2468.381          44.000    23630118.570    96761391.6371       1923.364          45.000  
R16  24149032.704   128999730.310       -4143.955          50.000    24149035.616   100333191.4431      -3222.891          39.000  
R09  20805808.346   111101885.235       -1273.802          51.000    20805806.493    86412676.610        -990.724          51.000  
R10  21789721.538   116151512.226        1973.036          48.000                                                                  
R21  24674147.027   132036384.948        3152.426          37.000    24674160.358   102694992.321        2451.763          39.000  
R20  20940130.417   111976355.418         400.516          41.000    20940131.861    87092781.062         311.667          44.000  
G29  22235644.003   116849176.239       -1240.771          48.000    22235642.179    91051353.067        -966.925          47.000  
S33  41229350.115   216661722.815        -699.043          43.000  
S31  40275614.292   211649826.670        -698.428          44.000  
G28  22858216.178   120120761.294          12.518          45.000    22858214.752    93600572.942           9.803          46.000  
G11  26300368.759                       -4025.736          32.000    26300365.538   107695971.096       -3138.058          33.000  
R19  22611869.215   120958606.848       -4059.316          38.000    22611865.424    94078645.405       -3157.211          48.000  
G12  24074661.689   126513200.054       -2514.697          44.000    24074660.669    98581705.020       -1959.349          42.000  
E33  24993152.983   131339972.967          21.774          47.000    24993155.506   100637171.155          16.688          54.000  
E31  25350598.304   133218433.295         400.399          47.000    25350601.787   102076536.106         306.757          51.000  
G20  25384719.965   133397610.280        -805.701          37.000                                                                  
G31  24765169.902   130141767.287        2011.628          43.000    24765166.831   101409308.813        1567.633          41.000  
E14  22948095.248   120593218.721       -4040.612          48.000    22948098.238    92402569.806       -3095.984          53.000  
E26  26644679.684   140019104.179       -2545.505          48.000    26644678.509   107287562.887       -1950.462          48.000  
E24  28944863.879   152106240.362        1509.745          35.000    28944856.024   116548949.329        1156.831          31.000  
G05  25550645.404   134269754.512         907.638          47.000    25550641.076   104625849.887         707.126          40.000  
E12  27852149.552   146364085.804        2216.042          41.000    27852154.478   112149168.938        1697.936          46.000  
E21                                                                  30053557.891                3      -2134.302          23.000  
> 2024 04 16 03 31 00.0050000  0 24                     
G25  22094843.446   116109247.497       -1098.610          48.000    22094843.908    90474761.160        -856.050          44.000  
G18  23616059.725   124103246.298        2457.442          43.000    23616058.908    96703814.593        1914.854          40.000  
R16  24172334.431   129124202.836       -4154.633          53.000    24172337.134   100430003.540       -3231.296          53.000  
R09  20813020.650   111140399.573       -1294.351          50.000    20813019.479    86442632.199       -1006.747          52.000  
R10  21778649.196   116092492.734        1961.027          48.000                                                                  
R21  24656500.648   131941936.137        3143.662          41.000    24656509.638   102621532.966        2445.050          39.000  
R20  20937946.492   111964674.246         377.666          41.000    20937947.207    87083695.628         293.842          44.000  
G29  22242751.353   116886525.279       -1249.561          49.000    22242749.159    91080456.244        -973.596          46.000  
S33  41233338.275   216682679.802        -698.763          43.000  
S31  40279599.597   211670770.470        -698.193          44.000  
G28  22858196.306   120120665.941          -6.788          44.000    22858196.282    93600498.776          -5.142          46.000  
G11  26323374.099                1      -4033.258          30.000    26323368.989   107790165.547       -3141.870          31.000  
R19  22634662.489   121080538.673       -4069.987          37.000    22634659.334    94173481.319       -3165.565          48.000  
G12  24089037.582   126588744.618       -2522.311          44.000    24089036.789    98640570.859       -1965.546          43.000  
E33  24993067.217   131339521.791           7.780          47.000    24993069.571   100636825.495           6.052          54.000  
E31  25348322.028   133206468.713         396.703          48.000    25348325.036   102067368.476         304.012          52.000  
G20  25389367.997   133422038.526        -823.260          37.000                                                                  
G31  24753717.959   130081591.976        1999.581          43.000    24753716.194   101362418.653        1558.171          40.000  
E14  22971180.476   120714528.682       -4047.104          49.000    22971182.762    92495521.640       -3100.986          53.000  
E26  26659239.052   140095614.980       -2555.623          48.000    26659237.754   107346188.098       -1958.269          48.000  
E24  28936233.977   152060910.984        1511.682          35.000    28936229.870                        1157.845          31.000  
G05  25545492.092   134242674.174         897.242          47.000    25545488.699   104604748.428         699.392          40.000  
E12  27839512.943   146297678.384        2210.536          41.000    27839517.322   112098285.573        1693.916          47.000  
E21                                                                  30069491.995                3      -2136.385          24.000  
> 2024 04 16 03 31 30.0050000  0 24                     
G25  22101144.263   116142359.162       -1109.181          48.000    22101144.666    90500562.437        -864.234          45.000  
G18  23602062.013   124029687.745        2446.392          44.000    23602060.847    96646496.111        1906.169          46.000  
R16  24195694.523   129248992.220       -4164.987          47.000    24195698.520   100527061.522       -3239.597          43.000  
R09  20820348.702   111179531.108       -1314.893          51.000    20820347.506    86473067.807       -1022.575          52.000  
R10  21767645.964   116033838.193        1948.828          48.000                                                                  
R21  24638902.504   131847756.663        3134.820          44.000    24638909.368   102548283.034        2437.926          40.000  
R20  20935891.294   111953682.972         354.555          41.000    20935891.826    87075147.047         276.006          44.000  
G29  22249909.461   116924137.259       -1258.197          49.000    22249906.263    91109764.332        -980.365          47.000  
S33  41237325.327   216703632.867        -698.336          43.000  
S31  40283584.175   211691709.690        -697.878          44.000  
G28  22858288.588   120121147.832         -25.845          47.000    22858287.780    93600874.466         -20.153          49.000  
R19  22657513.548   121202783.851       -4080.226          37.000    22657511.286    94268560.920       -3173.458          47.000  
G12  24103460.326   126664528.872       -2530.206          46.000    24103458.217    98699623.467       -1971.507          44.000  
E33  24993060.713   131339488.941          -5.973          47.000    24993063.241   100636800.384          -4.524          54.000  
E31  25346067.284   133194616.473         393.145          49.000    25346069.661   102058286.929         301.250          52.000  
G20  25394114.039   133446980.217        -839.990          39.000                                                                  
G31  24742335.150   130021777.014        1987.779          40.000    24742333.901   101315809.272        1548.772          41.000  
E14  22994302.051   120836028.678       -4053.275          49.000    22994303.248    92588619.084       -3105.705          53.000  
E26  26673855.673   140172428.530       -2565.578          47.000    26673855.611   107405045.281       -1965.817          49.000  
E24  28927595.777   152015529.182        1513.373          34.000    28927595.724   116479443.604        1160.081          33.000  
G05  25540398.732   134215905.998         886.979          47.000    25540394.888   104583890.359         690.968          41.000  
E12  27826906.530   146231428.425        2205.495          42.000    27826909.777   112047522.834        1690.104          47.000  
E21                                                                  30085440.299                3      -2147.414          19.000  
G11                                                                  26346410.856                       -3147.810          31.000  
> 2024 04 16 03 32 00.0050000  0 25                     
G25  22107505.576   116175790.775       -1119.756          47.000    22107506.609    90526613.059        -872.503          45.000  
G18  23588128.033   123956460.433        2435.254          44.000    23588126.814    96589435.114        1897.679          47.000  
R16  24219113.465   129374097.512       -4175.333          56.000    24219118.950   100624367.1221      -3247.608          57.000  
R09  20827792.588   111219277.338       -1335.204          51.000    20827790.814    86503981.536       -1038.451          52.000  
R10  21756711.152   115975549.690        1936.743          49.000                                                                  
R21  24621353.680   131753846.460        3125.762          46.000    24621360.049   102475242.494        2431.159          40.000  
R20  20933963.191   111943376.765         332.250          41.000    20933964.404    87067131.054         258.186          44.000  
G29  22257116.027   116962008.736       -1266.821          49.000    22257113.008    91139274.639        -987.158          46.000  
S33  41241311.227   216724579.214        -698.355          43.000  
S31  40287567.248   211712641.711        -698.071          44.000  
G28  22858490.297   120122205.412         -44.900          47.000    22858488.659    93601698.950         -35.077          48.000  
R19  22680423.946   121325335.548       -4089.780          37.000    22680421.133    94363878.970       -3181.305          47.000  
G12  24117927.083   126740550.677       -2538.024          47.000    24117924.681    98758861.195       -1977.728          44.000  
E33  24993133.646   131339872.071         -19.754          47.000    24993136.213   100637094.017         -15.142          54.000  
E31  25343832.815   133182875.085         389.360          49.000    25343835.326   102049290.317         298.385          52.000  
G20  25398958.807   133472433.611        -857.208          39.000                                                                  
G31  24731022.372   129962322.678        1975.570          41.000    24731019.730   101269481.117        1539.625          41.000  
E14  23017457.457   120957712.102       -4059.185          49.000    23017458.596    92681857.086       -3110.323          53.000  
E26  26688528.543   140249540.710       -2575.463          47.000    26688529.463   107464131.295       -1973.406          49.000  
E24  28918949.565   151970092.816        1515.775          34.000    28918949.055   116444628.886        1161.025          33.000  
G05  25535362.836   134189450.170         876.531          45.000    25535360.999   104563275.550         683.255          41.000  
E12  27814328.692   146165334.786        2200.397          44.000    27814332.102   111996879.819        1685.996          49.000  
E21                                                                  30101411.181                3      -2142.703          20.000  
R11                                                                  27251255.412                3       2254.198          15.000  
G11                                                                  26369487.383                       -3152.024          27.000  
> 2024 04 16 03 32 30.0050000  0 24                     
G25  22113929.088   116209548.634       -1130.727          47.000    22113930.115    90552917.881        -881.025          44.000  
G18  23574259.325   123883574.819        2423.607          42.000    23574257.139    96532640.959        1888.553          44.000  
R16  24242593.748   129499578.6611      -4185.944          50.000    24242597.307   100721918.933       -3255.598          45.000  
R09  20835351.352   111259644.849       -1356.050          51.000    20835350.346    86535378.485       -1054.621          52.000  
R10  21745846.723   115917635.542        1924.154          48.000                                                                  
R21  24603854.723   131660213.300        3116.526          46.000    24603861.869   102402417.479        2423.922          39.000  
R20  20932166.175   111933762.131         309.067          41.000    20932166.190    87059652.890         240.546          43.000  
G29  22264372.484   117000143.343       -1275.531          48.000    22264369.311    91168989.965        -993.921          45.000  
S33  41245296.684   216745524.213        -698.171          42.000  
S31  40291550.132   211733571.706        -697.511          44.000  
G28  22858802.230   120123844.431         -64.231          49.000    22858799.871    93602976.494         -50.240          48.000  
R19  22703391.295   121448195.698       -4100.404          39.000    22703389.017    94459436.867       -3189.181          47.000  
G12  24132439.854   126816814.713       -2546.059          47.000    24132437.716    98818287.668       -1983.889          44.000  
E33  24993286.647   131340676.643         -33.798          47.000    24993289.540   100637710.555         -25.926          54.000  
E31  25341620.844   133171250.790         385.555          49.000    25341623.239   102040383.417         295.474          52.000  
G20  25403901.154   133498404.487        -874.280          40.000                                                                  
G31  24719778.872   129903236.647        1962.929          40.000    24719776.014   101223440.084        1529.997          37.000  
E14  23040647.698   121079580.159       -4065.290          49.000    23040649.472    92775236.552       -3114.969          53.000  
E26  26703260.753   140326955.082       -2585.429          47.000    26703260.934   107523448.854       -1980.990          49.000  
E24  28910292.633   151924607.751        1517.148          32.000    28910294.489   116409776.892        1162.411          34.000  
G05  25530388.935   134163314.716         865.802          46.000    25530386.878   104542910.378         674.904          40.000  
E12  27801782.350   146099404.592        2195.047          42.000    27801786.093   111946362.165        1681.920          47.000  
E21                                                                  30117400.103                3      -2145.929          21.000  
G11                                                                  26392598.073                3      -3157.167          25.000  
> 2024 04 16 03 33 00.0050000  0 24                     
G25  22120414.489   116243624.901       -1141.244          48.000    22120413.731    90579470.815        -889.221          44.000  
G18  23560453.314   123811022.815        2412.765          48.000    23560451.130    96476106.503        1880.032          47.000  
R16  24266129.436   129625306.409       -4195.952          45.000    24266132.532   100819694.3571      -3263.267          45.000  
R09  20843025.783   111300624.972       -1376.247          51.000    20843024.509    86567251.910       -1070.398          52.000  
R10  21735051.281   115860090.875        1911.949          48.000                                                                  
R21  24586407.221   131566850.336        3107.510          47.000    24586412.523   102329802.521        2417.423          38.000  
R20  20930495.012   111924829.210         286.537          41.000    20930496.294    87052705.031         222.688          44.000  
G29  22271676.897   117038530.940       -1283.807          47.000    22271673.479    91198902.424       -1000.501          45.000  
S33  41249280.086   216766457.121        -697.575          42.000  
S31  40295530.976   211754491.276        -697.179          44.000  
G28  22859223.422   120126056.524         -83.188          49.000    22859220.219    93604700.580         -64.988          50.000  
R19  22726414.742   121571350.815       -4110.055          39.000    22726410.901    94555224.252       -3196.947          46.000  
G12  24146996.467   126893313.398       -2553.911          47.000    24146995.232    98877896.987       -1990.100          45.000  
E33  24993518.479   131341893.824         -47.495          47.000    24993521.061   100638643.260         -36.340          54.000  
E31  25339429.437   133159735.723         382.000          48.000    25339432.230   102031560.224         292.686          52.000  
G20  25408940.163   133524884.614        -891.510          39.000                                                                  
G31  24708603.710   129844512.476        1951.146          41.000    24708601.099   101177681.183        1520.369          38.000  
E14  23063870.734   121201619.891       -4070.688          48.000    23063872.893    92868747.564       -3119.119          53.000  
E26  26718047.769   140404661.148       -2595.021          46.000    26718048.114   107582989.904       -1988.408          49.000  
E24  28901624.873   151879065.370        1518.988          31.000    28901628.385   116374880.949        1164.171          34.000  
G05  25525475.355   134137493.684         855.329          48.000    25525473.810   104522790.140         666.627          42.000  
E12  27789266.415   146033630.293        2190.036          43.000    27789269.699   111895963.846        1677.922          48.000  
E21                                                                  30133408.634                3      -2147.124          22.000  
G11                                                                  26415777.559                3      -3161.630          25.000  
> 2024 04 16 03 33 30.0050000  0 24                     
G25  22126961.379   116278025.420       -1152.504          48.000    22126960.029    90606276.402        -897.962          44.000  
G18  23546712.784   123738812.374        2400.868          46.000    23546710.870    96419838.123        1870.817          44.000  
R16  24289723.665   129751342.390       -4206.717          42.000    24289728.317   100917721.810       -3271.640          40.000  
R09  20850816.042   111342223.837       -1397.321          51.000    20850814.335    86599606.566       -1086.840          51.000  
R10  21724326.938   115802924.384        1898.769          48.000                                                                  
R21  24569010.066   131473765.168        3097.765          45.000    24569016.930   102257403.584        2409.669          37.000  
R20  20928953.165   111916583.451         263.189          41.000    20928954.342    87046291.701         204.646          44.000  
G29  22279030.436   117077175.217       -1292.743          47.000    22279027.008    91229014.860       -1007.306          45.000  
S33  41253262.599   216787384.330        -697.840          42.000  
S31  40299510.642   211775404.974        -697.032          44.000  
G28  22859754.072   120128846.850        -102.970          48.000    22859751.119    93606875.028         -80.376          46.000  
R19  22749492.239   121694802.397       -4120.150          39.000    22749488.497    94651242.188       -3204.697          46.000  
G12  24161600.135   126970051.209       -2562.323          48.000    24161597.801    98937692.616       -1996.580          45.000  
E33  24993829.834   131343528.718         -61.756          47.000    24993831.886   100639896.013         -47.334          54.000  
E31  25337259.475   133148335.779         377.715          48.000    25337263.007   102022825.234         289.478          52.000  
G20  25414077.234   133551879.368        -908.789          35.000                                                                  
G31  24697499.200   129786157.659        1938.633          42.000    24697496.777   101132210.104        1510.326          41.000  
E14  23087126.402   121323832.207       -4076.986          48.000    23087129.089    92962390.818       -3123.919          53.000  
E26  26732889.778   140482662.089       -2605.315          46.000    26732891.235   107642756.917       -1996.157          49.000  
E24  28892947.471   151833471.140        1520.280          30.000    28892951.778   116339945.212        1165.070          35.000  
G05  25520623.216   134111993.506         844.412          46.000    25520620.899   104502919.895         657.769          41.000  
E12  27776780.394   145968018.458        2184.009          41.000    27776784.144   111845690.021        1673.365          45.000  
E21                                                                  30149436.779                3      -2165.176          12.000  
G11                                                                  26438956.418                3      -3168.918          22.000  
> 2024 04 16 03 34 00.0050000  0 24                     
G25  22133570.491   116312755.606       -1163.496          48.000    22133569.029    90633338.900        -906.482          43.000  
G18  23533037.797   123666950.423        2389.554          51.000    23533036.633    96363841.471        1861.917          51.000  
R16  24313375.774   129877691.902       -4216.893          51.000    24313379.074   101016008.3003      -3279.966          48.000  
R09  20858723.010   111384446.524       -1417.977          51.000    20858720.872    86632446.404       -1102.985          51.000  
R10  21713674.762   115746143.790        1885.941          48.000                                                                  
R21  24551667.582   131380964.875        3088.426          44.000    24551674.005   102185226.289        2402.265          40.000  
R20  20927540.331   111909028.994         240.323          41.000    20927541.307    87040416.045         186.797          44.000  
G29  22286434.151   117116078.626       -1301.300          47.000    22286430.668    91259329.249       -1014.008          44.000  
S33  41257244.456   216808310.585        -697.666          42.000  
S31  40303489.915   211796316.631        -697.145          44.000  
G28  22860396.119   120132220.489        -122.275          49.000    22860393.630    93609503.694         -95.304          47.000  
R19  22772625.642   121818550.597       -4130.208          40.000    22772622.301    94747490.812       -3212.197          46.000  
G12  24176248.473   127047033.223       -2570.277          47.000    24176246.783    98997678.507       -2002.787          44.000  
E33  24994220.034   131345585.724         -75.610          46.000    24994223.127   100641472.217         -58.060          54.000  
E31  25335112.965   133137056.412         373.833          48.000    25335116.532   102014182.638         286.406          52.000  
G20  25419310.203   133579393.573        -925.891          34.000                                                                  
G31  24686465.606   129728179.130        1926.134          44.000    24686463.598   101087032.146        1500.773          40.000  
E14  23110415.147   121446217.484       -4082.429          47.000    23110418.240    93056166.601       -3128.117          53.000  
E26  26747790.726   140560960.671       -2614.966          46.000    26747790.765   107702751.980       -2003.729          49.000  
E24  28884269.540   151787829.816        1522.398          32.000    28884266.224   116304973.328        1166.370          34.000  
G05  25515833.563   134086822.669         833.350          46.000    25515830.313   104483306.435         649.214          41.000  
E12  27764326.803   145902575.047        2178.465          43.000    27764330.377   111795545.256        1669.198          47.000  
E21                                                                  30165476.815                3      -2163.734          16.000  
G11                                                                  26462194.099                3      -3151.513          12.000  
> 2024 04 16 03 34 30.0050000  0 23                     
G25  22140242.402   116347817.623       -1174.514          48.000    22140240.840    90660659.951        -915.316          43.000  
G18  23519429.736   123595439.546        2377.576          48.000    23519429.635    96308117.689        1852.729          48.000  
R16  24337087.775   130004350.766       -4227.388          50.000    24337090.958   101114520.143       -3287.847          46.000  
R09  20866747.824   111427295.103       -1438.920          51.000    20866744.577    86665773.047       -1119.106          51.000  
R10  21703096.337   115689753.966        1872.886          48.000                                                                  
R21  24534379.911   131288453.016        3078.701          45.000    24534384.900   102113273.313        2394.661          41.000  
R20  20926257.121   111902167.011         216.754          42.000    20926257.876    87035078.999         168.760          43.000  
G29  22293886.771   117155241.530       -1309.955          48.000    22293883.458    91289845.845       -1020.734          45.000  
S33  41261226.443   216829236.341        -697.853          42.000  
S31  40307469.427   211817228.530        -697.191          44.000  
G28  22861149.509   120136180.059        -142.029          47.000    22861146.860    93612589.120        -110.686          46.000  
R19  22795815.420   121942592.442       -4139.827          41.000    22795810.509    94843967.875       -3219.965          45.000  
G12  24190944.838   127124260.699       -2578.547          47.000    24190942.393    99057855.696       -2009.301          45.000  
E33  24994692.140   131348066.263         -89.964          46.000    24994695.066   100643372.931         -68.877          54.000  
E31  25332989.345   133125899.805         369.574          48.000    25332993.280   102005634.095         283.294          52.000  
G20  25424646.147   133607429.157        -943.213          32.000                                                                  
G31  24675504.768   129670579.344        1913.296          45.000    24675502.955   101042149.079        1491.129          41.000  
E14  23133736.961   121568772.953       -4088.292          48.000    23133739.576    93150072.780       -3132.604          53.000  
E26  26762745.971   140639556.426       -2625.068          45.000    26762747.207   107762974.734       -2011.505          49.000  
E24  28875575.040   151742143.254        1523.864          31.000    28875572.592   116269966.803        1167.777          35.000  
G05  25511106.220   134061983.205         822.329          46.000    25511103.349   104463951.052         640.746          42.000  
E12  27751906.521   145837302.734        2172.628          43.000    27751909.164   111745531.482        1664.830          46.000  
E21                                                                  30181544.267                3      -2155.342          22.000  
> 2024 04 16 03 35 00.0050000  0 23                     
G25  22146977.374   116383212.779       -1185.573          48.000    22146977.000    90688240.607        -923.941          44.000  
G18  23505889.844   123524284.130        2365.775          47.000    23505889.954    96252671.198        1843.424          46.000  
R16  24360855.991   130131318.502       -4237.585          50.000    24360861.163   101213272.147       -3295.876          47.000  
R09  20874889.152   111470770.411       -1459.776          51.000    20874886.488    86699587.178       -1135.334          51.000  
R10  21692591.192   115633758.856        1859.676          47.000                                                                  
R21  24517145.949   131196232.487        3068.945          45.000    24517150.749   102041546.805        2386.856          43.000  
R20  20925103.360   111895997.410         194.048          41.000    20925103.937    87030280.478         150.969          43.000  
G29  22301387.646   117194662.850       -1318.512          47.000    22301384.959    91320563.803       -1027.277          45.000  
S33  41265208.195   216850161.838        -697.775          43.000  
S31  40311448.599   211838139.980        -697.277          44.000  
G28  22862014.157   120140726.301        -161.522          47.000    22862012.086    93616131.791        -125.791          48.000  
R19  22819057.823   122066924.594       -4149.464          41.000    22819053.510    94940670.715       -3227.347          45.000  
G12  24205686.982   127201733.677       -2586.744          48.000    24205685.545    99118224.203       -2015.477          44.000  
E33  24995244.598   131350970.598        -103.972          46.000    24995247.578   100645598.390         -79.656          54.000  
E31  25330890.262   133114867.282         365.562          48.000    25330893.786   101997180.630         280.155          52.000  
G20  25430079.753   133635987.058        -960.614          34.000                                                                  
G31  24664616.309   129613362.424        1900.588          43.000    24664614.640   100997564.623        1481.066          40.000  
E14  23157090.346   121691494.883       -4093.619          48.000    23157092.548    93244106.500       -3136.513          53.000  
E26  26777758.480   140718447.865       -2634.677          45.000    26777759.168   107823424.073       -2018.755          49.000  
E24  28866873.607   151696412.047        1524.913          32.000    28866870.463   116234926.093        1168.537          35.000  
G05  25506442.856   134037479.008         811.083          45.000    25506440.766   104444856.871         632.366          42.000  
E12  27739518.100   145772203.275        2166.968          43.000    27739520.738   111695650.071        1660.377          45.000  
E21                                                                  30197634.875                3      -2161.280          15.000  
> 2024 04 16 03 35 30.0050000  0 23                     
G25  22153776.615   116418943.961       -1196.785          48.000    22153775.819    90716083.090        -932.538          43.000  
G18  23492419.032   123453489.235        2353.818          52.000    23492419.469    96197530.0701       1834.212          53.000  
R16  24384683.793   130258597.359       -4247.642          54.000    24384687.688   101312266.957       -3303.710          52.000  
R09  20883148.506   111514875.097       -1480.612          52.000    20883146.163    86733890.813       -1151.566          52.000  
R10  21682161.564   115578164.034        1846.499          47.000                                                                  
R21  24499967.107   131104307.466        3059.192          45.000    24499972.036   101970050.180        2379.459          44.000  
R20  20924079.075   111890521.528         171.110          41.000    20924080.204    87026021.656         133.044          44.000  
G29  22308939.272   117234343.370       -1326.941          47.000    22308936.210    91351483.723       -1034.131          44.000  
S33  41269190.537   216871089.211        -697.686          42.000  
S31  40315428.220   211859053.427        -697.219          43.000  
G28  22862991.130   120145861.401        -180.997          47.000    22862989.596    93620133.271        -141.089          48.000  
R19  22842353.220   122191545.505       -4158.641          40.000    22842349.652    95037598.112       -3234.692          45.000  
G12  24220476.121   127279454.948       -2594.746          46.000    24220475.181    99178786.202       -2021.931          44.000  
E33  24995878.199   131354300.751        -118.078          46.000    24995881.014   100648150.115         -90.397          54.000  
E31  25328814.858   133103961.793         361.455          48.000    25328818.680   101988824.508         276.957          53.000  
G20  25435615.836   133665069.443        -978.308          31.000                                                                  
G31  24653802.390   129556533.082        1887.949          44.000    24653800.863   100953282.192        1471.306          40.000  
E14  23180475.173   121814381.323       -4098.841          47.000    23180477.103    93338266.288       -3140.679          53.000  
E26  26792828.604   140797635.317       -2644.575          45.000    26792828.111   107884100.205       -2026.327          49.000  
E24  28858161.396   151650638.607        1525.916          32.000    28858160.430   116199853.058        1169.764          36.000  
G05  25501845.394   134013313.815         800.056          45.000    25501842.831   104426026.768         623.503          42.000  
E12  27727163.711   145707280.450        2160.992          42.000    27727166.526   111645904.076        1655.893          46.000  
E10                                                                  29758710.359                3       1855.672          26.000  
> 2024 04 16 03 36 00.0050000  0 23                     
G25  22160639.085   116455005.106       -1207.833          49.000    22160638.487    90744182.679        -941.189          44.000  
G18  23479015.201   123383048.317        2341.880          49.000    23479013.869    96142633.413        1824.764          46.000  
R16  24408567.548   130386176.033       -4257.958          39.000    24408570.293   101411500.1591      -3311.493          43.000  
R09  20891525.102   111559602.529       -1501.482          52.000    20891522.674    86768678.788       -1167.705          51.000  
R10  21671807.381   115522966.013        1833.147          47.000                                                                  
R21  24482842.972   131012673.317        3049.530          46.000    24482846.572   101898779.727        2371.723          44.000  
R20  20923183.453   111885731.277         148.210          41.000    20923184.624    87022295.995         115.198          44.000  
G29  22316538.139   117274273.941       -1335.376          48.000    22316534.635    91382598.488       -1040.631          45.000  
S33  41273171.476   216892010.443        -697.539          43.000  
S31  40319406.631   211879961.588        -696.940          44.000  
G28  22864079.724   120151578.509        -200.294          48.000    22864077.379    93624588.029        -156.208          48.000  
R19  22865701.354   122316443.336       -4167.911          41.000    22865697.495    95134740.921       -3241.939          44.000  
G12  24235312.342   127357416.853       -2602.806          47.000    24235311.380    99239535.665       -2028.303          44.000  
E33  24996591.555   131358049.727        -132.224          46.000    24996594.157   100651022.764        -101.268          53.000  
E31  25326762.599   133093177.327         357.353          48.000    25326766.412   101980561.110         273.793          53.000  
G20  25441239.115                        -995.807          24.000                                                                  
G31  24643061.593   129500085.730        1875.005          43.000    24643058.731   100909297.382        1460.984          39.000  
E14  23203888.851   121937421.276       -4104.133          47.000    23203890.865    93432543.692       -3144.733          53.000  
E26  26807951.365   140877110.000       -2654.237          44.000    26807951.332   107944996.419       -2033.677          49.000  
E24  28849443.002   151604816.439        1528.610          33.000    28849440.348   116164742.723        1170.827          36.000  
G05  25497310.602   133989483.482         788.581          46.000    25497306.859   104407457.677         614.464          41.000  
E12  27714842.061   145642528.595        2155.217          42.000    27714844.899   111596289.074        1651.509          45.000  
E10                                                                  29744882.988                3       1855.168          26.000  
> 2024 04 16 03 36 30.0050000  0 23                     
G25  22167565.084   116491400.783       -1218.946          49.000    22167563.917    90772542.957        -949.867          44.000  
G18  23465679.670   123312958.5203       2329.713          47.000    23465679.110    96088038.2141       1815.496          45.000  
R16  24432507.660   130514055.532       -4267.873          50.000    24432508.774   101510940.066       -3319.355          46.000  
R09  20900017.885   111604956.962       -1522.499          51.000    20900015.898    86803954.443       -1184.234          51.000  
R10  21661528.918   115468171.857        1819.499          47.000                                                                  
R21  24465774.016   130921336.021        3039.473          46.000    24465778.080   101827740.135        2363.950          43.000  
R20  20922416.678   111881630.729         125.012          41.000    20922417.144    87019106.928          97.112          44.000  
G29  22324184.461   117314457.542       -1343.872          47.000    22324180.803    91413910.435       -1047.058          44.000  
S33  41277152.572   216912931.351        -697.842          42.000  
S31  40323384.962   211900868.226        -697.164          44.000  
G28  22865278.824   120157882.596        -220.048          45.000    22865276.503    93629500.364        -171.633          43.000  
R19  22889102.044   122441618.373       -4177.393          41.000    22889096.723    95232099.379       -3249.220          43.000  
G12  24250195.283   127435623.858       -2611.261          48.000    24250193.520    99300476.084       -2034.682          45.000  
E33  24997385.210   131362221.228        -146.356          46.000    24997387.836   100654219.155        -112.142          53.000  
E31  25324735.162   133082518.559         352.970          48.000    25324738.176   101972394.029         270.490          53.000  
G20  25446969.148   133724681.0921      -1012.939          27.000                                                                  
G31  24632393.769   129444026.624        1862.049          43.000    24632390.197   100865615.138        1450.945          40.000  
E14  23227332.122   122060614.436       -4109.101          48.000    23227333.849    93526938.497       -3148.539          53.000  
E26  26823129.490   140956873.834       -2663.792          43.000    26823129.963   108006114.208       -2041.093          49.000  
E24  28840712.686   151558949.826        1529.045          34.000    28840711.476   116129598.273        1171.934          36.000  
G05  25492840.839   133965994.445         776.899          43.000    25492837.088   104389154.577         605.530          42.000  
E12  27702552.820   145577952.755        2149.372          42.000    27702556.059   111546808.839        1646.819          45.000  
E10                                                                  29731064.019                3       1854.160          25.000  
> 2024 04 16 03 37 00.0050000  0 24                     
G25  22174553.869   116528126.128       -1229.760          49.000    22174552.280    90801160.104        -958.338          44.000  
G18  23452412.252   123243235.643        2318.005          52.000    23452411.262    96033709.175        1806.294          45.000  
R16  24456501.932   130642229.013       -4277.390          52.000    24456504.411   101610629.936       -3326.764          49.000  
R09  20908626.703   111650933.283       -1542.929          51.000    20908626.132    86839713.797       -1200.090          52.000  
R10  21651324.679   115413779.749        1806.312          46.000                                                                  
R21  24448760.036   130830292.000        3029.824          47.000    24448764.095   101756928.671        2356.476          44.000  
R20  20921777.416   111878213.210         102.299          41.000    20921778.342    87016448.844          79.763          44.000  
G29  22331877.744   117354886.881       -1351.752          47.000    22331874.027    91445413.872       -1053.333          44.000  
S33  41281131.918   216933843.732        -697.520          43.000  
S31  40327361.864   211921767.041        -696.523          44.000  
G28  22866589.188   120164767.931        -239.294          48.000    22866586.510    93634865.512        -186.433          49.000  
R19  22912552.044   122567060.307       -4185.870          41.000    22912546.615    95329665.405       -3255.866          42.000  
G12  24265122.955   127514070.044       -2618.986          48.000    24265120.433    99361602.927       -2040.780          44.000  
E33  24998258.369   131366809.396        -159.989          46.000    24998260.727   100657734.802        -122.584          53.000  
E31  25322729.306   133071980.653         349.176          49.000    25322732.837   101964319.562         267.491          53.000  
G20  25452808.462                       -1029.376          30.000                                                                  
G31  24621799.005   129388352.721        1849.225          44.000    24621795.304   100822233.100        1440.981          41.000  
E14  23250802.471   122183951.124       -4113.643          49.000    23250804.290    93621443.282       -3152.001          54.000  
E26  26838361.309   141036919.308       -2672.946          43.000    26838362.167   108067447.799       -2048.037          49.000  
E24  28831971.365   151513033.293        1531.299          34.000    28831972.999   116094415.599        1173.226          36.000  
G05  25488434.342   133942842.664         765.900          44.000    25488431.296   104371114.334         596.756          42.000  
E12  27690298.470   145513548.932        2143.747          43.000    27690299.937   111497460.450        1642.578          45.000  
E10                                                                  29717250.484                3       1855.342          26.000  
G11                                                                  26602230.923                3      -3204.934          24.000  
> 2024 04 16 03 37 30.0050000  0 24                     
G25  22181605.417   116565182.353       -1240.766          49.000    22181604.025    90830035.104        -966.871          44.000  
G18  23439214.031   123173901.2621       2305.697          50.000    23439212.782    95979661.971        1796.621          48.000  
R16  24480550.223   130770694.700       -4287.184          48.000    24480553.413   101710561.3461      -3334.745          46.000  
R09  20917353.647   111697531.961       -1563.893          51.000    20917352.812    86875957.193       -1216.348          52.000  
R10  21641196.758   115359793.304        1792.529          47.000                                                                  
R21  24431801.137   130739544.021        3019.761          46.000    24431804.400   101686347.365        2348.728          42.000  
R20  20921265.944   111875479.125          79.613          41.000    20921267.306    87014322.375          62.060          45.000  
G29  22339617.596   117395560.548       -1359.869          47.000    22339614.132    91477107.677       -1059.607          45.000  
S33  41285110.162   216954749.302        -697.275          43.000  
S31  40331337.457   211942658.894        -696.769          44.000  
G28  22868010.485   120172235.513        -258.848          45.000    22868008.121    93640684.518        -201.718          45.000  
R19  22936051.579   122692766.306       -4194.761          42.000    22936046.082    95427436.794       -3262.466          43.000  
G12  24280097.093   127592755.721       -2626.982          48.000    24280093.973    99422916.389       -2047.109          44.000  
E33  24999210.817   131371814.509        -174.019          46.000    24999213.293   100661569.933        -133.340          53.000  
E31  25320747.406   133061564.924         345.014          48.000    25320750.733   101956338.707         264.322          53.000  
G20  25458734.593   133786474.553       -1047.339          31.000                                                                  
G31  24611277.952   129333065.940        1836.288          43.000    24611274.601   100779152.484        1430.721          40.000  
E14  23274299.652   122307427.751       -4118.354          48.000    23274300.961    93716055.283       -3155.645          53.000  
E26  26853646.184   141117244.971       -2682.314          43.000    26853647.770   108128996.080       -2055.284          49.000  
E24  28823226.452   151467067.714        1532.733          34.000    28823224.942   116059195.343        1174.120          36.000  
G05  25484094.240   133920032.090         754.336          44.000    25484091.146   104353339.952         587.740          42.000  
E12  27678076.018   145449318.744        2137.948          44.000    27678077.834   111448245.054        1638.206          47.000  
E10                                                                  29703441.618                        1852.647          29.000  
G11                                                                  26625680.923                3      -3199.398          23.000  
> 2024 04 16 03 38 00.0050000  0 24                     
G25  22188719.477   116602565.842       -1251.672          49.000    22188717.980    90859165.097        -975.311          44.000  
G18  23426082.920   123104900.355        2293.706          40.000    23426081.727    95925892.6661       1787.163          44.000  
R16  24504653.947   130899446.150       -4296.392          47.000    24504655.587   101810700.882       -3341.383          42.000  
R09  20926195.895   111744749.382       -1584.114          52.000    20926194.528    86912681.831       -1232.139          51.000  
R10  21631144.797   115306211.324        1779.311          46.000                                                                  
R21  24414896.568   130649089.860        3010.333          45.000    24414900.167   101615994.597        2341.274          41.000  
R20  20920881.551   111873422.170          57.256          41.000    20920882.568    87012722.552          44.557          45.000  
G29  22347402.530   117436472.782       -1367.731          46.000    22347399.670    91508987.389       -1065.808          45.000  
S33  41289085.842   216975642.921        -695.775          42.000  
S31  40335310.960   211963538.876        -695.524          44.000  
G28  22869540.862   120180281.356        -277.789          47.000    22869538.858    93646954.279        -216.473          48.000  
R19  22959598.196   122818727.049       -4202.920          42.000    22959593.664    95525406.275       -3268.779          43.000  
G12  24295114.992   127671676.330       -2634.641          47.000    24295111.541    99484412.880       -2052.878          42.000  
E33  25000242.181   131377231.970        -187.645          46.000    25000244.116   100665721.014        -143.700          53.000  
E31  25318788.436   133051267.858         341.119          49.000    25318791.283   101948448.768         261.407          53.000  
G20  25464762.315   133818142.811       -1064.490          33.000                                                                  
G31  24600830.520   129278165.331        1823.469          45.000    24600827.758   100736372.907        1420.854          42.000  
E14  23297821.024   122431035.898       -4122.522          48.000    23297822.452    93810768.057       -3158.806          53.000  
E26  26868985.174   141197844.543       -2691.329          43.000    26868985.429   108190754.220       -2062.061          50.000  
E24  28814471.199   151421048.826        1535.064          34.000    28814467.543   116023934.271        1175.737          36.000  
G05  25479817.061   133897558.797         743.311          42.000    25479815.648   104335828.272         579.364          42.000  
E12  27665885.144   145385259.415        2132.392          42.000    27665887.730   111399160.780        1633.930          47.000  
E10                                                                  29689640.955   119547889.7181       1851.652          31.000  
G11                                                                  26649170.398                3      -3202.248          20.000  
> 2024 04 16 03 38 30.0050000  0 25                     
G25  22195896.006   116640279.167       -1262.769          50.000    22195894.443    90888552.098        -984.070          44.000  
G18  23413020.891   123036260.633        2281.713          43.000    23413020.584    95872406.927        1777.973          39.000  
R16  24528809.361   131028482.682       -4306.259          48.000    24528812.618   101911062.303       -3349.194          47.000  
R09  20935154.563   111792587.111       -1604.991          52.000    20935152.973    86949888.928       -1248.319          51.000  
R10  21621169.324   115253039.491        1765.608          46.000                                                                  
R21  24398048.997   130558933.376        3000.325          48.000    24398052.612   101545873.401        2333.509          42.000  
R20  20920623.509   111872044.001          34.715          40.000    20920625.407    87011650.510          26.938          44.000  
G29  22355233.223   117477623.819       -1375.745          47.000    22355230.778    91541053.157       -1071.820          45.000  
S33  41293059.800   216996525.647        -695.492          43.000  
S31  40339282.279   211984408.713        -695.529          44.000  
G28  22871181.919   120188906.939        -297.241          47.000    22871179.612    93653675.651        -231.593          49.000  
R19  22983192.170   122944940.364       -4211.143          42.000    22983188.380    95623572.242       -3275.401          44.000  
G12  24310177.009   127750834.265       -2642.608          46.000    24310175.860    99546094.374       -2059.176          44.000  
E33  25001351.177   131383063.420        -201.376          46.000    25001353.892   100670189.323        -154.238          54.000  
E31  25316851.605   133041092.132         337.152          49.000    25316854.785   101940651.819         258.424          53.000  
G20  25470886.330   133850325.666       -1081.555          35.000                                                                  
G31  24590458.160   129223654.156        1810.516          45.000    24590454.828   100693896.666        1410.723          41.000  
E14  23321367.581   122554773.413       -4126.800          49.000    23321368.677    93905579.962       -3162.085          52.000  
E26  26884373.654   141278717.992       -2700.246          42.000    26884375.060   108252722.226       -2069.115          50.000  
E24  28805703.338   151374978.927        1536.941          34.000    28805700.920   115988634.061        1177.113          37.000  
G05  25475607.068   133875428.453         731.982          45.000    25475603.906   104318584.014         570.355          42.000  
E12  27653728.563   145321373.681        2126.487          42.000    27653730.563   111350209.377        1629.366          44.000  
E10                                                                  29675845.081   119492345.944        1851.505          33.000  
G11                                                                  26672689.746                3      -3208.559          20.000  
G26                                                                  26056247.679                3       1875.482          24.000  
> 2024 04 16 03 39 00.0050000  0 25                     
G25  22203137.032   116678328.503       -1273.932          50.000    22203135.084    90918200.942        -992.542          44.000  
G18  23400028.407   122967990.279        2269.403          46.000    23400028.756    95819198.4751       1768.489          46.000  
R16  24553017.892   131157808.091       -4315.622          45.000    24553022.612   102011648.686       -3356.670          40.000  
R09  20944230.503   111841051.183       -1625.850          52.000    20944228.574    86987583.194       -1264.549          51.000  
R10  21611272.174   115200286.179        1751.333          47.000                                                                  
R21  24381257.614   130469082.360        2989.896          48.000    24381261.415   101475989.799        2325.318          40.000  
R20  20920493.955   111871349.713          11.604          41.000    20920495.536    87011110.366           9.099          44.000  
G29  22363110.180   117519017.677       -1383.838          47.000    22363106.935    91573308.163       -1078.388          44.000  
S33  41297032.848   217017404.666        -695.984          43.000  
S31  40343252.662   212005273.529        -695.400          44.000  
G28  22872935.585   120198117.953        -316.782          47.000    22872932.313    93660853.104        -246.893          47.000  
R19  23006834.238   123071408.194       -4219.837          42.000    23006829.542    95721936.196       -3282.181          44.000  
G12  24325286.703   127830234.630       -2650.785          47.000    24325285.277    99607964.671       -2065.466          44.000  
E33  25002541.049   131389314.058        -215.280          46.000    25002543.442   100674978.831        -165.071          54.000  
E31  25314939.339   133031044.093         332.786          49.000    25314942.585   101932952.712         254.925          52.000  
G20  25477112.845   133883028.871       -1098.724          37.000                                                                  
G31  24580160.755   129169540.628        1797.156          46.000    24580157.297   100651730.496        1400.161          43.000  
E14  23344938.621   122678641.773       -4130.979          48.000    23344940.040    94000492.126       -3165.338          52.000  
E26  26899815.830   141359868.818       -2709.501          41.000    26899817.110   108314902.774       -2076.188          50.000  
E24  28796921.181   151328863.881        1538.113          32.000    28796925.787   115953299.241        1178.293          37.000  
G05  25471461.794   133853647.927         720.026          44.000    25471459.802   104301612.288         561.072          42.000  
E12  27641605.441   145257668.914        2120.460          44.000    27641608.131   111301396.763        1624.696          46.000  
E10                                                                  29662057.623   119436832.908        1849.961          35.000  
G11                                                                  26696230.068                3      -3208.901          16.000  
G26                                                                  26042506.559                3       1876.209          25.000  
> 2024 04 16 03 39 30.0050000  0 24                     
G25  22210440.707   116716712.754       -1285.236          49.000    22210439.832    90948110.744       -1001.501          45.000  
G18  23387108.254   122900088.924        2256.910          47.000    23387108.444    95766287.479        1758.532          45.000  
R16  24577282.349   131287416.743       -4325.250          51.000    24577287.088   102112455.081       -3364.000          52.000  
R09  20953423.497   111890139.616       -1647.008          52.000    20953421.594    87025763.051       -1280.903          51.000  
R10  21601455.945   115147953.130        1737.023          48.000                                                                  
R21  24364523.617   130379536.848        2979.510          49.000    24364527.130   101406343.769        2317.409          40.000  
R20  20920491.675   111871336.877         -10.970          41.000    20920493.001    87011100.406          -8.678          44.000  
G29  22371033.186   117560650.993       -1392.029          47.000    22371029.054    91605749.712       -1084.814          44.000  
S33  41301004.484   217038275.761        -695.802          43.000  
S31  40347221.612   212026131.635        -695.471          44.000  
G28  22874799.348   120207912.839        -336.447          48.000    22874796.419    93668485.469        -262.126          49.000  
R19  23030521.966   123198124.659       -4228.185          41.000    23030518.765    95820493.478       -3288.517          46.000  
G12  24340443.326   127909875.290       -2658.918          47.000    24340440.090    99670022.257       -2071.825          44.000  
E33  25003809.837   131395981.827        -229.493          46.000    25003812.193   100680087.942        -175.745          54.000  
E31  25313051.167   133021122.714         328.373          48.000    25313054.555   101925350.645         251.626          52.000  
G20  25483434.036   133916250.592       -1116.188          35.000                                                                  
G31  24569938.131   129115824.873        1783.670          45.000    24569935.070   100609874.346        1389.763          42.000  
E14  23368533.519   122802635.142       -4135.442          48.000    23368535.231    94095500.072       -3168.640          53.000  
E26  26915310.338   141441293.283       -2718.931          41.000    26915312.093   108377292.978       -2083.291          50.000  
E24  28788134.940   151282702.174        1539.229          31.000    28788141.964   115917928.683        1179.721          39.000  
G05  25467383.754   133832217.730         708.240          44.000    25467381.314   104284913.520         551.825          41.000  
E12  27629516.957   145194144.011        2114.307          42.000    27629519.508   111252721.914        1620.080          45.000  
E10  29648263.305   155802604.7511       2412.988          32.000    29648277.320   119381350.166        1848.727          37.000  
G26                                                                  26028763.671                3       1876.634          24.000  
> 2024 04 16 03 40 00.0050000  0 24                     
G25  22217808.311   116755429.803       -1296.722          50.000    22217806.953    90978279.864       -1010.510          44.000  
G18  23374257.971   122832559.055        2244.335          52.000    23374258.549    95713667.984        1748.781          52.000  
R16  24601598.813   131417304.076       -4334.641          48.000    24601603.466   102213477.911       -3371.501          47.000  
R09  20962731.962   111939850.403       -1668.070          51.000    20962731.150    87064426.962       -1297.346          51.000  
R10  21591717.208   115096041.025        1722.809          48.000                                                                  
R21  24347845.094   130290296.267        2968.990          47.000    24347850.525   101336934.903        2308.991          42.000  
R20  20920614.543   111872000.910         -33.918          41.000    20920616.887    87011616.871         -26.463          45.000  
G29  22379000.631   117602519.566       -1400.067          47.000    22378996.521    91638374.629       -1090.973          43.000  
S33  41304974.330   217059137.092        -695.845          43.000  
S31  40351188.620   212046979.439        -695.365          44.000  
G28  22876774.118   120218288.731        -356.068          47.000    22876771.598    93676570.408        -277.526          48.000  
R19  23054255.499   123325082.472       -4236.358          42.000    23054252.541    95919238.457       -3294.897          46.000  
G12  24355642.442   127989753.564       -2666.923          45.000    24355641.100    99732265.013       -2078.125          45.000  
E33  25005156.645   131403063.613        -243.333          45.000    25005159.898   100685514.299        -186.487          54.000  
E31  25311187.462   133011326.045         323.997          48.000    25311190.386   101917844.135         248.209          52.000  
G20  25489852.748   133949987.985       -1133.491          34.000                                                                  
G31  24559791.712   129062505.922        1770.260          46.000    24559787.675   100568327.291        1379.283          42.000  
E14  23392150.556   122926746.695       -4139.373          48.000    23392153.130    94190598.586       -3171.824          53.000  
E26  26930855.295   141522986.561       -2728.053          41.000    26930858.043   108439889.189       -2090.409          50.000  
E24  28779346.809   151236491.234        1540.618          32.000    28779348.713   115882520.446        1180.431          40.000  
G05  25463372.129   133811137.482         696.338          44.000    25463369.328   104268487.555         542.731          40.000  
E12  27617461.754   145130797.580        2107.977          40.000    27617464.925   111204183.744        1615.172          43.000  
E10  29634487.828   155730231.798        2411.411          33.000    29634504.563   119325896.611        1847.192          39.000  
G26                                                                  26015011.290                3       1879.006          23.000  
> 2024 04 16 03 40 30.0050000  0 24                     
G25  22225240.861   116794489.111       -1307.861          49.000    22225239.712    91008715.669       -1019.006          45.000  
G18  23361480.418   122765408.030        2232.075          40.000    23361480.436                        1738.273          30.000  
R16  24625966.717   131547477.081       -4343.879          50.000    24625972.812   102314723.088       -3378.413          50.000  
R09  20972159.085   111990191.838       -1688.793          51.000    20972158.801    87103581.393       -1313.480          51.000  
R10  21582059.055   115044562.225        1708.441          47.000                                                                  
R21  24331226.583   130201371.763        2958.725          48.000    24331231.939   101267771.857        2301.079          41.000  
R20  20920867.435   111873350.698         -56.673          40.000    20920869.378    87012666.726         -44.028          43.000  
G29  22387013.254   117644630.222       -1407.867          47.000    22387010.451    91671188.172       -1096.936          44.000  
S33  41308943.738   217079996.718        -695.672          43.000  
S31  40355155.615   212067826.220        -694.952          44.000  
G28  22878860.982   120229254.363        -375.497          46.000    22878858.315    93685114.698        -292.622          48.000  
R19  23078036.131   123452286.597       -4244.266          42.000    23078031.349    96018175.049       -3301.012          46.000  
G12  24370889.565   128069878.075       -2674.927          46.000    24370889.346    99794699.595       -2084.350          46.000  
E33  25006584.281   131410567.972        -257.309          45.000    25006587.800   100691264.430        -197.141          54.000  
E31  25309348.622   133001663.732         319.672          49.000    25309351.868   101910440.566         245.007          53.000  
G20  25496374.309   133984249.959       -1151.138          35.000                                                                  
G31  24549723.107   129009594.734        1756.556          43.000    24549719.189   100527097.877        1368.987          39.000  
E14  23415792.150   123050981.390       -4143.310          48.000    23415793.980    94285791.438       -3174.671          53.000  
E26  26946455.931   141604955.648       -2737.127          42.000    26946456.141   108502696.694       -2097.212          51.000  
E24  28770548.824   151190240.305        1542.388          33.000    28770547.475   115847081.635        1181.790          40.000  
G05  25459428.303   133790417.440         684.308          44.000    25459426.452   104252342.160         533.240          40.000  
E12  27605442.951   145067640.094        2101.999          42.000    27605446.568   111155790.461        1610.532          46.000  
E10  29620722.742   155657907.075        2409.945          36.000    29620740.834   119270479.965        1846.527          42.000  
G26                                                                  26001232.686                3       1881.225          21.000  
> 2024 04 16 03 41 00.0050000  0 24                     
G25  22232738.526   116833888.986       -1319.073          49.000    22232738.048    91039416.870       -1027.917          45.000  
G18  23348774.669   122698639.875        2219.229          48.000    23348775.128    95609313.967        1729.349          45.000  
R16  24650389.759   131677929.485       -4353.307          48.000    24650393.064   102416184.998       -3385.450          44.000  
R09  20981704.473   112041162.471       -1709.634          52.000    20981703.314    87143225.183       -1329.701          51.000  
R10  21572483.815   114993517.651        1694.242          48.000                                                                  
R21  24314668.342   130112762.751        2948.255          48.000    24314672.170   101198854.224        2293.031          42.000  
R20  20921248.189   111875382.211         -79.467          42.000    20921248.242    87014246.782         -61.569          44.000  
G29  22395072.465   117686979.156       -1415.668          47.000    22395068.935    91704187.401       -1103.192          43.000  
S33  41312912.155   217100852.275        -694.980          42.000  
S31  40359121.747   212088668.065        -694.698          43.000  
G28  22881059.937   120240808.679        -394.965          47.000    22881057.224    93694118.061        -307.814          48.000  
R19  23101859.904   123579730.784       -4252.455          41.000    23101854.870    96117298.347       -3307.391          45.000  
G12  24386183.852   128150246.138       -2683.223          46.000    24386183.005    99857323.956       -2090.709          45.000  
E33  25008092.181   131418492.154        -271.268          45.000    25008095.593   100697336.258        -207.829          54.000  
E31  25307535.202   132992134.204         315.362          48.000    25307538.376   101903138.758         241.620          53.000  
G20  25502994.463   134019034.242       -1168.368          35.000                                                                  
G31  24539731.681   128957091.207        1743.315          43.000    24539728.701   100486185.989        1358.300          41.000  
E14  23439455.578   123175332.825       -4146.919          47.000    23439457.168    94381073.758       -3177.658          52.000  
E26  26962104.744   141687196.130       -2745.949          41.000    26962105.758   108565712.135       -2104.020          50.000  
E24  28761739.101   151143947.355        1543.325          32.000    28761738.546   115811610.621        1182.677          41.000  
G05  25455554.021   133770058.124         672.614          42.000    25455551.109   104236477.776         523.828          38.000  
E12  27593459.928   145004670.201        2095.762          43.000    27593463.711   111107540.954        1605.811          46.000  
E10  29606968.194   155585629.454        2408.319          36.000    29606985.786   119215099.409        1845.297          44.000  
G26                                                                  25987449.860                3       1879.991          23.000  
> 2024 04 16 03 41 30.0050000  0 24                     
G25  22240301.477   116873631.045       -1330.573          49.000    22240301.274    91070384.687       -1036.743          46.000  
G18  23336141.955   122632254.557        2206.310          45.000    23336142.043    95557585.210        1719.110          43.000  
R16  24674862.726   131808662.688       -4362.528          48.000    24674867.036   102517865.871       -3392.940          44.000  
R09  20991368.413   112092762.367       -1730.692          52.000    20991365.683    87183358.424       -1345.997          50.000  
R10  21562990.387   114942911.435        1679.321          48.000                                                                  
R21  24298168.983   130024472.356        2937.582          48.000    24298172.522   101130184.372        2285.045          43.000  
R20  20921755.655   111878096.761        -101.968          41.000    20921755.712    87016358.205         -79.186          43.000  
G29  22403177.029   117729565.964       -1423.749          49.000    22403172.238    91737371.972       -1109.308          43.000  
S33  41316880.293   217121704.471        -695.147          43.000  
S31  40363087.532   212109507.303        -694.751          44.000  
G28  22883369.926   120252951.747        -414.626          47.000    22883367.892    93703580.171        -323.091          49.000  
R19  23125727.309   123707411.564       -4259.999          40.000    23125723.460    96216605.658       -3313.393          45.000  
G12  24401523.249   128230858.763       -2691.358          46.000    24401522.681    99920138.904       -2097.149          45.000  
E33  25009680.247   131426836.795        -285.409          46.000    25009683.588   100703730.246        -218.498          54.000  
E31  25305747.072   132982739.290         310.835          48.000    25305750.669   101895940.086         238.192          53.000  
G20  25509710.944   134054341.565       -1185.833          35.000                                                                  
G31  24529819.135   128904998.860        1729.620          43.000    24529816.419   100445594.482        1347.691          42.000  
E14  23463140.193   123299798.110       -4150.750          48.000    23463142.000    94476443.299       -3180.345          52.000  
E26  26977806.654   141769706.998       -2754.928          42.000    26977807.519   108628934.799       -2110.922          51.000  
E24  28752920.650   151097613.656        1545.070          33.000    28752921.651   115776108.401        1183.928          41.000  
G05  25451749.029   133750062.758         660.394          43.000    25451745.067   104220897.069         515.106          39.000  
E12  27581513.351   144941890.115        2089.329          43.000    27581516.898   111059436.898        1601.084          47.000  
E10  29593223.462   155513401.165        2406.659          40.000    29593240.115   119159756.665        1844.032          46.000  
G26                                                                  25973678.347                3       1888.122          24.000  
> 2024 04 16 03 42 00.0050000  0 24                     
G25  22247929.238   116913717.868       -1342.194          49.000    22247928.625    91101621.171       -1045.892          45.000  
G18  23323582.603   122566258.183        2193.250          48.000    23323582.215    95506160.237        1708.927          43.000  
R16  24699389.207   131939674.780       -4372.131          48.000    24699391.792   102619763.638       -3400.256          40.000  
R09  21001149.592   112144994.280       -1751.786          52.000    21001147.732    87223983.206       -1362.431          51.000  
R10  21553580.071   114892749.360        1664.382          48.000                                                                  
R21  24281731.049   129936504.520        2926.606          48.000    24281733.535   101061765.431        2276.379          44.000  
R20  20922390.866   111881493.293        -125.028          41.000    20922391.370    87018999.828         -97.063          43.000  
G29  22411326.130   117772390.845       -1431.598          47.000    22411321.709    91770742.040       -1115.576          44.000  
S33  41320847.826   217142554.797        -695.307          42.000  
S31  40367052.343   212130344.224        -694.417          44.000  
G28  22885793.129   120265685.509        -434.467          45.000    22885791.293    93713502.407        -338.395          48.000  
R19  23149640.016   123835327.223       -4267.848          41.000    23149636.245    96316095.693       -3319.515          46.000  
G12  24416911.026   128311717.639       -2699.509          47.000    24416909.338    99983145.742       -2103.678          45.000  
E33  25011348.475   131435603.469        -299.550          46.000    25011351.719   100710447.614        -229.484          54.000  
E31  25303985.357   132973481.759         306.125          48.000    25303989.086   101888846.673         234.498          53.000  
G20  25516527.877   134090173.824       -1202.939          33.000                                                                  
G31  24519984.882   128853321.427        1715.370          43.000    24519982.537   100405326.269        1336.465          41.000  
E14  23486845.703   123424375.239       -4154.721          47.000    23486848.354    94571898.553       -3183.421          53.000  
E26  26993560.808   141852488.225       -2764.130          44.000    26993559.741   108692364.599       -2117.937          51.000  
E24  28744094.017   151051241.516        1545.973          33.000    28744096.919   115740576.701        1184.702          41.000  
G05  25448014.379   133730435.405         647.888          44.000    25448011.931   104205603.190         505.103          40.000  
E12  27569603.221   144879302.928        2082.726          44.000    27569606.882   111011480.549        1595.834          47.000  
E10  29579488.781   155441225.441        2404.808          41.000    29579504.566   119104454.148        1842.587          47.000  
G26                                                                  25959882.165                3       1882.272          25.000  
> 2024 04 16 03 42 30.0050000  0 24                     
G25  22255622.846   116954149.358       -1353.711          48.000    22255623.362    91133126.230       -1054.718          46.000  
G18  23311097.952   122500649.339        2180.264          51.000    23311097.204    95455036.254        1699.003          48.000  
R16  24723967.883   132070965.141       -4381.098          44.000    24723969.880                       -3407.328          38.000  
R09  21011049.697   112197857.001       -1772.756          53.000    21011047.526    87265098.612       -1378.777          51.000  
R10  21544253.820   114843033.732        1649.537          48.000                                                                  
R21  24265352.603   129848860.671        2915.847          49.000    24265354.931   100993598.410        2267.925          44.000  
R20  20923153.384   111885571.815        -147.472          41.000    20923154.788    87022172.085        -114.713          43.000  
G29  22419519.914   117815451.721       -1439.380          46.000    22419516.487    91804296.007       -1121.643          44.000  
S33  41324814.850   217163402.856        -695.180          42.000  
S31  40371016.886   212151178.563        -694.187          44.000  
G28  22888328.220   120279009.227        -454.167          46.000    22888326.843    93723884.345        -353.892          48.000  
R19  23173596.506   123963473.243       -4275.466          39.000    23173591.867    96415764.843       -3325.466          45.000  
G12  24432344.925   128392822.452       -2707.738          47.000    24432343.653   100046344.201       -2109.950          45.000  
E33  25013097.948   131444791.094        -313.409          47.000    25013100.155   100717487.528        -240.181          54.000  
E31  25302249.659   132964361.705         301.603          48.000    25302253.548   101881858.601         231.040          53.000  
G20  25523448.754   134126530.239       -1220.771          38.000                                                                  
G31  24510231.391   128802060.013        1701.803          43.000    24510227.626   100365381.934        1326.003          39.000  
E14  23510572.769   123549059.645       -4157.945          47.000    23510575.146    94667435.989       -3185.983          53.000  
E26  27009361.811   141935537.071       -2772.861          42.000    27009363.760   108755999.489       -2124.725          51.000  
E24  28735263.855   151004830.493        1547.852          34.000    28735264.414   115705015.319        1185.843          41.000  
G05  25444349.679   133711176.785         635.608          45.000    25444346.097   104190596.492         495.081          40.000  
E12  27557730.152   144816909.170        2076.449          44.000    27557733.992   110963672.420        1590.963          47.000  
E10  29565763.921   155369102.826        2403.236          40.000    29565778.994   119049192.357        1841.220          46.000  
G26                                                                  25946083.828                3       1882.892          25.000  
> 2024 04 16 03 43 00.0050000  0 24                     
G25  22263381.822   116994920.444       -1364.905          49.000    22263381.729    91164895.880       -1063.568          46.000  
G18  23298685.916   122435425.801        2167.327          43.000    23298685.644    95404212.515        1688.825          43.000  
R16  24748595.134   132202521.249       -4389.827          47.000    24748598.604   102824225.2541      -3414.532          33.000  
R09  21021066.410   112251345.000       -1793.627          53.000    21021064.643    87306700.369       -1395.099          52.000  
R10  21535010.717   114793762.150        1634.635          48.000                                                                  
R21  24249032.992   129761536.828        2905.133          46.000    24249035.834   100925680.285        2259.535          44.000  
R20  20924042.347   111890324.309        -169.998          40.000    20924043.561    87025868.411        -132.269          44.000  
G29  22427757.427   117858741.054       -1446.985          47.000    22427754.357    91838027.996       -1127.472          44.000  
S33  41328780.419   217184240.885        -694.748          43.000  
S31  40374979.782   212172004.543        -694.144          44.000  
G28  22890975.819   120292916.928        -473.665          46.000    22890973.888    93734721.143        -369.038          49.000  
R19  23197592.535   124091839.307       -4283.048          40.000    23197588.413    96515605.123       -3331.159          46.000  
G12  24447824.603   128474166.599       -2715.677          48.000    24447822.180   100109729.164       -2116.264          45.000  
E33  25014925.162   131454393.534        -327.305          47.000    25014927.480   100724845.279        -250.724          54.000  
E31  25300539.698   132955374.213         297.152          48.000    25300543.259   101874972.085         227.699          53.000  
G20  25530466.282   134163404.815       -1237.932          36.000                                                                  
G31  24500555.340   128751211.107        1687.877          42.000    24500551.235   100325759.065        1315.183          38.000  
E14  23534318.468   123673841.693       -4161.156          48.000    23534320.491    94763048.245       -3188.518          53.000  
E26  27025216.496   142018845.880       -2781.429          44.000    27025216.629   108819833.552       -2131.240          51.000  
E24  28726419.094   150958374.938        1549.272          33.000    28726423.715   115669419.685        1186.772          41.000  
G05  25440754.099   133692283.111         623.438          44.000    25440750.965   104175874.180         485.852          40.000  
E12  27545893.019   144754704.514        2069.933          43.000    27545896.467   110916009.190        1586.307          43.000  
E10  29552048.037   155297028.909        2401.436          41.000    29552063.032   118993967.832        1840.015          45.000  
G26                                                                  25932280.110                        1884.373          27.000  
> 2024 04 16 03 43 30.0050000  0 24                     
G25  22271205.852   117036031.425       -1376.379          50.000    22271204.640    91196930.392       -1072.577          46.000  
G18  23286348.205   122370591.544        2154.331          51.000    23286348.124    95353693.065        1678.532          52.000  
R16  24773271.507   132334343.119       -4398.802          52.000    24773276.421   102926754.501       -3421.404          48.000  
R09  21031199.948   112305457.450       -1814.548          53.000    21031198.515    87348787.798       -1411.299          51.000  
R10  21525851.250   114744937.415        1619.791          48.000                                                                  
R21  24232774.328   129674534.670        2894.493          47.000    24232777.346   100858012.327        2251.207          44.000  
R20  20925057.104   111895749.381        -192.044          41.000    20925058.074    87030087.705        -149.493          44.000  
G29  22436037.970   117902256.985       -1454.547          46.000    22436034.665    91871936.559       -1133.289          43.000  
S33  41332744.109   217205071.046        -694.709          43.000  
S31  40378941.012   212192821.533        -693.936          44.000  
G28  22893734.079   120307408.741        -493.175          47.000    22893732.229    93746013.216        -384.269          48.000  
R19  23221629.115   124220420.925       -4289.856          40.000    23221624.846    96615613.099       -3336.568          45.000  
G12  24463348.814   128555750.046       -2723.675          47.000    24463347.099   100173300.607       -2122.393          44.000  
E33  25016831.360   131464410.077        -341.166          47.000    25016833.463   100732520.352        -261.357          54.000  
E31  25298854.746   132946519.875         292.604          48.000    25298858.263   101868187.605         224.151          53.000  
G20  25537581.553   134200797.162       -1255.568          36.000                                                                  
G31  24490958.112   128700777.329        1674.129          41.000    24490953.671   100286459.834        1303.906          37.000  
E14  23558081.352   123798717.316       -4164.264          48.000    23558083.525    94858732.188       -3190.803          53.000  
E26  27041119.323   142102412.425       -2790.092          44.000    27041118.732   108883865.088       -2137.881          51.000  
E24  28717563.583   150911875.116        1550.694          33.000    28717574.674   115633790.127        1187.933          41.000  
G05  25437227.457   133673756.158         610.925          44.000    25437224.760   104161437.681         475.903          40.000  
E12  27534091.996   144692690.041        2063.690          44.000    27534095.409   110868491.784        1581.165          45.000  
E10  29538340.982   155225004.715        2399.701          41.000    29538356.364   118938781.388        1838.637          46.000  
G26                                                                  25918483.653                        1885.747          31.000  
> 2024 04 16 03 44 00.0050000  0 24                     
G25  22279094.260   117077487.663       -1387.903          49.000    22279093.562    91229233.937       -1081.354          46.000  
G18  23274085.172   122306149.221        2141.344          43.000    23274084.862    95303478.254        1668.675          44.000  
G26  25904679.586   136129977.2043       2420.936          28.000    25904666.246                        1886.013          31.000  
R16  24797998.855   132466432.442       -4407.995          39.000    24798003.828   103029489.967       -3428.489          46.000  
R09  21041450.983   112360199.661       -1835.439          52.000    21041449.853    87391365.054       -1427.527          51.000  
R10  21516776.838   114696567.964        1604.686          48.000                                                                  
R21  24216576.582   129587861.153        2883.469          47.000    24216579.920   100790599.952        2242.738          45.000  
R20  20926198.077   111901852.050        -214.717          41.000    20926199.243    87034834.267        -167.130          44.000  
G29  22444362.501   117946003.057       -1462.128          47.000    22444358.882    91906024.451       -1139.246          43.000  
S33  41336706.884   217225895.951        -694.221          43.000  
S31  40382901.483   212213633.096        -693.784          44.000  
G28  22896604.603   120322489.457        -512.604          49.000    22896601.883    93757764.330        -399.421          49.000  
R19  23245706.954   124349219.599       -4297.189          40.000    23245703.040    96715789.896       -3342.002          47.000  
G12  24478920.025   128637577.026       -2731.824          48.000    24478918.261   100237061.773       -2128.532          45.000  
E33  25018817.597   131474845.053        -355.052          47.000    25018819.072   100740516.018        -271.993          54.000  
E31  25297195.963   132937804.233         288.078          48.000    25297199.832   101861509.400         220.735          53.000  
G20  25544794.947   134238711.942       -1272.950          36.000                                                                  
G31  24481442.137   128650764.859        1659.817          43.000    24481437.297   100247488.788        1293.229          40.000  
E14  23581862.501   123923687.401       -4167.265          48.000    23581864.517    94954488.513       -3193.056          53.000  
E26  27057070.179   142186239.360       -2798.962          44.000    27057070.791   108948096.147       -2144.428          51.000  
E24  28708712.977   150865336.068        1552.176          33.000    28708718.404   115598130.355        1188.978          40.000  
G05  25433773.712   133655603.930         599.084          43.000    25433771.594   104147293.069         466.394          41.000  
E12  27522328.344   144630871.486        2057.136          44.000    27522331.450   110821124.495        1576.292          47.000  
E10  29524645.576   155153036.240        2397.871          42.000    29524660.443   118883637.628        1837.395          45.000  
> 2024 04 16 03 44 30.0050000  0 24                     
G25  22287048.040   117119287.535       -1399.146          48.000    22287047.942    91261805.269       -1090.204          46.000  
G18  23261896.898   122242100.930        2128.416          42.000    23261896.336    95253562.2821       1658.371          40.000  
G26  25890843.994                2       2422.019          31.000    25890840.378   106018623.3311       1887.265          32.000  
R16  24822774.085   132598785.510       -4416.225          49.000    24822778.790   103132423.7833      -3434.811          48.000  
R09  21051820.373   112415569.161       -1856.208          53.000    21051817.845    87434430.185       -1443.650          50.000  
R10  21507788.658   114648654.999        1589.477          48.000                                                                  
R21  24200440.095   129501515.806        2872.525          47.000    24200443.865   100723442.808        2234.268          44.000  
R20  20927465.191   111908626.936        -237.164          40.000    20927466.198    87040103.514        -184.429          44.000  
G29  22452729.901   117989975.290       -1469.586          47.000    22452726.644    91940288.542       -1145.221          44.000  
S33  41340668.681   217246714.268        -693.806          43.000  
S31  40386860.494   212234438.129        -693.158          44.000  
G28  22899585.131   120338156.206        -532.102          46.000    22899583.394    93769971.970        -414.529          47.000  
R19  23269825.094   124478228.515       -4303.729          40.000    23269820.463    96816130.195       -3347.371          46.000  
G12  24494536.432   128719645.334       -2739.737          47.000    24494535.172   100301011.026       -2135.140          44.000  
E33  25020880.613   131485695.887        -368.745          46.000    25020883.825   100748830.344        -282.524          54.000  
E31  25295563.027   132929225.985         283.666          48.000    25295567.440   101854936.472         217.333          53.000  
G20  25552109.182   134277146.658       -1289.843          38.000                                                                  
G31  24472004.762   128601173.771        1645.862          42.000    24472000.980   100208846.147        1282.152          40.000  
E14  23605660.714   124048745.972       -4170.206          49.000    23605662.220    95050312.645       -3195.273          53.000  
E26  27073072.045   142270322.533       -2807.057          45.000    27073071.275   109012523.577       -2150.911          52.000  
E24  28699850.851   150818756.085        1553.364          34.000    28699854.622   115562439.263        1190.150          40.000  
G05  25430391.095   133637825.830         586.377          43.000    25430389.162   104133440.020         456.830          42.000  
E12  27510601.613   144569247.850        2050.684          43.000    27510604.787   110773906.514        1571.405          46.000  
E10  29510959.821   155081122.569        2396.210          42.000    29510974.676   118828535.819        1835.921          45.000  
