     3.00           OBSERVATION DATA    M: Mixed            RINEX VERSION / TYPE
CONVBIN 2.4.3                           20240416 231442 UTC PGM / RUN BY / DATE 
format: u-blox UBX                                          COMMENT             
log: /home/regis/git/gnsspwv/obsdata/VERT00CHL/2024-04-16/VECOMMENT             
{self.marker}                                               MARKER NAME         
                                                            MARKER NUMBER       
GEODETIC                                                    MARKER TYPE         
{self.observer}     {self.institution}                      OBSERVER / AGENCY   
UNKNOWN             UBLOX-ZED-F9P                           REC # / TYPE / VERS 
UNKNOWN             TWIVSP6037L                             ANT # / TYPE        
  1713381.0000 -5047934.0000 -3490983.0000                  APPROX POSITION XYZ 
        0.0000        0.0000        0.0000                  ANTENNA: DELTA H/E/N
G    8 C1C L1C D1C S1C C2L L2L D2L S2L                      SYS / # / OBS TYPES 
R    8 C1C L1C D1C S1C C2C L2C D2C S2C                      SYS / # / OBS TYPES 
E    8 C1C L1C D1C S1C C7Q L7Q D7Q S7Q                      SYS / # / OBS TYPES 
S    4 C1C L1C D1C S1C                                      SYS / # / OBS TYPES 
  2024    04    16    23    00   00.0090000     GPS         TIME OF FIRST OBS   
  2024    04    16    23    14   30.0100000     GPS         TIME OF LAST OBS    
                                                            END OF HEADER       
> 2024 04 16 23 00 00.0090000  0 26                     
G13  24370416.223   128067449.4361      -3637.600          49.000                                                                  
G15  23741318.935   124761521.5831      -2138.515          48.000    23741319.953    97216813.4031      -1666.268          44.000  
G19  24191311.875   127126680.3081      -1924.149          49.000                                                                  
G24  24159385.382   126958614.4281        953.491          49.000    24159385.965    98928896.7741        742.860          47.000  
R09  24041675.507   128381248.7271        709.177          51.000    24041676.595    99852374.6761        551.665          50.000  
R16  23294331.803   124434149.6731      -1784.907          52.000    23294330.863    96782646.3721      -1388.282          50.000  
R06  23209990.855   123852895.8591      -2774.506          40.000                                                                  
R17  25507009.191   136493188.1101      -2002.819          47.000    25507009.366   106161349.3241      -1558.033          38.000  
R15  26209569.821   140056107.0851      -3255.598          42.000    26209568.423   108932623.6511      -2531.785          42.000  
G12  24816518.007   130411864.5281        818.718          48.000    24816519.262   101619930.7541        638.051          45.000  
E08  27431276.490   144152451.6971      -3041.587          47.000    27431283.842   110454531.9861      -2330.690          50.000  
S31  41587371.407   218543080.5701       -762.590          44.000  
S33  42539709.301   223547621.1981       -763.386          43.000  
R19  25850848.788   138284773.8251       3083.895          37.000    25850864.780   107554951.9701       2398.670          43.000  
R07  24145008.196   129250146.6211       1061.831          49.000    24145008.130   100527917.7701        825.829          48.000  
R18  24446391.729   130496569.5861       1247.874          48.000    24446395.579   101497509.5801        970.598          48.000  
E07  26605180.449   139811331.0361       -384.199          48.000    26605184.695   107128207.8241       -294.370          52.000  
E27  28711494.738   150880233.7591        879.617          46.000    28711504.835   115609725.8291        673.947          49.000  
E34  30885314.028   162303482.3081       1621.114          41.000                                                                  
G25  26979125.375   141776287.2261       1598.856          45.000    26979142.051   110475046.6681       1245.467          42.000  
E30  26370464.965   138578188.3701      -1021.903          48.000    26370468.385   106183554.3951       -783.033          52.000  
G06  27671865.831   145416674.2101       1616.740          41.000    27671877.976   113311747.6301       1260.156          42.000  
E02  28385306.974   149166079.7211      -2756.337          42.000    28385310.656   114296280.1401      -2111.961          51.000  
G22  25958967.462   136415670.7511      -3789.133          41.000                                                                  
G17  25275102.227   132821931.2121      -3132.262          39.000    25275100.423   103497815.3021      -2440.909          44.000  
E18  25935137.389   136290525.8071      -5438.165          44.000                                                                  
> 2024 04 16 23 00 30.0090000  0 27                     
G13  24391219.364   128176770.233       -3650.075          48.000                                                                  
G15  23753576.622   124825937.008       -2155.474          48.000    23753578.501    97267007.142       -1679.615          44.000  
G19  24202351.879   127184693.934       -1943.162          49.000                                                                  
G24  24153959.087   126930100.852         947.721          48.000    24153960.158    98906678.436         738.440          47.000  
R09  24037706.662   128360054.802         704.030          51.000    24037708.797    99835890.686         547.622          51.000  
R16  23304368.042   124487762.883       -1788.947          52.000    23304368.030    96824345.537       -1391.320          50.000  
R06  23225655.056   123936483.474       -2797.472          41.000                                                                  
R17  25518307.795   136553642.912       -2027.216          50.000    25518308.713   106208369.856       -1576.830          38.000  
R15  26227843.689   140153760.621       -3254.106          44.000    26227844.555   109008576.379       -2531.029          44.000  
G12  24811871.496   130387450.453         809.313          47.000    24811873.015   101600906.958         630.714          45.000  
E08  27448669.421   144243846.762       -3050.935          48.000    27448675.841   110524561.787       -2337.835          50.000  
S31  41591726.328   218565965.260        -762.683          44.000  
S33  42544068.558   223570529.645        -763.372          42.000  
R19  25833563.060   138192312.941        3080.615          38.000    25833578.748   107483039.548        2395.920          43.000  
R07  24139126.939   129218664.289        1037.458          50.000    24139126.278   100503431.562         806.819          48.000  
R18  24439437.575   130459445.425        1227.411          49.000    24439440.906   101468635.391         954.609          48.000  
E07  26607412.807   139823063.417        -397.643          49.000    26607417.060   107137197.568        -304.691          52.000  
E27  28706489.623   150853934.401         874.043          46.000    28706499.762   115589574.624         669.651          49.000  
E34  30876060.305   162254857.487        1621.147          41.000                                                                  
G25  26970014.216   141728411.263        1593.468          45.000    26970030.903   110437741.424        1241.505          42.000  
E30  26376316.175   138608938.384       -1027.744          48.000    26376320.011   106207116.128        -787.537          52.000  
G06  27662644.233   145368212.559        1614.224          41.000    27662654.928   113273985.795        1257.721          41.000  
E02  28401046.695   149248781.133       -2756.641          44.000    28401048.817   114359648.764       -2112.368          51.000  
G22  25980605.813   136529380.541       -3791.344          40.000                                                                  
G17  25293032.507   132916151.349       -3148.428          41.000    25293028.876   103571233.685       -2453.577          43.000  
E18  25966211.596   136453818.413       -5447.617          44.000                                                                  
R05                                                                  26382378.345                3      -4086.085          19.000  
> 2024 04 16 23 01 00.0090000  0 27                     
G13  24412094.088   128286467.220       -3662.585          48.000                                                                  
G15  23765932.127   124890859.309       -2172.304          49.000    23765931.947    97317595.809       -1692.630          44.000  
G19  24213500.361   127243281.402       -1962.261          49.000                                                                  
G24  24148565.475   126901759.892         941.917          47.000    24148566.490    98884594.597         733.926          47.000  
R09  24033767.019   128339016.752         698.773          51.000    24033768.594    99819527.883         543.677          51.000  
R16  23314427.745   124541496.846       -1793.019          52.000    23314427.004    96866138.664       -1394.556          50.000  
R06  23241448.667   124020762.894       -2820.464          40.000                                                                  
R17  25529741.773   136614829.840       -2051.609          50.000    25529738.370   106255959.599       -1595.488          34.000  
R15  26246112.067   140251379.687       -3253.106          43.000    26246113.552   109084502.368       -2530.274          46.000  
G12  24807280.079   130363324.038         799.644          48.000    24807281.798   101582107.298         622.982          45.000  
E08  27466115.116   144335520.770       -3060.236          49.000    27466120.990   110594805.323       -2344.891          50.000  
S31  41596081.366   218588851.827        -762.803          44.000  
S33  42548428.321   223593439.367        -763.558          42.000  
R19  25816298.300   138099964.961        3076.294          39.000    25816312.840   107411214.815        2392.829          42.000  
R07  24133383.560   129187916.460        1012.780          50.000    24133381.712   100479516.603         787.781          48.000  
R18  24432599.095   130422937.918        1206.728          50.000    24432601.177   101440240.761         938.678          47.000  
E07  26609722.435   139835201.650        -411.251          48.000    26609726.828   107146498.284        -315.002          52.000  
E27  28701517.384   150827803.531         868.350          47.000    28701526.913   115569552.509         665.445          49.000  
E34  30866805.286   162206227.061        1621.247          41.000                                                                  
G25  26960934.383   141680695.397        1588.101          44.000    26960950.053   110400560.901        1237.239          42.000  
E30  26382201.943   138639864.985       -1033.623          48.000    26382205.189   106230813.163        -792.008          52.000  
G06  27653437.447   145319835.635        1611.184          41.000    27653448.628   113236290.003        1255.539          42.000  
E02  28416784.715   149331497.520       -2757.246          43.000    28416788.258   114423028.880       -2112.707          50.000  
G22  26002254.887   136643152.570       -3793.332          39.000                                                                  
G17  25311053.656   133010849.722       -3164.664          42.000    25311050.065   103645024.621       -2465.648          42.000  
E18  25997336.475   136617389.582       -5456.729          43.000                                                                  
R05                                                                  26411960.868                3      -4092.139          19.000  
> 2024 04 16 23 01 30.0090000  0 26                     
G13  24433041.235   128396542.294       -3675.318          49.000                                                                  
G15  23778383.144   124956290.840       -2189.520          48.000    23778382.828    97368581.312       -1705.956          43.000  
G19  24224758.489   127302445.429       -1981.692          48.000                                                                  
G24  24143206.588   126873597.096         935.756          47.000    24143206.919    98862649.571         729.286          46.000  
R09  24029856.462   128318137.714         693.324          50.000    24029857.649    99803288.747         539.291          50.000  
R16  23324510.333   124595355.052       -1797.267          52.000    23324509.131    96908028.353       -1397.735          50.000  
R06  23257372.266   124105734.861       -2843.707          39.000                                                                  
R17  25541313.785   136676751.409       -2076.082          52.000    25541311.274   106304120.877       -1614.490          39.000  
R15  26264374.603   140348968.113       -3252.351          42.000    26264375.549   109160404.534       -2529.591          44.000  
G12  24802745.035   130339488.751         789.630          47.000    24802745.803   101563534.505         615.249          45.000  
E08  27483614.275   144427476.310       -3069.718          49.000    27483620.032   110665264.582       -2352.129          51.000  
S31  41600437.909   218611744.241        -763.243          44.000  
S33  42552789.131   223616355.756        -763.928          42.000  
R19  25799056.617   138007738.653        3072.162          40.000    25799069.999   107339484.767        2389.432          43.000  
R07  24127778.240   129157909.780         987.929          49.000    24127776.753   100456178.088         768.376          48.000  
R18  24425875.429   130387054.660        1185.705          48.000    24425878.160   101412331.737         922.270          48.000  
E07  26612110.897   139847750.263        -425.114          49.000    26612114.782   107156113.447        -325.649          52.000  
E27  28696576.284   150801844.804         862.521          45.000    28696586.949   115549662.296         660.828          49.000  
E34  30857551.318   162157596.999        1621.216          43.000                                                                  
G25  26951885.426   141633143.598        1582.563          45.000    26951900.747   110363508.220        1233.030          43.000  
E30  26388121.982   138670971.123       -1039.696          49.000    26388124.283   106254647.768        -796.657          52.000  
G06  27644248.064   145271550.406        1607.869          40.000    27644259.296   113198665.692        1253.046          41.000  
E02  28432530.563   149414232.075       -2757.999          45.000    28432532.498   114486422.900       -2113.255          51.000  
G22  26023917.597   136756989.359       -3795.603          41.000                                                                  
G17  25329165.245   133106027.185       -3180.570          43.000    25329162.376   103719188.950       -2478.280          42.000  
E18  26028516.271   136781238.993       -5466.265          43.000                                                                  
> 2024 04 16 23 02 00.0090000  0 26                     
G13  24454059.880   128506997.157       -3688.039          48.000                                                                  
G15  23790932.193   125022234.063       -2206.566          49.000    23790931.573    97419965.522       -1719.422          43.000  
G19  24236126.368   127362188.469       -2000.964          48.000                                                                  
G24  24137882.699   126845617.983         929.747          48.000    24137882.409    98840847.704         724.594          46.000  
R09  24025977.293   128297421.100         688.022          52.000    24025978.063    99787175.967         535.038          50.000  
R16  23334616.721   124649341.219       -1801.557          52.000    23334616.050    96950017.646       -1401.104          50.000  
R06  23273426.768   124191400.236       -2866.778          41.000                                                                  
R17  25553022.929   136739410.324       -2100.736          52.000    25553021.127   106352855.620       -1633.945          40.000  
R15  26282631.732   140446530.343       -3251.465          40.000    26282632.030   109236286.292       -2528.727          43.000  
G12  24798265.803   130315948.180         780.004          48.000    24798265.405   101545191.347         607.636          45.000  
E08  27501165.854   144519716.038       -3079.217          48.000    27501173.090   110735941.578       -2359.420          51.000  
S31  41604796.058   218634647.516        -763.596          44.000  
S33  42557151.790   223639282.098        -764.034          42.000  
R19  25781839.273   137915642.663        3068.138          39.000    25781852.968   107267856.015        2386.005          44.000  
R07  24122312.507   129128650.737         963.015          50.000    24122311.403   100433421.075         748.945          48.000  
R18  24419272.150   130351803.375        1164.539          49.000    24419274.362   101384914.194         905.846          48.000  
E07  26614577.710   139860713.804        -438.952          49.000    26614581.865   107166046.538        -336.250          52.000  
E27  28691670.450   150776061.926         856.497          45.000    28691680.359   115529906.828         656.352          49.000  
E34  30848298.844   162108973.449        1620.727          43.000                                                                  
G25  26942867.983   141585759.856        1576.942          44.000    26942882.681   110326586.479        1228.818          42.000  
E30  26394075.767   138702259.775       -1045.773          49.000    26394078.132   106278622.227        -801.335          51.000  
G06  27635078.264   145223363.955        1604.426          42.000    27635089.201   113161118.313        1250.209          41.000  
E02  28448276.678   149496987.935       -2758.748          44.000    28448280.371   114549833.250       -2113.817          51.000  
G22  26045592.735   136870893.288       -3797.732          42.000                                                                  
G17  25347368.796   133201686.131       -3196.629          44.000    25347364.965   103793728.495       -2490.685          41.000  
E18  26059749.153   136945366.261       -5475.426          44.000                                                                  
> 2024 04 16 23 02 30.0090000  0 26                     
G13  24475148.625   128617819.185       -3700.053          48.000                                                                  
G15  23803576.130   125088677.323       -2222.928          48.000    23803575.394    97471739.364       -1731.947          43.000  
G19  24247603.612   127422498.339       -2019.568          48.000                                                                  
G24  24132592.012   126817813.845         923.997          48.000    24132591.384    98819182.182         719.966          46.000  
R09  24022125.609   128276855.996         683.083          51.000    24022126.769    99771181.006         531.361          51.000  
R16  23344744.743   124703443.853       -1805.195          52.000    23344744.172    96992097.476       -1404.035          51.000  
R06  23289607.998   124277744.821       -2889.289          40.000                                                                  
R17  25564866.745   136802794.505       -2124.812          51.000    25564865.868   106402154.519       -1652.637          40.000  
R15  26300882.578   140544055.866       -3249.927          39.000    26300881.439   109312139.594       -2527.733          40.000  
G12  24793839.975   130292691.513         770.561          49.000    24793840.217   101527069.400         600.551          46.000  
E08  27518770.942   144612228.208       -3088.098          48.000    27518777.837   110806827.323       -2366.212          51.000  
S31  41609153.843   218657548.773        -763.271          44.000  
S33  42561514.614   223662207.610        -764.096          42.000  
R19  25764645.247   137823671.294        3063.721          38.000    25764659.320   107196324.173        2382.878          46.000  
R07  24116985.226   129100130.648         938.453          51.000    24116983.197   100411238.832         729.916          48.000  
R18  24412785.053   130317176.936        1143.910          49.000    24412787.485   101357982.659         889.632          48.000  
E07  26617121.347   139874082.492        -452.177          49.000    26617126.097   107176290.063        -346.476          52.000  
E27  28686796.161   150750444.193         851.292          47.000    28686805.289   115510277.915         652.322          49.000  
E34  30839045.414   162060347.975        1620.934          42.000                                                                  
G25  26933879.978   141538533.784        1571.829          43.000    26933894.783   110289787.604        1224.683          42.000  
E30  26400062.389   138733719.602       -1051.465          49.000    26400064.489   106302727.841        -805.684          51.000  
G06  27625925.846   145175268.948        1601.652          40.000    27625936.692   113123642.138        1248.498          41.000  
E02  28464026.382   149579753.949       -2758.782          44.000    28464030.265   114613251.393       -2113.953          51.000  
G22  26067279.132   136984852.284       -3799.390          44.000                                                                  
G17  25365659.845   133297813.065       -3212.207          42.000    25365657.626   103868632.638       -2502.825          39.000  
E18  26091034.286   137109756.726       -5483.889          45.000                                                                  
> 2024 04 16 23 03 00.0090000  0 26                     
G13  24496305.159   128728998.289       -3712.147          47.000                                                                  
G15  23816314.059   125155611.217       -2239.663          48.000    23816313.246    97523895.514       -1745.262          44.000  
G19  24259186.323   127483366.239       -2038.604          49.000                                                                  
G24  24127333.203   126790178.188         918.154          48.000    24127332.489    98797647.927         715.455          46.000  
R09  24018300.760   128256433.415         678.063          52.000    24018302.314    99755296.912         527.373          51.000  
R16  23354893.635   124757654.068       -1809.042          53.000    23354892.834    97034261.031       -1407.045          51.000  
R06  23305914.521   124364757.408       -2911.808          40.000                                                                  
R17  25576845.194   136866894.530       -2148.862          51.000    25576844.448   106452010.184       -1671.226          43.000  
R15  26319124.671   140641536.688       -3248.792          40.000    26319124.551   109387958.019       -2527.085          42.000  
G12  24789466.732   130269710.592         761.208          48.000    24789466.941   101509162.336         593.001          46.000  
E08  27536424.786   144705003.344       -3097.194          47.000    27536432.401   110877914.564       -2373.103          51.000  
S31  41613510.592   218680442.537        -763.474          44.000  
S33  42565875.605   223685124.662        -763.845          43.000  
R19  25747473.226   137731820.858        3059.656          38.000    25747487.276   107124886.389        2379.469          45.000  
R07  24111794.576   129072343.435         913.696          50.000    24111792.151   100389626.584         710.573          47.000  
R18  24406414.577   130283170.751        1122.884          50.000    24406416.450   101331533.506         873.290          47.000  
E07  26619740.786   139887848.779        -465.750          48.000    26619745.778   107186838.249        -356.827          52.000  
E27  28681950.959   150724983.264         845.883          47.000    28681959.889   115490769.146         648.003          49.000  
E34  30829789.324   162011714.665        1621.024          41.000                                                                  
G25  26924921.114   141491457.293        1566.679          44.000    26924936.009   110253105.258        1220.638          42.000  
E30  26406079.709   138765341.511       -1056.979          49.000    26406082.024   106326957.657        -809.985          52.000  
G06  27616789.712   145127260.289        1598.272          40.000    27616800.648   113086233.240        1245.826          41.000  
E02  28479777.441   149662521.250       -2759.223          44.000    28479780.907   114676670.495       -2114.182          51.000  
G22  26088973.643   137098857.110       -3801.273          44.000                                                                  
G17  25384039.122   133394397.615       -3227.277          44.000    25384035.369   103943893.459       -2514.859          38.000  
E18  26122362.178   137274397.959       -5492.358          43.000                                                                  
> 2024 04 16 23 03 30.0090000  0 26                     
G13  24517530.158   128840532.864       -3723.673          47.000                                                                  
G15  23829144.026   125223034.827       -2255.577          48.000    23829144.300    97576433.265       -1757.581          44.000  
G19  24270875.548   127544791.087       -2056.703          48.000                                                                  
G24  24122107.052   126762713.361         912.736          49.000    24122106.405    98776246.793         711.293          46.000  
R09  24014503.159   128236153.381         673.691          52.000    24014504.349    99739523.715         524.053          51.000  
R16  23365061.879   124811971.985       -1812.366          53.000    23365060.504    97076508.287       -1409.545          50.000  
R06  23322344.873   124452435.173       -2933.496          39.000                                                                  
R17  25588956.801   136931709.657       -2172.259          50.000    25588957.547   106502422.011       -1689.562          46.000  
R15  26337359.971   140738973.771       -3247.149          40.000    26337359.102   109463742.402       -2525.777          42.000  
G12  24785146.086   130247005.605         752.287          47.000    24785146.160   101491470.265         586.150          45.000  
E08  27554129.399   144798040.742       -3105.473          48.000    27554137.091   110949202.775       -2379.593          52.000  
S31  41617865.581   218703328.451        -762.413          44.000  
S33  42570235.040   223708033.525        -763.398          42.000  
R19  25730325.065   137640096.439        3055.483          37.000    25730339.313   107053546.606        2376.369          45.000  
R07  24106741.169   129045292.267         889.547          50.000    24106737.654   100368586.789         691.886          45.000  
R18  24400160.417   130249788.996        1102.339          49.000    24400163.483   101305570.058         857.345          49.000  
E07  26622436.206   139902013.925        -478.723          48.000    26622441.229   107197692.064        -366.815          52.000  
E27  28677135.010   150699679.517         841.003          46.000    28677144.667   115471380.809         644.294          49.000  
E34  30820533.238   161963076.302        1621.274          40.000                                                                  
G25  26915990.752   141444531.141        1561.673          45.000    26916005.994   110216540.044        1216.967          42.000  
E30  26412127.274   138797125.210       -1062.049          48.000    26412130.413   106351311.442        -813.803          52.000  
G06  27607670.717   145079341.777        1595.678          42.000    27607680.969   113048894.628        1243.674          41.000  
E02  28495528.167   149745289.713       -2758.800          45.000    28495530.674   114740090.492       -2113.872          51.000  
G22  26110676.848   137212906.900       -3802.411          44.000                                                                  
G17  25402504.977   133491437.895       -3242.087          44.000    25402502.811   104019509.271       -2526.335          39.000  
E18  26153740.306   137439286.427       -5500.175          44.000                                                                  
> 2024 04 16 23 04 00.0090000  0 26                     
G13  24538822.785   128952425.127       -3735.460          47.000                                                                  
G15  23842067.223   125290950.658       -2271.799          48.000    23842067.677    97629354.618       -1770.183          45.000  
G19  24282670.535   127606775.954       -2075.284          48.000                                                                  
G24  24116914.164   126735425.605         906.761          49.000    24116913.466    98754983.648         706.692          46.000  
R09  24010733.867   128216019.851         668.945          53.000    24010733.812    99723864.474         520.226          51.000  
R16  23375250.647   124866401.868       -1816.022          52.000    23375249.166    97118842.663       -1412.408          49.000  
R06  23338900.190   124540779.345       -2955.794          38.000                                                                  
R17  25601204.360   136997243.330       -2196.124          50.000    25601204.380   106553392.736       -1708.120          47.000  
R15  26355587.301   140836371.731       -3245.542          40.000    26355586.371   109539496.404       -2524.586          42.000  
G12  24780878.272   130224580.499         743.065          48.000    24780878.818   101473996.305         578.879          45.000  
E08  27571885.123   144891343.691       -3114.271          48.000    27571892.141   111020694.441       -2386.221          52.000  
S31  41622219.749   218726209.902        -762.266          44.000  
S33  42574594.049   223730939.814        -763.279          43.000  
R19  25713202.628   137548507.245        3051.113          38.000    25713215.838   106982311.932        2373.057          44.000  
R07  24101825.942   129018984.302         864.695          50.000    24101821.632   100348125.019         672.554          45.000  
R18  24394024.760   130217039.877        1081.270          49.000    24394027.937   101280098.649         840.972          48.000  
E07  26625209.173   139916583.072        -492.080          49.000    26625213.694   107208855.434        -377.033          52.000  
E27  28672350.106   150674537.257         835.547          46.000    28672359.957   115452116.226         640.285          49.000  
E34  30811275.368   161914439.543        1621.445          39.000                                                                  
G25  26907090.449   141397759.905        1556.618          44.000    26907104.372   110180095.514        1213.000          42.000  
E30  26418207.287   138829074.338       -1067.509          49.000    26418210.276   106375791.981        -817.939          52.000  
G06  27598569.643   145031521.111        1592.608          41.000    27598580.868   113011632.328        1241.031          41.000  
E02  28511278.596   149828063.191       -2758.953          44.000    28511282.187   114803514.354       -2113.986          51.000  
G22  26132388.736   137327004.631       -3803.833          42.000                                                                  
G17  25421057.951   133588935.927       -3257.325          45.000    25421055.097   104095481.827       -2538.291          39.000  
E18  26185164.762   137604422.500       -5508.492          44.000                                                                  
> 2024 04 16 23 04 30.0090000  0 26                     
G13  24560181.346   129064664.306       -3747.179          48.000                                                                  
G15  23855082.629   125359348.619       -2288.036          48.000    23855083.942    97682651.642       -1783.002          45.000  
G19  24294570.552   127669310.602       -2093.457          48.000                                                                  
G24  24111753.394   126708307.699         900.902          48.000    24111752.828    98733852.852         702.043          46.000  
R09  24006988.406   128196023.281         664.303          52.000    24006989.511    99708311.704         516.695          51.000  
R16  23385458.682   124920933.697       -1819.464          52.000    23385457.482    97161256.324       -1414.935          49.000  
R06  23355578.112   124629777.546       -2977.547          39.000                                                                  
R17  25613582.118   137063484.616       -2219.808          49.000    25613581.760   106604913.801       -1726.461          48.000  
R15  26373804.425   140933721.858       -3244.276          39.000    26373803.476   109615213.205       -2523.156          41.000  
G12  24776661.841   130202426.253         734.010          47.000    24776662.154   101456733.418         571.839          45.000  
E08  27589689.736   144984901.898       -3122.838          49.000    27589695.862   111092381.705       -2392.850          51.000  
S31  41626571.807   218749079.852        -762.129          44.000  
S33  42578950.627   223753834.011        -762.903          42.000  
R19  25696104.490   137457049.032        3046.461          38.000    25696116.533   106911179.153        2369.413          42.000  
R07  24097050.258   128993412.257         840.087          51.000    24097044.395   100328235.694         653.405          45.000  
R18  24388006.552   130184917.846        1060.141          48.000    24388009.990   101255114.973         824.652          47.000  
E07  26628057.116   139931547.864        -505.469          49.000    26628061.543   107220321.965        -387.301          53.000  
E27  28667594.508   150649547.350         830.464          45.000    28667604.227   115432968.368         636.396          49.000  
E34  30802019.001   161865797.680        1621.480          40.000                                                                  
G25  26898217.410   141351134.686        1551.736          42.000    26898230.998   110143764.766        1209.225          42.000  
E30  26424316.750   138861179.062       -1072.733          49.000    26424319.578   106400391.747        -821.992          52.000  
G06  27589486.618   144983792.452        1589.164          41.000    27589497.877   112974441.694        1238.421          41.000  
E02  28527029.397   149910832.058       -2758.901          45.000    28527032.141   114866934.681       -2113.998          50.000  
G22  26154107.111   137441140.168       -3805.157          42.000                                                                  
G17  25439696.017   133686880.212       -3272.285          45.000    25439695.423   104171802.037       -2549.788          40.000  
E18  26216633.517   137769793.067       -5516.391          44.000                                                                  
> 2024 04 16 23 05 00.0090000  0 26                     
G13  24581605.793   129177245.624       -3758.260          49.000                                                                  
G15  23868188.875   125428225.233       -2303.705          47.000    23868190.363    97736321.643       -1795.140          45.000  
G19  24306574.770   127732391.347       -2111.704          48.000                                                                  
G24  24106624.842   126681359.332         895.532          47.000    24106624.430    98712854.179         697.743          46.000  
R09  24003268.202   128176161.280         659.922          51.000    24003269.076    99692863.571         513.325          50.000  
R16  23395686.132   124975564.890       -1822.552          53.000    23395684.857    97203747.319       -1417.584          49.000  
R06  23372378.268   124719424.457       -2998.810          39.000                                                                  
R17  25626092.343   137130430.004       -2243.007          48.000    25626092.682   106656982.506       -1744.645          48.000  
R15  26392012.089   141031022.173       -3242.102          39.000    26392010.945   109690891.225       -2521.582          38.000  
G12  24772496.920   130180540.646         725.084          47.000    24772497.012   101439679.828         565.083          44.000  
E08  27607540.673   145078712.062       -3131.079          48.000    27607547.452   111164262.018       -2399.042          51.000  
S31  41630921.000   218771935.837        -761.433          44.000  
S33  42583304.256   223776712.192        -762.148          43.000  
R19  25679031.065   137365724.555        3042.021          37.000    25679043.542   106840150.320        2365.925          44.000  
R07  24092409.868   128968576.117         815.659          49.000    24092406.411   100308918.755         634.302          46.000  
R18  24382107.538   130153424.251        1039.323          49.000    24382109.039   101230620.072         808.444          47.000  
E07  26630979.771   139946906.879        -518.367          49.000    26630984.496   107232090.560        -397.233          53.000  
E27  28662866.322   150624707.516         825.578          43.000    28662877.273   115413935.505         632.658          49.000  
E34  30792762.271   161817150.938        1621.795          42.000                                                                  
G25  26889371.631   141304653.573        1546.922          43.000    26889385.773   110107546.311        1205.395          42.000  
E30  26430454.952   138893436.467       -1077.677          48.000    26430457.950   106425108.516        -825.753          52.000  
G06  27580422.337   144936157.006        1586.473          41.000    27580432.428   112937323.649        1236.147          40.000  
E02  28542778.262   149993593.629       -2758.420          45.000    28542781.595   114930349.393       -2113.655          51.000  
G22  26175832.361   137555309.896       -3806.166          42.000                                                                  
G17  25458418.878   133785266.392       -3286.772          46.000    25458416.962   104248466.682       -2561.155          41.000  
E18  26248145.496   137935391.943       -5523.569          44.000                                                                  
> 2024 04 16 23 05 30.0090000  0 26                     
G13  24603093.824   129290164.072       -3769.676          49.000                                                                  
G15  23881385.680   125497575.623       -2319.523          47.000    23881388.144    97790360.794       -1807.535          45.000  
G19  24318681.605   127796013.551       -2129.790          47.000                                                                  
G24  24101528.793   126654579.066         889.749          47.000    24101528.297    98691986.476         693.195          46.000  
R09  23999573.235   128156430.032         655.471          51.000    23999573.194    99677517.166         509.850          50.000  
R16  23405931.359   125030292.416       -1825.910          53.000    23405930.446    97246313.212       -1420.184          50.000  
R06  23389298.955   124809713.273       -3020.233          40.000                                                                  
R17  25638733.791   137198074.829       -2266.649          46.000    25638733.950   106709595.205       -1762.949          49.000  
R15  26410211.097   141128270.184       -3240.753          41.000    26410208.397   109766528.637       -2520.428          37.000  
G12  24768381.929   130158920.016         716.317          48.000    24768382.573   101422832.739         558.116          44.000  
E08  27625438.959   145172769.625       -3139.454          48.000    27625445.989   111236331.915       -2405.587          51.000  
S31  41635266.859   218794773.521        -761.041          44.000  
S33  42587654.791   223799574.297        -761.943          43.000  
R19  25661983.203   137274535.149        3037.520          40.000    25661996.790   106769226.531        2362.201          46.000  
R07  24087905.712   128944474.994         791.077          48.000    24087906.091   100290173.456         615.157          48.000  
R18  24376324.857   130122559.475        1018.296          49.000    24376327.738   101206614.258         791.978          48.000  
E07  26633977.460   139962657.518        -531.674          50.000    26633981.955   107244159.226        -407.387          53.000  
E27  28658167.437   150600014.335         820.668          43.000    28658178.241   115395015.005         628.752          49.000  
E34  30783503.892   161768498.252        1621.949          43.000    30783523.549   123952495.7891       1242.642          46.000  
G25  26880552.824   141258313.387        1542.195          44.000    26880567.082   110071437.630        1201.788          41.000  
E30  26436621.140   138925842.438       -1082.803          48.000    26436624.505   106449939.107        -829.643          52.000  
G06  27571375.834   144888614.668        1583.068          42.000    27571384.970   112900278.158        1233.682          41.000  
E02  28558524.765   150076344.007       -2758.366          45.000    28558527.914   114993755.537       -2113.526          50.000  
G22  26197564.173   137669509.380       -3807.306          42.000                                                                  
G17  25477223.968   133884088.720       -3301.517          45.000    25477222.192   104325471.091       -2572.483          41.000  
E18  26279699.883   138101211.842       -5530.958          43.000                                                                  
> 2024 04 16 23 06 00.0100000  0 26                     
G13  24624648.160   129403431.814       -3781.194          48.000                                                                  
G15  23894675.572   125567411.424       -2335.797          47.000    23894677.712    97844778.180       -1820.050          45.000  
G19  24330893.210   127860188.681       -2148.420          47.000                                                                  
G24  24096466.132   126627978.328         883.531          45.000    24096466.379    98671258.677         688.515          46.000  
R09  23995905.808   128136839.028         650.742          52.000    23995904.638    99662279.858         506.094          50.000  
R16  23416196.462   125085127.771       -1829.548          52.000    23416195.342    97288962.961       -1423.030          50.000  
R06  23406342.165   124900654.532       -3041.982          40.000                                                                  
R17  25651507.469   137266430.745       -2290.207          46.000    25651507.453   106762760.989       -1781.364          47.000  
R15  26428402.730   141225479.867       -3239.484          43.000    26428395.982   109842136.176       -2519.371          35.000  
G12  24764320.057   130137573.792         706.922          48.000    24764321.004   101406199.447         550.928          45.000  
E08  27643387.189   145267087.087       -3147.942          48.000    27643393.974   111308600.939       -2412.201          50.000  
S31  41639611.692   218817606.610        -761.165          44.000  
S33  42592004.234   223822430.520        -761.835          43.000  
R19  25644963.702   137183493.147        3032.067          40.000    25644976.427   106698417.319        2358.279          46.000  
R07  24083544.428   128921121.149         765.884          50.000    24083542.812   100272009.351         595.682          48.000  
R18  24370663.640   130092336.647         996.647          50.000    24370667.182   101183107.783         775.010          48.000  
E07  26637051.315   139978811.518        -545.160          50.000    26637055.853   107256536.980        -417.790          53.000  
E27  28653500.197   150575477.398         815.361          45.000    28653508.831   115376214.206         624.756          49.000  
E34  30774245.803   161719850.850        1621.560          43.000    30774265.619   123915221.280        1242.247          46.000  
G25  26871762.825   141212123.292        1537.067          45.000    26871776.792   110035445.910        1197.821          42.000  
E30  26442818.062   138958407.813       -1088.089          48.000    26442821.440   106474891.844        -833.626          52.000  
G06  27562348.253   144841177.711        1579.279          41.000    27562357.672   112863314.829        1230.662          41.000  
E02  28574272.898   150159095.957       -2758.302          45.000    28574274.752   115057162.897       -2113.539          49.000  
G22  26219303.479   137783751.616       -3808.365          41.000                                                                  
G17  25496113.324   133983358.567       -3316.158          45.000    25496111.811   104402824.276       -2584.106          40.000  
E18  26311299.301   138267264.827       -5538.541          43.000                                                                  
> 2024 04 16 23 06 30.0100000  0 26                     
G13  24646265.681   129517036.006       -3792.248          48.000                                                                  
G15  23908056.320   125637723.345       -2351.599          48.000    23908057.713    97899566.584       -1832.544          45.000  
G19  24343208.641   127924907.764       -2166.323          47.000                                                                  
G24  24091438.351   126601557.759         877.740          46.000    24091438.875    98650671.292         683.907          46.000  
R09  23992261.264   128117385.618         646.221          51.000    23992261.641    99647149.556         502.592          50.000  
R16  23426480.580   125140063.906       -1832.802          52.000    23426479.407    97331691.103       -1425.588          50.000  
R06  23423504.713   124992235.612       -3063.401          41.000                                                                  
R17  25664412.673   137335488.586       -2313.547          44.000    25664411.535   106816472.709       -1799.385          47.000  
R15  26446584.824   141322642.247       -3237.960          43.000    26446580.301   109917706.912       -2518.003          35.000  
G12  24760310.018   130116500.267         698.016          48.000    24760310.772   101389778.681         543.806          45.000  
E08  27661383.533   145361653.860       -3156.309          48.000    27661389.449   111381060.984       -2418.411          50.000  
S31  41643954.557   218840427.916        -760.287          44.000  
S33  42596351.531   223845276.485        -761.449          42.000  
R19  25627972.241   137092606.468        3026.904          39.000    25627984.986   106627728.899        2354.345          47.000  
R07  24079320.730   128898514.684         741.183          49.000    24079319.490   100254426.596         576.349          47.000  
R18  24365121.047   130062758.255         975.276          48.000    24365124.340   101160102.482         758.484          47.000  
E07  26640201.371   139995365.432        -558.316          50.000    26640205.789   107269221.136        -427.781          53.000  
E27  28648859.484   150551095.162         810.369          45.000    28648868.802   115357531.947         620.963          49.000  
E34  30764989.017   161671211.203        1621.402          42.000    30765009.421   123877952.707        1242.412          46.000  
G25  26863001.523   141166083.541        1532.233          45.000    26863014.955   109999571.340        1194.025          41.000  
E30  26449044.714   138991126.607       -1093.032          48.000    26449047.411   106499962.144        -837.493          52.000  
G06  27553341.133   144793849.520        1576.036          40.000    27553351.485   112826436.206        1228.077          41.000  
E02  28590018.500   150241840.339       -2758.057          45.000    28590020.784   115120564.422       -2113.211          50.000  
G22  26241049.317   137898024.839       -3809.674          40.000                                                                  
G17  25515086.477   134083063.756       -3330.558          46.000    25515086.365   104480516.633       -2595.417          42.000  
E18  26342939.168   138433532.769       -5545.711          43.000                                                                  
> 2024 04 16 23 07 00.0100000  0 26                     
G13  24667948.185   129630975.699       -3803.703          47.000                                                                  
G15  23921526.830   125708509.422       -2367.572          48.000    23921528.054    97954724.473       -1844.769          45.000  
G19  24355627.722   127990168.849       -2184.550          47.000                                                                  
G24  24086444.897   126575315.607         871.701          45.000    24086444.989    98630222.904         679.195          46.000  
R09  23988641.713   128098066.496         641.604          50.000    23988643.894    99632123.696         498.814          50.000  
R16  23436782.932   125195099.523       -1836.336          52.000    23436782.250    97374496.610       -1428.316          50.000  
R06  23440786.750   125084453.345       -3084.652          40.000                                                                  
R17  25677449.064   137405246.371       -2337.084          45.000    25677447.175   106870728.844       -1817.790          48.000  
R15  26464756.843   141419758.234       -3236.722          42.000    26464758.733   109993241.525       -2517.618          38.000  
G12  24756351.026   130095695.961         688.887          48.000    24756351.699   101373567.697         536.731          45.000  
E08  27679426.112   145456469.090       -3164.633          48.000    27679432.494   111453711.433       -2424.887          50.000  
S31  41648295.404   218863237.887        -760.467          44.000  
S33  42600696.737   223868109.781        -761.266          43.000  
R19  25611009.719   137001874.056        3021.609          38.000    25611022.307   106557160.464        2350.079          47.000  
R07  24075236.911   128876654.945         716.033          49.000    24075236.269   100237424.636         556.946          47.000  
R18  24359701.657   130033824.108         953.558          50.000    24359703.309   101137598.256         741.560          47.000  
E07  26643426.562   140012317.704        -571.889          49.000    26643431.533   107282210.540        -438.118          53.000  
E27  28644247.790   150526863.944         805.055          45.000    28644257.395   115338965.420         616.788          49.000  
E34  30755734.101   161622577.247        1620.995          42.000    30755753.811   123840688.552        1241.752          46.000  
G25  26854267.960   141120190.055        1527.112          44.000    26854281.006   109963810.725        1189.948          41.000  
E30  26455299.994   139023996.357       -1098.359          49.000    26455302.128   106525148.109        -841.618          52.000  
G06  27544354.531   144746629.010        1572.223          39.000    27544364.957   112789641.535        1224.858          41.000  
E02  28605763.030   150324576.643       -2757.987          46.000    28605764.367   115183959.806       -2113.183          49.000  
G22  26262801.222   138012328.763       -3810.752          39.000                                                                  
G17  25534142.361   134183202.448       -3345.233          46.000    25534141.732   104558546.830       -2606.794          42.000  
E18  26374618.893   138600014.539       -5553.091          43.000                                                                  
> 2024 04 16 23 07 30.0100000  0 26                     
G13  24689694.322   129745252.064       -3814.540          47.000                                                                  
G15  23935087.597   125779771.456       -2383.081          48.000    23935088.432    98010253.219       -1856.726          45.000  
G19  24368149.785   128055973.781       -2202.157          47.000                                                                  
G24  24081486.487   126549257.045         865.884          46.000    24081486.410    98609917.596         674.598          46.000  
R09  23985050.288   128078884.554         637.389          51.000    23985051.488    99617204.533         495.705          50.000  
R16  23447105.004   125250237.926       -1839.369          52.000    23447103.861    97417382.053       -1430.616          50.000  
R06  23458186.840   125177307.730       -3105.765          41.000                                                                  
R17  25690614.400   137475705.938       -2360.002          40.000    25690615.251   106925530.785       -1835.648          49.000  
R15  26482923.014   141516831.720       -3235.006          42.000    26482924.421   110068742.997       -2515.770          35.000  
G12  24752443.720   130075163.647         680.266          47.000    24752443.831   101357568.628         529.889          44.000  
E08  27697516.616   145551534.934       -3172.755          48.000    27697522.981   111526553.904       -2431.113          50.000  
S31  41652634.079   218886040.006        -759.655          44.000  
S33  42605040.126   223890934.727        -760.517          42.000  
R19  25594077.881   136911304.224        3016.578          39.000    25594089.563   106486718.429        2345.890          46.000  
R07  24071293.621   128855546.855         691.217          49.000    24071293.301   100221007.200         537.635          49.000  
R18  24354404.362   130005540.996         932.135          50.000    24354406.655   101115600.427         725.005          48.000  
E07  26646728.697   140029672.317        -584.791          49.000    26646734.034   107295508.234        -448.139          53.000  
E27  28639666.843   150502786.971         800.212          46.000    28639675.337   115320517.055         613.186          49.000  
E34  30746481.605   161573954.659        1620.809          43.000    30746499.810   123803433.078        1241.711          44.000  
G25  26845562.320   141074446.231        1522.363          43.000    26845575.103   109928166.757        1186.511          40.000  
E30  26461583.699   139057019.621       -1102.927          48.000    26461586.174   106550451.699        -845.202          52.000  
G06  27535389.882   144699522.800        1568.672          41.000    27535400.565   112752935.985        1222.148          42.000  
E02  28621505.113   150407307.672       -2757.267          45.000    28621507.935   115247351.121       -2112.667          50.000  
G22  26284559.767   138126665.473       -3811.320          40.000                                                                  
G17  25553281.201   134283775.884       -3359.427          45.000    25553279.900   104636915.739       -2617.702          43.000  
E18  26406339.779   138766709.489       -5559.698          43.000                                                                  
> 2024 04 16 23 08 00.0100000  0 26                     
G13  24711502.146   129859852.944       -3825.410          47.000                                                                  
G15  23948736.566   125851498.094       -2398.425          48.000    23948737.380    98066143.990       -1868.781          44.000  
G19  24380773.331   128122311.103       -2219.902          47.000                                                                  
G24  24076561.722   126523374.059         860.010          47.000    24076561.367    98589749.077         670.055          47.000  
R09  23981481.837   128059829.686         633.240          50.000    23981482.821    99602384.186         492.511          50.000  
R16  23457444.651   125305468.536       -1842.376          53.000    23457443.534    97460339.251       -1432.904          50.000  
R06  23475704.249   125270785.286       -3126.098          41.000                                                                  
R17  25703909.576   137546855.596       -2382.741          40.000    25703910.712   106980869.462       -1853.325          47.000  
R15  26501079.525   141613852.764       -3232.897          43.000    26501081.289   110144203.979       -2514.224          37.000  
G12  24748586.922   130054893.217         671.504          49.000    24748586.180   101341773.625         523.089          44.000  
E08  27715652.643   145646840.224       -3180.674          47.000    27715659.360   111599579.835       -2437.083          50.000  
S31  41656969.409   218908822.409        -758.937          44.000  
S33  42609380.308   223913741.712        -759.536          42.000  
R19  25577175.677   136820891.891        3011.342          39.000    25577185.995   106416398.864        2342.117          44.000  
R07  24067489.458   128835182.400         666.533          50.000    24067489.596   100205168.209         518.534          49.000  
R18  24349225.259   129977902.209         910.625          49.000    24349228.929   101094103.751         708.276          48.000  
E07  26650106.562   140047419.983        -598.043          49.000    26650111.264   107309107.085        -458.181          53.000  
E27  28635111.349   150478854.149         795.468          46.000    28635120.729   115302179.154         609.538          49.000  
E34  30737229.411   161525335.847        1620.604          43.000    30737247.171   123766180.506        1241.743          44.000  
G25  26836883.297   141028842.352        1517.840          42.000    26836896.823   109892631.854        1182.623          40.000  
E30  26467894.613   139090185.761       -1107.699          48.000    26467897.526   106575864.762        -848.786          52.000  
G06  27526446.364   144652524.262        1564.958          41.000    27526456.388   112716314.315        1219.457          42.000  
E02  28637245.673   150490022.989       -2756.784          45.000    28637248.072   115310730.405       -2112.245          50.000  
G22  26306321.436   138241023.926       -3812.207          35.000                                                                  
G17  25572500.076   134384771.248       -3373.346          46.000    25572498.264   104715613.423       -2628.714          43.000  
E18  26438098.360   138933603.834       -5566.448          43.000                                                                  
> 2024 04 16 23 08 30.0100000  0 26                     
G13  24733371.075   129974776.117       -3836.194          46.000                                                                  
G15  23962474.404   125923687.709       -2414.093          49.000    23962475.034    98122395.526       -1880.963          44.000  
G19  24393498.495   128189179.652       -2237.795          48.000                                                                  
G24  24071669.819   126497668.447         853.901          47.000    24071670.050    98569718.776         665.354          47.000  
R09  23977937.076   128040901.067         628.900          49.000    23977937.954    99587662.030         489.166          50.000  
R16  23467800.918   125360790.953       -1845.557          51.000    23467800.125    97503367.824       -1435.481          50.000  
R06  23493338.709   125364882.444       -3146.771          42.000                                                                  
R17  25717336.566   137618693.735       -2406.233          43.000    25717335.437   107036743.644       -1871.464          48.000  
R15  26519225.612   141710821.937       -3231.112          42.000    26519227.904   110219624.354       -2513.244          38.000  
G12  24744780.186   130034884.639         662.591          50.000    24744778.254   101326182.652         516.447          44.000  
E08  27733832.849   145742383.661       -3188.838          46.000    27733840.841   111672788.236       -2443.287          50.000  
S31  41661301.501   218931587.150        -758.682          44.000  
S33  42613716.713   223936530.861        -759.282          42.000  
R19  25560303.998   136730642.031        3005.539          41.000    25560312.505   106346205.638        2337.568          43.000  
R07  24063824.562   128815563.856         641.580          50.000    24063824.662   100189909.358         498.953          48.000  
R18  24344169.762   129950911.183         888.914          50.000    24344171.409   101073110.854         691.324          47.000  
E07  26653558.820   140065561.278        -611.266          49.000    26653563.452   107323007.553        -468.355          53.000  
E27  28630584.426   150455065.267         790.583          45.000    28630593.692   115283951.535         605.792          49.000  
E34  30727977.311   161476723.056        1620.360          42.000    30727995.600   123728932.564        1241.596          44.000  
G25  26828232.135   140983378.522        1513.031          42.000    26828244.973   109857206.067        1179.010          41.000  
E30  26474233.135   139123493.879       -1112.607          48.000    26474235.827   106601386.610        -852.511          52.000  
G06  27517523.729   144605636.584        1560.837          41.000    27517532.789   112679779.039        1216.526          39.000  
E02  28652982.889   150572722.048       -2756.478          45.000    28652985.317   115374097.244       -2111.979          50.000  
G22  26328084.545   138355403.109       -3812.853          32.000                                                                  
G17  25591799.222   134486186.381       -3387.438          45.000    25591797.215   104794638.226       -2639.707          43.000  
E18  26469895.033   139100693.572       -5572.907          44.000                                                                  
> 2024 04 16 23 09 00.0100000  0 26                     
G13  24755301.852   130090020.315       -3847.156          46.000                                                                  
G15  23976299.717   125996339.518       -2429.822          49.000    23976299.968    98179007.204       -1893.250          44.000  
G19  24406323.568   128256578.533       -2255.885          48.000                                                                  
G24  24066812.363   126472142.746         847.663          47.000    24066813.055    98549828.666         660.501          48.000  
R09  23974416.591   128022099.092         624.365          51.000    23974416.678    99573038.439         485.529          50.000  
R16  23478174.627   125416205.604       -1848.995          51.000    23478174.254    97546468.140       -1438.162          50.000  
R06  23511088.580   125459596.636       -3167.488          41.000                                                                  
R17  25730890.409   137691219.446       -2429.285          42.000    25730889.467   107093152.511       -1889.438          48.000  
R15  26537363.872   141807740.413       -3230.049          45.000    26537364.410   110295005.471       -2512.103          38.000  
G12  24741022.260   130015138.270         653.467          50.000    24741020.915   101310796.034         509.141          45.000  
E08  27752059.813   145838164.614       -3196.905          47.000    27752067.437   111746178.630       -2449.521          50.000  
S31  41665630.270   218954334.705        -758.259          44.000  
S33  42618049.399   223959301.335        -759.017          42.000  
R19  25543463.513   136640559.679        2999.518          41.000    25543471.459   106276142.709        2333.050          44.000  
R07  24060299.245   128796693.815         616.235          50.000    24060298.981   100175232.659         479.324          48.000  
R18  24339235.436   129924571.947         866.788          50.000    24339237.450   101052624.968         674.049          47.000  
E07  26657086.367   140084097.420        -624.832          49.000    26657090.752   107337210.559        -478.658          53.000  
E27  28626083.868   150431420.851         785.437          44.000    28626094.001   115265834.615         601.985          49.000  
E34  30718727.820   161428119.263        1619.921          42.000    30718746.010   123691691.565        1241.073          44.000  
G25  26819606.997   140938055.452        1508.288          44.000    26819620.250   109821889.954        1175.134          41.000  
E30  26480598.413   139156943.852       -1117.650          48.000    26480601.053   106627017.164        -856.332          52.000  
G06  27508622.197   144558863.653        1556.929          41.000    27508632.176   112643333.205        1213.197          41.000  
E02  28668715.983   150655404.902       -2756.022          45.000    28668719.779   115437451.656       -2111.759          51.000  
G22  26349855.621   138469802.326       -3814.437          34.000                                                                  
G17  25611176.740   134588019.218       -3401.671          44.000    25611174.529   104873988.533       -2650.708          42.000  
E18  26501726.703   139267975.438       -5579.543          43.000                                                                  
> 2024 04 16 23 09 30.0100000  0 27                     
G13  24777295.794   130205594.239       -3858.067          47.000                                                                  
G15  23990214.944   126069463.119       -2445.397          49.000    23990214.827    98235986.520       -1905.434          43.000  
G19  24419252.291   128324517.025       -2273.812          49.000                                                                  
G24  24061991.474   126446810.122         841.132          47.000    24061992.229    98530089.011         655.338          48.000  
R09  23970921.829   128003434.843         619.720          51.000    23970922.289    99558521.921         482.025          51.000  
R16  23488568.272   125471723.552       -1852.505          52.000    23488567.436    97589648.796       -1440.760          51.000  
R06  23528955.344   125554935.556       -3188.460          41.000                                                                  
R17  25744570.259   137764442.355       -2452.290          38.000    25744571.991   107150103.679       -1907.559          48.000  
R15  26555492.929   141904620.173       -3228.841          45.000    26555495.227   110370356.436       -2511.188          39.000  
G12  24737315.916   129995665.132         644.380          49.000    24737315.677   101295622.312         502.191          45.000  
E08  27770334.929   145934193.057       -3205.271          48.000    27770341.424   111819758.660       -2455.968          50.000  
S31  41669957.615   218977075.451        -758.057          44.000  
S33  42622381.945   223982066.599        -758.752          42.000  
R19  25526657.009   136550661.657        2993.448          41.000    25526665.612   106206223.144        2328.024          44.000  
R07  24056918.825   128778585.680         590.863          51.000    24056915.991   100161148.557         459.485          48.000  
R18  24334424.799   129898899.304         844.380          49.000    24334427.328   101032657.483         656.871          47.000  
E07  26660690.821   140103040.255        -638.261          49.000    26660695.371   107351725.195        -489.087          52.000  
E27  28621615.942   150407931.999         780.206          45.000    28621623.953   115247836.897         597.823          49.000  
E34  30709483.175   161379538.053        1619.063          42.000    30709500.336   123654467.846        1240.435          44.000  
G25  26811010.834   140892884.551        1502.771          44.000    26811024.268   109786692.400        1171.320          42.000  
E30  26486992.470   139190546.164       -1122.749          48.000    26486995.489   106652764.449        -860.324          52.000  
G06  27499745.808   144512220.102        1552.244          42.000    27499754.851   112606988.151        1209.985          39.000  
E02  28684448.990   150738082.367       -2755.953          45.000    28684452.133   115500801.934       -2111.686          50.000  
G22  26371631.927   138584231.854       -3815.762          33.000                                                                  
G17  25630635.990   134690278.753       -3415.856          46.000    25630634.278   104953671.330       -2661.807          44.000  
E18  26533596.378   139435456.836       -5586.039          43.000                                                                  
R08                                                                  27407739.471                3       1962.717          10.000  
> 2024 04 16 23 10 00.0100000  0 27                     
G13  24799352.437   130321496.679       -3868.863          48.000                                                                  
G15  24004219.021   126143057.188       -2460.892          48.000    24004219.221    98293332.456       -1917.559          44.000  
G19  24432283.143   128392994.572       -2291.533          48.000                                                                  
G24  24057208.150   126421673.246         834.573          47.000    24057208.744    98510501.871         650.392          47.000  
R09  23967451.987   127984908.661         615.216          51.000    23967452.856    99544112.775         478.448          51.000  
R16  23498980.383   125527345.426       -1855.818          52.000    23498979.735    97632910.290       -1443.428          50.000  
R06  23546938.130   125650896.450       -3209.253          41.000                                                                  
R17  25758385.682   137838361.626       -2475.177          34.000    25758385.727   107207596.423       -1925.434          47.000  
R15  26573615.767   142001461.980       -3227.425          43.000    26573617.633   110445677.932       -2510.353          38.000  
G12  24733661.494   129976464.946         635.378          49.000    24733661.712   101280661.304         495.003          45.000  
E08  27788655.302   146030468.504       -3213.382          47.000    27788662.166   111893527.942       -2462.104          50.000  
S31  41674284.455   218999812.146        -757.901          44.000  
S33  42626712.725   224004826.393        -758.633          42.000  
E36  30853061.850                1        367.823          30.000    30853067.348   124232521.6231        282.054          36.000  
R19  25509886.036   136460953.317        2987.112          41.000    25509895.083   106136451.035        2323.174          44.000  
R07  24053677.999   128761242.018         565.260          51.000    24053675.330   100147659.038         439.714          48.000  
R18  24329741.357   129873897.275         822.238          48.000    24329744.381   101013211.596         639.408          47.000  
E07  26664373.441   140122391.160        -651.865          49.000    26664377.566   107366552.499        -499.546          52.000  
E27  28617175.180   150384599.337         775.076          45.000    28617183.886   115229958.854         593.910          50.000  
E34  30700241.666   161330982.485        1618.084          42.000    30700260.164   123617263.830        1239.718          45.000  
G25  26802444.107   140847866.707        1497.974          45.000    26802456.877   109751614.143        1167.059          42.000  
E30  26493416.443   139224300.826       -1127.708          49.000    26493418.855   106678628.456        -864.059          52.000  
G06  27490895.096   144465709.947        1547.876          42.000    27490904.046   112570747.110        1206.099          39.000  
E02  28700181.818   150820754.655       -2755.674          45.000    28700184.748   115564148.249       -2111.458          51.000  
G22  26393412.636   138698690.945       -3815.564          34.000                                                                  
G17  25650176.948   134792962.629       -3429.830          47.000    25650175.228   105033684.782       -2672.579          44.000  
E18  26565505.753   139603134.664       -5592.508          44.000                                                                  
> 2024 04 16 23 10 30.0100000  0 27                     
G13  24821469.305   130437722.627       -3879.552          47.000                                                                  
G15  24018312.297   126217117.681       -2476.509          49.000    24018312.382    98351041.808       -1929.733          44.000  
G19  24445415.415   128462006.728       -2309.279          49.000                                                                  
G24  24052461.984   126396731.093         828.109          48.000    24052462.089    98491066.470         645.213          47.000  
R09  23964006.676   127966517.258         610.638          50.000    23964008.824    99529808.439         475.018          51.000  
R16  23509411.494   125583067.770       -1859.259          52.000    23509410.303    97676249.941       -1446.032          50.000  
R06  23565036.622   125747472.783       -3229.658          40.000                                                                  
R17  25772326.683   137912972.448       -2498.379          34.000    25772328.488   107265627.107       -1943.293          47.000  
R15  26591730.509   142098263.963       -3226.331          38.000    26591732.815   110520968.366       -2509.104          36.000  
G12  24730059.375   129957535.069         626.406          49.000    24730059.826   101265910.876         488.069          45.000  
E08  27807022.059   146126986.784       -3221.387          47.000    27807029.209   111967483.295       -2468.357          50.000  
S31  41678609.315   219022541.077        -757.591          44.000  
S33  42631042.355   224027578.142        -758.501          42.000  
E36  30850981.528                         357.159          29.000    30850995.192   124224179.848         273.314          34.000  
R19  25493151.699   136371436.881        2980.355          42.000    25493159.727   106066828.146        2318.008          44.000  
R07  24050579.388   128744661.852         539.869          51.000    24050579.409   100134763.388         419.750          49.000  
R18  24325184.215   129849566.371         799.733          49.000    24325185.346   100994287.707         621.843          47.000  
E07  26668132.664   140142147.787        -665.410          49.000    26668136.876   107381690.685        -509.843          52.000  
E27  28612763.894   150361419.778         770.026          44.000    28612772.341   115212198.126         589.963          49.000  
E34  30691006.296   161282452.038        1617.030          43.000    30691024.372   123580079.000        1239.159          46.000  
G25  26793905.663   140802999.154        1492.926          45.000    26793917.767   109716652.955        1163.184          42.000  
E30  26499868.218   139258204.135       -1132.645          49.000    26499870.629   106704606.365        -867.943          53.000  
G06  27482069.547   144419333.480        1543.727          42.000    27482076.999   112534610.149        1202.667          36.000  
E02  28715911.281   150903418.400       -2755.437          45.000    28715914.264   115627487.997       -2111.298          50.000  
G22  26415197.112                       -3817.383          30.000                                                                  
G17  25669797.226   134896066.378       -3443.830          46.000    25669795.283   105114025.409       -2683.487          44.000  
E18  26597450.117   139771002.166       -5598.883          44.000                                                                  
> 2024 04 16 23 11 00.0100000  0 27                     
G13  24843648.520   130554276.208       -3890.465          46.000                                                                  
G15  24032495.471   126291649.636       -2492.195          48.000    24032495.464    98409118.549       -1942.039          44.000  
G19  24458651.049   128531558.204       -2327.283          49.000                                                                  
G24  24047754.299   126371991.975         821.248          48.000    24047753.849    98471789.281         639.999          47.000  
R09  23960590.405   127948266.738         606.067          51.000    23960590.270    99515613.749         471.362          50.000  
R16  23519862.947   125638897.085       -1862.722          51.000    23519861.481    97719672.791       -1448.818          50.000  
R06  23583251.272   125844667.621       -3250.083          40.000                                                                  
R17  25786403.072   137988279.853       -2521.865          40.000    25786401.206   107324199.412       -1961.440          47.000  
R15  26609839.532   142195032.776       -3225.293          36.000    26609841.583   110596233.118       -2507.721          33.000  
G12  24726509.635   129938881.935         617.261          49.000    24726509.707   101251376.137         480.927          45.000  
E08  27825436.408   146223753.035       -3229.464          46.000    27825443.464   112041628.660       -2474.613          50.000  
S31  41682933.900   219045267.540        -757.397          44.000  
S33  42635371.929   224050329.631        -758.229          42.000  
E36  30848974.651   162112506.8151        346.785          32.000    30848985.098   124216088.870         265.379          34.000  
R19  25476454.433   136282123.139        2973.938          41.000    25476462.646   105997362.890        2312.888          45.000  
R07  24047627.568   128728853.611         514.148          51.000    24047625.651   100122468.052         399.806          49.000  
R18  24320752.888   129825916.309         776.981          48.000    24320755.343   100975893.325         604.292          48.000  
E07  26671970.783   140162317.142        -679.110          49.000    26671975.118   107397145.123        -520.261          52.000  
E27  28608383.064   150338399.587         764.938          45.000    28608391.844   115194559.499         586.071          50.000  
E34  30681778.674   161233955.472        1615.969          44.000    30681794.981   123542920.127        1238.300          46.000  
G25  26785397.521   140758288.416        1487.848          45.000    26785408.862   109681814.002        1159.253          42.000  
E30  26506349.025   139292261.796       -1137.713          49.000    26506351.543   106730702.544        -871.724          53.000  
G06  27473271.893   144373100.498        1538.748          42.000    27473279.318   112498584.988        1199.047          39.000  
E02  28731642.979   150986079.550       -2755.176          46.000    28731644.228   115690825.788       -2111.088          50.000  
G22  26436992.288   138927691.442       -3816.693          31.000                                                                  
G17  25689497.619   134999593.638       -3457.955          46.000    25689495.651   105194696.067       -2694.725          44.000  
E18  26629431.580   139939061.986       -5605.149          44.000                                                                  
> 2024 04 16 23 11 30.0100000  0 27                     
G13  24865889.336   130671148.314       -3901.228          47.000                                                                  
G15  24046766.287   126366644.093       -2507.623          48.000    24046766.832    98467555.664       -1954.053          45.000  
G19  24471987.159   128601640.421       -2345.055          48.000                                                                  
G24  24043084.445   126347450.854         814.471          48.000    24043084.194    98452666.391         634.575          47.000  
R09  23957197.039   127930149.962         601.526          50.000    23957197.392    99501523.065         467.847          50.000  
R16  23530332.828   125694826.103       -1866.109          51.000    23530331.269    97763173.161       -1451.424          49.000  
R06  23601579.427   125942470.296       -3270.457          41.000                                                                  
R17  25800604.170   138064274.375       -2544.770          44.000    25800602.904   107383306.316       -1979.290          47.000  
R15  26627941.414   142291761.944       -3223.658          33.000    26627945.072                       -2507.535          31.000  
G12  24723011.559   129920497.672         608.216          48.000    24723010.805   101237050.903         474.017          44.000  
E08  27843895.996   146320758.994       -3237.606          47.000    27843903.180   112115957.684       -2480.792          50.000  
S31  41687257.333   219067986.744        -757.504          44.000  
S33  42639699.954   224073072.765        -758.217          42.000  
E36  30847029.545   162102269.203         335.883          34.000    30847037.277   124208244.483         257.553          34.000  
R19  25459794.747   136193010.421        2966.776          41.000    25459802.544   105928054.004        2307.372          46.000  
R07  24044816.756   128713812.005         488.429          50.000    24044814.833   100110769.015         379.989          49.000  
R18  24316449.039   129802943.169         754.158          48.000    24316451.885   100958025.416         586.582          48.000  
E07  26675885.801   140182892.746        -692.804          49.000    26675890.783   107412910.845        -530.898          52.000  
E27  28604030.499   150315531.630         759.558          44.000    28604040.181   115177037.528         581.986          50.000  
E34  30672555.542   161185488.070        1614.860          43.000    30672571.434   123505783.631        1237.352          47.000  
G25  26776917.735   140713727.619        1482.599          45.000    26776928.345   109647091.885        1155.231          43.000  
E30  26512857.393   139326465.991       -1142.840          49.000    26512860.225   106756911.011        -875.586          52.000  
G06  27464500.006   144327007.177        1533.876          42.000    27464508.209   112462668.688        1195.199          40.000  
E02  28747369.670   151068730.607       -2755.126          45.000    28747372.715   115754155.791       -2111.008          50.000  
G22  26458786.771                       -3818.624          27.000                                                                  
G17  25709276.437   135103534.513       -3471.641          44.000    25709274.003   105275689.005       -2705.244          43.000  
E18  26661444.826   140107303.222       -5611.144          43.000                                                                  
> 2024 04 16 23 12 00.0100000  0 27                     
G13  24888191.380   130788343.215       -3911.749          48.000                                                                  
G15  24061126.099   126442106.310       -2523.184          48.000    24061127.956    98526357.241       -1966.172          45.000  
G19  24485424.553   128672258.327       -2362.794          47.000                                                                  
G24  24038453.706   126323116.338         807.753          49.000    24038453.286    98433704.481         629.438          47.000  
R09  23953830.500   127912173.103         596.942          50.000    23953830.299    99487541.161         464.197          50.000  
R16  23540823.365   125750861.536       -1869.506          51.000    23540821.903    97806756.262       -1454.095          51.000  
R06  23620022.809   126040883.929       -3290.250          41.000                                                                  
R17  25814935.234   138140961.587       -2567.765          46.000    25814933.194   107442951.967       -1997.113          46.000  
R15  26646037.311   142388459.234       -3222.958          35.000    26646039.427   110746675.870       -2506.279          35.000  
G12  24719565.522   129902388.792         599.134          49.000    24719564.830   101222940.257         466.670          44.000  
E08  27862402.407   146418010.035       -3245.819          47.000    27862409.866   112190474.501       -2486.997          50.000  
S31  41691580.469   219090705.817        -757.227          44.000  
S33  42644027.304   224095814.598        -758.125          42.000  
E36  30845142.647   162092361.788         324.885          35.000    30845152.152   124200653.127         249.093          35.000  
R19  25443174.351   136104110.439        2959.719          40.000    25443182.799   105858910.543        2302.123          46.000  
R07  24042151.142   128699545.450         462.706          51.000    24042148.857   100099672.796         359.774          49.000  
R18  24312273.620   129780656.864         731.404          48.000    24312277.538   100940691.764         568.927          49.000  
E07  26679880.015   140203881.851        -706.526          49.000    26679884.671   107428993.395        -541.334          52.000  
E27  28599708.641   150292822.438         754.426          45.000    28599718.611   115159637.200         577.966          50.000  
E34  30663336.766   161137058.816        1613.477          41.000    30663354.467   123468676.414        1236.400          48.000  
G25  26768467.019   140669323.536        1477.698          44.000    26768478.135   109612491.906        1151.154          43.000  
E30  26519394.809   139360822.669       -1147.682          48.000    26519397.645   106783236.320        -879.418          52.000  
G06  27455757.436   144281063.623        1528.977          42.000    27455765.372   112426869.000        1191.856          40.000  
E02  28763098.087   151151377.848       -2754.827          46.000    28763098.704   115817482.913       -2110.758          49.000  
G22  26480585.369                1      -3819.599          29.000                                                                  
G17  25729135.400   135207893.515       -3485.649          44.000    25729132.357   105357007.766       -2716.018          43.000  
E18  26693494.336   140275728.855       -5617.031          43.000                                                                  
> 2024 04 16 23 12 30.0100000  0 28                     
G13  24910554.538   130905864.806       -3923.018          47.000                                                                  
G15  24075575.375   126518039.834       -2539.000          46.000    24075577.289    98585526.112       -1978.652          45.000  
G19  24498965.994   128743416.665       -2380.909          48.000                                                                  
G24  24033863.608   126298996.243         800.322          49.000    24033863.384    98414909.649         623.479          47.000  
R09  23950491.567   127894341.789         591.949          51.000    23950491.279    99473672.481         460.492          50.000  
R16  23551333.806   125807008.785       -1873.524          52.000    23551333.853    97850426.363       -1457.098          51.000  
R06  23638579.870   126139910.642       -3311.028          41.000                                                                  
R17  25829396.286   138218345.415       -2591.049          47.000    25829394.322   107503139.437       -2015.267          47.000  
R15  26664129.390   142485130.640       -3221.793          36.000    26664129.945   110821864.821       -2506.214          34.000  
G12  24716173.153   129884561.646         589.465          48.000    24716172.312   101209049.131         459.582          44.000  
E08  27880956.650   146515510.749       -3254.251          47.000    27880963.565   112265182.628       -2493.505          50.000  
S31  41695904.737   219113428.063        -757.521          44.000  
S33  42648355.883   224118561.145        -758.556          42.000  
E36  30843325.860   162082792.048         313.294          35.000    30843331.547   124193320.578         240.204          35.000  
R19  25426597.241   136015433.850        2952.139          40.000    25426605.084   105789940.816        2295.824          46.000  
R07  24039633.147   128686061.382         436.298          52.000    24039631.512   100089185.158         339.411          50.000  
R18  24308228.949   129759066.656         708.032          48.000    24308232.303   100923899.551         550.475          48.000  
R08  27309495.390                3       2954.602          12.000    27012970.177                3       1851.967          11.000  
E07  26683954.421   140225290.844        -720.804          49.000    26683958.911   107445397.683        -552.199          52.000  
E27  28595418.645   150270277.754         748.736          45.000    28595428.056   115142362.911         573.651          49.000  
E34  30654130.085   161088676.062        1611.944          43.000    30654146.529   123431604.810        1235.049          47.000  
G25  26760047.735   140625082.194        1471.844          45.000    26760059.404   109578018.700        1146.826          43.000  
E30  26525961.876   139395336.991       -1153.203          48.000    26525965.176   106809682.424        -883.668          51.000  
G06  27447043.838   144235278.969        1523.446          41.000    27447051.441   112391193.163        1187.036          41.000  
E02  28778824.906   151234026.629       -2755.100          46.000    28778827.209   115880811.220       -2111.093          50.000  
G22  26502392.094   139271013.4181      -3820.722          31.000                                                                  
G17  25749073.293   135312674.104       -3499.719          41.000    25749071.964   105438655.041       -2727.071          44.000  
E18  26725581.071   140444341.041       -5623.548          44.000                                                                  
> 2024 04 16 23 13 00.0100000  0 27                     
G13  24932978.708   131023706.915       -3933.505          47.000                                                                  
G15  24090113.984   126594439.698       -2554.474          47.000    24090115.405    98645058.316       -1990.354          44.000  
G19  24512609.085   128815109.758       -2398.636          48.000                                                                  
G24  24029313.971   126275088.567         793.234          49.000    24029313.898    98396280.337         618.172          47.000  
R09  23947178.478   127876652.085         587.299          51.000    23947178.446    99459913.934         456.720          50.000  
R16  23561864.491   125863263.854       -1876.972          52.000    23561865.021    97894180.314       -1459.857          51.000  
R06  23657251.141   126239542.879       -3331.233          41.000                                                                  
R17  25843984.374   138296419.781       -2614.005          46.000    25843984.078   107563864.037       -2033.208          45.000  
R15  26682213.201   142581772.597       -3221.075          34.000    26682215.130   110897030.818       -2505.621          38.000  
G12  24712832.975   129867011.159         580.281          48.000    24712832.485   101195373.592         452.300          45.000  
E08  27899556.716   146613255.923       -3262.344          47.000    27899563.699   112340078.083       -2499.688          49.000  
S31  41700229.076   219136152.816        -757.457          44.000  
S33  42652684.325   224141309.440        -758.194          42.000  
E36  30841568.610   162073557.725         301.753          34.000    30841574.160   124186244.973         231.663          34.000  
R19  25410061.680   135926982.145        2944.651          40.000    25410069.370   105721145.976        2290.137          46.000  
R07  24037259.191   128673357.958         410.402          51.000    24037259.049   100079304.723         319.187          50.000  
R18  24304315.019   129738171.681         684.820          49.000    24304316.205   100907648.012         532.664          46.000  
E07  26688107.483   140247116.294        -734.594          49.000    26688112.021   107462121.080        -562.790          52.000  
E27  28591158.682   150247893.440         743.502          45.000    28591168.081   115125211.497         569.568          49.000  
E34  30644931.190   161040338.188        1610.319          43.000    30644947.212   123394567.545        1233.905          47.000  
G25  26751658.805   140580999.672        1466.748          45.000    26751670.115   109543669.252        1142.792          43.000  
E30  26532559.450   139430004.265       -1158.223          48.000    26532562.144   106836245.696        -887.515          51.000  
G06  27438361.220   144189652.570        1518.105          41.000    27438368.294   112355640.619        1182.860          40.000  
E02  28794551.658   151316672.573       -2754.978          45.000    28794554.161   115944137.312       -2110.944          50.000  
G22  26524207.666   139385641.828       -3821.067          35.000                                                                  
G17  25769091.124   135417869.710       -3513.207          40.000    25769089.319   105520625.701       -2737.738          43.000  
E18  26757700.951   140613132.008       -5629.292          44.000                                                                  
> 2024 04 16 23 13 30.0100000  0 27                     
G13  24955465.993   131141872.946       -3944.260          47.000                                                                  
G15  24104741.891   126671309.622       -2570.264          47.000    24104743.970    98704956.833       -2002.866          45.000  
G19  24526354.287   128887341.382       -2416.827          49.000                                                                  
G24  24024806.083   126251400.905         785.769          48.000    24024806.349    98377822.468         612.336          47.000  
R09  23943893.952   127859108.903         582.227          51.000    23943892.904    99446269.353         452.814          50.000  
R16  23572416.150   125919632.094       -1880.903          51.000    23572416.457    97938022.325       -1462.934          50.000  
R06  23676036.125   126339782.665       -3351.558          41.000                                                                  
R17  25858705.369   138375188.870       -2637.241          46.000    25858702.782   107625128.864       -2051.242          43.000  
R15  26700289.533                1      -3220.087          30.000    26700294.723   110972178.763       -2504.767          36.000  
G12  24709546.652   129849742.788         570.786          48.000    24709546.474   101181917.890         444.814          45.000  
E08  27918205.152   146711249.916       -3270.698          47.000    27918212.226   112415164.178       -2506.012          50.000  
S31  41704554.732   219158884.676        -757.750          44.000  
S33  42657014.482   224164064.363        -758.784          43.000  
E36  30839876.413   162064666.060         290.443          36.000    30839881.792   124179431.932         222.897          34.000  
R19  25393570.037   135838765.152        2936.781          41.000    25393577.499   105652533.680        2283.981          47.000  
R07  24035034.092   128661442.724         383.951          51.000    24035033.250   100070037.302         298.686          50.000  
R18  24300533.794   129717980.727         661.178          50.000    24300533.871   100891944.035         514.358          46.000  
E07  26692341.131   140269364.395        -748.803          49.000    26692345.627   107479168.329        -573.639          52.000  
E27  28586931.141   150225675.032         737.733          45.000    28586939.464   115108187.186         565.315          48.000  
E34  30635742.328   160992053.154        1608.656          43.000    30635758.035   123357570.797        1232.399          47.000  
G25  26743301.348   140537081.810        1461.005          46.000    26743312.364   109509448.099        1138.416          42.000  
E30  26539186.632   139464829.393       -1163.444          48.000    26539189.154   106862929.922        -891.503          52.000  
G06  27429709.948   144144193.338        1512.437          41.000    27429716.964   112320218.351        1178.339          41.000  
E02  28810279.639   151399320.945       -2754.959          45.000    28810280.986   116007465.287       -2110.992          49.000  
G22  26546025.563   139500302.819       -3822.830          37.000                                                                  
G17  25789187.895   135523482.903       -3527.398          39.000    25789187.630   105602921.762       -2748.832          44.000  
E18  26789855.378   140782103.753       -5635.406          45.000                                                                  
> 2024 04 16 23 14 00.0100000  0 27                     
G13  24978015.927   131260369.492       -3955.500          47.000                                                                  
G15  24119460.513   126748656.855       -2586.193          47.000    24119462.421    98765227.285       -2015.132          44.000  
G19  24540203.380   128960118.596       -2434.775          49.000                                                                  
G24  24020342.239   126227944.031         778.077          48.000    24020342.532    98359544.452         606.261          47.000  
R09  23940636.540   127841721.486         577.100          50.000    23940637.178    99432745.922         448.828          50.000  
R16  23582991.684   125976122.376       -1884.826          52.000    23582990.952    97981959.229       -1466.016          50.000  
R06  23694936.176   126440635.528       -3372.052          42.000                                                                  
R17  25873556.677   138454659.266       -2660.581          48.000    25873553.627   107686939.295       -2069.464          44.000  
G12  24706316.105   129832765.600         561.094          49.000    24706314.942   101168689.112         437.348          44.000  
E08  27936901.624   146809500.219       -3279.224          48.000    27936909.303   112490446.664       -2512.666          51.000  
S31  41708882.983   219181631.678        -758.514          44.000  
S33  42661348.054   224186835.615        -759.316          42.000  
E36  30838252.128   162056127.489         278.723          36.000    30838257.094   124172889.441         213.732          34.000  
R19  25377125.106   135750797.625        2928.153          41.000    25377132.056   105584115.391        2277.479          47.000  
R07  24032958.021   128650325.873         357.232          52.000    24032956.085   100061390.868         277.889          50.000  
R18  24296885.039   129698505.907         637.195          50.000    24296884.687   100876797.090         495.597          45.000  
E07  26696657.015   140292044.413        -763.064          49.000    26696661.594   107496546.530        -584.714          52.000  
E27  28582736.917   150203631.129         731.823          44.000    28582744.252   115091296.611         560.885          48.000  
E34  30626565.412   160943832.192        1606.237          43.000    30626581.415   123320623.082        1230.785          47.000  
G25  26734976.657   140493337.501        1455.304          46.000    26734987.596   109475362.186        1133.917          43.000  
E30  26545845.459   139499820.451       -1169.091          48.000    26545847.794   106889741.296        -895.819          52.000  
G06  27421092.439   144098913.419        1506.357          42.000    27421100.483   112284935.834        1174.021          42.000  
E02  28826008.794   151481980.092       -2755.455          44.000    28826011.163   116070801.511       -2111.251          49.000  
G22  26567853.895   139615004.304       -3824.339          37.000                                                                  
G17  25809366.208   135629520.500       -3541.368          40.000    25809366.372   105685548.494       -2759.677          44.000  
E18  26822047.263   140951261.358       -5641.553          46.000                                                                  
R15                                                                  26718373.213   111047316.312       -2504.303          36.000  
> 2024 04 16 23 14 30.0100000  0 27                     
G13  25000626.420   131379187.063       -3965.664          47.000                                                                  
G15  24134268.284   126826472.362       -2601.483          47.000    24134269.901    98825862.632       -2027.109          43.000  
G19  24554154.356   129033432.669       -2452.367          49.000                                                                  
G24  24015921.819   126204712.785         770.867          48.000    24015921.763    98341442.221         600.750          47.000  
R09  23937408.536   127824482.098         572.577          50.000    23937408.504    99419337.611         445.245          50.000  
R16  23593588.750   126032727.414       -1888.489          52.000    23593588.247    98025985.403       -1468.762          50.000  
R06  23713948.957   126542090.201       -3391.492          42.000                                                                  
R17  25888537.103   138534821.996       -2683.353          49.000    25888535.088   107749288.187       -2087.108          44.000  
G12  24703138.934   129816071.349         551.936          49.000    24703137.865   101155680.787         430.155          44.000  
E08  27955645.223   146907998.415       -3287.249          47.000    27955653.195   112565919.090       -2518.787          51.000  
S31  41713213.386   219204388.228        -758.381          44.000  
S33  42665683.143   224209616.015        -759.105          43.000  
E36  30836693.016   162047936.482         267.556          36.000    30836698.203   124166613.292         204.612          34.000  
R19  25360725.684   135663077.031        2920.152          40.000    25360731.942   105515889.165        2271.116          46.000  
R07  24031029.436   128640002.023         331.225          51.000    24031027.325   100053361.218         257.619          49.000  
R18  24293369.165   129679742.989         613.712          49.000    24293369.075   100862203.819         477.363          45.000  
E07  26701053.793   140315149.742        -777.010          49.000    26701058.255   107514250.616        -595.376          52.000  
E27  28578574.145   150181754.449         726.576          45.000    28578581.420   115074534.197         556.827          49.000  
E34  30617399.390   160895670.508        1604.667          41.000    30617416.018   123283720.780        1229.380          47.000  
G25  26726683.624   140449759.770        1449.890          46.000    26726694.347   109441406.070        1129.962          43.000  
E30  26552534.380   139534969.553       -1174.088          48.000    26552536.495   106916673.781        -899.653          52.000  
G06  27412509.592   144053809.015        1501.167          42.000    27412516.796   112249790.046        1169.458          41.000  
E02  28841738.310   151564642.515       -2755.438          44.000    28841740.798   116134140.231       -2111.260          48.000  
G22  26589687.000   139729738.332       -3824.800          38.000                                                                  
G17  25829624.607   135735973.203       -3554.524          41.000    25829623.043   105768498.721       -2770.137          44.000  
E18  26854270.024   141120594.047       -5647.156          46.000                                                                  
R15                                                                  26736446.944   111122438.157       -2503.644          33.000  
