     3.00           OBSERVATION DATA    M: Mixed            RINEX VERSION / TYPE
CONVBIN 2.4.3                           20240416 041442 UTC PGM / RUN BY / DATE 
format: u-blox UBX                                          COMMENT             
log: /home/regis/git/gnsspwv/obsdata/VERT00CHL/2024-04-16/VECOMMENT             
{self.marker}                                               MARKER NAME         
                                                            MARKER NUMBER       
GEODETIC                                                    MARKER TYPE         
{self.observer}     {self.institution}                      OBSERVER / AGENCY   
UNKNOWN             UBLOX-ZED-F9P                           REC # / TYPE / VERS 
UNKNOWN             TWIVSP6037L                             ANT # / TYPE        
  1713381.0000 -5047934.0000 -3490983.0000                  APPROX POSITION XYZ 
        0.0000        0.0000        0.0000                  ANTENNA: DELTA H/E/N
G    8 C1C L1C D1C S1C C2L L2L D2L S2L                      SYS / # / OBS TYPES 
R    8 C1C L1C D1C S1C C2C L2C D2C S2C                      SYS / # / OBS TYPES 
E    8 C1C L1C D1C S1C C7Q L7Q D7Q S7Q                      SYS / # / OBS TYPES 
S    4 C1C L1C D1C S1C                                      SYS / # / OBS TYPES 
  2024    04    16    04    00   00.0060000     GPS         TIME OF FIRST OBS   
  2024    04    16    04    14   30.0060000     GPS         TIME OF LAST OBS    
                                                            END OF HEADER       
> 2024 04 16 04 00 00.0060000  0 25                     
G25  22566430.776   118587454.5921      -1763.068          48.000    22566431.826    92405830.9671      -1373.798          48.000  
G18  22923100.392   120461732.9311       1688.175          48.000    22923098.571    93866268.3631       1315.529          44.000  
G26  25459776.012   133792027.3681       2439.928          38.000    25459777.014   104253532.8251       1901.545          33.000  
R16  25612459.980                3      -4641.880          21.000                                                                  
R11  25010248.643   133647252.3661       3337.235          36.000    25010234.845   103947684.1571       2595.817          35.000  
R09  21430948.882   114440094.0661      -2496.866          53.000    21430944.949    89009059.7481      -1942.064          48.000  
R10  21274794.341   113406668.7271       1061.883          47.000                                                                  
R21  23732354.293   126996710.2371       2501.791          39.000    23732353.067    98775269.6821       1946.130          42.000  
R20  21027537.311   112443772.1651       -907.388          41.000    21027537.300    87456330.9391       -705.698          42.000  
G29  22731715.426   119456055.6181      -1677.991          48.000    22731713.084    93082689.4951      -1307.391          45.000  
S33  41462353.328   217886180.2561       -682.293          42.000  
S31  40508473.259   212873525.5141       -682.097          44.000  
G28  23046802.994   121111794.7611      -1131.229          46.000    23046802.584    94372806.6811       -881.471          46.000  
R19  24032832.318   128559812.5781      -4456.537          40.000    24032828.004    99990696.5281      -3465.949          44.000  
G12  25001003.908   131381131.0211      -2984.749          47.000    25001002.387   102374892.2081      -2325.726          41.000  
E33  25123391.396   132024391.2741       -788.864          48.000    25123392.600   101161598.2021       -604.477          52.000  
E31  25258643.819   132735212.0601        126.238          47.000    25258647.534   101706276.5261         96.847          52.000  
G20  25827316.994   135723460.8881      -1819.774          44.000                                                                  
G31  24221108.244   127282707.6841       1176.981          47.000    24221105.181    99181469.6751        916.960          42.000  
E14  24347818.261   127948815.6751      -4201.280          48.000    24347819.974    98038678.2841      -3219.312          51.000  
E26  27591009.390   144992113.7571      -3037.957          43.000    27591009.529   111098052.5351      -2327.781          49.000  
E24  28421467.105   149355832.7621       1587.783          39.000    28421468.968   114441500.1631       1216.427          43.000  
G05  25362633.777   133281762.1101        166.877          39.000    25362630.245   103855988.6551        129.863          36.000  
E12  27166525.515   142761123.3481       1828.848          42.000    27166528.967   109388462.0131       1401.412          48.000  
E10  29093036.738   152885002.6201       2317.099          39.000    29093048.899   117145813.8551       1775.732          45.000  
> 2024 04 16 04 00 30.0060000  0 25                     
G25  22576531.512   118640530.850       -1774.976          49.000    22576531.603    92447189.049       -1383.063          48.000  
G18  22913507.670   120411318.419        1673.241          46.000    22913505.612    93826983.873        1303.699          44.000  
G26  25445845.220   133718818.217        2440.379          40.000    25445845.300   104196486.746        1902.042          33.000  
R11  24991514.547   133547153.191        3336.641          37.000    24991500.933   103869829.337        2595.220          35.000  
R09  21445033.739   114515307.861       -2516.956          53.000    21445030.022    89067559.332       -1957.624          48.000  
R10  21268872.454   113375098.931        1043.303          46.000                                                                  
R21  23718363.817   126921837.065        2489.524          39.000    23718361.894    98717035.186        1936.423          44.000  
R20  21032685.872   112471303.556        -927.719          40.000    21032686.114    87477744.311        -721.544          43.000  
G29  22741312.107   119506486.084       -1683.734          48.000    22741309.478    93121985.983       -1312.079          45.000  
S33  41466249.241   217906653.259        -681.859          43.000  
S31  40512366.850   212893986.331        -681.520          44.000  
G28  23053315.448   121146018.726       -1149.991          46.000    23053313.971    94399475.263        -896.000          46.000  
R19  24057832.451   128693549.053       -4458.807          39.000    24057829.128   100094713.816       -3468.151          45.000  
G12  25018065.920   131470792.617       -2992.361          47.000    25018064.272   102444758.282       -2331.478          41.000  
E33  25127933.178   132048256.615        -801.723          49.000    25127934.018   101179884.644        -614.254          52.000  
E31  25257938.655   132731506.867         121.042          47.000    25257942.569   101703437.463          92.766          52.000  
G20  25837753.881   135778303.805       -1835.859          44.000                                                                  
G31  24214435.177   127247644.257        1160.848          47.000    24214433.093    99154147.558         904.633          43.000  
E14  24371801.657   128074849.269       -4200.377          49.000    24371803.125    98135249.488       -3218.431          51.000  
E26  27608372.099   145083352.752       -3044.221          44.000    27608371.563   111167962.920       -2332.450          49.000  
E24  28412401.806   149308192.980        1588.656          39.000    28412402.818   114404996.900        1217.417          43.000  
G05  25361720.641   133276964.673         152.730          40.000    25361718.114   103852250.451         119.208          37.000  
E12  27156105.856   142706371.535        1821.349          42.000    27156109.409   109346509.535        1395.730          47.000  
E10  29079818.064   152815530.627        2314.628          40.000    29079828.402   117092582.547        1773.331          46.000  
R16                                                                  25638526.891                3      -3622.101          15.000  
> 2024 04 16 04 01 00.0060000  0 24                     
G25  22586701.614   118693974.987       -1787.823          49.000    22586701.410    92488833.809       -1393.189          48.000  
G18  22904002.332   120361369.240        1656.896          48.000    22903999.792    93788062.546        1291.221          47.000  
G26  25431915.764   133645621.253        2439.485          40.000    25431916.102   104139450.217        1900.675          33.000  
R11  24972786.285   133447089.642        3334.506          34.000    24972777.028   103792002.203        2593.352          36.000  
R09  21459234.935   114591137.951       -2538.159          54.000    21459231.413    89126538.251       -1974.205          49.000  
R10  21263056.719   113344101.322        1023.501          47.000                                                                  
R21  23704446.712   126847358.627        2475.800          32.000    23704442.914    98659107.679        1925.622          44.000  
R20  21037951.434   112499461.281        -949.223          41.000    21037951.656    87499644.659        -738.333          43.000  
G29  22750944.900   119557103.487       -1690.643          49.000    22750941.730    93161428.115       -1317.304          45.000  
S33  41470143.765   217927120.006        -682.402          42.000  
S31  40516259.573   212914441.963        -682.019          44.000  
G28  23059937.801   121180819.489       -1169.834          49.000    23059935.448    94426593.094        -911.650          47.000  
R19  24082850.722   128827381.810       -4463.025          38.000    24082847.547   100198805.978       -3471.258          46.000  
G12  25035173.251   131560694.640       -3001.006          45.000    25035172.531   102514811.780       -2338.380          41.000  
E33  25132551.580   132072525.679        -816.031          48.000    25132552.376   101198480.443        -625.271          52.000  
E31  25257266.981   132727977.894         114.267          46.000    25257270.888   101700733.419          87.655          52.000  
G20  25848286.556   135833656.760       -1853.678          44.000                                                                  
G31  24207856.968   127213073.336        1143.814          47.000    24207854.562    99127209.172         891.270          43.000  
E14  24395782.773   128200868.001       -4200.655          49.000    24395783.664    98231809.307       -3218.717          51.000  
E26  27625771.861   145174791.146       -3051.404          43.000    27625771.755   111238026.130       -2338.164          49.000  
E24  28403333.761   149260537.852        1588.393          39.000    28403333.681   114368481.981        1217.138          42.000  
G05  25360891.682   133272609.984         137.524          39.000    25360888.862   103848857.259         107.270          35.000  
E12  27145733.040   142651861.745        1812.642          43.000    27145736.020   109304742.566        1388.935          48.000  
E10  29066618.351   152746164.638        2310.110          40.000    29066627.428   117039432.419        1770.120          46.000  
> 2024 04 16 04 01 30.0060000  0 24                     
G25  22596943.322   118747794.049       -1800.323          48.000    22596943.187    92530770.700       -1402.856          48.000  
G18  22894587.201   120311892.713        1641.337          48.000    22894583.930    93749509.580        1278.891          45.000  
G26  25417990.390   133572444.800        2438.905          39.000    25417990.966   104082429.709        1900.397          33.000  
R11  24954068.290   133347071.051        3332.750          34.000    24954060.990   103714210.008        2592.393          37.000  
R09  21473552.058   114667590.190       -2558.870          54.000    21473549.319    89186001.060       -1990.115          49.000  
R10  21257351.161   113313685.491        1003.915          47.000                                                                  
R21  23690598.558   126773283.433        2462.238          39.000    23690599.045    98601493.586        1915.083          42.000  
R20  21043335.080   112528250.308        -970.269          41.000    21043335.639    87522035.904        -754.556          43.000  
G29  22760614.091   119607913.079       -1696.942          49.000    22760611.025    93201019.995       -1322.388          45.000  
S33  41474038.854   217947588.627        -682.461          42.000  
S31  40520152.343   212934898.371        -682.180          44.000  
G28  23066671.026   121216202.764       -1189.229          47.000    23066668.810    94454164.580        -926.727          45.000  
R19  24107888.147   128961314.798       -4466.540          36.000    24107884.968   100302976.136       -3473.656          45.000  
G12  25052328.071   131650843.333       -3009.108          44.000    25052327.275   102585057.501       -2344.783          39.000  
E33  25137247.011   132097204.315        -829.570          48.000    25137248.384   101217390.069        -635.649          52.000  
E31  25256630.761   132724632.764         108.256          46.000    25256634.300   101698170.244          83.094          52.000  
G20  25858918.161   135889525.493       -1870.837          44.000                                                                  
G31  24201373.831   127179003.523        1127.216          48.000    24201371.374    99100661.301         878.468          43.000  
E14  24419761.356   128326875.524       -4200.095          49.000    24419762.297    98328360.528       -3218.252          52.000  
E26  27643210.826   145266433.670       -3058.170          44.000    27643210.736   111308245.748       -2343.333          49.000  
E24  28394264.148   149212874.650        1588.889          39.000    28394263.484   114331960.846        1217.497          41.000  
G05  25360148.937   133268706.271         122.464          40.000    25360145.700   103845815.440          95.458          36.000  
E12  27135408.437   142597601.742        1804.374          44.000    27135410.480   109263166.983        1382.505          48.000  
E10  29053438.710   152676912.566        2306.079          39.000    29053448.613   116986369.610        1767.270          46.000  
> 2024 04 16 04 02 00.0060000  0 24                     
G25  22607255.565   118801989.326       -1812.817          48.000    22607256.635    92573000.749       -1412.622          48.000  
G18  22885262.892   120262890.278        1625.620          48.000    22885260.037    93711325.558        1266.669          47.000  
G26  25404069.732   133499291.045        2437.812          39.000    25404069.777   104025426.796        1899.773          33.000  
R11  24935358.398   133247101.369        3331.634          36.000    24935355.589   103636455.825        2591.253          38.000  
R09  21487985.524   114744664.334       -2579.425          53.000    21487982.914    89245947.560       -2006.222          49.000  
R10  21251755.283   113283855.817         984.485          47.000                                                                  
R21  23676825.387                        2448.783          31.000    23676831.465    98544194.882        1904.808          41.000  
R20  21048837.552   112557670.616        -991.097          41.000    21048837.523    87544918.300        -770.897          43.000  
G29  22770319.477   119658914.538       -1703.223          49.000    22770315.790    93240761.400       -1327.191          45.000  
S33  41477934.109   217968056.779        -682.275          42.000  
S31  40524045.078   212955356.501        -682.031          44.000  
G28  23073515.181   121252169.566       -1208.543          47.000    23073512.795    94482191.024        -941.705          46.000  
R19  24132941.307   129095345.109       -4468.782          37.000    24132940.523   100407221.958       -3476.084          46.000  
G12  25069530.379   131741238.580       -3017.200          44.000    25069529.058   102655495.227       -2351.159          38.000  
E33  25142021.699   132122292.715        -843.073          49.000    25142022.132   101236613.681        -646.033          51.000  
E31  25256029.640   132721473.456         102.296          46.000    25256033.280   101695749.457          78.372          52.000  
G20  25869647.681   135945910.016       -1887.948          44.000                                                                  
G31  24194986.697   127145437.187        1110.566          48.000    24194983.773    99074505.583         865.393          43.000  
E14  24443737.280   128452869.839       -4199.497          49.000    24443738.321    98424901.626       -3217.707          52.000  
E26  27660688.621   145358279.402       -3064.739          43.000    27660688.446   111378621.058       -2348.427          49.000  
E24  28385192.528   149165205.070        1589.056          40.000    28385192.297   114295434.791        1217.671          43.000  
G05  25359493.072   133265256.723         107.823          38.000    25359490.823   103843127.500          83.796          39.000  
E12  27125131.223   142543593.474        1796.121          44.000    27125133.094   109221784.266        1376.249          47.000  
E10  29040282.742   152607776.736        2302.336          41.000    29040292.100   116933395.840        1764.303          47.000  
> 2024 04 16 04 02 30.0060000  0 24                     
G25  22617639.333   118856551.192       -1824.573          49.000    22617639.265    92615516.455       -1421.808          47.000  
G18  22876027.346   120214354.534        1610.324          49.000    22876024.247    93673505.079        1254.804          48.000  
G26  25390151.371   133426151.582        2437.742          38.000    25390152.511   103968434.996        1899.140          35.000  
R11  24916661.738   133147173.794        3330.574          39.000    24916657.874   103558734.460        2590.122          38.000  
R09  21502533.684   114822349.412       -2599.517          54.000    21502530.879    89306369.234       -2021.659          50.000  
R10  21246268.142   113254605.008         965.579          46.000                                                                  
R21  23663130.219   126626340.510        2435.739          33.000    23663139.117    98487204.914        1894.573          43.000  
R20  21054455.289   112587709.423       -1011.160          42.000    21054454.902    87568281.852        -786.561          43.000  
G29  22780058.780   119710097.019       -1708.838          48.000    22780055.136    93280643.860       -1331.464          45.000  
S33  41481827.306   217988518.796        -681.800          42.000  
S31  40527936.437   212975805.688        -681.345          44.000  
G28  23080468.314   121288708.136       -1227.336          48.000    23080465.773    94510662.885        -956.317          46.000  
R19  24158012.966   129229459.140       -4471.625          36.000    24158012.062   100511532.896       -3477.823          47.000  
G12  25086777.723   131831870.904       -3024.800          45.000    25086776.752   102726117.765       -2356.938          40.000  
E33  25146872.377   132147780.163        -855.967          49.000    25146872.401   101256143.040        -655.956          51.000  
E31  25255462.603   132718491.045          96.723          47.000    25255465.639   101693464.210          74.107          52.000  
G20  25880473.296   136002799.346       -1904.521          45.000                                                                  
G31  24188693.738   127112366.520        1094.309          49.000    24188690.792    99048736.195         852.564          44.000  
E14  24467708.166   128578838.099       -4198.290          49.000    24467709.433    98521422.761       -3216.837          53.000  
E26  27678201.751   145450316.441       -3070.902          43.000    27678202.209   111449142.972       -2352.936          49.000  
E24  28376117.742   149117519.851        1590.058          38.000    28376117.728   114258896.753        1218.427          42.000  
G05  25358921.021   133262253.049          92.707          39.000    25358920.742   103840787.009          72.184          39.000  
E12  27114899.398   142489828.203        1788.393          45.000    27114901.376   109180587.749        1370.318          49.000  
E10  29027146.906   152538748.457        2299.236          42.000    29027156.011   116880504.498        1761.808          47.000  
> 2024 04 16 04 03 00.0060000  0 24                     
G25  22628091.178   118911477.258       -1836.646          48.000    22628090.970    92658315.941       -1431.128          47.000  
G18  22866879.505   120166285.545        1594.649          51.000    22866877.314    93636048.923        1242.573          52.000  
G26  25376235.646   133353025.292        2437.216          37.000    25376237.397   103911453.410        1899.433          36.000  
R11  24897971.746   133047288.036        3329.004          38.000    24897965.905   103481045.562        2589.201          39.000  
R09  21517195.551   114900641.191       -2619.744          54.000    21517192.136    89367262.784       -2037.648          48.000  
R10  21240889.683   113225933.216         946.120          47.000                                                                  
R21  23649517.444   126553463.156        2422.929          40.000    23649518.778    98430522.702        1884.210          38.000  
R20  21060187.237   112618361.765       -1031.857          41.000    21060186.828    87592122.550        -802.603          43.000  
G29  22789831.959   119761456.097       -1714.859          48.000    22789828.255    93320663.926       -1336.205          45.000  
S33  41485719.089   218008968.365        -681.335          42.000  
S31  40531825.757   212996244.823        -681.112          44.000  
G28  23087529.186   121325814.852       -1246.421          47.000    23087526.445    94539577.364        -971.112          45.000  
R19  24183100.657   129363650.650       -4474.086          35.000    24183097.101   100615904.077       -3480.041          46.000  
G12  25104068.139   131922736.514       -3032.805          45.000    25104067.993   102796921.973       -2363.312          41.000  
E33  25151797.040   132173663.060        -869.308          48.000    25151797.819   101275975.397        -666.156          51.000  
E31  25254928.546   132715683.766          90.792          47.000    25254931.649   101691313.128          69.564          52.000  
G20  25891394.439   136060189.756       -1921.302          44.000                                                                  
G31  24182494.397   127079790.404        1077.640          49.000    24182492.684    99023352.117         839.832          45.000  
E14  24491672.926   128704774.636       -4197.241          48.000    24491674.475    98617919.582       -3216.083          53.000  
E26  27695752.689   145542540.150       -3077.094          44.000    27695752.362   111519807.908       -2357.794          50.000  
E24  28367039.908   149069817.019        1590.413          38.000    28367040.287   114222345.178        1218.784          43.000  
G05  25358434.134   133259693.079          78.068          38.000    25358431.989   103838792.223          61.270          37.000  
E12  27104714.459   142436304.182        1780.255          43.000    27104716.085   109139576.065        1364.053          46.000  
E10  29014030.395   152469826.361        2295.533          42.000    29014040.000   116827694.490        1758.999          47.000  
> 2024 04 16 04 03 30.0060000  0 25                     
G25  22638612.496   118966767.316       -1849.023          48.000    22638612.101    92701399.066       -1440.662          47.000  
G18  22857821.214   120118682.257        1579.045          50.000    22857818.724    93598955.067        1230.412          49.000  
G26  25362322.266   133279912.994        2436.861          35.000    25362324.649   103854482.747        1898.896          35.000  
R16  24597258.742                3      -5139.992          12.000                                                                  
R11  24879288.472   132947446.956        3327.224          39.000    24879281.830   103403391.471        2587.697          39.000  
R09  21531970.650   114979538.107       -2639.870          54.000    21531967.438    89428626.988       -2053.344          49.000  
R10  21235620.032   113197843.593         926.478          46.000                                                                  
R21  23635974.187   126480982.351        2409.633          36.000    23635971.117    98374148.839        1874.185          36.000  
R20  21066033.372   112649625.535       -1051.981          41.000    21066033.538    87616438.829        -818.267          44.000  
G29  22799637.989   119812990.035       -1720.648          48.000    22799634.920    93360820.262       -1340.606          45.000  
S33  41489608.286   218029406.148        -681.140          42.000  
S31  40535712.829   213016671.231        -680.541          43.000  
G28  23094697.389   121363488.197       -1265.161          47.000    23094695.429    94568933.290        -985.607          46.000  
R19  24208200.982   129497916.287       -4476.251          35.000    24208196.871   100720332.910       -3481.809          46.000  
G12  25121405.058   132013835.380       -3040.535          47.000    25121402.970   102867907.943       -2369.534          41.000  
E33  25156797.108   132199940.022        -882.453          48.000    25156797.792   101296109.715        -676.174          50.000  
E31  25254427.439   132713052.132          84.781          46.000    25254430.887   101689296.633          65.021          52.000  
G20  25902410.020   136118079.890       -1937.749          44.000                                                                  
G31  24176390.272   127047709.958        1061.052          49.000    24176387.929    98998354.278         826.966          45.000  
E14  24515630.947   128830676.031       -4196.256          48.000    24515632.553    98714389.482       -3215.188          53.000  
E26  27713336.483   145634948.009       -3083.271          44.000    27713336.393   111590613.948       -2362.555          49.000  
E24  28357958.434   149022096.647        1591.157          37.000    28357959.594   114185780.151        1219.219          43.000  
G05  25358031.445   133257578.623          62.936          36.000    25358028.890   103837144.715          49.089          37.000  
E12  27094574.830   142383022.053        1772.049          44.000    27094576.112   109098749.680        1357.874          48.000  
E10  29000934.360   152401011.141        2292.132          41.000    29000944.314   116774966.367        1756.243          47.000  
> 2024 04 16 04 04 00.0060000  0 24                     
G25  22649203.715   119022425.814       -1861.523          48.000    22649203.365    92744769.298       -1450.531          47.000  
G18  22848852.809   120071551.204        1563.144          47.000    22848851.230    93562229.052        1217.967          45.000  
G26  25348413.363   133206820.608        2435.796          36.000    25348416.083   103797527.630        1898.377          34.000  
R11  24860612.948   132847657.899        3325.515          38.000    24860607.023   103325777.787        2586.037          40.000  
R09  21546859.224   115059043.556       -2660.293          54.000    21546857.041    89490464.437       -2069.189          50.000  
R10  21230460.557   113170342.736         906.818          46.000                                                                  
R21  23622504.213   126408903.724        2395.797          40.000    23622499.328    98318087.913        1863.198          37.000  
R20  21071993.964   112681501.654       -1072.447          41.000    21071994.486    87641231.396        -834.388          43.000  
G29  22809478.409   119864701.934       -1726.724          48.000    22809475.559    93401115.267       -1345.537          45.000  
S33  41493496.041   218049836.087        -680.830          42.000  
S31  40539598.617   213037089.950        -680.657          44.000  
G28  23101974.886   121401731.087       -1284.382          47.000    23101972.722    94598732.855       -1000.754          46.000  
R19  24233314.845   129632256.721       -4479.353          35.000    24233309.716   100824819.881       -3483.723          46.000  
G12  25138785.095   132105170.755       -3048.544          46.000    25138783.323   102939078.206       -2375.444          40.000  
E33  25161872.985   132226614.371        -895.882          48.000    25161873.153   101316548.524        -686.433          49.000  
E31  25253961.262   132710601.279          78.526          47.000    25253964.633   101687418.662          60.181          53.000  
G20  25913522.114   136176473.070       -1955.011          43.000                                                                  
G31  24170381.123   127016130.546        1044.229          48.000    24170378.483    98973746.790         813.701          45.000  
E14  24539582.480   128956543.547       -4195.060          48.000    24539584.229    98810833.430       -3214.430          52.000  
E26  27730956.743   145727542.253       -3089.529          45.000    27730957.031   111661562.816       -2367.338          50.000  
E24  28348875.449   148974363.637        1591.262          37.000    28348876.386   114149205.490        1219.142          43.000  
G05  25357711.487   133255916.092          48.268          35.000    25357712.955   103835849.277          37.329          37.000  
E12  27084482.453   142329986.963        1763.445          44.000    27084484.109   109058112.587        1351.351          46.000  
E10  28987860.580   152332308.252        2288.151          42.000    28987870.043   116722324.294        1753.242          47.000  
> 2024 04 16 04 04 30.0060000  0 24                     
G25  22659866.694   119078459.610       -1874.042          48.000    22659866.963    92788431.955       -1460.272          48.000  
G18  22839975.582   120024901.338        1546.884          47.000    22839974.094    93525878.385        1205.340          46.000  
G26  25334508.797   133133756.085        2434.934          37.000    25334512.770   103740594.277        1897.776          35.000  
R11  24841947.089   132747930.267        3323.349          39.000    24841944.479   103248211.862        2584.722          38.000  
R09  21561862.474   115139162.607       -2680.855          53.000    21561859.615    89552779.186       -2085.130          49.000  
R10  21225413.774   113143440.460         886.855          46.000                                                                  
R21  23609113.041   126337235.633        2382.233          37.000    23609107.039    98262346.271        1852.987          38.000  
R20  21078070.969   112713995.529       -1093.574          41.000    21078070.242    87666504.416        -850.356          42.000  
G29  22819353.955   119916596.731       -1732.828          49.000    22819350.275    93441552.803       -1350.246          44.000  
S33  41497383.306   218070264.264        -680.952          42.000  
S31  40543483.781   213057507.283        -680.544          44.000  
G28  23109362.493   121440549.690       -1303.567          47.000    23109359.961    94628981.154       -1015.712          47.000  
R19  24258444.043   129766674.907       -4481.842          34.000    24258437.583   100929367.370       -3485.890          45.000  
G12  25156211.853   132196748.823       -3056.637          47.000    25156210.542   103010437.581       -2381.745          41.000  
E33  25167025.271   132253691.861        -909.244          47.000    25167025.920   101337296.237        -696.666          49.000  
E31  25253530.714   132708338.823          72.365          47.000    25253534.042   101685685.047          55.398          52.000  
G20  25924729.914   136235374.717       -1971.813          43.000                                                                  
G31  24164468.688   126985061.103        1027.172          47.000    24164465.408    98949536.800         800.129          43.000  
E14  24563528.878   129082381.007       -4193.963          49.000    24563530.046    98907254.331       -3213.607          52.000  
E26  27748613.523   145820327.621       -3095.939          46.000    27748612.648   111732658.114       -2372.274          49.000  
E24  28339791.266   148926625.329        1591.317          37.000    28339791.933   114112626.760        1219.394          43.000  
G05  25357483.206   133254712.059          33.042          37.000    25357483.959   103834911.103          25.316          38.000  
E12  27074439.080   142277206.516        1755.186          44.000    27074440.013   109017670.482        1344.933          47.000  
E10  28974809.636   152263725.637        2284.118          41.000    28974819.027   116669774.368        1750.199          47.000  
> 2024 04 16 04 05 00.0060000  0 24                     
G25  22670601.172   119134867.770       -1886.542          48.000    22670600.769    92832386.327       -1470.105          47.000  
G18  22831190.009   119978733.066        1530.905          46.000    22831188.458    93489903.264        1192.868          46.000  
G26  25320611.044   133060719.841        2434.236          37.000    25320613.694   103683682.992        1896.957          34.000  
R11  24823294.100   132648266.186        3321.173          36.000    24823293.354   103170695.387        2583.189          37.000  
R09  21576980.413   115219893.001       -2701.215          53.000    21576978.394    89615569.398       -2100.966          49.000  
R10  21220479.388   113117139.258         866.636          47.000                                                                  
R21  23595795.590   126265977.952        2368.470          37.000    23595793.318    98206923.856        1842.169          41.000  
R20  21084262.384   112747103.069       -1113.987          41.000    21084261.654    87692254.789        -866.371          44.000  
G29  22829263.565   119968672.201       -1738.927          48.000    22829260.213    93482131.116       -1355.041          44.000  
S33  41501269.919   218090689.513        -680.679          42.000  
S31  40547368.075   213077920.805        -680.428          44.000  
G28  23116858.844   121479941.036       -1322.673          47.000    23116856.113    94659675.587       -1030.725          46.000  
R19  24283585.439   129901166.683       -4484.015          32.000    24283580.150   101033972.174       -3487.657          45.000  
G12  25173684.038   132288567.591       -3064.630          45.000    25173682.742   103081984.490       -2388.018          37.000  
E33  25172254.851   132281170.378        -922.635          48.000    25172255.088   101358351.241        -706.987          50.000  
E31  25253135.430   132706264.726          65.906          46.000    25253139.168   101684095.830          50.533          52.000  
G20  25936034.667   136294782.505       -1988.727          42.000                                                                  
G31  24158653.212   126954501.823        1010.098          47.000    24158650.587    98925724.380         787.119          44.000  
E14  24587468.671   129208184.304       -4192.863          49.000    24587469.484    99003649.072       -3212.731          52.000  
E26  27766305.315   145913300.890       -3102.262          45.000    27766306.127   111803897.408       -2377.091          51.000  
E24  28330704.678   148878881.276        1591.700          37.000    28330706.749   114076043.660        1219.427          44.000  
G05  25357341.629   133253967.038          17.551          34.000    25357342.461   103834330.586          13.126          38.000  
E12  27064443.586   142224680.622        1746.725          44.000    27064444.671   108977423.413        1338.230          48.000  
E10  28961781.081   152195263.288        2280.266          40.000    28961791.130   116617316.618        1747.010          48.000  
> 2024 04 16 04 05 30.0060000  0 24                     
G25  22681406.764   119191653.828       -1899.036          48.000    22681406.856    92876635.176       -1479.828          48.000  
G18  22822496.976   119933050.378        1514.719          44.000    22822496.237    93454306.395        1180.109          42.000  
G26  25306719.346   132987716.622        2432.527          37.000    25306721.743   103626797.439        1895.807          35.000  
R11  24804655.451   132548672.024        3318.674          34.000    24804655.021   103093233.315        2580.712          36.000  
R09  21592214.238   115301236.937       -2721.598          54.000    21592210.736    89678836.872       -2116.855          49.000  
R10  21215658.327   113091444.607         846.344          46.000                                                                  
R21  23582556.627   126195135.655        2354.416          38.000    23582556.940    98151824.521        1831.321          43.000  
R20  21090567.277   112780825.850       -1134.261          39.000    21090568.537    87718483.693        -882.061          42.000  
G29  22839207.844   120020930.452       -1744.973          49.000    22839205.162    93522851.846       -1359.661          45.000  
S33  41505156.648   218111114.793        -680.857          43.000  
S31  40551253.095   213098335.543        -680.521          44.000  
G28  23124463.879   121519907.156       -1341.772          47.000    23124461.840    94690817.643       -1045.580          47.000  
R19  24308739.909   130035732.173       -4486.636          33.000    24308736.215   101138634.252       -3489.708          45.000  
G12  25191203.048   132380630.513       -3072.836          43.000    25191202.599   103153721.645       -2394.514          40.000  
E33  25177560.986   132309052.297        -936.066          49.000    25177561.164   101379715.324        -717.313          50.000  
E31  25252776.694   132704383.256          59.473          46.000    25252780.967   101682654.296          45.576          53.000  
G20  25947436.824   136354698.394       -2005.660          44.000                                                                  
G31  24152935.160   126924457.062         992.919          47.000    24152933.590    98902312.942         773.676          45.000  
E14  24611401.393   129333953.887       -4191.668          49.000    24611402.703    99100017.984       -3211.820          52.000  
E26  27784034.002   146006463.419       -3108.638          46.000    27784033.418   111875281.685       -2381.903          50.000  
E24  28321619.299   148831135.395        1591.938          38.000    28321621.138   114039459.102        1219.533          44.000  
G05  25357290.837   133253686.993           1.739          37.000    25357289.713   103834112.386           0.996          37.000  
E12  27054497.368   142172413.541        1737.942          43.000    27054498.902   108937374.613        1331.605          46.000  
E10  28948776.633   152126925.807        2275.714          39.000    28948786.237   116564954.510        1743.700          48.000  
> 2024 04 16 04 06 00.0060000  0 24                     
G25  22692284.522   119248817.347       -1911.627          48.000    22692284.756    92921178.136       -1489.520          47.000  
G18  22813896.940   119887854.373        1498.525          43.000    22813895.510    93419088.864        1167.586          41.000  
G26  25292834.218   132914747.283        2431.885          39.000    25292835.199   103569938.363        1894.627          34.000  
R11  24786032.238   132449149.868        3316.444          38.000    24786029.898   103015827.233        2579.236          35.000  
R09  21607561.688   115383191.814       -2741.884          54.000    21607559.447    89742579.471       -2132.582          50.000  
R10  21210953.283   113066358.443         826.122          47.000                                                                  
R21  23569396.282   126124709.378        2340.968          43.000    23569395.381    98097048.650        1820.687          44.000  
R20  21096988.307   112815160.262       -1154.619          41.000    21096989.627    87745188.281        -897.967          44.000  
G29  22849186.347   120073369.200       -1750.907          49.000    22849183.950    93563713.212       -1364.202          45.000  
S33  41509043.483   218131539.801        -680.521          42.000  
S31  40555137.781   213118749.692        -680.299          44.000  
G28  23132178.538   121560447.073       -1360.763          47.000    23132176.884    94722406.983       -1060.249          47.000  
R19  24333908.690   130170367.516       -4489.299          34.000    24333905.290   101243350.623       -3491.283          46.000  
G12  25208768.386   132472935.847       -3080.755          44.000    25208767.621   103225647.735       -2400.691          41.000  
E33  25182943.543   132337336.048        -949.391          49.000    25182943.432   101401387.301        -727.425          50.000  
E31  25252454.952   132702694.490          53.086          46.000    25252459.302   101681360.358          40.788          52.000  
G20  25958935.224   136415121.260       -2022.598          43.000                                                                  
G31  24147316.639   126894928.112         975.735          48.000    24147314.422    98879303.404         760.366          45.000  
E14  24635327.486   129459686.309       -4190.217          48.000    24635328.733    99196358.421       -3210.834          51.000  
E26  27801798.843   146099812.597       -3114.573          47.000    27801797.950   111946809.026       -2386.507          51.000  
E24  28312532.515   148783387.906        1591.670          38.000    28312535.168   114002873.388        1219.548          45.000  
G05  25357322.741   133253871.605         -13.338          37.000    25357323.641   103834256.313         -10.898          35.000  
E12  27044600.455   142120405.817        1729.378          43.000    27044602.193   108897524.543        1325.145          46.000  
E10  28935795.654   152058713.769        2271.623          39.000    28935805.473   116512688.503        1740.702          47.000  
> 2024 04 16 04 06 30.0060000  0 24                     
G25  22703234.799   119306359.734       -1924.237          48.000    22703234.603    92966016.318       -1499.249          47.000  
G18  22805389.274   119843147.541        1482.206          43.000    22805387.732    93384252.363        1155.049          43.000  
G26  25278956.220   132841814.518        2430.530          38.000    25278956.100   103513107.746        1893.710          34.000  
R11  24767423.559   132349704.029        3314.279          39.000    24767419.020   102938480.473        2577.087          36.000  
R09  21623023.803   115465757.814       -2762.151          53.000    21623021.688    89806797.415       -2148.338          50.000  
R10  21206362.659   113041886.110         805.737          48.000                                                                  
R21  23556314.187   126054701.840        2326.837          46.000    23556311.737    98042598.471        1809.858          42.000  
R20  21103524.298   112850105.365       -1174.837          41.000    21103524.639    87772367.708        -913.702          43.000  
G29  22859199.504   120125988.594       -1756.702          49.000    22859196.335    93604715.363       -1368.827          45.000  
S33  41512930.168   218151965.252        -680.575          42.000  
S31  40559022.426   213139163.898        -680.483          44.000  
G28  23140002.316   121601560.535       -1379.797          48.000    23140000.536    94754443.316       -1075.098          47.000  
R19  24359089.022   130305070.124       -4490.937          36.000    24359085.622   101348119.408       -3492.959          45.000  
G12  25226379.883   132565485.053       -3088.824          45.000    25226378.892   103297764.003       -2407.026          41.000  
E33  25188401.367   132366021.826        -962.814          49.000    25188401.867   101423367.333        -737.693          50.000  
E31  25252171.058   132701200.598          46.687          47.000    25252174.918   101680215.728          35.776          52.000  
G20  25970528.851   136476050.774       -2039.221          43.000                                                                  
G31  24141796.069   126865917.344         958.533          48.000    24141793.764    98856697.624         746.926          44.000  
E14  24659245.949   129585379.905       -4188.887          48.000    24659247.540    99292669.108       -3209.707          52.000  
E26  27819598.037   146193347.676       -3120.779          47.000    27819596.918   112018478.755       -2391.266          50.000  
E24  28303446.819   148735640.508        1591.706          38.000    28303449.241   113966287.698        1219.714          45.000  
G05  25357450.671   133254524.020         -29.229          40.000    25357445.562   103834764.675         -22.906          33.000  
E12  27034753.208   142068659.501        1720.656          44.000    27034755.076   108857874.780        1318.399          48.000  
E10  28922839.628   151990629.565        2267.426          39.000    28922849.125   116460520.432        1737.431          47.000  
> 2024 04 16 04 07 00.0060000  0 24                     
G25  22714256.711   119364280.591       -1937.238          48.000    22714256.600    93011149.419       -1509.570          47.000  
G18  22796974.119   119798930.860        1465.469          47.000    22796973.610    93349797.945        1141.825          48.000  
G26  25265085.133   132768919.182        2428.956          38.000    25265084.832   103456306.231        1892.375          35.000  
R11  24748828.698   132250337.556        3310.604          38.000    24748824.262   102861195.433        2575.150          34.000  
R09  21638599.826   115548933.121       -2782.837          53.000    21638598.618    89871489.265       -2164.429          51.000  
R10  21201887.374   113018029.221         784.911          47.000                                                                  
R21  23543307.810   125985113.423        2312.340          46.000    23543308.050    97988474.318        1798.492          43.000  
R20  21110172.807   112885659.079       -1195.188          41.000    21110173.315    87800020.661        -929.685          44.000  
G29  22869247.202   120178786.794       -1763.082          50.000    22869243.361    93645856.820       -1373.889          44.000  
S33  41516816.920   218172390.499        -681.019          43.000  
S31  40562907.065   213159578.149        -680.623          44.000  
G28  23147934.479   121643245.533       -1399.230          47.000    23147932.547    94786925.010       -1090.205          46.000  
R19  24384280.210   130439836.428       -4493.224          36.000    24384278.458   101452937.661       -3494.972          46.000  
G12  25244038.256   132658276.018       -3097.352          45.000    25244037.210   103370068.552       -2413.297          41.000  
E33  25193936.497   132395108.133        -976.341          49.000    25193936.691   101445654.256        -748.171          50.000  
E31  25251924.087   132699902.011          39.765          47.000    25251927.725   101679220.688          30.491          52.000  
G20  25982219.175   136537485.315       -2056.459          44.000                                                                  
G31  24136373.271   126837425.860         940.942          47.000    24136371.542    98834496.515         733.051          43.000  
E14  24683156.214   129711031.353       -4187.834          48.000    24683158.337    99388947.499       -3208.983          52.000  
E26  27837430.649   146287066.052       -3127.184          46.000    27837430.808   112090288.964       -2396.158          50.000  
E24  28294360.513   148687893.488        1591.216          38.000    28294363.355   113929702.328        1219.380          45.000  
G05  25357664.078   133255643.704         -45.374          40.000    25357660.182   103835637.204         -35.284          38.000  
E12  27024956.008   142017175.160        1711.616          45.000    27024957.789   108818425.739        1311.425          48.000  
E10  28909906.608   151922673.857        2263.099          38.000    28909917.416   116408450.822        1733.872          47.000  
> 2024 04 16 04 07 30.0060000  0 24                     
G25  22725350.857   119422584.441       -1949.658          47.000    22725351.361    93056580.949       -1519.202          48.000  
G18  22788654.838   119755209.767        1449.553          45.000    22788652.952    93315729.586        1129.066          35.000  
G26  25251221.627   132696067.189        2427.646          37.000    25251222.089   103399538.418        1892.111          35.000  
R11  24730249.592   132151057.458        3308.134          36.000    24730245.375   102783977.570        2572.919          34.000  
R09  21654290.640   115632720.555       -2802.885          53.000    21654289.290    89936657.196       -2180.058          51.000  
R10  21197528.638   112994794.709         764.261          48.000                                                                  
R21  23530383.447   125915950.057        2298.589          46.000    23530384.912    97934680.740        1787.892          43.000  
R20  21116935.333   112921822.073       -1215.249          42.000    21116935.440    87828147.433        -945.265          44.000  
G29  22879329.182   120231766.830       -1768.821          49.000    22879325.152    93687139.960       -1378.277          44.000  
S33  41520704.309   218192818.977        -680.915          43.000  
S31  40566792.612   213179996.230        -680.513          44.000  
G28  23155976.797   121685505.159       -1418.054          47.000    23155974.840    94819854.403       -1105.098          47.000  
R19  24409485.013   130574667.498       -4495.583          36.000    24409482.982   101557806.302       -3496.107          45.000  
G12  25261741.962   132751313.428       -3105.128          43.000    25261741.750   103442565.060       -2419.364          41.000  
E33  25199548.370   132424598.378        -989.512          49.000    25199548.599   101468250.689        -758.260          50.000  
E31  25251716.189   132698804.195          33.430          47.000    25251718.934   101678379.537          25.679          52.000  
G20  25994006.858   136599428.076       -2073.097          44.000                                                                  
G31  24131051.875   126809459.707         923.604          47.000    24131049.891    98812704.839         719.709          45.000  
E14  24707059.197   129836642.267       -4186.226          47.000    24707061.319    99485194.825       -3207.586          52.000  
E26  27855299.945   146380970.183       -3133.056          46.000    27855300.444   112162241.530       -2400.654          50.000  
E24  28285275.880   148640151.820        1591.360          39.000    28285278.578   113893121.008        1219.386          46.000  
G05  25357967.023   133257238.345         -60.650          41.000    25357965.127   103836879.826         -47.240          39.000  
E12  27015210.163   141965958.072        1703.085          43.000    27015211.419   108779181.502        1304.802          46.000  
E10  28897000.760   151854852.266        2258.831          38.000    28897011.152   116356483.988        1730.659          47.000  
> 2024 04 16 04 08 00.0060000  0 24                     
G25  22736518.103   119481264.551       -1962.030          47.000    22736518.329    93102305.691       -1528.827          47.000  
G18  22780428.145   119711977.850        1433.362          43.000    22780427.195    93282025.7341       1116.821          42.000  
G26  25237363.080   132623253.344        2426.801          34.000    25237365.858   103342800.406        1891.381          36.000  
R11  24711685.823   132051859.987        3305.858          37.000    24711683.673                        2571.002          30.000  
R09  21670094.295   115717111.665       -2822.871          53.000    21670092.778    90002294.659       -2195.501          50.000  
R10  21193286.140   112972178.478         743.787          47.000                                                                  
R21  23517537.259   125847205.713        2284.862          47.000    23517538.096    97881213.035        1777.063          43.000  
R20  21123810.123   112958585.437       -1235.060          41.000    21123810.517    87856741.109        -960.717          44.000  
G29  22889443.896   120284920.420       -1774.366          49.000    22889439.647    93728558.353       -1382.597          44.000  
S33  41524591.413   218213244.886        -680.508          43.000  
S31  40570677.365   213200410.604        -680.165          44.000  
G28  23164126.488   121728331.217       -1436.846          47.000    23164124.746    94853225.148       -1119.474          47.000  
R19  24434700.135   130709553.618       -4496.944          38.000    24434699.557   101662717.743       -3497.438          48.000  
G12  25279491.088   132844589.381       -3112.914          44.000    25279490.759   103515247.383       -2425.406          40.000  
E33  25205235.277   132454484.641       -1002.397          49.000    25205235.818   101491150.560        -768.166          50.000  
E31  25251544.769   132697901.101          27.279          48.000    25251546.919   101677687.595          20.758          52.000  
G20  26005889.591   136661870.743       -2089.372          43.000                                                                  
G31  24125829.569   126782012.900         906.411          48.000    24125827.048    98791317.732         706.338          44.000  
E14  24730953.437   129962202.937       -4184.160          48.000    24730954.711    99581403.649       -3205.974          52.000  
E26  27873202.768   146475051.159       -3138.553          46.000    27873202.757   112234329.566       -2404.941          49.000  
E24  28276191.460   148592409.387        1591.719          40.000    28276193.190   113856539.114        1219.659          46.000  
G05  25358359.524   133259301.274         -76.448          41.000    25358357.472   103838487.297         -59.534          38.000  
E12  27005513.869   141915002.433        1694.440          45.000    27005514.749   108740137.575        1298.238          48.000  
E10  28884119.713   151787159.103        2254.644          39.000    28884129.216   116304615.515        1727.622          46.000  
> 2024 04 16 04 08 30.0060000  0 24                     
G25  22747756.379   119540322.923       -1975.134          47.000    22747757.209    93148325.142       -1539.026          48.000  
G18  22772296.170   119669240.699        1416.113          47.000    22772294.226    93248724.055        1103.455          48.000  
G26  25223513.979   132550481.088        2424.871          34.000    25223518.016   103286094.824        1889.453          37.000  
R11  24693138.616   131952750.043        3301.551          34.000    24693130.200                        2568.468          27.000  
R09  21686011.324   115802107.072       -2843.541          53.000    21686008.663    90068402.136       -2211.689          49.000  
R10  21189160.487   112950185.165         722.454          48.000                                                                  
R21  23504770.395   125778883.795        2270.025          47.000    23504771.084    97828073.915        1765.569          43.000  
R20  21130797.246   112995948.412       -1255.989          42.000    21130796.809    87885801.152        -976.526          44.000  
G29  22899591.559   120338248.228       -1780.815          49.000    22899587.748    93770112.514       -1387.668          44.000  
S33  41528477.731   218233668.422        -681.009          43.000  
S31  40574561.658   213220823.622        -680.745          44.000  
G28  23172383.782   121771724.345       -1456.153          46.000    23172382.623    94887037.773       -1134.685          47.000  
R19  24459927.217   130844492.553       -4499.117          39.000    24459924.834   101767670.292       -3499.377          47.000  
G12  25297287.278   132938105.603       -3121.380          44.000    25297286.885   103588116.993       -2432.325          40.000  
E33  25210998.318   132484767.813       -1016.272          49.000    25210998.741   101514354.543        -778.693          50.000  
E31  25251410.541   132697195.576          19.977          48.000    25251412.625   101677147.010          15.321          52.000  
G20  26017867.471   136724814.193       -2106.863          43.000                                                                  
G31  24120706.368   126755089.529         888.344          47.000    24120703.308    98770338.521         692.207          45.000  
E14  24754837.482   130087712.502       -4183.136          48.000    24754838.473    99677573.322       -3205.259          52.000  
E26  27891139.979   146569308.890       -3145.040          46.000    27891139.748   112306553.080       -2409.969          49.000  
E24  28267107.716   148544668.822        1590.836          40.000    28267108.754   113819958.641        1219.073          45.000  
G05  25358841.719   133261835.616         -92.776          43.000    25358839.579   103840462.183         -72.240          38.000  
E12  26995867.667   141864310.886        1685.016          46.000    26995868.692   108701296.036        1291.125          49.000  
E10  28871262.855   151719597.415        2249.582          38.000    28871271.974   116252847.784        1723.721          46.000  
> 2024 04 16 04 09 00.0060000  0 24                     
G25  22759065.798   119599753.414       -1987.390          45.000    22759065.852    93194634.605       -1548.602          46.000  
G18  22764256.853   119626992.631        1399.908          51.000    22764254.390    93215803.677        1090.875          52.000  
G26  25209672.541   132477745.658        2423.890          34.000    25209676.700   103229417.913        1888.593          36.000  
R11  24674604.481   131853724.594        3299.308          36.000    24674592.284                        2566.278          28.000  
R09  21702039.942   115887698.652       -2863.195          53.000    21702036.980    90134973.326       -2226.889          49.000  
R10  21185150.456   112928811.485         702.029          47.000                                                                  
R21  23492080.272   125710979.143        2256.315          47.000    23492080.905    97775259.303        1754.916          44.000  
R20  21137894.985   113033902.877       -1275.141          41.000    21137894.672    87915321.274        -991.740          44.000  
G29  22909770.886   120391742.806       -1786.105          47.000    22909767.822    93811796.628       -1391.925          43.000  
S33  41532362.834   218254084.563        -680.757          42.000  
S31  40578444.554   213241228.384        -679.927          43.000  
G28  23180747.698   121815676.966       -1474.475          44.000    23180746.746    94921286.410       -1149.098          47.000  
R19  24485162.749   130979474.897       -4500.360          40.000    24485159.017   101872656.609       -3500.298          47.000  
G12  25315127.866   133031855.236       -3129.073          45.000    25315126.958   103661168.598       -2438.234          40.000  
E33  25216835.559   132515440.567       -1029.073          48.000    25216835.314   101537857.051        -788.530          49.000  
E31  25251312.646   132696682.276          13.793          47.000    25251315.120   101676753.727          10.525          52.000  
G20  26029939.037   136788250.745       -2122.710          40.000                                                                  
G31  24115681.386   126728684.048         871.278          46.000    24115678.271    98749762.893         678.941          43.000  
E14  24778709.539   130213161.982       -4180.755          47.000    24778710.788    99773696.951       -3203.422          52.000  
E26  27909108.811   146663735.145       -3150.602          44.000    27909108.574   112378905.672       -2414.017          49.000  
E24  28258022.541   148496924.550        1591.423          40.000    28258023.163   113783375.374        1219.389          46.000  
G05  25359412.899   133264836.994        -108.465          41.000    25359408.983   103842800.957         -84.398          36.000  
E12  26986270.862   141813878.178        1676.834          43.000    26986271.292   108662652.811        1284.649          46.000  
E10  28858429.656   151652162.130        2245.572          37.000    28858439.091   116201176.921        1720.615          46.000  
> 2024 04 16 04 09 30.0060000  0 24                     
G25  22770446.414   119659561.678       -1999.878          47.000    22770447.295    93241238.408       -1558.472          47.000  
G18  22756312.277   119585239.402        1383.551          47.000    22756308.943    93183268.617        1077.936          46.000  
G26  25195839.301   132405053.964        2421.871          35.000    25195843.394   103172775.059        1887.702          36.000  
R11  24656091.764   131754792.424        3296.201          34.000    24656084.575                        2563.638          31.000  
R09  21718180.754   115973890.874       -2883.048          53.000    21718178.712    90202011.723       -2242.354          49.000  
R10  21181257.821   112908065.770         680.971          46.000                                                                  
R21  23479468.739   125643498.449        2242.193          48.000    23479471.170    97722774.435        1744.123          44.000  
R20  21145103.684   113072451.540       -1294.827          41.000    21145103.815    87945303.583       -1006.937          44.000  
G29  22919983.467   120445408.381       -1791.726          49.000    22919980.372    93853613.944       -1396.292          45.000  
S33  41536247.359   218274497.809        -680.502          43.000  
S31  40582327.238   213261631.422        -680.107          44.000  
G28  23189218.911   121860193.311       -1493.304          46.000    23189217.646    94955974.368       -1163.633          48.000  
R19  24510404.770   131114503.779       -4501.852          40.000    24510401.199   101977679.125       -3501.260          47.000  
G12  25333013.481   133125842.782       -3136.866          46.000    25333012.306   103734405.501       -2444.257          42.000  
E33  25222747.396   132546507.396       -1042.230          49.000    25222746.900   101561661.506        -798.523          49.000  
E31  25251252.457   132696367.758           7.161          48.000    25251255.531   101676512.771           5.432          53.000  
G20  26042105.839   136852184.666       -2139.337          40.000                                                                  
G31  24110756.469   126702803.313         853.938          47.000    24110753.095    98729596.161         665.414          44.000  
E14  24802570.577   130338554.148       -4178.702          48.000    24802572.267    99869776.672       -3201.913          52.000  
E26  27927110.612   146758333.469       -3156.087          45.000    27927109.697   112451390.142       -2418.347          49.000  
E24  28248936.822   148449182.944        1591.263          40.000    28248938.427   113746794.170        1219.483          45.000  
G05  25360072.490   133268310.980        -123.873          41.000    25360069.289   103845508.040         -96.752          37.000  
E12  26976724.360   141763710.783        1667.932          44.000    26976725.403   108624212.932        1277.941          48.000  
E10  28845622.632   151584859.958        2240.829          38.000    28845631.973   116149608.055        1717.251          46.000  
> 2024 04 16 04 10 00.0060000  0 24                     
G25  22781899.908   119719746.922       -2012.457          48.000    22781899.989    93288135.957       -1568.042          47.000  
G18  22748460.092   119543981.743        1366.833          44.000    22748458.418    93151119.579        1065.326          45.000  
G26  25182016.383   132332406.904        2420.545          37.000    25182018.586   103116167.030        1886.602          37.000  
R11  24637599.246   131655955.474        3293.051          35.000    24637595.381                        2560.926          27.000  
R09  21734433.530   116060681.001       -2903.125          52.000    21734431.808    90269515.145       -2257.824          49.000  
R10  21177483.978   112887950.405         659.896          46.000                                                                  
R21  23466938.552   125576442.300        2228.023          49.000    23466938.485    97670619.779        1732.873          45.000  
R20  21152422.796   113111590.340       -1314.435          42.000    21152423.391    87975744.795       -1022.320          44.000  
G29  22930227.834   120499242.745       -1797.385          49.000    22930224.540    93895562.791       -1400.560          45.000  
S33  41540131.019   218294906.487        -680.132          43.000  
S31  40586208.547   213282029.419        -679.921          44.000  
G28  23197797.119   121905270.977       -1512.001          46.000    23197795.885    94991099.742       -1178.240          48.000  
R19  24535654.369   131249574.662       -4503.171          40.000    24535650.822   102082734.273       -3502.330          46.000  
G12  25350943.615   133220067.135       -3144.849          44.000    25350942.728   103807827.012       -2450.427          40.000  
E33  25228733.714   132577966.395       -1055.352          49.000    25228733.204   101585766.475        -808.598          49.000  
E31  25251230.071   132696251.975           0.509          48.000    25251233.527   101676424.024           0.408          53.000  
G20  26054366.478   136916613.760       -2155.834          38.000                                                                  
G31  24105931.796   126677448.103         836.165          47.000    24105928.676    98709838.949         651.725          44.000  
E14  24826419.689   130463885.521       -4176.721          48.000    24826421.966    99965809.806       -3200.311          52.000  
E26  27945143.553   146853101.030       -3161.716          44.000    27945143.483   112524004.247       -2422.717          49.000  
E24  28239851.151   148401443.753        1591.280          40.000    28239853.872   113710214.844        1219.230          47.000  
G05  25360824.979   133272259.374        -139.570          41.000    25360820.930   103848584.679        -108.884          38.000  
E12  26967227.454   141713808.831        1659.018          44.000    26967229.015   108585976.485        1271.181          49.000  
E10  28832840.959   151517691.263        2236.652          40.000    28832849.724   116098141.482        1713.782          46.000  
> 2024 04 16 04 10 30.0060000  0 24                     
G25  22793423.974   119780307.322       -2025.011          47.000    22793424.614    93335325.843       -1577.911          47.000  
G18  22740702.485   119503219.398        1350.421          45.000    22740701.658    93119356.399        1052.216          44.000  
G26  25168200.845   132259804.002        2418.918          37.000    25168202.478   103059593.403        1885.194          36.000  
R11  24619124.525   131557215.461        3289.884          37.000    24619133.128                        2558.307          30.000  
R09  21750797.818   116148065.490       -2922.721          52.000    21750796.224    90337480.868       -2273.278          50.000  
R10  21173829.305   112868465.233         638.742          47.000                                                                  
R21  23454486.718   125509809.701        2213.998          49.000    23454486.202    97618794.572        1721.879          45.000  
R20  21159851.690   113151315.807       -1334.092          41.000    21159852.287    88006642.318       -1037.438          45.000  
G29  22940503.982   120553242.621       -1802.772          49.000    22940500.482    93937640.638       -1404.842          45.000  
S33  41544013.693   218315310.173        -679.931          43.000  
S31  40590089.180   213302422.294        -679.821          44.000  
G28  23206480.798   121950906.605       -1530.464          46.000    23206480.210    95026659.873       -1192.698          47.000  
R19  24560911.194   131384682.171       -4504.193          39.000    24560907.111   102187817.956       -3503.285          45.000  
G12  25368919.126   133314525.157       -3152.546          46.000    25368917.980   103881430.462       -2456.692          41.000  
E33  25234794.659   132609814.564       -1068.136          50.000    25234793.825   101610169.635        -818.423          49.000  
E31  25251245.218   132696334.057          -6.064          48.000    25251249.248   101676486.928          -4.654          52.000  
G20  26066719.512   136981534.961       -2172.510          32.000                                                                  
G31  24101205.768   126652617.793         818.992          46.000    24101203.751    98690490.788         637.984          44.000  
E14  24850256.815   130589151.458       -4174.507          47.000    24850259.159   100061792.802       -3198.587          52.000  
E26  27963209.980   146948033.903       -3167.225          45.000    27963208.378   112596745.070       -2426.856          49.000  
E24  28230766.308   148353705.775        1591.066          40.000    28230769.384   113673636.385        1219.221          47.000  
G05  25361666.205   133276680.693        -155.199          41.000    25361663.018   103852029.881        -121.101          37.000  
E12  26957782.569   141664171.194        1650.026          44.000    26957783.741   108547942.526        1264.368          49.000  
E10  28820084.776   151450655.332        2232.193          42.000    28820093.461   116046776.594        1710.488          47.000  
> 2024 04 16 04 11 00.0060000  0 23                     
G25  22805018.580   119841238.750       -2037.361          48.000    22805019.275    93382804.815       -1587.534          47.000  
G18  22733039.968   119462949.733        1334.009          47.000    22733038.163    93087977.290        1039.539          47.000  
G26  25154392.739   132187242.782        2418.427          38.000    25154394.209   103003052.250        1884.422          37.000  
R11  24600666.916   131458570.655        3286.433          36.000    24600742.593                3       2553.145          22.000  
R09  21767271.875   116236038.493       -2942.365          52.000    21767270.681    90405904.295       -2288.430          50.000  
R10  21170292.035   112849609.242         617.790          47.000                                                                  
R21  23442112.366   125443597.442        2199.941          48.000    23442112.131    97567296.292        1711.077          45.000  
R20  21167387.522   113191620.022       -1353.180          40.000    21167389.406    88037990.010       -1052.348          45.000  
G29  22950809.521   120607402.562       -1808.140          48.000    22950807.052    93979843.201       -1408.918          45.000  
S33  41547894.092   218335702.735        -679.749          43.000  
S31  40593967.907   213322804.574        -679.287          44.000  
G28  23215270.290   121997094.766       -1548.835          47.000    23215269.018    95062650.639       -1206.896          47.000  
R19  24586173.893   131519819.052       -4505.182          40.000    24586169.211   102292924.464       -3503.750          44.000  
G12  25386937.457   133409212.827       -3160.244          46.000    25386936.446   103955212.900       -2462.570          42.000  
E33  25240927.899   132642046.683       -1080.830          49.000    25240927.857   101634866.981        -828.195          50.000  
E31  25251298.708   132696610.689         -12.542          48.000    25251301.911   101676698.837          -9.595          52.000  
G31  24096579.816   126628309.454         801.603          47.000    24096577.771    98671549.265         624.644          44.000  
E14  24874080.498   130714345.167       -4172.014          47.000    24874082.701   100157720.448       -3196.681          52.000  
E26  27981305.355   147043125.991       -3172.550          45.000    27981303.819   112669607.823       -2430.874          49.000  
E24  28221682.172   148305965.666        1591.362          39.000    28221684.311   113637056.316        1219.425          46.000  
G05  25362597.941   133281571.439        -170.986          43.000    25362593.789   103855840.854        -133.369          38.000  
E12  26948386.615   141614794.546        1641.527          44.000    26948387.530   108510108.559        1257.854          48.000  
E10  28807352.157   151383749.114        2228.079          41.000    28807361.402   115995511.111        1707.127          46.000  
> 2024 04 16 04 11 30.0060000  0 24                     
G25  22816683.252   119902537.038       -2049.403          47.000    22816684.007    93430569.670       -1596.933          47.000  
G18  22725470.324   119423170.185        1317.670          45.000    22725468.131    93056980.488        1026.672          43.000  
G26  25140592.674   132114720.450        2416.886          37.000    25140593.873   102946541.355        1883.275          38.000  
R11  24582224.563   131360020.356        3283.437          35.000    24582275.115                3       2555.250          22.000  
R09  21783855.804   116324593.808       -2961.658          52.000    21783854.789    90474780.610       -2303.522          50.000  
R10  21166873.131   112831380.540         596.999          47.000                                                                  
R21  23429817.793   125377802.415        2186.204          47.000    23429816.761    97516122.583        1700.084          45.000  
R20  21175032.240   113232496.794       -1372.070          41.000    21175033.262    88069782.987       -1067.279          44.000  
G29  22961144.921   120661717.450       -1813.208          48.000    22961142.930    94022166.502       -1412.850          45.000  
S33  41551772.156   218356081.123        -679.218          43.000  
S31  40597843.543   213343171.772        -678.788          44.000  
G28  23224164.395   122043829.458       -1567.036          48.000    23224162.965    95099067.266       -1221.051          48.000  
G20  26091713.892                1      -2204.854          31.000                                                                  
R19  24611440.824   131654978.128       -4505.655          41.000    24611436.141   102398048.235       -3504.584          44.000  
G12  25404998.454   133504125.463       -3167.593          46.000    25404998.346   104029170.641       -2468.122          41.000  
E33  25247133.245   132674657.395       -1093.352          49.000    25247133.879   101659854.411        -837.771          51.000  
E31  25251387.942   132697078.850         -18.833          48.000    25251391.037   101677057.615         -14.451          52.000  
G31  24092053.908   126604519.963         784.078          48.000    24092050.737    98653011.958         611.143          45.000  
E14  24897888.891   130839459.732       -4169.274          47.000    24897890.924   100253587.448       -3194.461          52.000  
E26  27999429.219   147138370.991       -3177.479          43.000    27999427.177   112742587.798       -2434.631          47.000  
E24  28212596.533   148258219.893        1591.639          41.000    28212598.354   113600471.959        1219.593          46.000  
G05  25363617.283   133286929.442        -186.680          43.000    25363612.700   103860016.001        -145.221          37.000  
E12  26939038.313   141565675.770        1632.980          44.000    26939040.557   108472472.228        1251.255          49.000  
E10  28794643.298   151316969.564        2223.784          41.000    28794653.608   115944342.649        1704.011          46.000  
> 2024 04 16 04 12 00.0060000  0 24                     
G25  22828419.597   119964208.771       -2062.062          48.000    22828419.585    93478625.527       -1606.779          46.000  
G18  22717994.941   119383886.981        1300.964          48.000    22717993.209    93026370.069        1013.806          48.000  
G26  25126801.328   132042245.272        2415.331          38.000    25126802.480   102890067.190        1881.900          38.000  
R11  24563804.333   131261574.458        3279.469          36.000    24563840.356                1       2550.510          25.000  
R09  21800550.298   116413736.367       -2981.421          53.000    21800548.606    90544113.670       -2318.787          51.000  
R10  21163572.701   112813788.912         575.572          47.000                                                                  
R21  23417603.311   125312432.341        2171.713          49.000    23417600.203    97465279.371        1689.051          45.000  
R20  21182784.990   113273949.561       -1391.473          42.000    21182785.037    88102023.910       -1082.094          44.000  
G29  22971511.578   120716192.278       -1818.756          49.000    22971509.316    94064614.444       -1417.198          45.000  
S33  41555648.222   218376450.410        -679.004          43.000  
S31  40601717.943   213363531.484        -678.717          44.000  
G28  23233162.629   122091115.843       -1585.776          47.000    23233161.214    95135913.803       -1235.522          47.000  
G20  26104341.852                       -2219.893          30.000                                                                  
R19  24636711.666   131790162.635       -4506.684          42.000    24636707.719   102503191.817       -3505.302          43.000  
G12  25423104.527   133599268.673       -3175.373          47.000    25423102.631   104103308.210       -2474.614          38.000  
E33  25253412.043   132707652.134       -1106.309          49.000    25253412.681   101685136.087        -847.771          51.000  
E31  25251514.424   132697745.660         -25.676          48.000    25251517.822   101677568.534         -19.745          52.000  
G31  24087627.296   126581257.266         766.391          46.000    24087624.020    98634885.181         597.126          44.000  
E14  24921682.994   130964499.077       -4166.900          47.000    24921685.042   100349396.831       -3192.790          52.000  
E26  28017583.341   147233773.497       -3183.002          43.000    28017582.429   112815688.445       -2438.865          48.000  
E24  28203511.636   148210475.558        1591.483          39.000    28203512.728   113563888.667        1219.213          43.000  
G05  25364726.855   133292762.621        -202.627          42.000    25364723.121   103864561.378        -158.029          38.000  
E12  26929741.640   141516822.218        1623.797          43.000    26929743.816   108435039.175        1244.237          49.000  
E10  28781960.245   151250324.364        2218.909          41.000    28781971.178   115893277.155        1700.190          46.000  
> 2024 04 16 04 12 30.0060000  0 24                     
G25  22840226.624   120026256.148       -2074.766          47.000    22840227.105    93526974.077       -1616.613          47.000  
G18  22710615.181   119345104.907        1284.308          48.000    22710613.115    92996150.416        1000.696          48.000  
G26  25113019.370   131969821.111        2412.829          39.000    25113021.010   102833632.783        1880.411          38.000  
R11  24545400.445   131163238.113        3276.008          36.000    24545405.452   102015911.1841       2548.029          34.000  
R09  21817353.341   116503467.064       -3000.958          53.000    21817352.135    90613904.179       -2333.956          51.000  
R10  21160393.489   112796838.842         554.149          47.000                                                                  
R21  23405466.002   125247490.432        2157.495          48.000    23405463.536    97414769.122        1678.159          45.000  
R20  21190645.088   113315978.597       -1410.548          42.000    21190645.116    88134713.132       -1097.122          44.000  
G29  22981908.475   120770828.117       -1823.963          49.000    22981906.048    94107187.865       -1421.374          45.000  
S33  41559522.923   218396813.400        -678.688          43.000  
S31  40605590.715   213383883.766        -678.317          44.000  
G28  23242265.449   122138954.562       -1603.826          47.000    23242264.427    95173190.762       -1249.764          46.000  
G20  26117060.824   137246107.2381      -2237.020          33.000                                                                  
R19  24661987.474   131925371.949       -4507.500          41.000    24661984.166   102608354.625       -3505.706          44.000  
G12  25441254.386   133694643.780       -3183.254          47.000    25441252.505   104177626.353       -2480.550          39.000  
E33  25259763.681   132741032.021       -1119.220          48.000    25259764.808   101710712.861        -857.552          51.000  
E31  25251679.774   132698614.528         -32.428          48.000    25251683.017   101678234.307         -24.863          51.000  
G31  24083301.045   126558524.889         748.785          46.000    24083298.630    98617171.648         583.387          44.000  
E14  24945462.934   131089462.837       -4164.221          47.000    24945464.937   100445148.288       -3190.760          52.000  
E26  28035767.365   147329333.783       -3187.984          42.000    28035766.999   112888909.997       -2442.940          48.000  
E24  28194427.728   148162736.008        1591.042          40.000    28194428.035   113527309.066        1219.162          43.000  
G05  25365927.420   133299073.915        -218.526          41.000    25365924.527   103869479.258        -170.167          39.000  
E12  26920496.100   141468236.948        1614.943          44.000    26920498.100   108397811.701        1237.371          49.000  
E10  28769304.659   151183816.891        2214.526          40.000    28769314.978   115842317.176        1696.845          45.000  
> 2024 04 16 04 13 00.0060000  0 24                     
G25  22852104.014   120088672.453       -2087.026          47.000    22852104.364    93575610.100       -1626.170          46.000  
G18  22703328.306   119306817.660        1267.731          44.000    22703327.025    92966316.383         987.701          44.000  
G26  25099247.727   131897442.728        2411.724          40.000    25099247.701   102777234.074        1879.014          38.000  
R11  24527016.936   131065008.027        3272.066          36.000    24527028.660   101939509.937        2545.668          34.000  
R09  21834265.441   116593777.165       -3020.175          52.000    21834264.148    90684145.360       -2349.084          50.000  
R10  21157332.878   112780525.749         533.011          46.000                                                                  
R21  23393408.320   125182970.989        2143.561          47.000    23393406.833    97364587.439        1667.106          45.000  
R20  21198610.855   113358574.734       -1429.333          43.000    21198610.910    88167843.403       -1111.867          46.000  
G29  22992334.778   120825617.104       -1829.007          48.000    22992331.194    94149880.597       -1425.222          44.000  
S33  41563395.750   218417163.928        -678.434          43.000  
S31  40609461.217   213404223.444        -678.273          44.000  
G28  23251473.239   122187337.405       -1622.079          47.000    23251471.086    95210891.712       -1263.965          47.000  
G20  26129876.174   137313446.981       -2252.560          32.000                                                                  
R19  24687266.355   132060595.883       -4507.744          40.000    24687261.942   102713528.905       -3506.367          42.000  
G12  25459445.641   133790243.639       -3190.725          46.000    25459445.818   104252119.654       -2485.930          41.000  
E33  25266187.253   132774789.150       -1131.734          48.000    25266188.429   101736578.712        -867.174          51.000  
E31  25251881.845   132699679.499         -38.958          47.000    25251885.475   101679050.340         -29.893          51.000  
G31  24079074.731   126536317.255         731.320          46.000    24079072.856    98599867.018         569.935          44.000  
E14  24969226.744   131214341.655       -4161.392          48.000    24969228.927   100540834.652       -3188.720          52.000  
E26  28053979.411   147425043.082       -3193.060          41.000    28053979.955   112962245.687       -2446.523          49.000  
E24  28185341.955   148114995.120        1591.042          41.000    28185343.357   113490728.494        1219.227          46.000  
G05  25367217.568   133305857.129        -234.261          41.000    25367215.115   103874764.949        -182.427          38.000  
E12  26911300.167   141419913.994        1606.189          44.000    26911302.325   108360785.244        1230.661          49.000  
E10  28756674.278   151117441.535        2210.034          41.000    28756683.128   115791458.434        1693.528          43.000  
> 2024 04 16 04 13 30.0060000  0 24                     
G25  22864051.969   120151460.959       -2099.555          46.000    22864052.613    93624536.148       -1635.892          46.000  
G18  22696138.412   119269029.540        1250.861          46.000    22696136.780    92936871.055         974.555          46.000  
G26  25085484.570   131825115.048        2409.702          41.000    25085484.129   102720874.796        1877.463          38.000  
R11  24508652.879   130966890.448        3268.128          36.000    24508664.544                        2541.648          32.000  
R09  21851286.010   116684668.239       -3039.715          52.000    21851284.507    90754838.454       -2364.296          49.000  
R10  21154392.872   112764855.940         511.289          46.000                                                                  
R21  23381430.066   125118878.420        2129.056          47.000    23381430.164    97314737.842        1655.917          45.000  
R20  21206682.458   113401737.935       -1448.419          42.000    21206683.468    88201414.836       -1126.773          46.000  
G29  23002790.710   120880561.060       -1834.408          48.000    23002785.783    94192694.072       -1429.464          44.000  
S33  41567265.987   218437502.507        -678.251          43.000  
S31  40613329.799   213424553.322        -677.913          44.000  
G28  23260784.327   122236266.026       -1640.456          48.000    23260781.836    95249017.970       -1278.271          48.000  
G20  26142777.962   137381267.096       -2268.608          36.000                                                                  
R19  24712547.717   132195834.583       -4508.559          40.000    24712542.927   102818714.559       -3506.494          40.000  
G12  25477680.553   133886069.948       -3198.391          48.000    25477682.135   104326789.476       -2492.201          44.000  
E33  25272682.620   132808925.699       -1144.587          48.000    25272684.332   101762735.280        -876.983          51.000  
E31  25252123.018   132700944.844         -45.856          48.000    25252125.987   101680019.878         -35.144          51.000  
G31  24074949.596   126514639.021         713.282          46.000    24074947.089    98582974.902         555.892          44.000  
E14  24992974.870   131339136.258       -4158.717          48.000    24992976.558   100636456.484       -3186.627          53.000  
E26  28072222.418   147520902.731       -3198.049          43.000    28072221.578   113035696.635       -2450.513          49.000  
E24  28176257.673   148067256.893        1590.841          40.000    28176259.011   113454149.994        1218.964          45.000  
G05  25368599.456   133313116.631        -250.048          41.000    25368595.247   103880421.762        -195.119          37.000  
E12  26902155.101   141371857.531        1597.138          43.000    26902157.326   108323962.943        1223.715          48.000  
E10  28744070.034   151051202.789        2205.421          41.000    28744077.707   115740704.322        1689.833          43.000  
> 2024 04 16 04 14 00.0060000  0 24                     
G25  22876072.186   120214625.879       -2111.542          47.000    22876073.083    93673755.503       -1645.380          47.000  
G18  22689043.688   119231746.441        1234.290          49.000    22689042.704    92907819.370         961.798          49.000  
G26  25071732.837   131752844.031        2408.023          41.000    25071731.259   102664559.738        1876.367          38.000  
R11  24490312.042   130868893.033        3264.733          36.000    24490317.047   101786976.060        2539.210          34.000  
R09  21868415.857   116776142.872       -3058.877          52.000    21868414.180    90825985.538       -2379.028          50.000  
R10  21151574.237   112749836.173         489.771          46.000                                                                  
R21  23369533.745   125055218.190        2114.805          49.000    23369532.963    97265224.439        1644.945          44.000  
R20  21214859.563   113445468.917       -1467.075          42.000    21214861.454    88235427.827       -1141.131          46.000  
G29  23013275.863   120935662.959       -1839.422          48.000    23013271.480    94235630.625       -1433.222          44.000  
S33  41571135.502   218457836.429        -677.538          43.000  
S31  40617196.952   213444875.314        -677.576          44.000  
G28  23270199.223   122285742.802       -1658.262          47.000    23270196.492    95287571.290       -1292.185          47.000  
G20  26155775.796   137449570.520       -2285.023          36.000                                                                  
R19  24737831.978   132331089.124       -4508.769          40.000    24737827.851   102923912.605       -3506.707          42.000  
G12  25495959.631   133982127.492       -3205.725          45.000    25495960.225   104401639.389       -2497.949          41.000  
E33  25279251.429   132843444.676       -1157.012          48.000    25279252.877   101789184.878        -886.531          51.000  
E31  25252403.220   132702415.667         -52.395          47.000    25252405.823   101681146.886         -40.171          50.000  
G31  24070925.917   126493495.461         695.840          47.000    24070923.114    98566499.422         542.433          44.000  
E14  25016707.025   131463848.299       -4155.656          48.000    25016708.560   100732015.061       -3184.224          53.000  
E26  28090492.014   147616914.945       -3202.825          42.000    28090492.348   113109264.437       -2454.229          49.000  
E24  28167174.156   148019526.254        1591.119          40.000    28167176.036   113417577.271        1218.988          45.000  
G05  25370073.373   133320858.903        -266.194          43.000    25370068.846   103886454.688        -207.430          38.000  
E12  26893061.700   141324072.548        1588.439          44.000    26893064.075   108287348.664        1217.019          49.000  
E10  28731492.402   150985105.943        2200.750          40.000    28731499.659   115690058.945        1686.292          43.000  
> 2024 04 16 04 14 30.0060000  0 24                     
G25  22888163.569   120278165.654       -2124.354          47.000    22888163.956    93723266.961       -1655.349          47.000  
G18  22682044.685   119194967.718        1217.609          46.000    22682043.801    92879160.702         948.700          45.000  
G26  25057991.177   131680629.745        2406.276          42.000    25057989.268   102608288.882        1874.853          39.000  
R11  24471997.704   130771018.097        3260.434          36.000    24471996.413   101710851.054        2536.414          33.000  
R09  21885655.767   116868197.339       -3078.134          53.000    21885653.081    90897583.476       -2394.055          50.000  
R10  21148878.348   112735467.178         468.143          45.000                                                                  
R21  23357718.191   124991989.391        2100.382          49.000    23357716.010    97216046.550        1633.552          41.000  
R20  21223143.627   113489764.564       -1485.913          43.000    21223144.279    88269880.012       -1155.860          46.000  
G29  23023790.557   120990920.351       -1844.435          48.000    23023787.571    94278688.355       -1437.335          45.000  
S33  41575003.361   218478161.478        -677.534          42.000  
S31  40621062.973   213465190.488        -676.897          44.000  
G28  23279717.739   122335764.492       -1676.437          47.000    23279714.897    95326549.106       -1306.217          46.000  
G20  26168865.054   137518354.164       -2300.726          38.000                                                                  
R19  24763118.587   132466355.036       -4508.710          40.000    24763114.988   103029119.482       -3506.834          41.000  
G12  25514282.729   134078413.884       -3213.269          44.000    25514281.657   104476667.622       -2503.723          39.000  
E33  25285893.384   132878343.403       -1169.607          49.000    25285893.701   101815925.447        -896.136          51.000  
E31  25252722.155   132704091.458         -59.220          47.000    25252724.437   101682430.957         -45.430          50.000  
G31  24067004.563   126472886.148         678.129          47.000    24067001.893    98550440.302         528.377          45.000  
E14  25040422.447   131588473.767       -4152.705          48.000    25040423.785   100827507.322       -3182.020          52.000  
E26  28108791.160   147713076.228       -3207.835          43.000    28108790.844   113182946.488       -2457.939          48.000  
E24  28158092.152   147971802.658        1590.840          40.000    28158094.701   113381009.954        1218.903          45.000  
G05  25371637.537   133329082.142        -282.198          43.000    25371632.196   103892862.441        -219.657          37.000  
E12  26884019.769   141276558.287        1579.277          43.000    26884022.151   108250941.713        1210.073          48.000  
E10  28718942.240   150919150.619        2196.056          41.000    28718949.314   115639522.051        1682.544          43.000  
