     3.00           OBSERVATION DATA    M: Mixed            RINEX VERSION / TYPE
CONVBIN 2.4.3                           20240416 111442 UTC PGM / RUN BY / DATE 
format: u-blox UBX                                          COMMENT             
log: /home/regis/git/gnsspwv/obsdata/VERT00CHL/2024-04-16/VECOMMENT             
{self.marker}                                               MARKER NAME         
                                                            MARKER NUMBER       
GEODETIC                                                    MARKER TYPE         
{self.observer}     {self.institution}                      OBSERVER / AGENCY   
UNKNOWN             UBLOX-ZED-F9P                           REC # / TYPE / VERS 
UNKNOWN             TWIVSP6037L                             ANT # / TYPE        
  1713381.0000 -5047934.0000 -3490983.0000                  APPROX POSITION XYZ 
        0.0000        0.0000        0.0000                  ANTENNA: DELTA H/E/N
G    8 C1C L1C D1C S1C C2L L2L D2L S2L                      SYS / # / OBS TYPES 
R    8 C1C L1C D1C S1C C2C L2C D2C S2C                      SYS / # / OBS TYPES 
E    8 C1C L1C D1C S1C C7Q L7Q D7Q S7Q                      SYS / # / OBS TYPES 
S    4 C1C L1C D1C S1C                                      SYS / # / OBS TYPES 
  2024    04    16    11    00   00.4950000     GPS         TIME OF FIRST OBS   
  2024    04    16    11    14   30.4950000     GPS         TIME OF LAST OBS    
                                                            END OF HEADER       
> 2024 04 16 11 00 00.4950000  0 25                     
G02  19517898.873   102567297.4511       1413.791          46.000                                                                  
E02  25695264.604   135029496.1621      -2038.226          38.000    25695269.085   103464148.4671      -1561.711          43.000  
G03  20873056.063   109688682.5871       1269.943          45.000    20873056.457    85471661.7601        989.741          44.000  
R23  18044937.379    96528389.1341        -87.269          49.000                                                                  
R24  20320580.882   108663126.0231       2751.428          47.000    20320578.149    84515875.9931       2139.938          47.000  
R08  17967339.327    96214323.2621      -2242.622          51.000    17967332.856    74833413.1051      -1744.287          49.000  
G21  18680651.416    98167491.7761        971.315          48.000                                                                  
S33  38252195.956   201016727.7781       -618.620          42.000  
S31  37299344.729   196009476.3011       -618.823          44.000  
E36  23215530.669   121998450.2861        855.073          46.000    23215532.898    93479402.0801        655.194          52.000  
G10  22982631.608   120774656.6431      -3739.297          43.000    22982632.128    94110102.4431      -2913.688          35.000  
E11  21518114.335   113078480.4871       -895.507          45.000    21518111.543    86644610.4741       -686.076          49.000  
R01  18854613.412   100788893.9641       2051.198          49.000    18854613.701    78391212.8591       1595.376          45.000  
R22  20143571.946   107527833.8301      -3239.673          49.000    20143570.666    83632800.7941      -2519.653          49.000  
R07  21260166.282   113807330.8791      -4689.762          51.000    21260164.073    88516875.5911      -3647.461          46.000  
G27  20897424.793   109816707.6001      -3967.718          47.000    20897424.683    85571460.8981      -3091.694          46.000  
G08  19085634.858   100295759.3061      -2312.587          49.000    19085633.637    78152561.5251      -1802.059          46.000  
E04  23099671.568   121389643.6291      -1397.273          48.000    23099671.958    93012876.3161      -1070.579          49.000  
G28  23226898.756   122058154.1891       1465.456          44.000    23226898.272    95110260.9961       1141.992          42.000  
E25  26085389.721   137079713.2881      -3073.556          32.000    26085396.704   105035042.6191      -2355.290          35.000  
E09  22772839.543   119672141.9311       1246.104          46.000    22772842.245    91696813.9581        954.803          53.000  
E05  24720068.481   129904819.1961       2469.370          41.000    24720071.314    99537485.6751       1892.106          42.000  
G32  20769046.273   109142119.8391      -2786.084          45.000    20769044.422    85045841.2901      -2171.017          46.000  
E12  25961205.003   136427106.8891      -2378.937          39.000    25961207.444   104535121.7571      -1822.663          41.000  
E10  23946665.498   125840758.5061      -1833.621          46.000    23946667.731    96423634.0311      -1404.898          48.000  
> 2024 04 16 11 00 30.4950000  0 25                     
G02  19509849.728   102524998.889        1405.790          47.000                                                                  
E02  25706927.604   135090779.220       -2047.361          37.000    25706930.989   103511105.500       -1568.934          41.000  
G03  20865829.668   109650706.339        1261.690          44.000    20865829.551    85442069.820         982.966          43.000  
R23  18045474.309    96531257.962        -104.241          50.000                                                                  
R24  20305154.099   108580628.733        2748.096          48.000    20305150.552    84451711.468        2137.487          47.000  
R08  17979964.390    96281928.131       -2264.371          50.000    17979958.686    74885994.655       -1761.281          50.000  
G21  18675137.602    98138514.785         960.320          48.000                                                                  
S33  38255726.207   201035279.498        -618.631          42.000  
S31  37302877.607   196028043.382        -619.116          44.000  
E36  23210652.713   121972815.163         853.643          46.000    23210654.811    93459759.549         654.139          52.000  
G10  23003971.295   120886797.295       -3737.179          43.000    23003973.200    94197484.374       -2911.832          37.000  
E11  21523239.830   113105415.325        -900.383          45.000    21523237.232    86665248.758        -689.720          49.000  
R01  18843154.663   100727639.401        2032.181          50.000    18843154.901    78343570.383        1580.708          45.000  
R22  20161816.261   107625220.165       -3253.089          50.000    20161814.751    83708545.497       -2530.073          49.000  
R07  21286461.436   113948087.993       -4694.375          51.000    21286458.479    88626353.127       -3651.257          46.000  
G27  20920102.299   109935876.943       -3977.253          48.000    20920102.389    85664319.988       -3099.144          46.000  
G08  19098888.573   100365411.250       -2331.099          49.000    19098887.855    78206835.716       -1816.383          46.000  
E04  23107685.390   121431757.460       -1410.538          48.000    23107686.171    93045145.286       -1080.901          49.000  
G28  23218547.464   122014267.456        1460.044          45.000    23218547.286    95076063.480        1137.684          43.000  
E25  26102938.702   137171909.638       -3072.795          35.000    26102941.064   105105686.526       -2354.790          34.000  
E09  22765757.684   119634925.451        1234.800          47.000    22765760.364    91668297.431         946.126          53.000  
E05  24705973.597   129830747.932        2468.576          41.000    24705976.027    99480729.755        1891.514          42.000  
G32  20784997.732   109225949.503       -2802.698          45.000    20784997.238    85111162.968       -2183.948          46.000  
E12  25974796.553   136498528.858       -2382.748          40.000    25974798.792   104589847.375       -1825.874          41.000  
E10  23957146.477   125895837.623       -1838.522          46.000    23957149.104    96465837.359       -1408.670          48.000  
> 2024 04 16 11 01 00.4950000  0 25                     
G02  19501846.667   102482941.269        1398.015          47.000                                                                  
E02  25718643.354   135152337.697       -2056.721          36.000    25718645.052   103558273.588       -1575.865          39.000  
G03  20858649.760   109612979.984        1253.417          45.000    20858650.960    85412672.623         976.666          44.000  
R23  18046105.899    96534635.512        -121.021          50.000                                                                  
R24  20289745.451   108498230.431        2744.840          50.000    20289741.690    84387623.887        2134.771          47.000  
R08  17992711.540    96350187.354       -2286.167          50.000    17992705.957    74939085.121       -1778.248          50.000  
G21  18669686.856    98109869.676         949.193          49.000                                                                  
S33  38259256.801   201053832.595        -618.417          42.000  
S31  37306411.498   196046612.563        -619.177          44.000  
E36  23205781.580   121947218.455         852.565          47.000    23205784.013    93440146.464         653.282          52.000  
G10  23025301.035   120998881.759       -3735.162          42.000    23025303.250    94284822.506       -2910.945          37.000  
E11  21528392.407   113132496.540        -905.024          45.000    21528390.661    86685999.223        -693.451          49.000  
R01  18831802.918   100666953.883        2013.473          50.000    18831802.199    78296370.483        1565.972          45.000  
R22  20180133.914   107723007.038       -3266.084          49.000    20180133.083    83784601.779       -2540.285          48.000  
R07  21312782.095   114088984.674       -4698.827          50.000    21312779.414    88735939.210       -3654.750          44.000  
G27  20942833.699   110055332.122       -3986.458          47.000    20942833.876    85757401.838       -3106.344          45.000  
G08  19112248.371   100435614.688       -2349.422          49.000    19112247.177    78261539.586       -1830.634          46.000  
E04  23115777.083   121474272.195       -1423.858          48.000    23115776.482    93077721.403       -1091.082          49.000  
G28  23210226.863   121970544.415        1454.584          44.000    23210226.771    95041993.474        1133.552          43.000  
E25  26120475.962   137264074.077       -3071.568          34.000    26120479.996   105176305.959       -2353.438          31.000  
E09  22758739.539   119598044.040        1223.661          47.000    22758741.850    91640037.640         937.605          53.000  
E05  24691882.100   129756696.931        2468.101          42.000    24691884.519    99423989.406        1890.966          43.000  
G32  20801045.092   109310276.638       -2819.216          47.000    20801044.938    85176872.299       -2196.818          46.000  
E12  25988410.550   136570071.033       -2386.708          40.000    25988413.197   104644665.128       -1828.931          41.000  
E10  23967655.341   125951064.085       -1843.391          46.000    23967657.934    96508153.598       -1412.538          47.000  
> 2024 04 16 11 01 30.4950000  0 27                     
G02  19493889.737   102441124.463        1389.966          47.000                                                                  
E02  25730409.190   135214167.543       -2065.212          34.000    25730410.572   103605649.637       -1582.394          36.000  
G03  20851518.175   109575501.137        1245.502          46.000    20851519.558    85383468.315         970.454          45.000  
R23  18046832.202    96538521.410        -137.917          50.000                                                                  
R24  20274354.986   108415931.733        2741.600          50.000    20274351.501    84323613.756        2132.497          46.000  
R08  18005579.409    96419095.264       -2307.619          50.000    18005573.640    74992680.112       -1794.834          49.000  
G21  18664299.215    98081556.423         938.420          49.000                                                                  
S33  38262787.629   201072385.652        -618.326          42.000  
S31  37309945.249   196065181.856        -618.707          44.000  
E36  23200917.670   121921658.652         851.544          47.000    23200920.219    93420561.654         652.464          52.000  
G10  23046619.253   121110906.822       -3733.021          41.000    23046621.735    94372114.303       -2908.756          35.000  
E11  21533573.804   113159722.682        -909.836          45.000    21533571.654    86706860.709        -697.062          49.000  
R01  18820556.967   100606836.992        1994.484          50.000    18820555.937    78249612.824        1551.421          44.000  
R22  20198526.277   107821191.419       -3279.558          50.000    20198526.975    83860967.153       -2550.495          49.000  
R07  21339127.855   114230014.845       -4703.158          50.000    21339125.628    88845629.108       -3658.030          46.000  
G27  20965619.550   110175068.078       -3995.792          48.000    20965619.168    85850702.463       -3113.484          45.000  
G08  19125712.292   100506365.679       -2367.526          49.000    19125710.586    78316670.112       -1844.679          46.000  
E04  23123943.230   121517184.697       -1436.918          49.000    23123942.202    93110602.311       -1101.033          48.000  
G28  23201937.646   121926985.740        1449.194          43.000    23201938.437    95008051.586        1129.184          42.000  
E25  26138007.975   137356202.480       -3069.806          33.000    26138012.596   105246897.765       -2352.387          32.000  
E09  22751784.163   119561496.705        1212.805          47.000    22751786.927    91612033.815         929.361          53.000  
E05  24677793.601   129682665.564        2467.454          42.000    24677796.823    99367264.192        1890.804          44.000  
G32  20817186.028   109395096.604       -2835.340          48.000    20817186.072    85242965.667       -2209.341          46.000  
E12  26002047.224   136641731.466       -2390.560          41.000    26002050.641   104699573.426       -1831.548          43.000  
E10  23978193.013   126006436.228       -1847.981          46.000    23978195.108    96550581.471       -1416.038          47.000  
G04                                                                  23240137.560                3       2510.418          23.000  
R02                                                                  23117782.017                3       2959.156          10.000  
> 2024 04 16 11 02 00.4950000  0 26                     
G02  19485977.704   102399546.027        1381.842          47.000                                                                  
E02  25742222.456                       -2074.216          30.000    25742227.338   103653229.132       -1589.389          34.000  
G03  20844433.155   109538265.443        1237.035          47.000    20844433.139    85354453.460         964.070          43.000  
R23  18047653.212    96542913.907        -154.960          49.000                                                                  
R24  20258982.917   108333731.440        2738.289          49.000    20258979.365    84259680.216        2129.774          47.000  
R08  18018566.974    96488644.483       -2329.021          50.000    18018561.257    75046773.884       -1811.508          50.000  
G21  18658974.138    98053573.070         927.272          49.000                                                                  
S33  38266317.318   201090934.772        -618.317          42.000  
S31  37313477.900   196083746.702        -618.752          44.000  
E36  23196060.417   121896132.347         850.160          47.000    23196062.709    93401002.505         651.463          52.000  
G10  23067925.895   121222867.335       -3731.065          40.000    23067927.296    94459355.875       -2906.804          34.000  
E11  21538782.055   113187090.477        -914.871          45.000    21538779.767    86727830.730        -700.987          49.000  
R01  18809417.122   100547286.577        1975.450          50.000    18809415.423    78203295.836        1536.530          44.000  
R22  20216994.021   107919768.299       -3292.618          50.000    20216993.921    83937637.881       -2560.831          49.000  
R07  21365496.936   114371170.447       -4707.231          49.000    21365493.968    88955416.525       -3661.125          43.000  
G27  20988456.541   110295077.915       -4004.988          47.000    20988456.036    85944216.492       -3120.806          44.000  
G08  19139278.983   100577658.516       -2385.424          49.000    19139277.447    78372222.911       -1858.857          46.000  
E04  23132183.657   121560489.992       -1450.121          48.000    23132183.020    93143784.199       -1111.150          48.000  
G28  23193680.172   121883590.265        1443.789          43.000    23193680.474    94974236.859        1125.353          41.000  
E25  26155534.084                       -3069.286          30.000    26155536.266   105317457.202       -2351.534          33.000  
E09  22744892.103   119525280.518        1201.514          46.000    22744895.186    91584283.723         920.696          52.000  
E05  24663708.982   129608651.233        2466.893          42.000    24663712.742    99310552.094        1889.999          44.000  
G32  20833419.523   109480402.913       -2851.746          49.000    20833419.204    85309437.990       -2222.064          46.000  
E12  26015706.679   136713506.285       -2394.663          42.000    26015709.069   104754569.384       -1834.871          43.000  
E10  23988757.812   126061950.436       -1852.968          46.000    23988759.551    96593118.184       -1419.818          48.000  
G04                                                                  23221784.440                3       2513.334          22.000  
> 2024 04 16 11 02 30.4950000  0 27                     
G02  19478111.806   102358213.234        1373.560          48.000                                                                  
E02  25754085.497                       -2083.663          28.000    25754095.247   103701014.843       -1595.953          33.000  
G03  20837394.781   109501277.979        1228.807          46.000    20837394.173    85325632.042         957.572          43.000  
R23  18048570.483    96547820.702        -172.211          50.000                                                                  
R24  20243631.014   108251637.810        2734.563          49.000    20243627.519    84195829.617        2126.930          46.000  
R08  18031674.361    96558837.050       -2350.617          49.000    18031669.400    75101368.048       -1828.356          50.000  
G21  18653712.985    98025927.027         915.751          49.000                                                                  
S33  38269846.968   201109484.929        -618.590          42.000  
S31  37317010.960   196102312.431        -618.929          44.000  
E36  23191210.412   121870645.599         848.822          48.000    23191212.630    93381473.671         650.327          52.000  
G10  23089220.785   121334767.715       -3728.842          38.000    23089222.969    94546550.566       -2905.531          34.000  
E11  21544017.952   113214605.979        -919.805          45.000    21544015.695    86748913.941        -704.798          48.000  
R01  18798383.415   100488309.947        1956.162          49.000    18798382.683    78157425.124        1521.533          45.000  
R22  20235535.841   108018742.368       -3305.986          50.000    20235535.556    84014617.542       -2571.204          49.000  
R07  21391890.440   114512453.716       -4711.642          49.000    21391886.653    89065303.258       -3664.423          44.000  
G27  21011346.020   110415364.327       -4014.141          47.000    21011345.604    86037946.087       -3127.852          45.000  
G08  19152949.180   100649496.659       -2403.798          49.000    19152947.407    78428200.597       -1872.999          46.000  
E04  23140499.951   121604192.554       -1463.422          48.000    23140499.305    93177270.488       -1121.343          48.000  
G28  23185454.835   121840366.300        1437.962          43.000    23185455.228    94940555.816        1120.149          41.000  
E25  26173052.756                       -3068.129          28.000    26173051.266                       -2350.724          32.000  
E09  22738065.132   119489402.028        1190.231          46.000    22738067.795    91556792.380         911.941          53.000  
E05  24649628.898   129534660.715        2465.663          42.000    24649632.865    99253858.153        1889.420          45.000  
G32  20849746.523   109566198.448       -2868.035          49.000    20849746.552    85376291.532       -2234.866          46.000  
E12  26029386.926   136785401.154       -2398.542          41.000    26029390.181   104809657.351       -1837.964          43.000  
E10  23999348.553   126117612.565       -1857.986          45.000    23999351.745    96635768.241       -1423.601          48.000  
G04                                                                  23203418.057                3       2510.172          22.000  
R02                                                                  23081583.948                3       2931.786          13.000  
> 2024 04 16 11 03 00.4950000  0 26                     
G02  19470293.163   102317128.992        1365.143          47.000                                                                  
E02  25766006.196                       -2092.537          28.000    25766014.440   103749006.172       -1603.010          31.000  
G03  20830403.323   109464539.499        1220.357          46.000    20830402.823    85297004.653         951.028          43.000  
G04  23185059.345                1       3215.474          28.000    23185058.506                        2505.812          27.000  
R23  18049585.127    96553245.312        -189.632          49.000                                                                  
R24  20228299.307   108169654.730        2730.730          49.000    20228295.827    84132065.020        2123.770          45.000  
R08  18044902.919    96629671.075       -2371.862          50.000    18044897.565    75156461.121       -1844.732          50.000  
G21  18648516.985    97998621.709         904.352          49.000                                                                  
S33  38273377.534   201128036.782        -618.544          42.000  
S31  37320544.499   196120880.216        -619.146          44.000  
E36  23186367.844   121845200.118         847.314          47.000    23186370.342    93361976.463         649.244          52.000  
G10  23110501.652   121446607.976       -3727.079          32.000    23110506.173    94633698.476       -2905.378          33.000  
E11  21549282.098   113242271.099        -924.760          45.000    21549280.222    86770111.788        -708.574          48.000  
R01  18787458.852   100429909.885        1936.901          49.000    18787458.184    78112002.885        1506.512          45.000  
R22  20254152.069   108118113.924       -3319.127          51.000    20254151.356    84091906.276       -2581.516          48.000  
R07  21418307.524   114653861.721       -4715.790          49.000    21418303.647    89175286.984       -3667.917          44.000  
G27  21034287.870   110535925.491       -4023.339          46.000    21034288.136    86131889.728       -3135.050          46.000  
G08  19166723.009   100721879.434       -2421.924          49.000    19166722.238    78484602.647       -1887.089          46.000  
E04  23148892.070   121648292.499       -1476.872          49.000    23148891.261    93211061.273       -1131.595          48.000  
G28  23177263.314   121797317.809        1431.690          42.000    23177263.040    94907011.432        1115.591          40.000  
E25  26190559.857                       -3066.956          26.000    26190560.611   105458486.017       -2349.869          32.000  
E09  22731302.448   119453863.429        1178.665          47.000    22731305.386    91529561.470         903.226          53.000  
E05  24635553.686   129460696.452        2464.813          41.000    24635558.168    99197184.228        1888.724          45.000  
G32  20866166.477   109652481.811       -2884.377          50.000    20866165.249    85443525.203       -2247.651          46.000  
E12  26043091.087   136857417.343       -2402.677          41.000    26043095.435   104864838.236       -1840.888          44.000  
E10  24009970.393   126173424.198       -1863.158          45.000    24009972.306    96678532.846       -1427.484          48.000  
> 2024 04 16 11 03 30.4950000  0 26                     
G02  19462523.273   102276297.375        1356.689          47.000                                                                  
G03  20823459.773   109428052.059        1211.906          45.000    20823459.580    85268572.857         944.292          44.000  
G04  23166703.551                        3215.021          31.000    23166697.727                        2505.599          31.000  
R23  18050696.690    96559192.013        -207.118          49.000                                                                  
R24  20212989.548   108087787.262        2726.981          49.000    20212986.105    84068390.322        2120.933          45.000  
R08  18058250.279    96701145.224       -2393.181          50.000    18058245.144    75212052.074       -1861.383          50.000  
G21  18643385.970    97971661.583         892.824          48.000                                                                  
S33  38276908.307   201146592.738        -618.556          42.000  
S31  37324078.597   196139452.972        -619.149          44.000  
E36  23181534.020   121819798.959         846.011          47.000    23181536.629    93342513.206         648.218          52.000  
G10  23131769.731   121558389.537       -3725.294          28.000    23131777.214                       -2902.887          29.000  
E11  21554575.477   113270088.804        -929.658          45.000    21554573.894    86791426.549        -712.334          49.000  
R01  18776642.307   100372090.377        1917.400          50.000    18776641.629    78067032.148        1491.377          45.000  
R22  20272842.930   108217884.409       -3332.419          52.000    20272840.751    84169505.322       -2591.927          47.000  
R07  21444746.857   114795393.251       -4719.891          49.000    21444743.880    89285366.751       -3670.807          46.000  
G27  21057281.958   110656761.041       -4032.524          46.000    21057283.343    86226047.150       -3142.156          47.000  
G08  19180600.949   100794807.386       -2440.134          49.000    19180599.752    78541429.509       -1901.481          46.000  
E04  23157359.442   121692791.219       -1489.854          49.000    23157359.164    93245157.612       -1141.626          48.000  
G28  23169105.627   121754449.990        1425.995          40.000    23169105.909    94873607.852        1111.045          40.000  
E09  22724606.083   119418668.194        1167.393          47.000    22724608.195    91502593.660         894.469          53.000  
E05  24621485.144   129386762.480        2463.899          42.000    24621489.216    99140533.435        1887.820          45.000  
G32  20882678.482   109739252.842       -2900.582          50.000    20882677.384    85511138.862       -2260.194          46.000  
E12  26056820.499   136929557.427       -2406.766          42.000    26056824.276   104920114.066       -1844.272          45.000  
E10  24020621.114   126229388.207       -1868.067          46.000    24020622.319    96721414.212       -1431.314          48.000  
E25                                                                  26208060.874   105528954.758       -2348.232          31.000  
E02                                                                  25777984.279   103797203.553       -1610.336          31.000  
> 2024 04 16 11 04 00.4950000  0 26                     
G02  19454801.581   102235718.317        1348.279          47.000                                                                  
G03  20816563.438   109391812.848        1203.909          45.000    20816563.593    85240334.506         938.029          44.000  
G04  23148349.835   121645377.9011       3214.833          34.000    23148348.836    94788587.7191       2505.327          35.000  
R23  18051905.541    96565660.754        -224.316          49.000                                                                  
R24  20197701.881   108006035.934        2722.993          49.000    20197697.923    84004805.910        2117.883          46.000  
R08  18071716.856    96773253.982       -2414.309          50.000    18071711.181    75268136.593       -1877.693          50.000  
G21  18638321.236    97945046.109         881.399          48.000                                                                  
S33  38280440.094   201165151.307        -618.563          42.000  
S31  37327613.286   196158026.644        -619.292          44.000  
E36  23176708.142   121794440.414         844.612          47.000    23176711.102    93323082.600         647.170          51.000  
G10  23153030.676                       -3723.017          32.000    23153034.480                3      -2899.983          24.000  
E11  21559897.883   113298057.518        -934.516          45.000    21559896.313    86812857.028        -716.150          49.000  
R01  18765934.842   100314850.680        1898.255          50.000    18765933.673    78022512.363        1476.380          45.000  
R22  20291607.194   108318050.528       -3345.553          52.000    20291607.333    84247412.091       -2602.039          50.000  
R07  21471208.185   114937042.197       -4723.682          49.000    21471206.518    89395537.867       -3673.932          46.000  
G27  21080328.026   110777865.786       -4041.151          46.000    21080328.315    86320414.325       -3148.946          44.000  
G08  19194582.130   100868276.276       -2458.075          49.000    19194580.202    78598677.889       -1915.460          46.000  
E04  23165902.635   121737685.347       -1502.834          49.000    23165902.530    93279556.919       -1151.610          48.000  
G28  23160982.416   121711763.300        1419.733          39.000    23160982.997    94840345.381        1106.396          41.000  
E09  22717973.532   119383815.001        1156.224          47.000    22717975.993    91475887.949         885.870          54.000  
E05  24607422.048   129312858.019        2462.912          42.000    24607425.885    99083905.235        1887.224          46.000  
G32  20899282.142   109826506.616       -2916.561          49.000    20899281.368    85579128.691       -2272.575          45.000  
E12  26070571.548   137001819.246       -2410.698          42.000    26070575.068   104975483.153       -1847.136          44.000  
E10  24031297.312   126285502.591       -1872.899          44.000    24031300.984    96764410.801       -1435.009          49.000  
E25                                                                  26225554.506                       -2347.928          29.000  
E02                                                                  25790004.218                       -1616.958          30.000  
> 2024 04 16 11 04 30.4950000  0 27                     
G02  19447128.715   102195395.754        1339.868          47.000                                                                  
G03  20809715.006   109355824.195        1195.415          46.000    20809716.392    85212291.382         931.430          45.000  
G04  23129996.736   121548937.327        3214.277          37.000    23129996.776    94713439.059        2505.077          37.000  
R23  18053213.131    96572656.252        -241.940          50.000                                                                  
R24  20182437.483   107924405.990        2719.066          49.000    20182432.512    83941315.922        2114.694          46.000  
R08  18085300.492    96845996.250       -2435.265          50.000    18085295.547    75324713.851       -1894.105          50.000  
G21  18633323.075    97918780.182         869.647          48.000                                                                  
S33  38283972.351   201183713.319        -618.936          42.000  
S31  37331148.528   196176605.467        -619.478          44.000  
E36  23171891.057   121769127.659         842.877          47.000    23171894.208    93303687.077         645.847          51.000  
G10  23174282.489   121781768.025       -3720.858          37.000    23174268.111                3      -2896.910          18.000  
E11  21565250.203   113326180.553        -940.297          45.000    21565247.967    86834405.725        -720.356          49.000  
R01  18755335.500   100258195.143        1878.804          50.000    18755335.171    77978446.933        1461.175          44.000  
R22  20310446.933   108418613.862       -3358.631          52.000    20310446.235    84325627.806       -2612.395          49.000  
R07  21497691.181   115078807.566       -4727.401          47.000    21497689.997    89505799.544       -3676.970          46.000  
G27  21103424.615   110899239.455       -4050.287          46.000    21103423.326    86414991.136       -3156.152          43.000  
G08  19208665.564   100942286.752       -2476.038          50.000    19208664.647    78656348.306       -1929.535          46.000  
E04  23174521.943   121782976.453       -1516.371          49.000    23174521.304    93314260.373       -1161.767          49.000  
G28  23152894.775   121669263.079        1413.556          41.000    23152896.465    94807228.246        1101.498          43.000  
E25  26243034.751                1      -3062.136          30.000    26243039.471                       -2345.300          26.000  
E09  22711407.316   119349307.493        1144.375          48.000    22711409.510    91449447.095         876.936          54.000  
E05  24593364.831   129238987.089        2461.845          42.000    24593368.818    99027302.725        1886.432          47.000  
G32  20915977.056   109914243.075       -2932.539          48.000    20915975.858    85647494.653       -2284.981          43.000  
E12  26084346.887   137074205.416       -2415.011          42.000    26084349.815   105030947.545       -1850.509          44.000  
E10  24042005.223   126341770.352       -1878.042          44.000    24042008.507    96807524.867       -1439.097          49.000  
E02                                                                  25802075.214                       -1623.486          28.000  
R02                                                                  22997022.094                3       2887.080          11.000  
> 2024 04 16 11 05 00.4950000  0 27                     
G02  19439504.862   102155331.951        1331.299          47.000                                                                  
G03  20802914.729   109320086.117        1187.344          46.000    20802915.409    85184443.461         924.956          44.000  
G04  23111648.525   121452513.601        3213.918          40.000    23111648.023    94638303.491        2504.537          40.000  
R23  18054620.854    96580180.958        -259.632          50.000                                                                  
R24  20167196.335   107842900.950        2714.733          50.000    20167191.109    83877923.100        2111.674          46.000  
R08  18099001.416    96919369.174       -2456.222          50.000    18098997.556    75381781.621       -1910.314          50.000  
G21  18628391.832    97892866.280         857.897          48.000                                                                  
S33  38287505.674   201202280.520        -619.000          42.000  
S31  37334685.109   196195188.678        -619.357          44.000  
E36  23167083.263   121743861.782         841.529          47.000    23167086.234    93284327.481         644.776          51.000  
G10  23195518.025   121893365.932       -3718.820          37.000    23195516.757                       -2897.937          27.000  
E11  21570631.167   113354458.935        -945.382          45.000    21570629.189    86856073.489        -724.334          49.000  
R01  18744847.361   100202125.806        1859.303          51.000    18744846.943    77934837.449        1446.112          45.000  
R22  20329359.872   108519573.974       -3371.905          51.000    20329359.286    84404152.088       -2622.469          49.000  
R07  21524195.464   115220686.117       -4730.927          48.000    21524193.963    89616149.233       -3679.735          46.000  
G27  21126571.571   111020879.484       -4059.058          46.000    21126571.349    86509775.418       -3162.820          44.000  
G08  19222852.325   101016837.341       -2493.964          50.000    19222851.778    78714439.563       -1943.317          47.000  
E04  23183215.697   121828663.894       -1529.462          49.000    23183215.604    93349267.543       -1171.943          49.000  
G28  23144842.660   121626952.623        1407.446          40.000    23144844.944    94774258.980        1096.544          43.000  
E25  26260507.123                       -3060.109          28.000    26260517.234                3      -2344.977          17.000  
E09  22704907.006   119315147.144        1132.924          48.000    22704908.996    91423272.243         868.128          54.000  
E05  24579314.569   129165151.651        2460.667          42.000    24579318.675    98970727.412        1885.367          47.000  
G32  20932764.006   110002460.113       -2948.409          48.000    20932763.644    85716235.100       -2297.383          44.000  
E12  26098146.215   137146716.704       -2419.302          42.000    26098148.404   105086507.799       -1853.594          44.000  
E10  24052741.248   126398192.392       -1883.443          43.000    24052745.255    96850757.207       -1443.055          49.000  
E02                                                                  25814196.044                       -1630.756          27.000  
R02                                                                  22978329.488                3       2879.312          12.000  
> 2024 04 16 11 05 30.4950000  0 25                     
G02  19431930.855   102115525.554        1322.437          47.000                                                                  
G03  20796161.393   109284595.143        1178.841          46.000    20796161.470    85156788.105         918.437          44.000  
G04  23093303.261   121356106.197        3213.238          41.000    23093302.656    94563180.602        2503.589          42.000  
R23  18056126.693    96588233.879        -277.345          51.000                                                                  
R24  20151977.629   107761520.155        2710.445          50.000    20151972.995    83814626.918        2108.187          46.000  
R08  18112820.638    96993366.393       -2476.970          50.000    18112815.788    75439334.953       -1926.515          50.000  
G21  18623527.099    97867303.155         846.162          47.000                                                                  
S33  38291039.195   201220848.909        -619.097          42.000  
S31  37338221.629   196213772.621        -619.415          44.000  
E36  23162284.301   121718640.348         839.765          47.000    23162286.835    93265001.914         643.542          51.000  
G10  23216744.047   122004898.739       -3716.970          39.000    23216745.701                       -2895.761          30.000  
E11  21576041.609   113382890.321        -950.359          45.000    21576039.846    86877858.480        -728.192          49.000  
R01  18734466.657   100146641.127        1839.634          50.000    18734467.389    77891682.705        1430.823          45.000  
R22  20348345.877   108620926.725       -3385.135          50.000    20348346.737    84482981.759       -2632.828          49.000  
R07  21550720.626   115362671.363       -4734.685          48.000    21550717.768    89726581.881       -3682.576          46.000  
G27  21149768.261   111142780.079       -4067.792          45.000    21149768.307    86604762.773       -3169.910          43.000  
G08  19237140.502   101091922.892       -2511.816          49.000    19237139.734    78772947.687       -1957.190          46.000  
E04  23191985.165   121874743.542       -1542.473          49.000    23191984.431    93384575.228       -1181.947          49.000  
G28  23136828.059   121584831.697        1400.677          43.000    23136829.188    94741437.381        1091.709          42.000  
E09  22698471.256   119281331.851        1121.295          47.000    22698474.046    91397361.799         859.199          53.000  
E05  24565270.118   129091350.003        2459.656          41.000    24565274.894    98914177.939        1884.512          48.000  
G32  20949641.739   110091152.014       -2964.319          47.000    20949641.506    85785345.551       -2309.980          45.000  
E12  26111966.126   137219350.081       -2423.189          40.000    26111970.885   105142161.622       -1856.741          44.000  
E10  24063507.955   126454766.055       -1888.320          43.000    24063511.102    96894105.685       -1446.957          49.000  
E02                                                                  25826364.939                1      -1637.244          26.000  
> 2024 04 16 11 06 00.4950000  0 25                     
G02  19424404.768   102075977.051        1313.611          48.000                                                                  
G03  20789453.878   109249349.401        1170.406          45.000    20789454.342    85129323.805         912.135          43.000  
G04  23074961.494   121259716.207        3212.285          40.000    23074960.269    94488071.297        2503.040          42.000  
R23  18057730.710    96596815.566        -295.162          50.000                                                                  
R24  20136782.373   107680265.388        2706.031          50.000    20136778.205    83751428.734        2104.589          45.000  
R08  18126755.636    97067982.736       -2497.757          51.000    18126749.699    75497369.781       -1942.654          50.000  
G21  18618729.883    97842091.869         834.289          48.000                                                                  
S33  38294572.628   201239417.804        -619.164          42.000  
S31  37341758.168   196232357.518        -619.856          44.000  
E36  23157493.830   121693462.546         838.211          47.000    23157495.844    93245709.783         642.301          51.000  
G10  23237956.086   122116363.825       -3714.878          38.000    23237954.301                       -2894.622          30.000  
E11  21581481.051   113411473.946        -955.478          45.000    21581479.286    86899760.124        -732.105          49.000  
R01  18724196.874   100091741.194        1819.958          50.000    18724197.001    77848982.720        1415.588          45.000  
R22  20367406.578   108722669.595       -3398.249          51.000    20367406.755    84562114.882       -2643.107          49.000  
R07  21577263.900   115504757.669       -4738.193          47.000    21577261.597    89837093.143       -3685.244          45.000  
G27  21173014.143   111264936.803       -4076.359          46.000    21173014.499    86699949.656       -3176.302          44.000  
G08  19251529.840   101167540.023       -2529.791          49.000    19251529.111    78831870.023       -1971.204          46.000  
E04  23200828.532   121921212.908       -1555.829          49.000    23200827.443    93420181.512       -1192.083          49.000  
G28  23128849.391   121542901.665        1394.338          44.000    23128851.256    94708764.537        1086.354          43.000  
E09  22692101.981   119247861.201        1109.550          47.000    22692104.762    91371715.426         850.161          53.000  
E05  24551232.989   129017582.204        2458.018          42.000    24551237.768    98857654.312        1883.555          48.000  
G32  20966609.514   110180314.762       -2980.206          47.000    20966608.609    85854822.860       -2322.364          45.000  
E12  26125811.223   137292104.189       -2427.459          40.000    26125815.543   105197907.959       -1859.985          43.000  
E10  24074303.455   126511490.234       -1893.524          45.000    24074305.601    96937569.512       -1450.942          49.000  
E02                                                                  25838584.690                       -1643.555          26.000  
> 2024 04 16 11 06 30.4950000  0 25                     
G02  19416928.307   102036687.405        1305.396          48.000                                                                  
G03  20782792.375   109214347.597        1162.843          44.000    20782793.150    85102049.622         906.063          43.000  
G04  23056622.541   121163345.075        3212.283          39.000    23056621.913    94412976.878        2502.738          41.000  
R23  18059434.109    96605927.147        -312.526          50.000                                                                  
R24  20121611.217   107599138.314        2702.141          50.000    20121607.552    83688329.850        2101.606          46.000  
R08  18140803.330    97143213.542       -2517.957          49.000    18140798.315    75555882.550       -1958.279          50.000  
G21  18613999.762    97817233.216         822.881          48.000                                                                  
S33  38298105.751   201257983.592        -618.848          42.000  
S31  37345294.666   196250940.915        -619.102          44.000  
E36  23152711.036   121668328.111         837.078          48.000    23152712.960    93226450.884         641.406          51.000  
G10  23259153.970   122227759.298       -3711.334          35.000    23259150.776                1      -2892.804          29.000  
E11  21586949.399   113440209.626        -960.245          45.000    21586947.696    86921778.275        -735.819          49.000  
R01  18714035.941   100037426.694        1800.896          49.000    18714037.149    77806738.144        1400.519          45.000  
R22  20386539.934   108824800.532       -3410.690          50.000    20386538.898    84641549.862       -2652.885          48.000  
R07  21603824.858   115646940.674       -4740.920          48.000    21603823.465    89947679.634       -3687.438          45.000  
G27  21196308.448   111387345.874       -4084.493          45.000    21196308.216    86795333.185       -3182.779          44.000  
G08  19266019.818   101243685.813       -2546.924          49.000    19266019.093    78891204.330       -1984.601          46.000  
E04  23209744.392   121968069.981       -1568.319          49.000    23209744.061    93456084.889       -1201.716          49.000  
G28  23120907.505   121501164.434        1388.079          44.000    23120908.548    94676241.893        1081.711          43.000  
E09  22685797.665   119214735.282        1098.497          47.000    22685801.127    91346333.193         841.655          53.000  
E05  24537202.273   128943848.885        2457.269          42.000    24537206.886    98801157.124        1882.730          49.000  
G32  20983666.095   110269944.732       -2995.302          48.000    20983665.538    85924664.248       -2333.993          45.000  
E12  26139679.632   137364978.315       -2431.112          40.000    26139683.558   105253746.247       -1862.877          43.000  
E10  24085125.389   126568364.492       -1898.330          44.000    24085128.292    96981148.348       -1454.564          49.000  
E02                                                                  25850851.212                3      -1649.277          26.000  
> 2024 04 16 11 07 00.4950000  0 25                     
G02  19409501.915   101997660.354        1296.301          48.000                                                                  
G03  20776179.264   109179591.469        1154.210          45.000    20776179.610    85074966.840         899.459          44.000  
G04  23038288.319   121066997.453        3210.905          42.000    23038288.276    94337900.727        2502.015          40.000  
R23  18061237.245    96615572.893        -330.644          50.000                                                                  
R24  20106464.505   107518143.891        2697.385          50.000    20106461.272    83625334.134        2097.858          46.000  
R08  18154965.528    97219057.868       -2538.787          49.000    18154961.690    75614872.521       -1974.458          50.000  
G21  18609337.459    97792731.151         810.438          48.000                                                                  
S33  38301639.201   201276551.821        -618.998          42.000  
S31  37348830.798   196269524.418        -619.430          44.000  
E36  23147936.801   121643239.803         835.247          48.000    23147938.929    93207227.328         639.971          51.000  
G10  23280338.348   122339086.378       -3710.302          34.000    23280336.521                       -2890.978          28.000  
E11  21592447.724   113469100.115        -965.901          46.000    21592445.642    86943915.032        -740.062          49.000  
R01  18703985.696    99983700.847        1780.777          50.000    18703986.407    77764951.341        1385.074          45.000  
R22  20405744.076   108927320.749       -3424.059          49.000    20405745.742    84721287.575       -2663.206          49.000  
R07  21630403.673   115789218.991       -4744.474          46.000    21630402.776    90058340.227       -3690.096          46.000  
G27  21219649.992   111510006.560       -4093.179          46.000    21219650.415    86890912.778       -3189.402          45.000  
G08  19280610.975   101320360.295       -2564.783          49.000    19280609.958    78950950.563       -1998.541          46.000  
E04  23218734.851   122015315.753       -1581.606          48.000    23218734.570    93492286.094       -1211.859          49.000  
G28  23113002.545   121459624.859        1381.047          45.000    23113004.521    94643873.289        1076.087          44.000  
E09  22679560.879   119181957.165        1086.760          47.000    22679563.569    91321217.466         832.549          53.000  
E05  24523178.904   128870153.571        2455.683          41.000    24523183.443    98744689.007        1881.515          47.000  
G32  21000811.053   110360041.354       -3011.118          46.000    21000810.115    85994869.274       -2346.382          45.000  
E12  26153570.530   137437974.629       -2435.332          40.000    26153574.169   105309678.145       -1866.047          43.000  
E10  24095977.272   126625391.300       -1903.500          44.000    24095980.589    97024844.052       -1458.642          50.000  
E02                                                                  25863165.954                3      -1657.066          22.000  
> 2024 04 16 11 07 30.4950000  0 25                     
G02  19402124.528   101958893.924        1287.628          48.000                                                                  
G03  20769611.837   109145076.358        1146.103          46.000    20769611.884    85048071.918         893.095          44.000  
G04  23019958.208   120970671.066        3210.475          41.000    23019957.827    94262841.174        2501.537          41.000  
R23  18063139.059    96625750.432        -348.447          49.000                                                                  
R24  20091342.433   107437280.744        2692.875          50.000    20091339.050    83562440.544        2094.423          45.000  
R08  18169243.452    97295507.474       -2558.681          49.000    18169238.066    75674333.253       -1990.130          50.000  
G21  18604741.573    97768583.833         798.684          48.000                                                                  
S33  38305172.287   201295116.116        -619.031          42.000  
S31  37352366.251   196288104.588        -619.718          44.000  
E36  23143170.697   121618194.076         833.954          48.000    23143172.839    93188036.402         638.993          51.000  
E11  21597973.712   113498141.885        -970.861          45.000    21597972.222    86966167.722        -743.989          50.000  
R01  18694045.455    99930560.920        1761.356          50.000    18694045.245    77723620.230        1369.819          44.000  
R22  20425022.583   109030224.788       -3436.895          51.000    20425023.072    84801323.822       -2673.076          50.000  
R07  21656999.606   115931584.581       -4747.046          48.000    21656997.153    90169068.685       -3692.240          47.000  
G27  21243037.958   111632911.675       -4101.014          46.000    21243038.860    86986682.824       -3195.610          44.000  
G08  19295301.540   101397557.230       -2582.111          49.000    19295300.932    79011103.921       -2012.091          46.000  
E04  23227798.654   122062944.942       -1594.366          48.000    23227798.178    93528781.083       -1221.578          49.000  
G28  23105135.467   121418281.614        1374.312          44.000    23105137.836    94611657.680        1070.955          44.000  
E09  22673390.006   119149523.654        1075.103          48.000    22673391.528    91296365.769         823.805          53.000  
E05  24509161.829   128796493.750        2454.486          42.000    24509166.444    98688248.160        1880.714          48.000  
G32  21018043.444   110450597.804       -3026.398          45.000    21018041.698    86065432.625       -2358.389          43.000  
E12  26167484.289   137511089.101       -2439.529          40.000    26167487.652   105365700.596       -1869.218          43.000  
E10  24106857.248   126682566.812       -1908.477          44.000    24106861.056    97068653.696       -1462.427          50.000  
E02                                                                  25875529.797                3      -1666.967          24.000  
G10                                                                  23301507.831                       -2889.028          28.000  
> 2024 04 16 11 08 00.4950000  0 25                     
G02  19394795.651   101920383.612        1279.224          48.000                                                                  
G03  20763088.780   109110795.677        1138.650          47.000    20763088.125    85021359.643         887.272          44.000  
G04  23001631.510   120874362.434        3209.793          42.000    23001631.593    94187795.382        2501.263          39.000  
R23  18065140.242    96636455.561        -365.771          50.000                                                                  
R24  20076244.765   107356545.583        2688.806          50.000    20076240.739    83499646.478        2091.300          45.000  
R08  18183630.804    97372552.646       -2578.142          48.000    18183626.342    75734257.181       -2005.282          51.000  
G21  18600213.247    97744787.273         787.125          47.000                                                                  
S33  38308703.008   201313670.163        -618.218          42.000  
S31  37355900.456   196306674.960        -618.953          44.000  
E36  23138411.816   121593185.499         832.820          47.000    23138413.798    93168873.915         638.194          51.000  
E11  21603527.770   113527329.495        -975.648          45.000    21603526.488    86988532.147        -747.469          50.000  
R01  18684213.409    99878002.386        1742.151          50.000    18684213.088    77682741.307        1355.009          44.000  
R22  20444371.210   109133505.340       -3449.144          52.000    20444371.621    84881652.915       -2682.668          50.000  
R07  21683608.965   116074027.744       -4749.493          47.000    21683605.730    90279857.431       -3694.031          47.000  
G27  21266471.110   111756052.214       -4108.659          46.000    21266471.109    87082636.370       -3201.513          44.000  
G08  19310089.286   101475268.377       -2599.048          49.000    19310089.159    79071657.914       -2025.263          47.000  
E04  23236934.023   122110950.256       -1606.577          48.000    23236933.371    93565564.269       -1230.970          49.000  
G28  23097305.467   121377131.212        1368.311          44.000    23097306.764    94579592.350        1066.414          43.000  
E09  22667282.404   119117429.507        1064.069          48.000    22667284.015    91271774.109         815.277          53.000  
E05  24495151.183   128722864.574        2453.707          42.000    24495155.201    98631830.786        1880.019          46.000  
G32  21035361.138   110541605.296       -3041.177          44.000    21035359.121    86136347.357       -2369.571          43.000  
E12  26181419.134   137584315.576       -2443.193          40.000    26181422.510   105421808.873       -1871.812          42.000  
E10  24117764.692   126739885.342       -1913.227          44.000    24117768.460    97112572.920       -1465.918          50.000  
E02                                                                  25887938.505                3      -1667.080          21.000  
G10                                                                  23322665.247                       -2887.152          30.000  
> 2024 04 16 11 08 30.4950000  0 26                     
G02  19387518.825   101882143.107        1270.068          48.000                                                                  
G03  20756612.466   109076761.029        1130.229          46.000    20756611.474    84994839.094         880.710          44.000  
G04  22983310.606   120778085.919        3208.644          43.000    22983310.799    94112774.729        2500.470          41.000  
R23  18067243.369    96647702.371        -384.056          50.000                                                                  
R24  20061173.642   107275953.509        2683.864          50.000    20061169.664    83436963.709        2087.372          45.000  
R08  18198130.948    97450201.938       -2598.593          49.000    18198127.120    75794651.007       -2021.144          50.000  
G21  18595754.593    97721355.553         774.888          47.000                                                                  
S33  38312234.164   201332226.390        -618.640          43.000  
S31  37359434.521   196325247.042        -619.026          45.000  
E36  23133662.079   121568226.737         831.102          47.000    23133664.269    93149749.615         636.840          51.000  
E11  21609112.112   113556675.624        -980.884          45.000    21609110.878    87011018.045        -751.526          50.000  
R01  18674492.525    99826038.745        1722.117          50.000    18674492.219    77642325.090        1339.138          44.000  
R22  20463791.251   109237173.523       -3462.206          51.000    20463791.581    84962283.455       -2692.810          48.000  
R07  21710234.248   116216557.081       -4752.536          47.000    21710231.413    90390713.213       -3696.420          47.000  
G27  21289950.962   111879437.297       -4117.096          47.000    21289951.533    87178780.429       -3208.149          44.000  
G08  19324976.349   101553503.741       -2616.791          49.000    19324976.535    79132620.430       -2038.922          47.000  
E04  23246142.232   122159342.598       -1619.526          48.000    23246142.221    93602644.013       -1240.956          49.000  
G28  23089514.239   121336188.619        1361.183          42.000    23089515.802    94547688.950        1060.647          42.000  
E25  26382540.267                3      -3046.226          25.000                                                                  
E09  22661241.640   119085687.742        1051.946          48.000    22661243.868    91247452.466         806.105          53.000  
E05  24481148.361   128649279.619        2451.954          42.000    24481152.721    98575447.327        1878.767          47.000  
G32  21052766.166   110633073.084       -3056.492          43.000    21052765.950    86207620.826       -2381.742          43.000  
E12  26195377.601   137657666.327       -2447.316          40.000    26195380.496   105478012.423       -1874.893          42.000  
E10  24128701.564   126797359.278       -1918.536          43.000    24128705.249    97156611.225       -1469.994          50.000  
E02                                                                  25900391.456                3      -1676.319          21.000  
G10                                                                  23343812.359                1      -2884.607          28.000  
> 2024 04 16 11 09 00.4950000  0 25                     
G02  19380294.015   101844174.231        1260.938          48.000                                                                  
G03  20750181.425   109042971.943        1122.119          46.000    20750181.841    84968509.907         874.424          43.000  
G04  22964996.616   120681843.852        3207.312          42.000    22964996.799    94037780.861        2499.252          41.000  
R23  18069448.461    96659492.938        -402.188          51.000                                                                  
R24  20046129.951   107195507.619        2679.049          50.000    20046126.045    83374394.639        2083.685          45.000  
R08  18212744.917    97528452.115       -2618.438          50.000    18212739.698    75855512.146       -2036.546          50.000  
G21  18591364.888    97698290.632         762.565          46.000                                                                  
S33  38315765.801   201350784.216        -618.399          43.000  
S31  37362969.057   196343821.248        -619.099          45.000  
E36  23128922.161   121543318.490         829.381          47.000    23128924.420    93130664.012         635.502          51.000  
E11  21614727.199   113586181.024        -985.943          46.000    21614725.714    87033625.987        -755.539          50.000  
R01  18664883.730    99774671.352        1702.346          51.000    18664882.635    77602372.643        1323.931          44.000  
R22  20483284.008   109341228.304       -3474.917          50.000    20483283.952    85043214.663       -2702.668          48.000  
R07  21736875.525   116359169.317       -4755.081          47.000    21736872.888    90501633.495       -3698.413          46.000  
G27  21313477.019   112003064.029       -4124.699          48.000    21313476.828    87275112.765       -3214.160          44.000  
G08  19339963.808   101632261.124       -2633.972          50.000    19339963.994    79193989.711       -2052.435          47.000  
E04  23255424.743   122208120.830       -1632.446          48.000    23255424.577    93640019.431       -1250.948          49.000  
G28  23081762.082   121295456.601        1354.412          40.000    23081763.822    94515949.593        1055.104          43.000  
E09  22655268.638   119054299.249        1040.398          48.000    22655270.909    91223401.511         797.097          53.000  
E05  24467154.598   128575740.350        2450.574          42.000    24467158.464    98519098.873        1877.616          46.000  
G32  21070258.419   110724998.515       -3071.802          41.000    21070259.243    86279250.873       -2393.407          43.000  
E12  26209359.609   137731141.516       -2451.387          39.000    26209362.623   105534311.274       -1878.267          42.000  
E10  24139667.557   126854989.002       -1923.356          43.000    24139671.953    97200768.899       -1473.954          50.000  
E02                                                                  25912895.404                3      -1683.413          22.000  
G10                                                                  23364944.442                       -2883.395          28.000  
> 2024 04 16 11 09 30.4950000  0 25                     
G02  19373120.739   101806477.351        1252.100          48.000                                                                  
G03  20743798.551   109009426.581        1114.191          46.000    20743799.060    84942370.627         868.171          44.000  
G04  22946689.007   120585636.929        3206.340          43.000    22946689.345    93962814.345        2498.250          41.000  
R23  18071754.541    96671827.437        -420.201          51.000                                                                  
R24  20031114.123   107115208.969        2674.152          50.000    20031110.222    83311940.064        2079.841          45.000  
R08  18227468.818    97607297.520       -2638.031          50.000    18227463.575    75916836.267       -2051.729          50.000  
G21  18587045.065    97675593.126         750.598          46.000                                                                  
S33  38319297.348   201369341.637        -618.458          43.000  
S31  37366503.809   196362395.842        -619.319          45.000  
E36  23124192.226   121518459.931         827.880          47.000    23124194.142    93111616.490         634.317          51.000  
E11  21620372.764   113615844.833        -991.375          47.000    21620370.548    87056355.296        -759.631          50.000  
R01  18655386.302    99723899.982        1682.432          51.000    18655384.114    77562883.768        1308.449          44.000  
R22  20502848.365   109445666.897       -3487.681          50.000    20502848.613    85124444.458       -2712.671          48.000  
R07  21763532.058   116501858.892       -4757.484          47.000    21763529.594    90612613.951       -3700.450          45.000  
G27  21337047.905   112126927.878       -4132.688          47.000    21337046.616    87371629.841       -3220.108          43.000  
G08  19355050.006   101711536.860       -2651.105          50.000    19355049.991    79255762.894       -2065.692          47.000  
E04  23264779.393   122257282.310       -1645.041          47.000    23264779.758    93677688.498       -1260.430          49.000  
G28  23074051.709   121254936.563        1347.261          39.000    23074054.125    94484375.328        1049.546          44.000  
E09  22649363.758   119023263.492        1028.659          49.000    22649365.240    91199620.822         788.205          53.000  
E05  24453169.312   128502246.763        2449.042          43.000    24453173.585    98462785.458        1876.587          47.000  
G32  21087838.342   110817377.371       -3086.853          43.000    21087838.175    86351234.247       -2405.339          43.000  
E12  26223363.924   137804739.609       -2455.175          38.000    26223367.933   105590704.312       -1881.496          41.000  
E10  24150662.779   126912773.415       -1928.598          41.000    24150667.877    97245045.090       -1477.772          49.000  
E02                                                                  25925444.052                3      -1694.726          18.000  
G10                                                                  23386062.617                       -2880.639          27.000  
> 2024 04 16 11 10 00.4950000  0 26                     
G31  23748819.649                1       1621.038          26.000                                                                  
G02  19365999.025   101769051.644        1242.889          48.000                                                                  
G03  20737460.886   108976121.567        1106.227          47.000    20737461.024    84916418.619         861.646          43.000  
G04  22928388.332   120489465.164        3205.146          43.000    22928388.073    93887875.335        2497.277          42.000  
R23  18074161.950    96684705.143        -438.496          51.000                                                                  
R24  20016125.756   107035057.848        2669.120          51.000    20016121.267    83249600.236        2075.955          45.000  
R08  18242301.687    97686732.263       -2657.630          50.000    18242297.155    75978618.772       -2067.112          50.000  
G21  18582795.925    97653262.068         738.177          46.000                                                                  
S33  38322828.140   201387897.840        -618.597          43.000  
S31  37370037.984   196380967.628        -619.130          45.000  
E36  23119470.388   121493648.916         826.250          46.000    23119473.039    93092605.399         633.042          51.000  
E11  21626047.385   113645664.941        -996.839          47.000    21626045.398    87079204.353        -763.783          50.000  
R01  18645999.190    99673723.175        1662.554          50.000    18645998.358    77523857.323        1293.165          44.000  
R22  20522484.868   109550485.283       -3500.348          50.000    20522487.087    85205969.609       -2722.476          50.000  
R07  21790201.897   116644619.595       -4760.013          46.000    21790199.367    90723649.684       -3702.037          44.000  
G27  21360661.913   112251023.275       -4140.507          47.000    21360661.427    87468327.365       -3226.359          44.000  
G08  19370233.006   101791326.026       -2668.146          49.000    19370232.472    79317936.145       -2079.181          46.000  
E04  23274207.375   122306823.018       -1657.733          48.000    23274207.091    93715648.161       -1270.282          49.000  
G28  23066382.523   121214628.190        1340.138          41.000    23066382.756    94452966.106        1044.218          42.000  
E09  22643524.889   118992578.539        1016.972          49.000    22643526.501    91176108.938         779.170          53.000  
E05  24439192.792   128428797.364        2447.473          43.000    24439196.663    98406505.858        1875.332          46.000  
G32  21105503.269   110910204.051       -3101.593          43.000    21105502.279    86423566.562       -2416.797          42.000  
E12  26237391.373   137878457.985       -2459.280          36.000    26237396.876   105647189.440       -1884.437          42.000  
E10  24161686.816   126970710.034       -1933.840          41.000    24161693.090    97289437.960       -1481.800          50.000  
E02                                                                  25938035.959                3      -1691.688          20.000  
G10                                                                  23407163.618                       -2878.461          25.000  
> 2024 04 16 11 10 30.4950000  0 25                     
G31  23739564.725   124752293.8091       1622.124          31.000    23739566.862                1       1264.023          28.000  
G02  19358929.281   101731901.943        1233.447          48.000                                                                  
G03  20731169.355   108943059.724        1097.800          46.000    20731170.124    84890656.114         855.472          44.000  
G04  22910095.152   120393334.136        3203.387          44.000    22910094.683    93812968.126        2496.161          43.000  
R23  18076670.886    96698131.327        -456.843          51.000                                                                  
R24  20001166.211   106955060.501        2663.701          51.000    20001160.944    83187380.023        2071.741          44.000  
R08  18257246.198    97766755.680       -2677.482          50.000    18257240.608    76040859.119       -2082.396          50.000  
G21  18578617.846    97631302.744         725.511          46.000                                                                  
S33  38326359.307   201406453.115        -618.867          43.000  
S31  37373571.989   196399539.161        -619.337          45.000  
E36  23114758.818   121468889.426         824.230          45.000    23114761.686    93073633.782         631.543          51.000  
E11  21631752.308   113675645.269       -1002.331          47.000    21631750.616    87102176.178        -767.981          50.000  
R01  18636724.866    99624145.719        1642.316          50.000    18636724.015    77485296.995        1277.257          45.000  
R22  20542193.168   109655685.638       -3513.218          50.000    20542194.709    85287791.863       -2732.534          49.000  
R07  21816884.580   116787451.566       -4762.474          44.000    21816881.980    90834740.838       -3704.137          41.000  
G27  21384320.627   112375350.479       -4148.320          45.000    21384320.052    87565205.474       -3232.473          43.000  
G08  19385514.343   101871629.657       -2685.431          49.000    19385513.879    79380510.278       -2092.603          46.000  
E04  23283707.329   122356745.103       -1670.669          48.000    23283707.259    93753900.036       -1280.078          49.000  
G28  23058752.414   121174537.683        1332.379          42.000    23058752.501    94421726.688        1038.029          42.000  
E09  22637752.920   118962248.577        1005.009          49.000    22637755.084    91152869.054         769.998          54.000  
E05  24425225.218   128355396.917        2445.751          43.000    24425229.233    98350263.720        1873.889          46.000  
G32  21123253.240   111003479.207       -3116.884          42.000    21123252.618    86496248.309       -2428.613          44.000  
E12  26251444.690   137952299.905       -2463.711          40.000    26251448.960   105703769.272       -1887.605          42.000  
E10  24172741.619   127028802.569       -1939.376          41.000    24172748.295    97333950.270       -1485.891          50.000  
G10                                                                  23428245.958                3      -2875.444          22.000  
> 2024 04 16 11 11 00.4950000  0 25                     
G31  23730296.861   124703594.712        1623.902          35.000    23730303.479    97171604.8371       1265.070          32.000  
G02  19351912.079   101695026.465        1224.585          47.000                                                                  
G03  20724923.282   108910236.830        1089.912          46.000    20724923.713    84865079.774         849.176          44.000  
G04  22891809.593   120297242.526        3202.361          43.000    22891809.116    93738091.775        2495.259          44.000  
R23  18079283.027    96712103.780        -474.930          51.000                                                                  
R24  19986234.676   106875216.143        2658.870          50.000    19986229.039    83125278.778        2068.140          45.000  
R08  18272299.314    97847359.957       -2696.472          50.000    18272292.010    76103551.232       -2097.131          49.000  
G21  18574509.202    97609713.707         713.369          47.000                                                                  
S33  38329889.631   201425005.896        -618.320          42.000  
S31  37377105.726   196418107.723        -618.961          45.000  
E36  23110055.507   121444178.397         822.862          45.000    23110059.306    93054699.312         630.523          51.000  
E11  21637487.752   113705782.766       -1007.306          47.000    21637485.529    87125268.442        -771.832          50.000  
R01  18627560.854    99575164.905        1622.734          49.000    18627561.429    77447200.766        1262.150          44.000  
R22  20561971.977   109761262.921       -3525.548          50.000    20561971.993    85369907.286       -2742.031          48.000  
R07  21843578.482   116930347.139       -4764.096          42.000    21843576.814    90945881.468       -3705.461          39.000  
G27  21408021.968   112499902.830       -4155.451          46.000    21408022.183    87662259.053       -3238.181          44.000  
G08  19400892.924   101952441.827       -2702.209          49.000    19400892.670    79443480.655       -2105.695          46.000  
E04  23293279.436   122407043.616       -1682.807          48.000    23293278.807    93792440.345       -1289.515          49.000  
G28  23051165.147   121134664.085        1325.491          45.000    23051165.910    94390656.269        1032.653          44.000  
E09  22632047.364   118932270.761         993.360          48.000    22632050.485    91129898.995         761.125          53.000  
E05  24411266.422   128282043.183        2444.251          43.000    24411270.759    98294057.368        1872.881          47.000  
G32  21141087.553   111097196.258       -3131.262          42.000    21141085.884    86569274.431       -2439.862          43.000  
E12  26265520.803   138026261.604       -2467.296          42.000    26265523.698   105760440.951       -1890.667          42.000  
E10  24183828.307   127087047.624       -1944.084          43.000    24183831.974    97378579.401       -1489.641          50.000  
G10                                                                  23449317.992                       -2874.794          25.000  
> 2024 04 16 11 11 30.4950000  0 25                     
G31  23721020.551   124654844.033        1625.501          37.000    23721023.859    97133617.214        1266.376          35.000  
G02  19344947.154   101658423.289        1215.326          48.000                                                                  
G03  20718722.615   108877648.481        1082.111          46.000    20718721.591    84839686.205         843.155          42.000  
G04  22873531.273   120201188.276        3201.117          43.000    22873530.570    93663244.354        2494.160          44.000  
R23  18081997.066    96726620.567        -493.224          51.000                                                                  
R24  19971330.561   106795523.485        2653.705          50.000    19971326.752    83063295.563        2063.912          46.000  
R08  18287458.118    97928537.925       -2715.650          49.000    18287451.667    76166689.587       -2112.252          49.000  
G21  18570471.846    97588493.048         701.000          47.000                                                                  
S33  38333418.755   201443550.153        -618.373          42.000  
S31  37380637.810   196436668.646        -618.944          44.000  
E36  23105361.459   121419512.639         821.101          44.000    23105365.621    93035799.520         629.126          51.000  
E11  21643251.866   113736074.198       -1012.252          47.000    21643249.779    87148478.652        -775.660          49.000  
R01  18618509.527    99526777.804        1602.698          50.000    18618508.584    77409566.324        1246.503          43.000  
R22  20581819.348   109867212.014       -3538.169          50.000    20581819.781    85452311.852       -2751.887          48.000  
R07  21870283.082   117073298.846       -4766.095          40.000    21870281.265    91057065.765       -3707.017          36.000  
G27  21431765.103   112624673.396       -4162.883          45.000    21431765.573    87759482.678       -3243.850          44.000  
G08  19416366.758   102033756.360       -2718.988          49.000    19416366.084    79506842.476       -2118.732          46.000  
E04  23302921.792   122457713.420       -1695.275          48.000    23302921.203    93831265.149       -1299.179          49.000  
G28  23043619.752   121095006.201        1318.016          45.000    23043619.310    94359753.932        1026.948          43.000  
E09  22626408.488   118902642.040         981.500          47.000    22626412.140    91107196.414         752.105          53.000  
E05  24397316.410   128208733.757        2442.625          43.000    24397320.639    98237884.986        1871.752          47.000  
G32  21159004.783   111191348.540       -3145.687          41.000    21159005.106    86642639.647       -2451.098          45.000  
E12  26279616.540   138100339.399       -2471.402          40.000    26279620.758   105817201.533       -1893.806          42.000  
E10  24194942.519   127145441.596       -1949.224          44.000    24194944.047    97423322.654       -1493.472          50.000  
G10                                                                  23470383.790                3      -2872.568          24.000  
> 2024 04 16 11 12 00.4950000  0 25                     
G31  23711734.944   124606047.704        1627.041          40.000    23711738.663    97095594.020        1267.801          38.000  
G02  19338034.769   101622097.252        1206.073          48.000                                                                  
G03  20712566.610   108845297.321        1074.246          47.000    20712565.230    84814477.454         837.013          41.000  
G04  22855260.404   120105177.114        3199.338          44.000    22855260.517    93588430.421        2493.121          46.000  
R23  18084813.208    96741686.634        -511.519          50.000                                                                  
R24  19956456.732   106715988.915        2648.358          49.000    19956454.089    83001435.265        2059.944          47.000  
R08  18302723.918    98010288.633       -2734.655          50.000    18302718.307    76230273.404       -2126.965          50.000  
G21  18566504.546    97567645.407         688.419          47.000                                                                  
S33  38336946.954   201462089.870        -618.135          42.000  
S31  37384168.941   196455224.980        -618.522          44.000  
E36  23100677.615   121394896.002         819.569          45.000    23100681.173    93016937.371         627.973          51.000  
E11  21649046.137   113766523.374       -1017.621          47.000    21649044.297    87171809.737        -779.844          49.000  
R01  18609569.059    99478989.016        1582.857          49.000    18609568.226    77372397.188        1231.124          43.000  
R22  20601738.450   109973534.738       -3550.549          52.000    20601738.083    85535007.075       -2761.420          48.000  
R07  21896998.150   117216306.403       -4768.045          38.000    21896997.301    91168293.494       -3708.750          36.000  
G27  21455549.034   112749662.561       -4170.011          43.000    21455551.017    87856876.573       -3249.439          44.000  
G08  19431936.518   102115574.332       -2735.760          49.000    19431935.599    79570596.666       -2131.763          46.000  
E04  23312634.061   122508756.475       -1707.768          47.000    23312634.768    93870375.951       -1308.653          50.000  
G28  23036114.575   121055569.892        1310.724          45.000    23036114.861    94329024.305        1021.266          43.000  
E09  22620837.425   118873366.394         969.684          47.000    22620841.145    91084764.373         743.083          53.000  
E05  24383375.659   128135473.237        2441.087          43.000    24383379.788    98181750.105        1870.256          47.000  
G32  21177003.541   111285936.414       -3160.308          42.000    21177004.086    86716344.329       -2462.509          45.000  
E12  26293735.194   138174536.492       -2475.390          39.000    26293740.226   105874053.521       -1896.678          42.000  
E10  24206083.742   127203988.041       -1954.372          44.000    24206085.232    97468182.745       -1497.515          50.000  
G10                                                                  23491430.563                3      -2868.611          22.000  
> 2024 04 16 11 12 30.4950000  0 25                     
G31  23702441.464   124557205.803        1628.889          44.000    23702444.475    97057535.346        1269.014          41.000  
G02  19331174.570   101586047.948        1197.064          48.000                                                                  
G03  20706455.083   108813180.722        1066.612          48.000    20706453.296    84789451.483         831.070          42.000  
G04  22836998.056   120009209.238        3198.165          43.000    22836998.698    93513650.158        2491.896          45.000  
R23  18087731.611    96757301.457        -529.680          50.000                                                                  
R24  19941612.859   106636613.101        2643.174          49.000    19941610.688    82939698.449        2055.798          47.000  
R08  18318097.021    98092606.563       -2753.266          50.000    18318091.561    76294298.384       -2141.420          50.000  
G21  18562608.280    97547171.305         676.203          46.000                                                                  
S33  38340473.610   201480623.109        -617.694          42.000  
S31  37387698.633   196473774.639        -617.880          45.000  
E36  23096002.568   121370327.033         818.198          45.000    23096005.646    92998111.736         626.950          51.000  
G10  23512435.292                1      -3681.470          27.000    23512439.907                3      -2863.767          21.000  
E11  21654870.413   113797128.827       -1022.767          48.000    21654868.175    87195260.557        -783.606          49.000  
R01  18600741.355    99431797.675        1563.163          50.000    18600740.855    77335692.756        1215.632          44.000  
R22  20621726.338   110080227.727       -3562.600          51.000    20621726.575    85617990.229       -2770.784          49.000  
R07  21923722.212   117359364.344       -4769.103          37.000    21923721.743    91279560.315       -3709.369          37.000  
G27  21479376.060   112874865.111       -4177.123          45.000    21479376.653    87954436.775       -3254.738          44.000  
G08  19447600.505   102197891.172       -2752.063          48.000    19447600.408    79634739.582       -2144.629          46.000  
E04  23322417.833   122560169.377       -1719.789          47.000    23322418.596    93909770.126       -1317.743          50.000  
G28  23028652.538   121016355.880        1303.505          45.000    23028653.500    94298467.813        1015.837          44.000  
E09  22615333.680   118844442.530         958.303          47.000    22615337.509    91062601.894         734.318          53.000  
E05  24369443.799   128062260.943        2439.622          43.000    24369448.235    98125652.152        1869.224          47.000  
G32  21195083.680   111380954.956       -3174.230          42.000    21195084.535    86790384.556       -2473.473          44.000  
E12  26307876.046   138248850.755       -2478.964          38.000    26307882.288   105930995.323       -1899.608          41.000  
E10  24217252.543   127262685.121       -1959.001          44.000    24217255.158    97513158.277       -1501.060          50.000  
> 2024 04 16 11 13 00.4950000  0 25                     
G31  23693138.741   124508322.062        1629.983          43.000    23693141.361    97019444.095        1270.245          41.000  
G02  19324367.222   101550278.229        1187.616          48.000                                                                  
G03  20700388.036   108781299.007        1058.606          47.000    20700387.001    84764608.561         824.930          43.000  
G04  22818744.199   119913288.041        3196.469          43.000    22818745.257    93438906.250        2490.774          45.000  
R23  18090754.488    96773467.890        -548.187          51.000                                                                  
R24  19926799.014   106557400.184        2637.637          48.000    19926797.896    82878088.324        2051.461          48.000  
R08  18333574.436    98175488.771       -2772.219          50.000    18333569.741    76358762.238       -2156.177          50.000  
G21  18558783.730    97527073.504         663.494          46.000                                                                  
S33  38343998.915   201499149.543        -617.367          43.000  
S31  37391227.549   196492317.937        -618.099          45.000  
E36  23091336.972   121345807.249         816.475          45.000    23091339.615    92979323.793         625.572          51.000  
E11  21660724.157   113827892.058       -1028.323          47.000    21660722.100    87218832.280        -787.892          49.000  
R01  18592025.468    99385205.594        1543.001          50.000    18592025.681    77299454.414        1200.089          45.000  
R22  20641780.936   110187290.624       -3575.081          48.000    20641783.037    85701261.114       -2780.498          49.000  
R07  21950456.522   117502469.797       -4770.917          38.000    21950454.980    91390864.182       -3710.695          38.000  
G27  21503241.680   113000278.854       -4184.135          44.000    21503242.368    88052161.560       -3260.317          43.000  
G08  19463359.986   102280705.361       -2768.799          49.000    19463359.375    79699269.997       -2157.538          46.000  
E04  23332271.919   122611951.717       -1732.198          47.000    23332272.751    93949447.380       -1327.295          50.000  
G28  23021232.787   120977367.589        1295.803          44.000    23021234.765    94268087.248        1009.553          44.000  
E09  22609897.027   118815872.105         946.384          48.000    22609900.698    91040710.226         725.159          53.000  
E05  24355521.971   127989099.080        2437.683          43.000    24355526.070    98069592.832        1867.881          47.000  
G32  21213246.470   111476402.151       -3188.799          43.000    21213247.319    86864758.799       -2484.777          44.000  
E12  26322040.008   138323283.119       -2483.079          37.000    26322047.156   105988027.577       -1902.615          43.000  
E10  24228451.553   127321534.011       -1964.276          45.000    24228454.050    97558250.125       -1505.062          50.000  
G10                                                                  23533461.892                3      -2872.676          16.000  
> 2024 04 16 11 13 30.4950000  0 25                     
G31  23683828.793   124459397.022        1631.393          40.000    23683831.409    96981320.641        1271.320          40.000  
G02  19317613.573   101514788.644        1178.375          47.000                                                                  
G03  20694365.673   108749650.439        1050.973          48.000    20694364.398    84739947.279         818.889          42.000  
G04  22800500.243   119817414.585        3194.983          43.000    22800501.359    93364199.494        2489.579          45.000  
R23  18093879.769    96790186.482        -566.371          50.000                                                                  
R24  19912016.374   106478351.730        2632.236          47.000    19912015.481    82816606.098        2047.278          48.000  
R08  18349156.855    98258929.854       -2790.673          49.000    18349151.812    76423660.776       -2170.474          50.000  
G21  18555031.225    97507352.477         651.183          46.000                                                                  
S33  38347523.042   201517668.830        -617.242          43.000  
S31  37394754.746   196510853.481        -617.631          45.000  
E36  23086680.129   121321336.110         814.986          46.000    23086682.867    92960573.133         624.485          51.000  
G10  23554456.228                3      -3675.189          28.000                                                                  
E11  21666608.230   113858812.424       -1033.451          47.000    21666606.140    87242524.397        -791.788          49.000  
R01  18583421.959    99339212.540        1523.140          50.000    18583421.881    77263682.012        1184.835          45.000  
R22  20661905.790   110294720.840       -3587.167          48.000    20661908.067    85784817.665       -2789.902          49.000  
R07  21977197.918   117645618.664       -4772.507          37.000    21977196.416    91502201.797       -3711.726          35.000  
G27  21527146.079   113125899.633       -4190.696          44.000    21527147.068    88150047.685       -3265.730          43.000  
G08  19479212.767   102364013.311       -2785.144          49.000    19479212.572    79764185.156       -2170.380          46.000  
E04  23342195.124   122664100.979       -1744.301          47.000    23342196.376    93989405.794       -1336.594          50.000  
G28  23013856.887   120938606.615        1288.275          44.000    23013859.424    94237883.773        1003.966          46.000  
E09  22604528.312   118787654.722         934.657          48.000    22604531.156    91019089.051         716.268          53.000  
E05  24341609.575   127915987.882        2436.111          43.000    24341613.612    98013572.359        1866.806          47.000  
G32  21231491.311   111572274.003       -3202.693          46.000    21231491.552    86939463.953       -2495.758          44.000  
E12  26336226.632   138397832.365       -2486.863          38.000    26336233.698   106045149.387       -1905.605          42.000  
E10  24239677.188   127380533.781       -1969.123          44.000    24239681.360    97603457.595       -1508.806          50.000  
> 2024 04 16 11 14 00.4950000  0 24                     
G31  23674511.232   124410432.791        1633.118          44.000    23674514.171    96943166.693        1272.393          41.000  
G02  19310914.243   101479580.224        1169.116          48.000                                                                  
G03  20688386.995   108718233.673        1043.512          48.000    20688386.198    84715466.670         813.172          42.000  
G04  22782265.421   119721590.411        3193.542          43.000    22782266.584    93289531.083        2488.389          45.000  
R23  18097108.427    96807458.128        -584.773          51.000                                                                  
R24  19897265.807   106399469.931        2626.862          48.000    19897264.603    82755253.528        2043.057          49.000  
R08  18364842.956    98342925.535       -2808.788          49.000    18364837.164    76488990.636       -2184.631          51.000  
G21  18551350.713    97488009.607         638.598          47.000                                                                  
S33  38351045.579   201536179.436        -616.706          42.000  
S31  37398280.241   196529380.406        -617.308          44.000  
E36  23082032.190   121296913.589         813.403          45.000    23082035.560    92941859.714         623.336          51.000  
E11  21672522.514   113889889.808       -1038.237          47.000    21672520.015    87266336.834        -795.550          49.000  
R01  18574929.361    99293818.816        1503.345          49.000    18574929.693    77228375.727        1169.250          44.000  
R22  20682102.070   110402516.054       -3598.977          50.000    20682102.088    85868658.131       -2799.209          49.000  
R07  22003946.384   117788806.070       -4773.014          35.000    22003944.343    91613569.378       -3712.729          33.000  
G27  21551090.231   113251723.734       -4197.408          44.000    21551090.985    88248092.176       -3270.670          43.000  
G08  19495159.461   102447812.036       -2801.314          50.000    19495158.794    79829482.754       -2182.802          46.000  
E04  23352188.022   122716615.147       -1756.331          47.000    23352189.323    94029643.808       -1345.809          49.000  
G28  23006524.795   120900074.891        1280.825          43.000    23006527.549    94207858.985         997.787          46.000  
E09  22599226.072   118759790.343         923.157          49.000    22599228.676    90997738.370         707.336          54.000  
E05  24327706.847   127842927.981        2434.709          43.000    24327710.998    97957591.194        1865.464          47.000  
G32  21249817.076   111668566.904       -3216.481          47.000    21249815.747    87014497.190       -2506.484          45.000  
E12  26350436.527   138472497.687       -2490.617          39.000    26350441.226   106102360.153       -1908.375          40.000  
E10  24250933.707   127439684.028       -1973.862          44.000    24250937.538    97648780.321       -1512.433          50.000  
> 2024 04 16 11 14 30.4950000  0 24                     
G31  23665187.387   124361433.780        1633.820          45.000    23665190.007    96904985.609        1273.123          41.000  
G02  19304268.692   101444656.936        1159.497          48.000                                                                  
G03  20682452.884   108687050.347        1035.771          47.000    20682452.552    84691167.934         807.096          43.000  
G04  22764041.328   119625820.116        3191.717          44.000    22764042.253    93214904.578        2486.873          45.000  
R23  18100440.833    96825286.632        -603.446          50.000                                                                  
R24  19882547.387   106320760.250        2620.924          49.000    19882545.316    82694034.837        2038.418          49.000  
R08  18380631.234    98427474.244       -2827.263          50.000    18380625.955    76554750.628       -2198.885          49.000  
G21  18547742.471    97469049.235         625.906          47.000                                                                  
S33  38354567.060   201554683.701        -616.435          42.000  
S31  37401804.908   196547900.876        -616.934          44.000  
E36  23077394.419   121272542.594         811.792          45.000    23077398.170    92923185.782         621.940          51.000  
E11  21678466.603   113921127.116       -1043.512          47.000    21678464.534    87290271.793        -799.545          49.000  
R01  18566550.617    99249027.766        1483.067          50.000    18566550.751    77193538.200        1153.424          44.000  
R22  20702364.150   110510677.298       -3611.397          51.000    20702364.187    85952783.267       -2808.791          49.000  
R07  22030703.716   117932030.888       -4774.525          35.000    22030702.172    91724966.018       -3713.226          32.000  
G27  21575072.665   113377750.314       -4203.906          44.000    21575073.853    88346294.504       -3275.977          44.000  
G08  19511199.567   102532101.286       -2817.633          50.000    19511198.308    79895162.592       -2195.657          45.000  
E04  23362250.973   122769495.139       -1768.559          47.000    23362251.864    94070162.127       -1355.195          49.000  
G28  22999236.857   120861777.301        1272.866          43.000    22999239.476    94178016.617         991.878          45.000  
E09  22593991.849   118732281.967         911.295          49.000    22593993.782    90976660.475         698.262          53.000  
E05  24313814.121   127769923.013        2432.815          43.000    24313818.707    97901652.130        1864.126          47.000  
G32  21268221.091   111765280.124       -3230.520          47.000    21268219.469    87089857.945       -2517.390          44.000  
E12  26364668.135   138547281.315       -2494.548          40.000    26364672.103   106159661.592       -1911.501          40.000  
E10  24262218.675   127498987.213       -1979.162          44.000    24262222.523    97694220.235       -1516.386          50.000  
