     3.00           OBSERVATION DATA    M: Mixed            RINEX VERSION / TYPE
CONVBIN 2.4.3                           20240408 165942 UTC PGM / RUN BY / DATE 
format: u-blox UBX                                          COMMENT             
log: data/2024-04-08/20240408164500.ubx                     COMMENT             
AQUI00CHL                                                   MARKER NAME         
                                                            MARKER NUMBER       
                                                            MARKER TYPE         
                                                            OBSERVER / AGENCY   
UNKNOWN             UBLOX-ZED-F9P                           REC # / TYPE / VERS 
UNKNOWN             TWIVSP6037L                             ANT # / TYPE        
  1713381.0000 -5047934.0000 -3490983.0000                  APPROX POSITION XYZ 
        0.0000        0.0000        0.0000                  ANTENNA: DELTA H/E/N
G    8 C1C L1C D1C S1C C2L L2L D2L S2L                      SYS / # / OBS TYPES 
R    8 C1C L1C D1C S1C C2C L2C D2C S2C                      SYS / # / OBS TYPES 
E    8 C1C L1C D1C S1C C7Q L7Q D7Q S7Q                      SYS / # / OBS TYPES 
S    4 C1C L1C D1C S1C                                      SYS / # / OBS TYPES 
  2024    04    08    16    45   00.4920000     GPS         TIME OF FIRST OBS   
  2024    04    08    16    59   30.4930000     GPS         TIME OF LAST OBS    
                                                            END OF HEADER       
> 2024 04 08 16 45 00.4920000  0 24                     
S33  37457854.138   196842322.7101       -824.535          43.000  
E07  22409809.158   117764301.4651      -2132.402          47.000    22409817.050    90234995.7001      -1633.963          51.000  
G16  22563017.401   118569511.6561       -735.303          40.000                                                                  
R13  18096072.612    96632253.5211       1086.437          43.000    18096075.609    75158490.0961        845.006          44.000  
R17  20823414.451   111429987.1031      -4936.668          47.000    20823431.348    86667570.0571      -3839.397          42.000  
R02  19090416.648   101870071.1141      -2314.419          46.000    19090422.799    79232303.3731      -1800.083          49.000  
R03  18121398.694    97005325.3111        -13.070          52.000    18121397.528    75448642.8421        -10.226          51.000  
R18  18948170.133   101146560.0751      -3051.340          50.000    18948174.537    78669373.5681      -2373.353          48.000  
E33  22255884.535   116955472.6301       -649.755          47.000    22255889.260    89615293.0951       -497.818          51.000  
G09  18470071.510    97060898.8911      -1308.899          48.000    18470073.240    75631938.8241      -1019.849          44.000  
G03  20603818.869   108273664.6491      -3368.060          45.000    20603827.478    84369027.5171      -2624.453          42.000  
G11  20712421.467   108844478.6151       1053.805          42.000    20712424.672    84813915.3071        821.185          44.000  
E26  22257895.545   116965960.4681      -3120.728          48.000    22257902.808    89623261.9461      -2391.251          52.000  
G06  18793904.648    98762675.5001      -1321.240          48.000    18793909.318    76957944.4111      -1029.564          47.000  
R14  20975348.550   111810538.0421       3542.941          47.000    20975370.741    86963624.2831       2755.797          41.000  
R12  19052361.417   101774419.5991      -2340.612          51.000    19052365.266    79158014.2771      -1820.438          47.000  
R19  19707212.097   105420288.6911         49.143          36.000    19707215.249    81993573.5271         37.747          45.000  
E19  24613627.051   129345530.4081        822.226          38.000    24613637.482    99108954.5931        630.086          43.000  
S31  36504823.545   191834100.7781       -824.761          43.000  
G07  18119477.089    95218679.1941       1294.504          49.000    18119476.614    74196262.1141       1008.615          45.000  
G30  20485144.286   107650319.5451       2556.046          45.000    20485152.890    83883700.7741       1991.677          41.000  
G04  20181702.758   106055495.5751      -3060.575          47.000    20181705.367    82640612.1431      -2384.783          42.000  
E30  24392848.067   128185390.6931        118.774          37.000    24392860.661    98220063.2211         90.844          42.000  
E27  24576418.787   129150086.7751       1685.844          43.000    24576435.622    98959280.2111       1291.609          45.000  
> 2024 04 08 16 45 30.4920000  0 24                     
S33  37462560.694   196867055.148        -824.526          44.000  
E07  22421986.134   117828288.842       -2133.398          47.000    22421993.047    90284024.917       -1634.708          50.000  
G16  22567255.445   118591782.642        -749.372          35.000                                                                  
R13  18090033.513    96600009.084        1063.341          42.000    18090037.207    75133411.183         827.155          44.000  
R17  20851094.413   111578101.846       -4937.598          47.000    20851112.142    86782769.395       -3840.233          45.000  
R02  19103440.154   101939565.515       -2318.547          46.000    19103445.727    79286354.432       -1803.232          49.000  
R03  18121483.624    97005779.030         -17.181          51.000    18121481.610    75448995.721         -13.355          50.000  
R18  18965376.059   101238406.588       -3071.799          50.000    18965379.923    78740809.518       -2389.188          48.000  
E33  22259635.324   116975184.050        -664.388          47.000    22259640.006    89630396.602        -509.160          51.000  
G09  18477559.775    97100248.312       -1314.526          49.000    18477560.938    75662600.666       -1024.243          44.000  
G03  20623073.513   108374846.321       -3377.409          44.000    20623082.984    84447870.005       -2631.612          42.000  
G11  20706451.620   108813103.214        1037.917          42.000    20706453.252    84789466.981         808.575          44.000  
E26  22275738.156   117059723.667       -3129.984          48.000    22275745.584    89695106.242       -2398.406          52.000  
G06  18801505.861    98802621.222       -1341.759          47.000    18801510.823    76989070.845       -1045.638          47.000  
R14  20955410.549   111704254.248        3542.683          48.000    20955431.340    86880959.048        2755.290          42.000  
R12  19065575.494   101845006.846       -2365.320          50.000    19065579.640    79212915.490       -1839.659          47.000  
R19  19707011.620   105419217.793          22.751          35.000    19707015.275    81992740.563          17.785          46.000  
E19  24608939.272   129320899.970         819.701          37.000    24608949.670    99090082.022         628.140          42.000  
S31  36509529.416   191858832.739        -824.192          41.000  
G07  18112137.932    95180113.765        1276.458          49.000    18112137.155    74166211.183         994.714          45.000  
G30  20470577.513   107573770.743        2547.544          45.000    20470587.088    83824052.658        1985.148          42.000  
G04  20199178.737   106147335.373       -3062.086          45.000    20199183.051    82712175.491       -2386.009          41.000  
E30  24392202.215   128181999.683         107.334          39.000    24392215.807    98217465.073          82.109          42.000  
E27  24566800.180   129099542.243        1683.884          44.000    24566816.530    98920551.662        1290.086          45.000  
> 2024 04 08 16 46 00.4920000  0 24                     
S33  37467267.219   196891786.540        -824.289          44.000  
E07  22434168.962   117892307.648       -2134.370          48.000    22434175.425    90333078.229       -1635.608          50.000  
G16  22571575.444   118614490.285        -764.467          35.000                                                                  
R13  18084126.124    96568464.501        1039.879          42.000    18084129.736    75108876.583         808.696          44.000  
R17  20878780.120   111726248.487       -4938.619          47.000    20878797.590    86897993.565       -3841.195          44.000  
R02  19116488.822   102009187.754       -2322.891          47.000    19116493.245    79340504.912       -1806.584          49.000  
R03  18121591.815    97006362.242         -21.559          51.000    18121591.133    75449449.360         -16.768          50.000  
R18  18982698.201   101330871.388       -3092.358          50.000    18982703.155    78812726.374       -2405.170          48.000  
E33  22263471.099   116995340.958        -679.355          46.000    22263475.945    89645841.449        -520.557          51.000  
G09  18485082.023    97139775.571       -1320.544          49.000    18485082.742    75693401.065       -1029.053          44.000  
G03  20642379.975   108476306.513       -3386.494          44.000    20642388.629    84526929.563       -2638.936          40.000  
G11  20700574.379   108782223.797        1020.744          42.000    20700576.720    84765405.093         795.534          43.000  
E26  22293634.976   117153770.018       -3139.534          48.000    22293642.007    89767167.495       -2405.571          52.000  
G06  18809225.647    98843185.623       -1362.403          48.000    18809229.460    77020679.338       -1061.568          46.000  
R14  20935475.624   111597991.873        3541.778          45.000    20935496.722    86798310.391        2754.610          41.000  
R12  19078928.492   101916339.287       -2390.058          51.000    19078932.763    79268396.253       -1859.017          45.000  
R19  19706957.203   105418924.515          -3.281          36.000    19706960.397    81992512.489          -2.630          45.000  
E19  24604266.713   129296347.475         816.917          37.000    24604277.416    99071269.183         626.189          43.000  
S31  36514236.078   191883563.484        -824.150          42.000  
G07  18104903.463    95142094.664        1258.263          49.000    18104903.086    74136585.967         980.598          45.000  
G30  20456060.095   107497483.909        2538.529          46.000    20456069.927    83764608.699        1978.047          42.000  
G04  20216664.531   106239224.905       -3063.793          46.000    20216669.334    82783777.610       -2387.336          41.000  
E30  24391624.437   128178956.581          95.632          40.000    24391636.873    98215133.427          73.194          45.000  
E27  24557193.449   129049059.107        1681.835          44.000    24557208.929    98881870.034        1288.724          44.000  
> 2024 04 08 16 46 30.4920000  0 25                     
S33  37471971.543   196916510.175        -823.986          44.000  
E07  22446355.980   117956350.765       -2135.232          48.000    22446362.624    90382150.162       -1635.976          50.000  
G16  22575978.603                        -777.690          30.000                                                                  
R13  18078348.918    96537615.816        1016.754          42.000    18078352.988    75084883.263         790.802          44.000  
R04  20680813.448                3       1488.517          25.000                                                                  
R17  20906469.049   111874416.159       -4939.397          43.000    20906487.000    87013234.201       -3841.466          44.000  
R02  19129558.283   102078930.942       -2326.824          48.000    19129563.249    79394749.495       -1809.828          49.000  
R03  18121723.946    97007068.704         -25.562          52.000    18121722.998    75449998.820         -19.917          50.000  
R18  19000133.604   101423943.625       -3112.483          49.000    19000139.047    78885115.628       -2420.757          49.000  
E33  22267390.048   117015936.800        -693.791          46.000    22267395.312    89661622.599        -531.587          51.000  
G09  18492636.430    97179473.190       -1326.178          49.000    18492637.181    75724334.222       -1033.405          44.000  
G03  20661738.383   108578037.848       -3395.733          41.000    20661747.356    84606200.354       -2645.902          40.000  
G11  20694790.989   108751835.246        1004.789          42.000    20694793.432    84741725.771         782.814          42.000  
E26  22311582.918   117248090.917       -3148.647          48.000    22311591.070    89839439.106       -2412.566          52.000  
G06  18817061.428    98884360.985       -1382.685          47.000    18817064.953    77052763.953       -1077.347          47.000  
R14  20915544.921   111491747.848        3541.394          45.000    20915566.863    86715676.174        2754.243          41.000  
R12  19092420.517   101988408.258       -2414.553          48.000    19092422.876    79324449.782       -1878.057          44.000  
R19  19707047.568   105419402.537         -28.507          38.000    19707050.144    81992884.250         -22.551          43.000  
E19  24599607.855   129271866.067         814.869          37.000    24599618.690    99052510.800         624.417          42.000  
S31  36518940.347   191908286.791        -823.941          44.000  
G07  18097771.066    95104616.827        1240.264          49.000    18097771.141    74107382.530         966.356          44.000  
G30  20441592.185   107421454.390        2530.134          47.000    20441601.115    83705365.230        1971.461          41.000  
G04  20234158.997   106331156.723       -3065.000          43.000    20234163.754    82855412.615       -2388.288          42.000  
E30  24391110.665   128176255.862          84.668          38.000    24391122.684    98213064.073          64.540          44.000  
E27  24547597.334   128998632.566        1679.926          43.000    24547613.909    98843231.778        1287.167          46.000  
> 2024 04 08 16 47 00.4920000  0 24                     
S33  37476674.871   196941225.349        -823.624          44.000  
E07  22458547.083   118020416.513       -2135.844          48.000    22458554.239    90431239.412       -1636.521          50.000  
G16  22580465.607   118661197.006        -792.377          36.000                                                                  
R13  18072702.577    96507464.769         993.529          41.000    18072706.418    75061432.540         772.586          44.000  
R17  20934161.221   112022599.025       -4939.658          43.000    20934178.688    87128486.665       -3841.734          43.000  
R02  19142650.285   102148794.898       -2330.757          47.000    19142655.711    79449087.982       -1812.721          47.000  
R03  18121878.151    97007897.179         -29.659          52.000    18121878.017    75450643.216         -22.969          51.000  
R18  19017682.199   101517618.044       -3132.427          50.000    19017687.789    78957973.297       -2436.284          48.000  
E33  22271392.831   117036970.371        -708.477          46.000    22271397.779    89677739.186        -542.693          50.000  
G09  18500222.157    97219339.191       -1331.567          49.000    18500223.847    75755398.611       -1037.653          45.000  
G03  20681149.696   108680038.217       -3404.490          45.000    20681159.359    84685680.820       -2652.796          42.000  
G11  20689100.439   108721938.104         988.505          42.000    20689104.734    84718429.327         770.105          43.000  
E26  22329585.285   117342683.255       -3157.541          49.000    22329591.954    89911918.718       -2419.388          53.000  
G06  18825012.732    98926145.198       -1402.906          48.000    18825016.095    77085322.960       -1093.031          46.000  
R14  20895617.567   111385524.772        3540.724          46.000    20895639.693    86633058.231        2753.553          44.000  
R12  19106049.177   102061209.840       -2438.789          50.000    19106052.822    79381073.229       -1896.781          47.000  
R19  19707282.116   105420651.046         -54.319          40.000    19707282.747    81993855.276         -42.334          43.000  
E19  24594962.890   129247453.541         812.383          39.000    24594973.585    99033805.214         622.786          43.000  
S31  36523643.807   191933001.343        -823.581          43.000  
G07  18090742.295    95067680.575        1222.233          49.000    18090742.142    74078601.044         952.495          44.000  
G30  20427173.375   107345683.145        2521.503          47.000    20427181.767    83646322.950        1964.893          42.000  
G04  20251661.165   106423128.970       -3066.407          46.000    20251664.461    82927079.115       -2389.578          41.000  
E30  24390660.902   128173897.167          73.090          38.000    24390673.984    98211256.865          55.879          44.000  
E27  24538012.126   128948263.311        1678.236          43.000    24538028.510    98804637.527        1285.868          45.000  
> 2024 04 08 16 47 30.4920000  0 25                     
S33  37481375.893   196965928.548        -823.302          44.000  
E07  22470742.285   118084502.029       -2136.626          48.000    22470749.602    90480343.821       -1637.192          50.000  
G16  22585032.643   118685193.722        -806.762          35.000                                                                  
R13  18067186.375    96478011.663         970.020          42.000    18067190.799    75038524.643         754.356          45.000  
R04  20664151.700                3       1487.931          26.000    20664156.652                1       1157.979          26.000  
R17  20961855.405   112170790.113       -4939.954          42.000    20961871.819    87243745.604       -3842.171          43.000  
R02  19155766.036   102218777.237       -2334.991          49.000    19155770.496    79503518.560       -1816.163          46.000  
R03  18122056.545    97008845.798         -33.808          52.000    18122055.217    75451381.022         -26.338          50.000  
R18  19035341.624   101611888.056       -3152.353          50.000    19035347.743    79031294.178       -2451.930          49.000  
E33  22275478.141   117058439.273        -723.182          46.000    22275483.549    89694189.333        -554.116          51.000  
G09  18507839.927    97259370.385       -1337.439          49.000    18507841.153    75786591.739       -1042.236          45.000  
G03  20700611.066   108782304.500       -3413.466          45.000    20700619.829    84765368.468       -2659.928          41.000  
G11  20683504.708   108692531.664         971.756          42.000    20683509.101    84695515.206         757.378          43.000  
E26  22347634.838   117437542.703       -3166.697          48.000    22347642.920    89984603.001       -2426.367          52.000  
G06  18833078.908    98968534.709       -1423.279          48.000    18833082.604    77118353.633       -1109.169          47.000  
R14  20875694.050   111279324.042        3539.192          42.000    20875716.880    86550457.687        2753.042          43.000  
R12  19119814.027   102134740.028       -2463.325          49.000    19119818.845    79438263.330       -1915.929          47.000  
R19  19707659.186   105422668.092         -80.363          39.000    19707659.935    81995424.108         -62.272          43.000  
E19  24590330.727   129223107.246         810.267          39.000    24590340.175    99015150.398         620.817          43.000  
S31  36528344.630   191957704.475        -823.644          42.000  
G07  18083816.405    95031285.212        1203.836          49.000    18083817.107    74050241.045         938.238          45.000  
G30  20412803.388   107270169.719        2512.573          47.000    20412811.390    83587481.563        1957.944          41.000  
G04  20269170.018   106515138.432       -3067.942          45.000    20269173.360    82998774.680       -2390.394          40.000  
E30  24390278.717   128171879.446          61.403          41.000    24390288.603    98209710.831          46.818          42.000  
E27  24528437.042   128897951.002        1675.838          43.000    24528454.237    98766086.833        1284.202          46.000  
> 2024 04 08 16 48 00.4920000  0 25                     
S33  37486075.237   196990623.432        -822.921          43.000  
E07  22482941.956   118148609.603       -2137.194          48.000    22482949.047    90529465.118       -1637.510          50.000  
G16  22589679.393   118709622.212        -820.842          34.000                                                                  
R13  18061803.069    96449262.046         946.591          42.000    18061806.257    75016163.917         736.258          44.000  
R04  20655777.536                2       1490.768          27.000    20655781.947                1       1159.066          28.000  
R17  20989551.185   112318987.896       -4939.845          43.000    20989567.812    87359009.784       -3841.955          43.000  
R02  19168903.399   102288881.347       -2338.699          48.000    19168908.378    79558043.856       -1819.088          47.000  
R03  18122256.333    97009917.828         -37.703          52.000    18122255.783    75452214.818         -29.292          50.000  
R18  19053113.870   101706752.439       -3171.906          51.000    19053118.160    79105077.333       -2466.993          47.000  
E33  22279647.437   117080346.280        -737.494          46.000    22279652.283    89710975.147        -565.096          51.000  
G09  18515490.154    97299568.731       -1342.493          49.000    18515490.614    75817915.073       -1046.045          45.000  
G03  20720122.235   108884838.685       -3422.263          44.000    20720130.723    84845264.850       -2666.697          40.000  
G11  20678004.250   108663620.252         955.280          43.000    20678006.668    84672986.841         744.624          43.000  
E26  22365737.667   117532670.142       -3175.286          48.000    22365745.376    90057492.622       -2432.944          52.000  
G06  18841261.407    99011531.231       -1443.223          49.000    18841264.624    77151857.307       -1124.623          45.000  
R14  20855774.051   111173152.446        3538.681          39.000    20855798.684    86467879.930        2752.306          43.000  
R12  19133714.584   102208999.156       -2487.426          49.000    19133719.274    79496020.334       -1934.555          45.000  
R19  19708179.534   105425457.541        -105.988          38.000    19708182.021    81997593.601         -82.249          44.000  
E19  24585710.325   129198829.538         808.280          39.000    24585720.101    98996548.099         619.331          42.000  
S31  36533043.652   191982398.871        -823.110          42.000  
G07  18076994.071    94995434.735        1185.972          48.000    18076995.490    74022305.658         924.138          46.000  
G30  20398483.235   107194918.952        2504.002          47.000    20398491.392    83528844.899        1951.402          40.000  
G04  20286686.578   106607187.070       -3068.710          46.000    20286690.894    83070500.721       -2391.092          43.000  
E30  24389959.960   128170206.355          50.212          40.000    24389970.912    98208428.892          38.328          42.000  
E27  24518876.655   128847700.296        1673.984          45.000    24518891.769    98727583.348        1282.722          47.000  
> 2024 04 08 16 48 30.4920000  0 25                     
S33  37490771.463   197015301.035        -822.106          44.000  
E07  22495143.122   118212730.586       -2137.327          48.000    22495150.787    90578596.720       -1637.626          50.000  
G16  22594407.441   118734408.6721       -835.195          36.000                                                                  
R13  18056549.161    96421210.249         923.614          40.000    18056552.707    74994345.943         718.136          44.000  
R04  20647425.761                1       1491.733          29.000    20647432.062                1       1159.238          30.000  
R17  21017244.534   112467179.583       -4939.459          41.000    21017261.865    87474269.299       -3841.803          44.000  
R02  19182061.921   102359099.450       -2342.465          49.000    19182066.401    79612657.825       -1821.898          45.000  
R03  18122477.616    97011105.534         -41.315          51.000    18122476.409    75453138.563         -32.142          49.000  
R18  19070995.090   101802198.580       -3191.012          51.000    19070999.528    79179313.014       -2481.903          48.000  
E33  22283897.948   117102683.151        -751.571          47.000    22283903.166    89728090.362        -575.844          51.000  
G09  18523169.836    97339925.242       -1347.748          49.000    18523170.325    75849361.638       -1050.262          45.000  
G03  20739683.566   108987631.753       -3430.636          45.000    20739692.283    84925362.947       -2673.246          40.000  
G11  20672595.323   108635197.241         939.362          43.000    20672597.191    84650839.023         732.179          41.000  
E26  22383889.753   117628055.425       -3183.619          48.000    22383897.015    90130579.802       -2439.403          52.000  
G06  18849557.215    99055125.465       -1463.043          49.000    18849560.104    77185826.733       -1140.113          46.000  
R14  20835860.408   111067005.307        3537.880          40.000    20835885.754    86385321.212        2751.599          41.000  
R12  19147752.363   102283976.687       -2511.129          47.000    19147756.764    79554336.128       -1952.925          48.000  
R19  19708843.383   105429010.758        -130.616          38.000    19708846.249    82000357.219        -101.932          43.000  
E19  24581101.869   129174611.591         806.282          40.000    24581111.393    98977991.593         618.083          42.000  
S31  36537739.898   192007075.699        -822.314          41.000  
G07  18070274.576    94960122.397        1168.144          49.000    18070276.122    73994789.583         910.289          46.000  
G30  20384212.003   107119924.592        2495.637          45.000    20384219.160    83470408.008        1944.718          39.000  
G04  20304208.142   106699266.019       -3069.663          44.000    20304213.741    83142250.447       -2392.055          43.000  
E30  24389705.101   128168870.762          39.085          41.000    24389716.718    98207405.622          29.977          42.000  
E27  24509324.070   128797504.934        1672.418          44.000    24509339.943    98689122.261        1281.445          47.000  
> 2024 04 08 16 49 00.4920000  0 25                     
S33  37495465.248   197039968.726        -822.303          44.000  
E07  22507349.370   118276872.384       -2138.539          48.000    22507356.366    90627744.254       -1638.540          49.000  
G16  22599218.696                        -849.957          32.000                                                                  
R13  18051428.821    96393867.177         899.344          41.000    18051432.125    74973079.201         699.682          44.000  
R04  20639068.507   110521353.2251       1491.430          34.000    20639072.551    85961033.2901       1160.552          34.000  
R17  21044937.367   112615368.785       -4939.625          41.000    21044955.128    87589526.915       -3842.196          43.000  
R02  19195244.665   102429439.619       -2346.925          48.000    19195248.556    79667366.742       -1825.401          46.000  
R03  18122722.640    97012416.575         -45.962          51.000    18122721.535    75454158.266         -35.867          49.000  
R18  19088985.110   101898230.461       -3210.963          51.000    19088989.313    79254004.248       -2497.340          48.000  
E33  22288231.266   117125457.666        -766.730          46.000    22288237.116    89745540.909        -587.355          51.000  
G09  18530880.391    97380446.914       -1353.705          49.000    18530880.954    75880936.887       -1054.718          44.000  
G03  20759295.332   109090690.582       -3439.853          44.000    20759304.970    85005668.221       -2680.571          41.000  
G11  20667280.995   108607272.031         922.413          43.000    20667283.949    84629079.162         718.576          41.000  
E26  22402091.336   117723704.437       -3192.739          48.000    22402098.263    90203869.059       -2446.411          52.000  
G06  18857967.485    99099324.023       -1483.597          49.000    18857971.023    77220267.053       -1156.110          46.000  
R14  20815954.724   110960894.570        3536.290          43.000    20815979.528    86302790.844        2750.070          40.000  
R12  19161924.142   102359678.209       -2535.620          49.000    19161927.718    79613215.010       -1972.128          45.000  
R19  19709651.891   105433336.315        -156.865          37.000    19709652.850    82003721.538        -122.578          41.000  
E19  24576505.376   129150460.366         803.613          38.000    24576515.669    98959486.271         615.683          41.000  
S31  36542433.708   192031743.032        -822.275          40.000  
G07  18063659.591    94925357.781        1149.405          49.000    18063660.154    73967700.328         895.719          46.000  
G30  20369991.209   107045196.578        2486.207          46.000    20369999.081    83412178.668        1937.375          41.000  
G04  20321736.989   106791382.408       -3071.522          45.000    20321740.702    83214029.295       -2393.406          42.000  
E30  24389515.911   128167881.517          27.095          41.000    24389527.942    98206647.679          20.602          42.000  
E27  24499784.337   128747374.696        1669.671          43.000    24499799.786    98650710.998        1279.408          47.000  
> 2024 04 08 16 49 30.4930000  0 25                     
S33  37500158.897   197064632.856        -821.879          44.000  
E07  22519561.323   118341042.352       -2139.277          49.000    22519567.051    90676913.375       -1639.127          49.000  
G16  22604114.575                1       -864.099          32.000                                                                  
R13  18046442.450    96367240.311         875.631          41.000    18046446.264    74952369.545         681.083          44.000  
R04  20630709.545   110476595.966        1492.482          38.000    20630712.837    85926222.009        1160.311          37.000  
R17  21072629.650   112763561.911       -4939.457          45.000    21072649.116    87704787.793       -3841.819          43.000  
R02  19208449.957   102499910.588       -2350.901          48.000    19208454.805    79722177.392       -1828.367          46.000  
R03  18122992.383    97013857.706         -50.055          52.000    18122991.031    75455279.130         -38.891          50.000  
R18  19107085.680   101994852.677       -3230.227          50.000    19107091.560    79329154.624       -2512.486          48.000  
E33  22292650.237   117148676.315        -781.130          47.000    22292655.361    89763331.743        -598.590          51.000  
G09  18538623.813    97421140.100       -1359.088          49.000    18538625.364    75912645.807       -1059.071          45.000  
G03  20778958.873   109194023.707       -3448.465          44.000    20778969.141    85086187.097       -2687.101          42.000  
G11  20662063.003   108579851.016         905.503          42.000    20662065.462    84607712.160         705.843          43.000  
E26  22420344.489   117819624.129       -3201.533          48.000    22420351.064    90277365.698       -2453.183          51.000  
G06  18866494.977    99144133.019       -1503.534          49.000    18866497.758    77255183.024       -1171.588          45.000  
R14  20796057.833   110854826.289        3534.496          43.000    20796082.462    86220293.495        2749.473          43.000  
R12  19176230.938   102436110.034       -2559.712          47.000    19176235.655    79672661.807       -1990.796          46.000  
R19  19710606.547   105438440.408        -182.977          37.000    19710607.902    82007691.356        -142.421          44.000  
E19  24571923.736   129126380.381         801.384          38.000    24571932.607    98941035.418         614.392          40.000  
S31  36547127.290   192056407.159        -821.501          42.000  
G07  18057149.081    94891146.323        1131.268          49.000    18057149.723    73941042.090         881.519          46.000  
G30  20355822.758   106970740.081        2477.247          46.000    20355830.371    83354160.935        1930.466          40.000  
G04  20339274.513   106883544.199       -3072.485          44.000    20339280.788    83285843.521       -2393.996          42.000  
E30  24389394.770   128167245.361          15.294          40.000    24389406.150    98206160.291          11.757          41.000  
E27  24490256.432   128697315.466        1667.459          42.000    24490273.255    98612354.229        1277.698          46.000  
> 2024 04 08 16 50 00.4930000  0 24                     
S33  37504852.221   197089296.453        -821.827          44.000  
E07  22531776.494   118405239.696       -2140.349          48.000    22531783.933    90726103.514       -1639.919          49.000  
R13  18041591.638    96341338.074         850.994          41.000    18041595.658    74932223.417         662.132          44.000  
R04  20622348.695   110431828.345        1492.453          41.000    20622351.133    85891402.875        1160.674          39.000  
R17  21100322.047   112911748.616       -4939.670          38.000    21100340.713    87820043.642       -3841.961          38.000  
R02  19221681.566   102570512.629       -2355.500          49.000    19221685.784    79777089.971       -1831.966          46.000  
R03  18123286.138    97015433.127         -54.698          51.000    18123285.087    75456504.476         -42.522          49.000  
R18  19125294.534   102092058.860       -3249.845          50.000    19125301.787    79404759.164       -2527.723          50.000  
E33  22297153.489   117172341.328        -796.193          46.000    22297158.740    89781464.611        -610.000          50.000  
G09  18546400.675    97462005.255       -1365.046          49.000    18546401.790    75944488.718       -1063.728          45.000  
G03  20798673.733   109297627.039       -3457.909          42.000    20798684.990    85166916.595       -2694.518          41.000  
G11  20656942.628   108552941.551         888.632          44.000    20656945.651    84586743.770         692.422          43.000  
E26  22438648.584   117915810.083       -3210.666          49.000    22438654.747    90351066.384       -2460.065          51.000  
G06  18875137.986    99189552.185       -1524.066          48.000    18875141.737    77290574.467       -1187.628          46.000  
R14  20776170.741   110748815.728        3532.866          46.000    20776195.321    86137841.097        2747.619          39.000  
R12  19190674.937   102513268.417       -2583.853          48.000    19190679.424    79732673.804       -2009.697          46.000  
R19  19711707.578   105444327.252        -209.030          38.000    19711709.416    82012270.003        -162.723          45.000  
E19  24567354.919   129102376.718         798.729          38.000    24567365.886    98922643.143         612.273          42.000  
S31  36551820.602   192081070.611        -822.147          43.000  
G07  18050745.150    94857495.959        1112.378          49.000    18050745.990    73914821.059         866.715          46.000  
G30  20341707.512   106896566.079        2467.935          46.000    20341715.745    83296363.266        1923.097          43.000  
G04  20356821.473   106975748.543       -3074.046          44.000    20356825.219    83357690.898       -2395.564          41.000  
E30  24389343.200   128166967.178           3.360          41.000    24389354.114    98205947.212           2.451          43.000  
E27  24480746.784   128647336.548        1664.569          43.000    24480763.166    98574058.998        1275.622          47.000  
> 2024 04 08 16 50 30.4930000  0 24                     
S33  37509544.304   197113952.819        -821.566          44.000  
E07  22543997.543   118469459.360       -2140.701          48.000    22544004.485    90775310.699       -1640.266          49.000  
R13  18036875.887    96316155.297         827.774          41.000    18036879.064    74912636.853         643.880          44.000  
R04  20613983.385   110387041.478        1493.623          43.000    20613986.648    85856568.636        1161.562          42.000  
R17  21128012.397   113059922.580       -4938.518          40.000    21128030.897    87935289.747       -3840.805          39.000  
R02  19234936.721   102641241.144       -2359.420          49.000    19234940.789    79832100.880       -1835.100          47.000  
R03  18123605.270    97017136.735         -58.642          51.000    18123603.921    75457829.482         -45.611          50.000  
R18  19143613.444   102189840.815       -3268.664          51.000    19143619.915    79480811.529       -2542.225          50.000  
E33  22301740.551   117196446.652        -810.598          46.000    22301745.949    89799934.838        -621.160          50.000  
G09  18554208.205    97503036.122       -1370.196          49.000    18554209.499    75976460.785       -1067.651          45.000  
G03  20818439.922   109401496.470       -3466.355          43.000    20818451.069    85247853.425       -2701.324          41.000  
G11  20651917.938   108526537.422         871.948          44.000    20651919.223    84566169.137         679.041          39.000  
E26  22457001.234   118012256.701       -3218.918          49.000    22457008.316    90424966.795       -2466.466          52.000  
G06  18883895.891    99235574.949       -1543.835          48.000    18883899.347    77326436.227       -1202.844          46.000  
R14  20756292.754   110642855.929        3531.615          45.000    20756315.304    86055428.233        2746.161          38.000  
R12  19205252.449   102591146.887       -2607.784          45.000    19205258.825    79793245.708       -2028.078          46.000  
R19  19712953.012   105450989.851        -234.837          38.000    19712955.120    82017451.933        -182.433          46.000  
E19  24562800.608   129078440.912         796.959          38.000    24562810.608    98904302.849         610.499          41.000  
S31  36556512.497   192105726.647        -821.437          42.000  
G07  18044447.071    94824399.970        1094.307          48.000    18044447.220    73889032.010         852.661          45.000  
G30  20327644.126   106822667.260        2458.890          46.000    20327652.685    83238780.044        1916.128          42.000  
G04  20374375.160   107067990.979       -3075.173          46.000    20374379.690    83429567.966       -2396.377          41.000  
E30  24389356.603   128167041.320          -7.997          39.000    24389368.193    98206004.003          -6.086          43.000  
E27  24471250.130   128597431.443        1662.620          44.000    24471266.383    98535820.283        1273.889          47.000  
> 2024 04 08 16 51 00.4930000  0 25                     
S33  37514234.969   197138600.414        -821.340          45.000  
E07  22556222.323   118533699.331       -2141.451          49.000    22556228.637    90824533.425       -1640.895          48.000  
G16  22619300.001                3       -908.337          34.000                                                                  
R13  18032294.319    96291693.033         803.274          40.000    18032298.288    74893610.721         624.965          44.000  
R04  20605617.051   110342233.719        1494.317          46.000    20605619.060    85821718.230        1162.220          42.000  
R17  21155700.042   113208077.928       -4937.983          43.000    21155718.307    88050521.439       -3840.500          39.000  
R02  19248214.073   102712095.058       -2363.624          47.000    19248218.939    79887209.368       -1838.523          46.000  
R03  18123947.183    97018966.715         -62.969          52.000    18123945.932    75459252.771         -48.806          50.000  
R18  19162038.367   102288192.915       -3287.701          52.000    19162044.148    79557307.337       -2557.053          49.000  
E33  22306410.482   117220990.609        -825.367          46.000    22306415.974    89818741.171        -632.415          50.000  
G09  18562046.893    97544230.404       -1375.800          49.000    18562048.797    76008560.204       -1072.108          45.000  
G03  20838256.917   109505629.617       -3475.283          44.000    20838267.241    85328995.711       -2707.948          41.000  
G11  20646989.246   108500638.559         854.960          43.000    20646990.679    84545988.173         666.332          42.000  
E26  22475402.776   118108960.524       -3227.551          48.000    22475410.471    90499064.293       -2473.044          51.000  
G06  18892767.932    99282198.493       -1563.785          49.000    18892772.194    77362766.174       -1218.684          47.000  
R14  20736425.104   110536949.763        3529.410          45.000    20736446.869    85973057.173        2745.152          41.000  
R12  19219967.276   102669741.108       -2631.516          47.000    19219971.334    79854374.537       -2046.795          47.000  
R19  19714343.273   105458427.265        -260.826          38.000    19714345.889    82023236.529        -202.755          46.000  
E19  24558258.792   129054571.151         794.572          39.000    24558267.599    98886013.104         608.958          40.000  
S31  36561202.899   192130374.152        -821.125          42.000  
G07  18038255.016    94791858.104        1075.624          48.000    18038254.755    73863674.739         838.098          44.000  
G30  20313634.015   106749044.060        2449.602          47.000    20313641.603    83181411.561        1908.835          42.000  
G04  20391935.694   107160269.362       -3076.411          46.000    20391939.535    83501472.987       -2397.200          43.000  
E30  24389438.600   128167466.942         -19.791          40.000    24389449.504    98206330.244         -15.134          43.000  
E27  24461766.404   128547600.543        1659.876          44.000    24461783.710    98497638.454        1271.806          48.000  
> 2024 04 08 16 51 30.4930000  0 26                     
S33  37518922.350   197163232.576        -820.815          44.000  
E07  22568449.632   118597953.281       -2141.938          48.000    22568455.915    90873766.885       -1641.308          49.000  
G16  22624529.708   118892687.1151       -922.737          33.000                                                                  
R13  18027847.525    96267947.522         779.324          41.000    18027851.061    74875142.049         606.300          44.000  
R04  20597243.348   110297398.525        1495.114          42.000    20597245.785    85786846.401        1162.632          40.000  
R17  21183380.609   113356204.273       -4937.098          45.000    21183398.085    88165730.719       -3839.835          41.000  
R02  19261513.397   102783069.079       -2368.047          43.000    19261519.293    79942411.264       -1841.549          46.000  
R03  18124311.187    97020917.923         -66.979          51.000    18124310.019    75460770.349         -52.172          50.000  
R18  19180567.810   102387104.774       -3306.357          52.000    19180574.265    79634238.531       -2571.498          48.000  
E33  22311164.430   117245967.170        -839.738          47.000    22311169.125    89837878.998        -643.392          50.000  
G09  18569916.618    97585581.457       -1380.947          50.000    18569917.678    76040781.748       -1076.071          45.000  
G03  20858121.584   109610019.629       -3483.958          42.000    20858132.466    85410338.215       -2714.585          41.000  
G11  20642155.318   108475240.565         838.124          44.000    20642158.632    84526197.594         653.132          42.000  
E26  22493853.639   118205913.633       -3235.861          49.000    22493860.965    90573352.763       -2479.393          52.000  
G06  18901753.607    99329415.664       -1583.764          49.000    18901756.753    77399558.624       -1234.042          46.000  
R14  20716567.877   110431094.514        3527.699          44.000    20716588.216    85890725.816        2743.694          37.000  
R12  19234813.493   102749043.216       -2655.078          46.000    19234816.854    79916053.761       -2065.153          48.000  
R19  19715877.011   105466632.851        -286.174          37.000    19715879.506    82029618.666        -222.753          45.000  
E19  24553727.931   129030760.635         792.705          38.000    24553736.230    98867768.741         607.607          40.000  
S31  36565890.162   192155006.410        -820.977          43.000  
G20  22036258.485                3       2504.592          27.000                                                                  
G07  18032166.505    94759865.935        1057.162          48.000    18032166.757    73838745.859         823.861          45.000  
G30  20299675.729   106675692.530        2440.425          47.000    20299683.525    83124254.761        1901.719          43.000  
G04  20409500.199   107252576.941       -3077.421          44.000    20409506.218    83573400.869       -2398.039          42.000  
E30  24389584.055   128168239.375         -31.460          41.000    24389595.433    98206922.121         -24.102          43.000  
E27  24452297.658   128497839.897        1657.551          44.000    24452314.437    98459510.401        1270.069          47.000  
> 2024 04 08 16 52 00.4930000  0 26                     
S33  37523605.496   197187846.106        -820.367          43.000  
E07  22580678.259   118662216.597       -2142.446          48.000    22580684.952    90923007.504       -1641.593          49.000  
G16  22629839.748                        -937.625          32.000                                                                  
R13  18023534.605    96244917.381         755.452          41.000    18023539.167    74857229.802         587.643          44.000  
R04  20588864.413   110252531.474        1496.023          43.000    20588867.517    85751949.884        1163.522          41.000  
R17  21211055.618   113504292.887       -4935.860          45.000    21211073.015    88280910.775       -3839.166          42.000  
R02  19274836.883   102854159.270       -2371.884          46.000    19274842.316    79997703.490       -1844.734          47.000  
R03  18124697.009    97022986.218         -71.141          51.000    18124696.634    75462379.006         -55.219          50.000  
R18  19199200.480   102486567.785       -3324.746          50.000    19199206.683    79711598.385       -2585.824          48.000  
E33  22315998.316   117271372.016        -854.111          46.000    22316003.638    89857344.986        -654.516          50.000  
G09  18577814.225    97627084.315       -1386.042          49.000    18577816.009    76073121.615       -1080.098          46.000  
G03  20878034.380   109714661.455       -3492.374          43.000    20878045.054    85491876.892       -2721.579          41.000  
G11  20637417.006   108450340.746         821.420          44.000    20637421.340    84506795.151         640.221          43.000  
E26  22512348.327   118303109.850       -3243.917          48.000    22512356.698    90647827.539       -2485.680          52.000  
G06  18910850.168    99377220.902       -1603.528          49.000    18910854.512    77436809.353       -1249.448          46.000  
R14  20696717.600   110325290.207        3525.892          45.000    20696737.237    85808433.960        2742.395          36.000  
R12  19249791.311   102829045.877       -2678.568          50.000    19249794.963    79978277.979       -2083.291          48.000  
R19  19717553.839   105475603.173        -312.008          37.000    19717556.662    82036595.502        -242.535          46.000  
E19  24549207.375   129007004.834         791.027          39.000    24549215.788    98849566.359         605.861          40.000  
S31  36570574.459   192179619.366        -820.619          43.000  
G20  22021958.547                3       2502.007          23.000                                                                  
G07  18026182.481    94728420.442        1038.882          48.000    18026183.095    73814242.911         809.594          45.000  
G30  20285768.536   106602610.434        2431.398          47.000    20285776.292    83067307.919        1894.763          42.000  
G04  20427070.592   107344909.003       -3078.402          44.000    20427074.820    83645347.767       -2398.731          41.000  
E30  24389795.989   128169355.196         -43.074          41.000    24389807.611    98207777.132         -33.072          43.000  
E27  24442840.324   128448147.161        1655.203          43.000    24442857.709    98421434.439        1268.205          47.000  
> 2024 04 08 16 52 30.4930000  0 26                     
S33  37528287.955   197212451.354        -819.950          43.000  
E07  22592911.566   118726501.225       -2143.192          48.000    22592918.357    90972264.469       -1642.186          49.000  
G16  22635236.396                1       -952.588          30.000                                                                  
R13  18019358.760    96222617.235         731.381          42.000    18019362.255    74839885.307         568.573          44.000  
R04  20580482.729   110207644.633        1496.506          44.000    20580485.586    85717037.979        1164.068          42.000  
R17  21238722.559   113652352.162       -4934.937          45.000    21238741.826    88396068.059       -3838.112          44.000  
R02  19288182.995   102925378.544       -2376.322          45.000    19288188.525    80053096.152       -1848.049          48.000  
R03  18125108.621    97025184.793         -75.405          52.000    18125106.966    75464088.984         -58.645          49.000  
R18  19217938.310   102586590.305       -3343.362          52.000    19217944.549    79789393.419       -2600.361          47.000  
E33  22320915.859   117297217.326        -868.955          46.000    22320922.061    89877148.426        -665.647          51.000  
G09  18585742.677    97668750.550       -1391.535          49.000    18585744.963    76105588.749       -1084.167          46.000  
G03  20897997.426   109819566.528       -3501.245          43.000    20898007.863    85573620.703       -2728.300          39.000  
G11  20632776.210   108425952.894         804.416          45.000    20632779.202    84487791.571         627.020          42.000  
E26  22530892.550   118400559.551       -3252.449          47.000    22530901.225    90722496.494       -2492.105          52.000  
G06  18920061.418    99425625.246       -1623.438          48.000    18920065.888    77474526.885       -1264.999          46.000  
R14  20676880.256   110219553.172        3523.346          45.000    20676900.456    85726194.638        2740.303          38.000  
R12  19264901.501   102909759.310       -2702.219          48.000    19264903.006    80041054.981       -2101.606          47.000  
R19  19719375.905   105485350.640        -337.563          38.000    19719378.979    82044176.820        -262.733          45.000  
E19  24544698.847   128983315.404         788.480          38.000    24544707.711    98831414.771         604.216          40.000  
S31  36575256.339   192204225.536        -820.176          43.000  
G20  22007658.977                2       2503.040          26.000                                                                  
G07  18020305.736    94697535.263        1020.288          48.000    18020305.818    73790176.597         795.211          45.000  
G30  20271915.079   106529812.085        2421.895          47.000    20271922.806    83010582.190        1887.070          43.000  
G04  20444647.724   107437277.103       -3079.525          44.000    20444653.819    83717322.694       -2399.634          42.000  
E30  24390076.832   128170827.729         -55.227          42.000    24390088.612    98208905.464         -42.283          44.000  
E27  24433400.170   128398536.692        1652.299          44.000    24433416.334    98383421.525        1266.051          46.000  
> 2024 04 08 16 53 00.4930000  0 25                     
S33  37532966.389   197237034.732        -819.078          43.000  
E07  22605146.154   118790791.091       -2143.126          48.000    22605152.259    91021525.428       -1642.026          50.000  
G16  22640706.837                1       -965.669          31.000                                                                  
R13  18015316.965    96201033.941         707.559          41.000    18015320.431    74823098.379         550.234          44.000  
R04  20572093.035   110162721.846        1498.080          46.000    20572095.836    85682098.126        1165.233          41.000  
R17  21266382.358   113800361.513       -4932.656          44.000    21266401.020    88511186.596       -3836.642          43.000  
R02  19301552.200   102996711.851       -2379.564          46.000    19301556.679    80108577.487       -1850.757          47.000  
R03  18125540.342    97027498.396         -78.906          51.000    18125539.387    75465888.456         -61.413          50.000  
R18  19236776.949   102687151.992       -3360.898          51.000    19236783.022    79867607.778       -2613.920          47.000  
E33  22325915.072   117323487.274        -882.826          45.000    22325920.894    89897277.285        -676.379          50.000  
G09  18593698.793    97710563.784       -1396.216          49.000    18593701.699    76138170.431       -1087.878          46.000  
G03  20918007.899   109924718.247       -3509.287          44.000    20918018.186    85655556.686       -2734.316          40.000  
G11  20628230.757   108402062.764         788.066          46.000    20628233.548    84469175.896         614.119          43.000  
E26  22549481.147   118498245.050       -3260.076          47.000    22549489.982    90797346.169       -2497.976          51.000  
G06  18929383.299    99474611.658       -1642.532          48.000    18929387.617    77512697.975       -1279.918          46.000  
R14  20657053.973   110113871.369        3521.693          46.000    20657074.643    85643998.305        2738.896          38.000  
R12  19280139.355   102991165.032       -2725.042          50.000    19280143.642    80104370.416       -2119.474          49.000  
R19  19721341.284   105495859.317        -363.211          38.000    19721343.317    82052350.165        -281.990          46.000  
E19  24540201.698   128959676.210         787.128          40.000    24540209.128    98813301.692         603.116          40.000  
S31  36579934.552   192228808.691        -819.034          42.000  
G07  18014532.362    94667195.894        1002.236          49.000    18014532.191    73766535.599         780.972          45.000  
G30  20258113.494   106457283.806        2413.211          48.000    20258120.616    82954066.867        1880.434          43.000  
G04  20462229.380   107529664.944       -3079.912          44.000    20462232.692    83789313.031       -2400.139          40.000  
E30  24390422.638   128172642.324         -66.486          41.000    24390433.927    98210295.932         -50.692          43.000  
E27  24423972.185   128348994.780        1650.350          43.000    24423988.602    98345461.094        1264.506          46.000  
> 2024 04 08 16 53 30.4930000  0 25                     
S33  37537639.764   197261595.140        -818.741          44.000  
E07  22617381.459   118855086.489       -2143.526          48.000    22617387.773    91070790.647       -1642.630          50.000  
R13  18011410.397    96180170.524         683.234          42.000    18011413.787    74806871.315         531.296          44.000  
R04  20563698.657   110117763.813        1498.882          45.000    20563700.399    85647130.831        1165.661          42.000  
R17  21294030.178   113948317.760       -4931.367          47.000    21294049.649    88626263.878       -3835.406          45.000  
R02  19314941.749   103068160.295       -2383.893          47.000    19314947.329    80164148.401       -1854.292          47.000  
R03  18125993.784    97029928.498         -83.240          51.000    18125993.248    75467778.511         -64.789          50.000  
R18  19255716.667   102788249.274       -3379.181          51.000    19255723.083    79946238.739       -2628.300          48.000  
E33  22330994.824   117350182.466        -897.300          45.000    22331000.778    89917731.963        -687.575          50.000  
G09  18601684.198    97752524.047       -1401.471          49.000    18601686.037    76170866.692       -1091.821          46.000  
G03  20938064.782   110030116.500       -3517.761          43.000    20938074.449    85737684.797       -2741.165          39.000  
G11  20623780.378   108378672.547         771.013          46.000    20623782.536    84450949.724         600.613          43.000  
E26  22568116.271   118596165.145       -3268.218          48.000    22568123.855    90872375.600       -2504.307          51.000  
G06  18938815.175    99524179.495       -1662.295          48.000    18938820.162    77551322.161       -1295.324          46.000  
R14  20637240.086   110008249.588        3519.408          47.000    20637259.990    85561848.683        2737.075          40.000  
R12  19295507.506   103073261.247       -2748.369          50.000    19295512.181    80168223.036       -2137.666          48.000  
R19  19723447.965   105507129.956        -388.954          38.000    19723449.493    82061116.206        -302.299          44.000  
E19  24535712.569   128936087.390         785.203          39.000    24535720.800    98795227.202         601.551          41.000  
S31  36584608.531   192253369.625        -818.425          41.000  
G20  21979071.514                2       2501.869          27.000                                                                  
G07  18008863.033    94637404.415         983.532          48.000    18008863.504    73743321.505         766.219          46.000  
G30  20244364.137   106385028.354        2403.662          49.000    20244371.437    82897764.140        1872.786          44.000  
G04  20479814.964   107622072.670       -3080.940          45.000    20479817.316    83861318.844       -2400.605          41.000  
E30  24390832.836   128174800.616         -78.282          40.000    24390844.143    98211949.721         -59.768          44.000  
E27  24414558.508   128299524.156        1647.474          43.000    24414574.316    98307555.307        1262.406          47.000  
> 2024 04 08 16 54 00.4930000  0 24                     
S33  37542314.436   197286158.434        -818.889          44.000  
E07  22629621.880   118919411.298       -2144.750          48.000    22629628.731    91120078.405       -1643.384          51.000  
R13  18007642.998    96160053.846         657.919          42.000    18007646.604    74791225.070         511.728          44.000  
R04  20555300.378   110072794.769        1499.059          43.000    20555303.336    85612154.994        1165.781          41.000  
R17  21321673.170   114096241.057       -4930.336          48.000    21321692.493    88741315.622       -3834.676          43.000  
R02  19328358.313   103139748.942       -2388.827          48.000    19328362.810    80219828.325       -1857.795          47.000  
R03  18126473.565    97032499.523         -88.222          51.000    18126473.451    75469778.200         -68.531          50.000  
R18  19274760.105   102889902.381       -3397.831          52.000    19274766.783    80025301.995       -2642.727          49.000  
E33  22336161.159   117377326.927        -912.470          46.000    22336166.479    89938530.857        -699.120          50.000  
G09  18609701.960    97794654.870       -1407.367          49.000    18609703.341    76203695.873       -1096.668          46.000  
G03  20958173.466   110135784.466       -3526.877          43.000    20958183.980    85820023.077       -2748.265          41.000  
G11  20619428.540   108355807.875         753.290          45.000    20619431.036    84433133.090         587.226          43.000  
E26  22586797.701   118694342.015       -3276.887          47.000    22586806.898    90947601.753       -2510.866          52.000  
G06  18948362.861    99574351.561       -1682.425          48.000    18948368.220    77590417.169       -1311.017          46.000  
R14  20617441.944   109902716.547        3516.154          49.000    20617460.899    85479767.979        2734.655          37.000  
R12  19311010.319   103156069.961       -2772.236          49.000    19311014.013    80232629.755       -2156.219          49.000  
R19  19725701.869   105519186.960        -414.949          38.000    19725703.544    82070493.785        -322.903          45.000  
E19  24531236.778   128912572.758         782.353          37.000    24531245.922    98777209.554         599.513          41.000  
S31  36589282.209   192277932.186        -818.930          41.000  
G07  18003302.743    94608186.175         964.262          48.000    18003303.944    73720554.112         751.347          46.000  
G30  20230670.709   106313071.812        2393.366          49.000    20230679.208    82841694.361        1864.755          44.000  
G04  20497408.632   107714523.842       -3082.545          46.000    20497411.579    83933358.483       -2401.767          43.000  
E30  24391313.901   128177327.667         -90.576          45.000    24391324.830    98213886.079         -69.265          45.000  
E27  24405162.204   128250150.882        1644.046          42.000    24405179.646    98269724.139        1259.811          48.000  
> 2024 04 08 16 54 30.4930000  0 26                     
S33  37546988.983   197310723.562        -818.798          43.000  
E07  22641867.975   118983766.465       -2145.533          48.000    22641875.077    91169389.361       -1643.916          51.000  
G16  22657620.491                3      -1010.443          28.000                                                                  
R13  18004015.849    96140687.816         633.107          41.000    18004019.609    74776162.691         492.454          44.000  
R04  20546901.091   110027815.788        1499.512          43.000    20546903.471    85577171.349        1166.511          40.000  
R17  21349309.242   114244128.639       -4928.815          47.000    21349327.915    88856339.678       -3833.663          43.000  
R02  19341801.362   103211479.680       -2393.202          49.000    19341805.089    80275618.710       -1861.506          48.000  
R03  18126980.907    97035213.891         -92.769          51.000    18126981.406    75471889.349         -72.227          51.000  
R18  19293905.725   102992108.219       -3415.898          50.000    19293912.919    80104795.145       -2656.832          48.000  
E33  22341411.277   117404921.713        -927.115          45.000    22341417.792    89959674.844        -710.340          50.000  
G09  18617752.312    97836956.812       -1412.781          49.000    18617753.103    76236658.378       -1100.903          45.000  
G03  20978333.573   110241722.638       -3535.755          44.000    20978344.546    85902571.867       -2755.059          42.000  
G11  20615178.825   108333471.452         735.872          47.000    20615181.131    84415728.083         573.312          44.000  
E26  22605529.370   118792774.976       -3285.229          48.000    22605538.355    91023024.131       -2517.104          51.000  
G06  18958025.443    99625127.765       -1702.459          48.000    18958030.968    77629982.911       -1326.536          47.000  
R14  20597660.527   109797277.012        3513.197          48.000    20597681.498    85397760.086        2732.380          41.000  
R12  19326646.273   103239589.987       -2795.730          51.000    19326649.305    80297589.711       -2174.321          49.000  
R19  19728103.076   105532031.488        -441.248          37.000    19728104.154    82080483.949        -343.078          45.000  
E19  24526775.698   128889132.546         780.253          37.000    24526785.490    98759248.970         597.842          41.000  
S31  36593957.046   192302497.884        -818.763          42.000  
G20  21950494.527                3       2503.320          26.000                                                                  
G07  17997851.986    94579543.851         945.192          47.000    17997852.382    73698235.457         736.454          45.000  
G30  20217035.593   106241417.489        2383.610          48.000    20217043.239    82785860.038        1857.414          44.000  
G04  20515010.969   107807019.097       -3083.785          44.000    20515014.524    84005432.511       -2402.850          42.000  
E30  24391866.113   128180225.711        -102.748          43.000    24391877.147    98216106.736         -78.576          45.000  
E27  24395784.502   128200878.296        1640.923          41.000    24395802.930    98231970.141        1257.423          48.000  
> 2024 04 08 16 55 00.4930000  0 25                     
S33  37551665.139   197335297.256        -819.061          44.000  
E07  22654121.615   119048156.775       -2146.978          48.000    22654128.376    91218727.291       -1645.038          50.000  
R13  18000531.278    96122079.575         607.708          42.000    18000534.804    74761689.675         472.674          44.000  
R04  20538501.305   109982831.706        1499.719          42.000    20538502.995    85542183.815        1166.199          41.000  
R17  21376939.087   114391981.331       -4927.560          46.000    21376958.426    88971336.652       -3832.770          43.000  
R02  19355269.357   103283358.269       -2398.459          46.000    19355275.075    80331524.091       -1865.481          47.000  
R03  18127516.613    97038077.283         -97.875          52.000    18127516.293    75474116.391         -76.135          50.000  
R18  19313156.686   103094867.782       -3434.468          50.000    19313164.238    80184718.953       -2671.209          48.000  
E33  22346749.293   117432971.902        -942.610          45.000    22346755.266    89981167.763        -722.314          50.000  
G09  18625834.885    97879434.322       -1418.689          49.000    18625836.913    76269757.701       -1105.493          46.000  
G03  20998544.814   110347935.158       -3545.033          44.000    20998556.289    85985334.458       -2762.442          42.000  
G11  20611030.073   108311669.822         717.851          46.000    20611032.904    84398739.814         559.330          44.000  
E26  22624309.715   118891467.214       -3294.088          48.000    22624318.707    91098645.209       -2524.053          51.000  
G06  18967804.276    99676511.801       -1723.004          48.000    18967808.358    77670022.277       -1342.561          46.000  
R14  20577899.955   109691940.867        3509.329          50.000    20577921.598    85315832.694        2729.586          44.000  
R12  19342414.808   103323823.788       -2819.723          51.000    19342418.726    80363104.876       -2193.090          49.000  
R19  19730652.602   105545669.198        -467.794          38.000    19730654.687    82091090.995        -363.696          45.000  
E19  24522330.852   128865771.592         777.303          38.000    24522340.121    98741349.105         595.854          41.000  
S31  36598633.108   192327071.243        -819.082          42.000  
G20  21936254.620                2       2497.016          27.000                                                                  
G07  17992512.550    94551483.545         925.753          48.000    17992512.780    73676370.335         721.345          45.000  
G30  20203458.861   106170072.481        2373.057          49.000    20203467.045    82730266.763        1849.153          43.000  
G04  20532619.989   107899562.994       -3085.672          44.000    20532625.457    84077544.499       -2404.293          42.000  
E30  24392489.168   128183500.934        -115.364          43.000    24392500.073    98218616.376         -88.457          45.000  
E27  24386428.497   128151713.537        1636.936          41.000    24386446.189    98194298.760        1254.268          47.000  
> 2024 04 08 16 55 30.4930000  0 26                     
S33  37556343.153   197359879.649        -819.715          44.000  
E07  22666381.646   119112582.796       -2148.155          49.000    22666388.028    91268092.572       -1646.022          50.000  
G16  22669332.198                       -1041.399          31.000                                                                  
R13  17997189.848    96104232.822         582.206          42.000    17997193.145    74747808.961         452.785          45.000  
R04  20530098.389   109937843.788        1499.429          36.000    20530100.778    85507193.274        1166.302          40.000  
R17  21404561.878   114539795.914       -4926.489          46.000    21404581.168    89086304.010       -3831.918          44.000  
R02  19368768.648   103355386.320       -2403.647          46.000    19368773.120    80387545.774       -1869.335          49.000  
R03  18128079.356    97041090.985        -103.129          51.000    18128078.369    75476460.332         -80.140          49.000  
R18  19332511.437   103198177.549       -3452.811          51.000    19332517.313    80265070.695       -2685.604          48.000  
E33  22352174.364   117461478.096        -957.910          45.000    22352180.541    90003010.076        -733.915          51.000  
G09  18633951.037    97922087.682       -1424.878          48.000    18633953.530    76302994.025       -1110.223          45.000  
G03  21018808.964   110454422.081       -3553.902          44.000    21018820.647    86068310.861       -2769.560          42.000  
G11  20606983.722   108290405.285         699.719          47.000    20606985.873    84382170.036         545.060          43.000  
E26  22643140.558   118990417.674       -3302.734          48.000    22643148.785    91174464.114       -2530.629          51.000  
G06  18977697.202    99728503.118       -1743.180          47.000    18977702.103    77710534.869       -1358.424          46.000  
R14  20558159.557   109586712.830        3505.676          50.000    20558180.751    85233989.405        2726.493          44.000  
R12  19358317.155   103408769.698       -2843.516          50.000    19358321.639    80429173.835       -2211.699          49.000  
R19  19733349.919   105560100.418        -494.202          38.000    19733352.662    82102315.215        -384.611          47.000  
E19  24517899.862   128842490.790         774.719          37.000    24517910.188    98723510.694         593.459          42.000  
S31  36603311.702   192351653.843        -820.023          43.000  
G20  21922013.242                        2495.037          25.000                                                                  
G07  17987283.802    94524007.416         906.130          48.000    17987284.284    73654960.402         706.103          45.000  
G30  20189941.481   106099039.693        2362.443          47.000    20189949.077    82674916.732        1840.968          43.000  
G04  20550238.858   107992155.949       -3087.426          42.000    20550243.773    84149694.714       -2405.374          35.000  
E30  24393182.802   128187155.057        -128.359          41.000    24393195.157    98221416.380         -98.228          44.000  
E27  24377094.945   128102659.498        1633.101          43.000    24377110.904    98156712.202        1251.435          46.000  
> 2024 04 08 16 56 00.4930000  0 26                     
S33  37561023.004   197384472.165        -819.960          44.000  
E07  22678648.949   119177045.933       -2149.470          49.000    22678654.880    91317486.309       -1647.077          50.000  
G16  22675320.161                       -1056.114          31.000                                                                  
R13  17993991.144    96087151.282         556.747          42.000    17993993.467    74734523.407         433.122          44.000  
R04  20521697.158   109892853.332        1499.386          39.000    20521697.862    85472200.680        1166.360          40.000  
R17  21432176.721   114687570.041       -4925.165          46.000    21432195.802    89201239.925       -3830.688          45.000  
R02  19382293.856   103427565.886       -2408.599          47.000    19382299.308    80443685.225       -1873.465          48.000  
R03  18128671.519    97044257.644        -108.291          51.000    18128670.040    75478923.248         -84.168          49.000  
R18  19351967.316   103302034.841       -3471.229          50.000    19351973.705    80345848.273       -2699.867          49.000  
E33  22357686.832   117490441.869        -973.281          46.000    22357692.016    90025203.023        -745.752          50.000  
G09  18642101.598    97964917.944       -1430.731          48.000    18642103.331    76336368.186       -1115.015          45.000  
G03  21039125.663   110561184.141       -3563.392          46.000    21039136.530    86151501.652       -2777.017          42.000  
G11  20603040.164   108269680.912         681.508          46.000    20603041.664    84366021.143         531.287          44.000  
E26  22662019.117   119089626.058       -3311.370          48.000    22662027.468    91250480.650       -2537.282          50.000  
G06  18987706.940    99781101.921       -1763.582          48.000    18987711.244    77751520.814       -1374.078          46.000  
R14  20538440.512   109481598.254        3501.756          50.000    20538460.609    85152234.326        2723.488          45.000  
R12  19374351.215   103494426.764       -2867.212          49.000    19374356.709    80495795.954       -2230.057          48.000  
R19  19736196.239   105575326.914        -521.496          37.000    19736199.881    82114157.939        -405.201          47.000  
E19  24513485.073   128819290.828         772.042          37.000    24513495.065    98705734.180         591.481          41.000  
S31  36607991.540   192376246.928        -820.178          43.000  
G20  21907751.984                3       2493.044          27.000                                                                  
G07  17982166.890    94497118.267         886.387          49.000    17982167.467    73634007.842         690.690          46.000  
G30  20176483.455   106028322.760        2351.668          48.000    20176491.832    82619812.860        1832.681          42.000  
G04  20567869.425   108084799.161       -3089.271          43.000    20567873.453    84221884.055       -2407.133          33.000  
E30  24393952.004   128191190.785        -140.812          42.000    24393962.939    98224508.793        -108.134          44.000  
E27  24367782.661   128053719.945        1629.106          44.000    24367798.122    98119213.344        1248.307          46.000  
> 2024 04 08 16 56 30.4930000  0 25                     
S33  37565706.287   197409082.924        -820.526          44.000  
E07  22690922.998   119241553.574       -2150.745          48.000    22690930.109    91366914.149       -1647.927          49.000  
R13  17990937.007    96070845.336         530.785          43.000    17990940.122    74721841.068         412.915          44.000  
R04  20513297.752   109847868.066        1499.974          39.000    20513298.152    85437212.206        1166.406          42.000  
R17  21459784.599   114835307.098       -4923.552          46.000    21459803.653    89316147.111       -3829.542          44.000  
R02  19395851.113   103499905.470       -2413.882          46.000    19395856.019    80499949.205       -1877.306          48.000  
R03  18129293.213    97047585.721        -113.254          52.000    18129292.359    75481511.738         -88.271          50.000  
R18  19371526.882   103406442.998       -3489.127          49.000    19371533.186    80427054.299       -2713.734          48.000  
E33  22363286.035   117519870.677        -988.563          45.000    22363292.189    90047752.269        -757.423          50.000  
G09  18650287.252    98007932.149       -1436.578          48.000    18650289.084    76369885.694       -1119.379          45.000  
G03  21059496.270   110668228.112       -3572.676          45.000    21059507.184    86234912.107       -2783.833          42.000  
G11  20599200.408   108249505.699         663.572          46.000    20599201.887    84350300.232         517.028          45.000  
E26  22680948.168   119189098.106       -3319.864          48.000    22680957.034    91326699.200       -2543.778          51.000  
G06  18997833.190    99834314.476       -1783.812          48.000    18997836.715    77792984.971       -1389.705          45.000  
R14  20518744.173   109376609.288        3497.721          49.000    20518762.327    85070577.031        2720.212          45.000  
R12  19390520.461   103580800.045       -2890.868          50.000    19390524.298    80562975.194       -2248.374          48.000  
R19  19739193.470   105591355.796        -547.527          38.000    19739196.264    82126624.814        -425.752          47.000  
E19  24509086.257   128796178.881         769.008          36.000    24509096.810    98688025.079         589.484          40.000  
S31  36612674.563   192400857.259        -820.319          44.000  
G20  21893546.340   115051364.3161       2490.375          32.000                                                                  
G07  17977163.835    94470825.082         866.645          49.000    17977164.167    73613519.658         675.377          45.000  
G30  20163088.428   105957931.400        2341.261          46.000    20163095.821    82564962.671        1824.216          44.000  
G04  20585509.630   108177499.710       -3090.841          42.000    20585514.041    84294118.081       -2408.574          37.000  
E30  24394794.338   128195616.642        -153.748          44.000    24394805.655    98227900.071        -117.782          46.000  
E27  24358493.476   128004904.511        1625.341          44.000    24358509.005    98081809.589        1245.320          47.000  
> 2024 04 08 16 57 00.4930000  0 25                     
S33  37570388.433   197433686.440        -819.697          44.000  
E07  22703202.681   119306080.138       -2150.956          48.000    22703209.184    91416356.451       -1648.074          49.000  
R13  17988024.548    96055291.042         506.188          42.000    17988026.875    74709743.376         393.627          43.000  
R04  20504892.593   109802861.990        1500.698          42.000    20504892.841    85402207.418        1167.281          41.000  
R17  21487379.577   114982977.361       -4920.910          45.000    21487398.395    89431002.312       -3827.542          41.000  
R02  19409432.388   103572380.176       -2417.889          44.000    19409437.590    80556318.287       -1880.724          47.000  
R03  18129940.350    97051049.680        -117.546          52.000    18129939.746    75484205.910         -91.461          51.000  
R18  19391183.038   103511371.952       -3506.113          50.000    19391190.881    80508665.379       -2726.929          49.000  
E33  22368970.609   117549738.989       -1002.770          46.000    22368976.036    90070638.293        -768.363          50.000  
G09  18658503.417    98051104.472       -1441.492          49.000    18658505.018    76403526.391       -1123.242          45.000  
G03  21079914.797   110775527.795       -3580.677          45.000    21079925.347    86318521.845       -2790.378          42.000  
G11  20595460.794   108229855.817         646.462          45.000    20595463.474    84334988.640         503.678          45.000  
E26  22699922.572   119288806.562       -3327.351          47.000    22699931.011    91403098.897       -2549.594          51.000  
G06  19008070.957    99888113.885       -1802.920          48.000    19008074.899    77834906.492       -1404.843          46.000  
R14  20499067.575   109271724.454        3494.512          49.000    20499085.640    84989000.701        2717.907          45.000  
R12  19406819.851   103667861.142       -2913.405          53.000    19406822.865    80630689.286       -2265.972          47.000  
R19  19742334.943   105608161.579        -572.845          38.000    19742337.524    82139695.953        -445.629          46.000  
E19  24504701.057   128773129.066         767.491          37.000    24504710.023    98670363.636         588.208          39.000  
S31  36617357.126   192425461.085        -819.910          43.000  
G20  21879335.751                3       2489.240          28.000                                                                  
G07  17972269.110    94445103.565         847.970          48.000    17972269.490    73593476.944         660.791          46.000  
G30  20149751.045   105887842.260        2331.389          47.000    20149757.933    82510347.980        1816.637          43.000  
G04  20603154.896   108270231.695       -3091.500          41.000    20603160.753    84366376.604       -2409.328          39.000  
E30  24395706.184   128200408.309        -165.771          44.000    24395717.539    98231571.660        -127.001          46.000  
E27  24349220.485   127956189.909        1622.235          42.000    24349238.351    98044483.118        1242.992          47.000  
> 2024 04 08 16 57 30.4930000  0 25                     
S33  37575065.781   197458267.635        -819.225          44.000  
E07  22715483.205   119370610.757       -2151.259          48.000    22715489.208    91465801.908       -1648.312          49.000  
G20  21865148.518                3       2487.854          28.000                                                                  
R13  17985249.446    96040475.943         481.210          41.000    17985252.997    74698220.581         374.432          44.000  
R04  20496481.404   109757820.153        1502.006          40.000    20496483.266    85367174.976        1168.048          44.000  
R17  21514959.365   115130561.868       -4918.128          41.000    21514978.229    89545790.882       -3825.114          38.000  
R02  19423036.195   103644975.512       -2422.007          46.000    19423042.198    80612781.167       -1883.675          48.000  
R03  18130610.916    97054635.764        -121.585          53.000    18130609.402    75486995.123         -94.634          50.000  
R18  19410935.438   103616802.583       -3522.826          50.000    19410941.199    80590666.715       -2739.875          48.000  
E33  22374735.612   117580032.055       -1017.100          47.000    22374740.541    90093849.783        -779.263          50.000  
G09  18666746.186    98094419.645       -1446.350          50.000    18666747.441    76437278.432       -1127.112          45.000  
G03  21100378.960   110883067.695       -3588.676          45.000    21100390.445    86402318.726       -2796.505          42.000  
G11  20591818.887   108210717.994         629.260          46.000    20591822.025    84320076.035         490.439          45.000  
E26  22718938.002   119388734.896       -3334.767          47.000    22718946.654    91479667.075       -2555.177          50.000  
G06  19018417.216    99942484.135       -1821.902          49.000    19018421.026    77877272.793       -1419.705          45.000  
R14  20479407.409   109166933.116        3491.325          49.000    20479426.903    84907497.079        2715.425          45.000  
R12  19423242.442   103755592.240       -2935.663          50.000    19423245.079    80698924.541       -2283.313          48.000  
R19  19745619.601   105625728.937        -598.506          40.000    19745621.665    82153359.338        -465.529          47.000  
E19  24500323.795   128750126.771         765.675          38.000    24500332.619    98652738.481         586.993          39.000  
S31  36622035.099   192450042.995        -818.929          41.000  
G07  17967480.185    94419940.507         829.221          48.000    17967480.909    73573869.385         646.391          46.000  
G30  20136468.115   105818042.765        2321.809          46.000    20136475.899    82455958.944        1809.306          43.000  
G04  20620805.358   108362980.089       -3092.209          43.000    20620806.174    84438647.967       -2409.333          34.000  
E30  24396684.938   128205552.044        -177.442          44.000    24396695.334    98235513.035        -136.111          44.000  
E27  24339967.187   127907563.607        1619.502          41.000    24339985.280    98007224.307        1240.674          48.000  
> 2024 04 08 16 58 00.4930000  0 25                     
S33  37579741.585   197482838.160        -819.152          44.000  
G16  22700134.414   119289994.0031      -1114.984          34.000                                                                  
E07  22727765.462   119435156.823       -2151.936          47.000    22727772.012    91515259.191       -1648.956          49.000  
R13  17982615.853    96026413.708         455.797          42.000    17982619.122    74687283.410         354.320          43.000  
R04  20488063.940   109712754.598        1502.505          42.000    20488069.558    85332124.009        1168.436          45.000  
R17  21542524.188   115278068.325       -4915.661          37.000    21542542.981    89660518.685       -3823.271          34.000  
R02  19436663.775   103717704.182       -2426.820          45.000    19436671.228    80669347.754       -1887.507          48.000  
R03  18131305.349    97058356.314        -126.440          52.000    18131304.132    75489888.826         -98.495          50.000  
R18  19430780.554   103722742.316       -3540.079          50.000    19430788.321    80673063.933       -2753.395          49.000  
E33  22380583.034   117610761.299       -1031.823          47.000    22380587.952    90117395.473        -790.715          49.000  
G09  18675017.995    98137888.752       -1451.678          49.000    18675019.222    76471150.386       -1131.214          46.000  
G03  21120890.772   110990858.487       -3597.271          44.000    21120903.269    86486311.082       -2803.013          42.000  
G11  20588276.903   108192105.179         611.455          46.000    20588280.673    84305572.557         476.382          45.000  
E26  22737998.058   119488892.783       -3342.741          47.000    22738006.500    91556411.118       -2561.270          50.000  
G06  19028874.595    99997435.290       -1841.702          48.000    19028877.607    77920091.747       -1435.066          44.000  
R14  20459769.191   109062251.053        3487.298          50.000    20459787.722    84826078.496        2712.311          45.000  
R12  19439794.257   103844002.891       -2958.542          51.000    19439796.769    80767688.327       -2301.201          48.000  
R19  19749048.471   105644069.395        -624.295          41.000    19749049.752    82167624.068        -485.857          45.000  
E19  24495957.937   128727182.779         763.507          39.000    24495966.267    98635158.089         585.174          39.000  
S31  36626710.548   192474613.887        -819.249          43.000  
G07  17962800.186    94395348.342         809.972          48.000    17962801.240    73554706.681         631.005          46.000  
G30  20123243.663   105748546.497        2311.271          46.000    20123251.118    82401806.253        1800.951          44.000  
G04  20638460.292   108455756.031       -3093.189          42.000    20638462.757    84510940.839       -2410.521          34.000  
E30  24397732.244   128211060.397        -190.006          43.000    24397743.768    98239733.804        -145.818          45.000  
E27  24330734.693   127859039.288        1615.384          43.000    24330750.383    97970043.626        1237.804          47.000  
> 2024 04 08 16 58 30.4930000  0 25                     
S33  37584417.446   197507409.792        -818.915          44.000  
G16  22706552.777   119323697.569       -1130.522          33.000                                                                  
E07  22740052.986   119499729.868       -2152.754          48.000    22740060.250    91564737.147       -1649.516          50.000  
R13  17980125.931    96013118.820         430.458          42.000    17980128.960    74676943.038         334.672          43.000  
R04  20479646.059   109667677.026        1502.862          43.000    20479650.715    85297063.730        1168.825          45.000  
R17  21570076.125   115425504.636       -4913.083          34.000    21570094.830    89775191.924       -3821.688          33.000  
R02  19450321.830   103790578.757       -2431.445          46.000    19450328.324    80726027.817       -1891.146          47.000  
R03  18132027.294    97062224.399        -131.278          51.000    18132027.159    75492897.326        -102.154          50.000  
R18  19450724.242   103829198.445       -3557.066          52.000    19450730.433    80755862.823       -2766.564          47.000  
E33  22386516.001   117641938.242       -1046.572          47.000    22386520.653    90141284.213        -802.043          49.000  
G09  18683321.044    98181523.028       -1457.031          49.000    18683322.262    76505151.054       -1135.388          45.000  
G03  21141453.840   111098911.121       -3605.917          45.000    21141465.607    86570507.464       -2809.876          42.000  
G11  20584838.071   108174030.528         593.671          45.000    20584840.558    84291488.378         462.525          45.000  
E26  22757102.787   119589290.028       -3350.458          47.000    22757111.715    91633338.584       -2567.244          50.000  
G06  19039443.551   100052977.560       -1861.104          48.000    19039447.354    77963371.284       -1450.292          45.000  
R14  20440152.366   108957694.295        3483.211          49.000    20440172.893    84744757.310        2709.138          46.000  
R12  19456473.573   103933101.995       -2981.234          50.000    19456474.996    80836987.559       -2318.909          46.000  
R19  19752622.766   105663194.636        -650.597          40.000    19752624.654    82182499.221        -505.926          45.000  
E19  24491604.808   128704308.429         761.327          38.000    24491614.064    98617631.060         583.297          40.000  
S31  36631386.337   192499186.768        -819.019          43.000  
G07  17958232.542    94371339.925         790.653          49.000    17958232.666    73535998.859         615.951          46.000  
G30  20110079.173   105679367.222        2300.770          47.000    20110086.853    82347900.554        1792.754          44.000  
G04  20656121.124   108548570.916       -3094.323          41.000    20656127.078    84583263.878       -2410.886          34.000  
E30  24398852.713   128216946.147        -202.558          43.000    24398864.774    98244243.716        -155.281          46.000  
E27  24321523.736   127810630.798        1611.673          43.000    24321538.408    97932951.670        1234.914          47.000  
> 2024 04 08 16 59 00.4930000  0 25                     
S33  37589091.080   197531968.542        -818.544          44.000  
G16  22713048.622   119357840.135       -1145.015          34.000                                                                  
E07  22752343.284   119564314.645       -2152.895          47.000    22752350.221    91614224.078       -1649.609          49.000  
R13  17977777.261    96000577.878         405.560          42.000    17977780.067    74667189.068         315.377          43.000  
R04  20471222.630   109622572.044        1504.366          42.000    20471226.380    85261982.172        1169.752          42.000  
R17  21597609.634                       -4909.802          28.000    21597630.734    89889795.563       -3818.353          32.000  
R02  19464003.746   103863584.510       -2435.630          48.000    19464009.850    80782809.902       -1894.404          49.000  
R03  18132774.736    97066225.016        -135.446          51.000    18132774.833    75496008.926        -105.343          50.000  
R18  19470760.157   103936151.524       -3573.169          51.000    19470766.730    80839048.232       -2779.168          47.000  
E33  22392531.177   117673547.600       -1060.678          47.000    22392535.733    90165504.282        -812.789          49.000  
G09  18691652.601    98225306.841       -1461.707          49.000    18691654.678    76539268.260       -1139.111          46.000  
G03  21162062.568   111207209.505       -3613.945          44.000    21162074.333    86654895.373       -2816.201          41.000  
G11  20581498.394   108156480.234         576.283          47.000    20581500.509    84277812.814         449.189          44.000  
E26  22776250.208   119689909.663       -3357.460          47.000    22776258.908    91710436.441       -2572.633          50.000  
G06  19050122.109   100109094.357       -1879.913          48.000    19050126.544    78007098.535       -1464.872          46.000  
R14  20420558.475   108853251.740        3479.648          49.000    20420579.045    84663524.973        2706.399          46.000  
R12  19473277.484   104022871.408       -3003.257          48.000    19473281.440    80906808.139       -2335.826          47.000  
R19  19756341.542   105683088.808        -675.560          40.000    19756344.311    82197972.393        -525.817          46.000  
E19  24487262.021   128681488.452         759.790          38.000    24487271.095    98600145.665         582.190          40.000  
S31  36636059.612   192523745.280        -818.237          43.000  
G07  17953772.178    94347901.625         771.965          49.000    17953772.252    73517735.270         601.492          46.000  
G30  20096972.320   105610491.883        2290.906          46.000    20096979.685    82294231.693        1785.148          44.000  
G04  20673788.097   108641409.179       -3094.975          40.000    20673794.334    84655605.233       -2411.674          36.000  
E30  24400041.806   128223195.069        -214.276          43.000    24400053.428    98249031.888        -164.144          46.000  
E27  24312330.999   127762325.112        1608.753          44.000    24312345.635    97895938.489        1232.547          47.000  
> 2024 04 08 16 59 30.4930000  0 25                     
S33  37593761.487   197556511.834        -818.201          44.000  
G16  22719628.739   119392421.288       -1160.318          33.000                                                                  
E07  22764635.265   119628909.888       -2153.889          47.000    22764642.547    91663719.044       -1650.294          50.000  
R13  17975570.160    95988791.971         379.514          42.000    17975573.048    74658022.332         295.336          43.000  
R04  20462795.921   109577438.570        1504.309          46.000    20462798.123    85226878.376        1170.159          42.000  
R17  21625135.826                3      -4907.291          25.000    21625146.619    90004325.626       -3817.096          31.000  
R02  19477710.935   103936721.068       -2440.685          49.000    19477715.627    80839693.752       -1898.187          49.000  
R03  18133547.116    97070357.914        -140.490          51.000    18133546.477    75499223.399        -109.344          49.000  
R18  19490888.672   104043595.913       -3590.119          50.000    19490895.604    80922615.786       -2792.297          47.000  
E33  22398628.103   117705588.101       -1075.697          47.000    22398633.009    90190054.715        -824.218          49.000  
G09  18700012.407    98269238.655       -1467.316          49.000    18700014.480    76573500.792       -1143.378          46.000  
G03  21182717.706   111315751.768       -3622.765          46.000    21182728.786    86739473.298       -2822.571          39.000  
G11  20578258.251   108139454.627         558.252          46.000    20578261.114    84264546.106         434.939          45.000  
E26  22795439.660   119790748.721       -3365.458          47.000    22795448.158    91787702.431       -2578.738          49.000  
G06  19060909.094   100165783.025       -1899.583          48.000    19060914.397    78051271.433       -1480.258          46.000  
R14  20400987.095   108748926.393        3474.891          50.000    20401007.411    84582383.826        2702.641          46.000  
R12  19490207.679   104113307.154       -3026.145          50.000    19490209.669    80977146.979       -2353.745          45.000  
R19  19760203.502   105703750.407        -702.204          40.000    19760206.797    82214042.454        -546.047          46.000  
E19  24482929.434   128658721.108         757.309          38.000    24482938.685    98582700.625         580.402          40.000  
S31  36640730.367   192548289.048        -818.610          42.000  
G07  17949420.977    94325033.263         752.241          50.000    17949421.051    73499915.809         586.256          45.000  
G30  20083923.287   105541921.401        2280.184          45.000    20083930.604    82240800.358        1776.737          44.000  
G04  20691459.348   108734269.304       -3095.870          41.000    20691465.443    84727963.622       -2412.365          36.000  
E30  24401300.663   128229807.032        -227.103          44.000    24401311.806    98254098.263        -173.930          46.000  
E27  24303157.808   127714123.335        1604.514          43.000    24303173.348    97859004.903        1229.351          47.000  
