     3.00           OBSERVATION DATA    M: Mixed            RINEX VERSION / TYPE
CONVBIN 2.4.3                           20240408 221442 UTC PGM / RUN BY / DATE 
format: u-blox UBX                                          COMMENT             
log: data/2024-04-08/20240408220000.ubx                     COMMENT             
AQUI00CHL                                                   MARKER NAME         
                                                            MARKER NUMBER       
                                                            MARKER TYPE         
                                                            OBSERVER / AGENCY   
UNKNOWN             UBLOX-ZED-F9P                           REC # / TYPE / VERS 
UNKNOWN             TWIVSP6037L                             ANT # / TYPE        
  1713381.0000 -5047934.0000 -3490983.0000                  APPROX POSITION XYZ 
        0.0000        0.0000        0.0000                  ANTENNA: DELTA H/E/N
G    8 C1C L1C D1C S1C C2L L2L D2L S2L                      SYS / # / OBS TYPES 
R    8 C1C L1C D1C S1C C2C L2C D2C S2C                      SYS / # / OBS TYPES 
E    8 C1C L1C D1C S1C C7Q L7Q D7Q S7Q                      SYS / # / OBS TYPES 
S    4 C1C L1C D1C S1C                                      SYS / # / OBS TYPES 
  2024    04    08    22    00   00.0020000     GPS         TIME OF FIRST OBS   
  2024    04    08    22    14   30.0030000     GPS         TIME OF LAST OBS    
                                                            END OF HEADER       
> 2024 04 08 22 00 00.0020000  0 22                     
S33  40381702.866   212207259.9771       -766.866          44.000  
G05  23791369.426   125024341.2021      -3529.180          40.000    23791377.364    97421576.0171      -2750.098          39.000  
G24  24104340.638   126669219.9071       1339.539          45.000    24104340.613    98703358.7841       1043.707          43.000  
G15  21868355.342   114918955.5841       1015.972          48.000    21868351.993    89547298.7431        791.546          45.000  
R06  21456074.501   114493762.5111       1880.273          43.000                                                                  
R04  23814905.658   127527676.6411      -5207.801          45.000    23814919.041    99188132.4851      -4050.670          46.000  
R05  20307782.970   108556752.7421      -3023.294          52.000    20307781.211    84433078.8101      -2351.524          50.000  
R16  20697339.829   110561937.4031       -339.455          53.000    20697337.920    85992804.2391       -263.978          50.000  
G19  22705606.772   119319123.3551       1449.414          44.000                                                                  
G13  20685764.694   108704638.6991       -672.014          48.000                                                                  
G17  22481321.219   118140546.6261        462.234          48.000    22481317.966    92057777.3331        360.113          43.000  
E31  27764788.948   145904981.9211       1741.234          34.000    27764811.896   111797486.5161       1333.840          42.000  
R17  24295999.565   130012803.7451       1838.562          46.000    24295997.369   101121024.9441       1429.932          45.000  
R15  21427638.767   114503181.5441      -3178.711          52.000    21427635.897    89058242.7201      -2472.473          49.000  
E19  24251156.769   127440881.5701      -1715.085          42.000    24251157.109    97649587.6651      -1314.156          49.000  
S31  39429542.452   207203635.0081       -767.096          46.000  
G14  22875022.411   120209391.3451      -3675.708          45.000    22875020.496    93669856.5401      -2864.189          48.000  
G30  24435784.308   128411233.2981      -3146.081          40.000    24435784.429   100061076.4961      -2451.880          36.000  
E21  25007412.319   131415224.7471      -2405.477          49.000    25007413.074   100694981.9261      -1843.176          52.000  
G22  21185319.390   111329970.5521      -2293.104          50.000                                                                  
E04  25386264.152   133405737.6551       1126.497          47.000    25386264.585   102220083.5651        863.023          52.000  
G12                                                                  25241376.503                3       1888.978          17.000  
> 2024 04 08 22 00 30.0020000  0 22                     
S33  40386080.530   212230267.168        -767.055          44.000  
G05  23811534.001   125130302.099       -3535.428          39.000    23811541.963    97504142.227       -2754.390          40.000  
G24  24096693.563   126629034.640        1339.152          45.000    24096693.585    98672045.708        1043.504          43.000  
G15  21862591.980   114888670.340        1002.651          48.000    21862589.793    89523699.858         781.259          46.000  
R06  21445558.603   114437646.556        1860.577          43.000                                                                  
R04  23844094.636   127683985.286       -5212.877          45.000    23844109.542    99309705.616       -4054.450          46.000  
R05  20324814.069   108647795.553       -3046.557          52.000    20324812.256    84503889.845       -2369.544          50.000  
R16  20699280.916   110572305.506        -352.163          53.000    20699278.977    86000868.400        -273.978          51.000  
G19  22697366.624   119275825.991        1436.544          45.000                                                                  
G13  20689644.478   108725030.144        -687.751          47.000                                                                  
G17  22478732.507   118126943.537         444.140          48.000    22478729.146    92047177.613         346.176          44.000  
E31  27754864.768                        1735.360          30.000    27754886.153   111757526.040        1329.795          41.000  
R17  24285723.472   129957810.754        1827.374          46.000    24285719.775   101078252.793        1421.179          45.000  
R15  21445496.904   114598607.935       -3183.380          52.000    21445492.969    89132463.294       -2475.964          49.000  
E19  24260977.690   127492497.636       -1726.480          42.000    24260979.239    97689137.651       -1322.745          49.000  
S31  39433920.427   207226643.634        -767.021          45.000  
G14  22896023.567   120319750.646       -3681.992          43.000    22896020.563    93755850.813       -2869.086          47.000  
G30  24453752.295   128505653.606       -3148.547          42.000    24453751.913   100134650.747       -2453.491          35.000  
E21  25021162.644   131487484.371       -2412.179          49.000    25021163.600   100750349.710       -1848.321          52.000  
G22  21198451.844   111398983.439       -2308.101          49.000                                                                  
E04  25379852.047   133372043.794        1119.484          47.000    25379853.153   102194266.208         857.866          52.000  
G12                                                                  25227606.062                        1879.142          26.000  
> 2024 04 08 22 01 00.0020000  0 22                     
S33  40390456.714   212253262.897        -766.187          43.000  
G05  23831730.543   125236437.418       -3540.573          38.000    23831739.029    97586844.335       -2758.760          39.000  
G24  24089045.257   126588843.511        1339.712          45.000    24089045.753    98640728.063        1043.979          43.000  
G15  21856902.148   114858771.125         990.197          48.000    21856899.990    89500401.793         771.814          46.000  
R06  21435151.061   114382111.498        1841.809          43.000                                                                  
R04  23873310.632   127840429.442       -5216.833          45.000    23873324.151    99431384.088       -4057.697          44.000  
R05  20341974.206   108739521.241       -3068.702          54.000    20341972.046    84575232.004       -2386.729          50.000  
R16  20701290.246   110583040.039        -363.797          54.000    20701288.539    86009217.579        -282.937          51.000  
G19  22689199.107   119232901.347        1424.882          45.000                                                                  
G13  20693612.297   108745882.834        -702.551          47.000                                                                  
G17  22476245.127   118113871.422         426.825          46.000    22476241.634    92036991.626         332.504          44.000  
E31  27744961.356   145800819.890        1732.040          31.000    27744988.841   111717675.638        1326.594          42.000  
R17  24275506.858   129903145.279        1816.876          44.000    24275504.846   101035735.433        1413.185          45.000  
R15  21463377.350   114694157.801       -3186.859          52.000    21463374.442    89206779.829       -2478.723          49.000  
E19  24270860.615   127544434.473       -1736.610          41.000    24270862.263    97728933.440       -1330.640          49.000  
S31  39438296.495   207249640.007        -766.057          45.000  
G14  22917057.013   120430284.963       -3687.319          44.000    22917054.596    93841981.498       -2873.224          47.000  
G30  24471729.125   128600122.236       -3149.603          42.000    24471729.372   100208262.799       -2454.169          37.000  
E21  25034948.459   131559931.160       -2417.847          49.000    25034949.792   100805860.930       -1852.704          52.000  
G22  21211666.011   111468428.310       -2321.932          48.000                                                                  
E04  25373476.756   133338540.055        1113.773          47.000    25373477.411   102168594.545         853.417          52.000  
G12                                                                  25213842.041                1       1875.897          27.000  
> 2024 04 08 22 01 30.0020000  0 22                     
S33  40394826.924   212276228.913        -765.344          45.000  
G05  23851958.653   125342727.034       -3545.906          40.000    23851966.616    97669666.688       -2762.943          39.000  
G24  24081392.351   126548629.639        1340.490          45.000    24081393.377    98609392.707        1044.672          43.000  
G15  21851283.400   114829243.573         977.759          47.000    21851280.597    89477393.339         761.697          45.000  
R06  21424850.464   114327143.476        1822.577          43.000                                                                  
R04  23902547.698   127996988.277       -5220.726          47.000    23902560.483    99553151.873       -4060.615          45.000  
R05  20359257.068   108831910.490       -3090.950          52.000    20359255.004    84647090.288       -2404.176          50.000  
R16  20703365.132   110594121.916        -375.365          53.000    20703362.760    86017836.895        -292.036          51.000  
G19  22681099.233   119190335.539        1412.378          45.000                                                                  
G13  20697665.855   108767181.279        -717.665          48.000                                                                  
G17  22473856.184   118101315.246         409.690          46.000    22473853.015    92027207.671         319.284          45.000  
E31  27735093.387   145748938.222        1727.298          31.000    27735114.874   111677922.944        1323.294          42.000  
G12  25200082.755                2       2402.145          29.000                                                                  
R17  24265351.040   129848794.316        1806.140          47.000    24265347.698   100993462.687        1404.890          44.000  
R15  21481277.842   114789812.113       -3190.552          51.000    21481275.333    89281177.643       -2481.567          48.000  
E19  24280802.025   127596675.455       -1746.708          42.000    24280803.469    97768962.274       -1338.477          49.000  
S31  39442666.475   207272607.084        -765.375          44.000  
G14  22938120.633   120540975.039       -3692.296          44.000    22938118.857    93928233.517       -2877.289          48.000  
G30  24489711.749   128694622.296       -3150.934          41.000    24489712.492   100281899.206       -2455.011          36.000  
E21  25048765.799   131632546.678       -2423.618          48.000    25048768.013   100861501.426       -1857.073          52.000  
G22  21224959.591   111538286.176       -2335.761          48.000                                                                  
E04  25367135.408   133305210.983        1107.647          48.000    25367135.111   102143056.719         848.709          52.000  
> 2024 04 08 22 02 00.0020000  0 22                     
S33  40399193.910   212299179.144        -764.543          43.000  
G05  23872214.714   125449180.197       -3550.996          36.000    23872223.930    97752616.456       -2766.584          38.000  
G24  24073737.721   126508406.081        1341.131          45.000    24073738.512    98578049.776        1045.296          43.000  
G15  21845737.919   114800102.383         965.119          48.000    21845734.862    89454685.940         751.961          45.000  
R06  21414659.148   114272759.376        1802.918          43.000                                                                  
R04  23931806.859   128153671.240       -5224.568          46.000    23931819.833    99675016.128       -4063.626          44.000  
R05  20376666.713   108924973.741       -3113.172          53.000    20376664.423    84719472.766       -2421.348          50.000  
R16  20705506.697   110605563.002        -387.148          53.000    20705504.701    86026735.564        -301.132          51.000  
G19  22673069.329   119148144.031        1400.199          46.000                                                                  
G13  20701806.167   108788939.472        -732.883          48.000                                                                  
G17  22471566.450   118089289.515         392.333          45.000    22471565.417    92017837.120         305.492          45.000  
E31  27725254.702                        1722.080          31.000    27725267.577   111638278.250        1319.906          41.000  
G12  25186392.591   132355393.0711       2397.003          33.000    25186409.639                        1867.909          26.000  
R17  24255255.352   129794775.161        1795.294          46.000    24255252.755   100951448.013        1396.449          43.000  
R15  21499199.860   114885581.541       -3194.049          51.000    21499197.462    89355664.975       -2484.210          49.000  
E19  24290804.230   127649233.619       -1757.323          43.000    24290805.003    97809234.136       -1346.355          49.000  
S31  39447034.105   207295558.425        -764.707          45.000  
G14  22959215.887   120651831.323       -3697.912          45.000    22959213.504    94014615.065       -2881.415          48.000  
G30  24507702.663   128789166.611       -3152.075          41.000    24507701.266   100355570.148       -2455.981          34.000  
E21  25062618.475   131705342.282       -2429.450          48.000    25062620.283   100917279.896       -1861.458          52.000  
G22  21238333.765   111608568.015       -2349.604          49.000                                                                  
E04  25360829.007   133272071.007        1101.610          48.000    25360828.531   102117663.784         844.197          52.000  
> 2024 04 08 22 02 30.0020000  0 23                     
S33  40403557.867   212322112.840        -764.621          44.000  
G05  23892502.441   125555792.821       -3557.348          37.000    23892512.042    97835690.461       -2771.671          38.000  
G24  24066081.331   126468172.080        1340.862          44.000    24066081.697    98546698.770        1044.436          43.000  
G15  21840266.758   114771348.866         951.456          48.000    21840262.828    89432280.638         741.279          45.000  
R06  21404577.294   114218961.766        1782.837          44.000                                                                  
R04  23961088.581   128310473.994       -5229.356          45.000    23961101.757    99796973.591       -4067.414          45.000  
R05  20394201.203   109018707.245       -3136.239          53.000    20394199.315    84792376.567       -2439.390          50.000  
R16  20707715.287   110617360.710        -399.680          53.000    20707713.531    86035911.624        -310.960          51.000  
R09  23989623.415                3       1945.589          23.000    23989620.283                3       1513.629          25.000  
G19  22665111.793   119106329.016        1386.973          46.000                                                                  
G13  20706034.723   108811158.209        -748.845          48.000                                                                  
G17  22469378.985   118077795.638         373.712          46.000    22469378.055    92008880.978         291.245          45.000  
E31  27715423.240                1       1717.276          27.000    27715448.178   111598741.532        1315.809          42.000  
G12  25172720.872                3       2390.677          31.000    25172747.797   103078168.7271       1862.831          32.000  
R17  24245223.665   129741091.321        1783.262          48.000    24245221.048   100909694.169        1386.955          44.000  
R15  21517142.299   114981463.095       -3198.364          51.000    21517139.487    89430239.549       -2487.799          49.000  
E19  24300865.678   127702108.075       -1768.001          42.000    24300867.083    97849748.372       -1354.960          50.000  
S31  39451397.972   207318492.411        -764.732          45.000  
G14  22980342.063   120762850.651       -3703.956          46.000    22980338.662    94101123.671       -2886.165          46.000  
G30  24525702.081   128883754.344       -3154.364          42.000    24525700.614   100429274.941       -2457.886          35.000  
E21  25076504.786   131778315.637       -2435.969          48.000    25076506.726   100973194.591       -1866.512          52.000  
G22  21251788.699   111679270.682       -2364.358          49.000                                                                  
E04  25354558.432   133239120.835        1094.567          48.000    25354558.360   102092416.308         838.689          52.000  
> 2024 04 08 22 03 00.0020000  0 23                     
S33  40407923.495   212345053.279        -765.176          44.000  
G05  23912826.723   125662587.406       -3563.299          40.000    23912835.133    97918906.307       -2776.445          39.000  
G24  24058427.414   126427952.844        1339.970          45.000    24058428.866    98515359.181        1044.201          44.000  
G15  21834874.600   114743010.072         937.367          49.000    21834869.786    89410198.484         730.475          44.000  
R06  21394611.348   114165779.852        1761.993          43.000                                                                  
R04  23990396.693   128467418.426       -5234.269          45.000    23990409.929    99919041.203       -4070.900          44.000  
R05  20411866.538   109113134.220       -3159.486          53.000    20411863.800    84865819.726       -2457.323          49.000  
R16  20709994.481   110629539.052        -412.583          53.000    20709993.337    86045383.741        -320.882          51.000  
R09  23978716.614                3       1939.024          24.000                                                                  
G19  22657230.937   119064918.364        1373.176          45.000                                                                  
G13  20710355.138   108833862.872        -765.287          48.000                                                                  
G17  22467298.940   118066860.591         354.814          46.000    22467295.943    92000360.270         276.492          44.000  
E31  27705647.057                1       1711.452          27.000    27705660.930   111559332.404        1311.279          42.000  
G12  25159085.277                2       2384.784          33.000    25159112.260                        1857.172          31.000  
R17  24235258.825   129687772.603        1770.780          45.000    24235257.110   100868224.232        1377.380          44.000  
R15  21535110.042   115077479.685       -3203.039          50.000    21535107.362    89504919.123       -2491.241          48.000  
E19  24310993.097   127755324.053       -1779.785          43.000    24310993.709    97890524.256       -1363.684          50.000  
S31  39455763.730   207341434.873        -765.305          44.000  
G14  23001503.770   120874055.658       -3710.188          46.000    23001501.107    94187776.932       -2891.058          48.000  
G30  24543714.369   128978410.541       -3156.738          42.000    24543713.865   100503033.007       -2459.876          35.000  
E21  25090429.646   131851490.219       -2442.844          48.000    25090431.304   101029263.454       -1871.806          52.000  
G22  21265327.634   111750416.917       -2379.145          49.000                                                                  
E04  25348329.523   133206386.980        1087.333          48.000    25348329.464   102067334.567         833.068          52.000  
> 2024 04 08 22 03 30.0020000  0 23                     
S33  40412291.538   212368008.690        -765.425          44.000  
G05  23933184.693   125769566.317       -3568.984          39.000    23933194.470    98002265.772       -2780.854          40.000  
G24  24050778.297   126387754.375        1340.035          45.000    24050779.369    98484035.827        1043.749          44.000  
G15  21829562.385   114715093.977         923.506          50.000    21829557.670    89388445.730         719.605          45.000  
R06  21384761.856   114113223.238        1741.425          43.000                                                                  
R04  24019733.503   128624507.054       -5238.593          46.000    24019745.798   100041221.007       -4074.632          43.000  
R05  20429661.009   109208258.227       -3182.260          53.000    20429658.318    84939805.029       -2475.101          49.000  
R16  20712346.866   110642102.197        -425.118          53.000    20712344.813    86055155.142        -330.617          51.000  
G19  22649429.461   119023920.700        1359.693          45.000                                                                  
G13  20714769.527   108857060.846        -781.441          47.000                                                                  
G17  22465325.717   118056492.348         335.940          46.000    22465322.866    91992281.217         261.940          44.000  
G12  25145497.047   132140458.0201       2377.487          34.000    25145519.442   102966696.142        1853.213          33.000  
R17  24225365.149   129634829.203        1758.562          46.000    24225362.722   100827046.235        1367.834          46.000  
R15  21553105.828   115173635.353       -3207.477          52.000    21553100.921    89579706.878       -2494.690          48.000  
E19  24321185.013   127808887.392       -1791.111          42.000    24321186.174    97931566.319       -1372.437          49.000  
S31  39460132.002   207364390.818        -765.297          45.000  
G14  23022701.042   120985449.890       -3716.072          47.000    23022697.872    94274577.681       -2895.824          46.000  
G30  24561741.554   129073141.058       -3158.771          43.000    24561741.140   100576849.072       -2461.493          37.000  
E21  25104393.932   131924870.433       -2449.351          48.000    25104395.170   101085489.894       -1876.803          52.000  
G22  21278950.962   111822010.626       -2393.701          49.000                                                                  
E04  25342143.312   133173876.951        1080.067          48.000    25342142.773   102042424.330         827.555          52.000  
E31                                                                  27695905.093   111520055.926        1306.729          42.000  
R09                                                                  23967861.065                3       1500.838          24.000  
> 2024 04 08 22 04 00.0020000  0 23                     
S33  40416660.031   212390965.727        -764.998          45.000  
G05  23953573.727   125876714.021       -3574.198          38.000    23953584.603    98085756.739       -2784.924          40.000  
G24  24043130.877   126347564.651        1339.955          46.000    24043131.574    98452719.251        1044.000          44.000  
G15  21824328.437   114687590.317         910.183          49.000    21824323.548    89367014.316         709.336          44.000  
R06  21375027.618   114061283.104        1721.326          41.000                                                                  
R04  24049093.000   128781723.761       -5242.334          46.000    24049104.743   100163500.458       -4077.406          44.000  
R05  20447583.609   109304064.105       -3204.588          53.000    20447580.826    85014320.683       -2492.378          49.000  
R16  20714768.013   110655036.192        -437.051          53.000    20714765.530    86065214.987        -339.775          50.000  
R09  23957008.295                2       1923.099          26.000                                                                  
G19  22641705.746   118983326.728        1346.818          47.000                                                                  
G13  20719275.571   108880740.772        -797.153          47.000                                                                  
G17  22463458.603   118046680.174         318.050          47.000    22463454.688    91984635.533         247.730          43.000  
E31  27686169.718                3       1701.198          25.000    27686180.660   111480903.162        1303.351          41.000  
G12  25131935.152   132069217.120        2371.140          32.000    25131960.542   102911184.453        1848.303          34.000  
R17  24215538.199   129582253.132        1746.691          44.000    24215536.749   100786153.881        1358.526          44.000  
R15  21571122.869   115269915.721       -3211.176          51.000    21571119.374    89654591.610       -2497.467          48.000  
E19  24331440.816   127862785.822       -1801.760          42.000    24331442.681    97972865.136       -1380.596          49.000  
S31  39464500.969   207387348.637        -765.024          45.000  
G14  23043931.621   121097018.718       -3721.476          45.000    23043929.166    94361514.454       -2899.873          46.000  
G30  24579779.677   129167933.689       -3160.431          42.000    24579780.973   100650713.458       -2462.433          36.000  
E21  25118393.761   131998442.484       -2455.216          48.000    25118395.299   101141863.302       -1881.325          52.000  
G22  21292656.296   111894037.559       -2407.831          47.000                                                                  
E04  25335996.999   133141579.992        1073.325          48.000    25335996.928   102017677.364         822.403          52.000  
> 2024 04 08 22 04 30.0020000  0 23                     
S33  40421028.621   212413924.397        -765.634          43.000  
G05  23973995.821   125984027.298       -3580.031          41.000    23974006.019    98169376.806       -2789.756          40.000  
G24  24035484.941   126307384.016        1339.082          46.000    24035485.219    98421409.771        1043.488          44.000  
G15  21819173.426   114660501.390         895.730          49.000    21819168.936    89345906.093         698.151          44.000  
R06  21365409.409   114009963.182        1699.884          41.000                                                                  
R04  24078475.453   128939065.252       -5247.012          46.000    24078487.858   100285876.910       -4080.964          44.000  
R05  20465633.387   109400549.507       -3227.711          52.000    20465630.505    85089364.834       -2510.291          49.000  
R16  20717258.213   110668339.548        -449.864          52.000    20717255.737    86075562.105        -349.899          51.000  
R09  23946244.999                3       1914.390          25.000                                                                  
G19  22634059.378   118943139.425        1332.358          48.000                                                                  
G13  20723873.004   108904904.165        -813.892          47.000                                                                  
G17  22461697.891   118037426.462         298.878          47.000    22461693.389    91977424.976         232.713          43.000  
E31  27676468.138                        1694.880          27.000    27676487.292   111441874.865        1298.859          41.000  
G12  25118416.039   131998137.2881       2365.557          35.000    25118437.198   102855820.837        1842.428          34.000  
R17  24205783.671   129530048.705        1733.683          46.000    24205780.634   100745550.606        1348.380          43.000  
R15  21589162.929   115366318.519       -3215.664          51.000    21589160.642    89729571.556       -2501.120          50.000  
E19  24341762.862   127917019.791       -1813.609          43.000    24341763.102    98014421.050       -1389.610          49.000  
S31  39468869.286   207410307.989        -765.825          45.000  
G14  23065195.641   121208760.093       -3727.714          44.000    23065193.666    94448585.706       -2904.842          47.000  
G30  24597829.699   129262788.673       -3163.252          42.000    24597829.579   100724626.448       -2464.708          32.000  
E21  25132430.639   132072205.129       -2462.142          48.000    25132431.907   101198382.753       -1886.564          52.000  
G22  21306445.162   111966495.595       -2422.668          47.000                                                                  
E04  25329892.553   133109497.865        1065.709          49.000    25329891.606   101993095.007         816.520          52.000  
> 2024 04 08 22 05 00.0020000  0 23                     
S33  40425399.098   212436890.974        -765.596          44.000  
G05  23994449.653   126091509.827       -3585.425          41.000    23994460.939    98253128.668       -2793.985          42.000  
G24  24027841.654   126267219.043        1338.641          46.000    24027842.147    98390112.524        1043.183          44.000  
G15  21814098.568   114633835.654         881.811          49.000    21814094.808    89325127.634         687.296          45.000  
R06  21355911.086   113959273.436        1679.273          43.000                                                                  
R04  24107881.308   129096534.579       -5251.027          42.000    24107893.665   100408352.864       -4084.224          43.000  
R05  20483810.304   109497717.868       -3250.222          53.000    20483806.853    85164940.198       -2527.932          48.000  
R16  20719818.676   110682017.133        -462.024          52.000    20719815.775    86086200.282        -359.289          50.000  
R09  23935492.911                1       1906.597          29.000    23935488.816                        1482.661          26.000  
G19  22626490.558   118903368.310        1318.915          46.000                                                                  
G13  20728564.030   108929558.687        -829.970          46.000                                                                  
G17  22460044.986   118028739.483         280.254          47.000    22460041.442    91970656.003         218.190          44.000  
E31  27666806.689   145390040.7821       1689.253          32.000    27666825.036   111402976.429        1294.709          39.000  
G12  25104935.020   131927284.490        2358.632          34.000    25104955.363   102800611.465        1837.900          35.000  
R17  24196098.911   129478226.597        1720.921          44.000    24196093.923   100705244.699        1338.556          40.000  
R15  21607226.751   115462848.361       -3219.744          51.000    21607224.097    89804650.390       -2504.194          48.000  
E19  24352148.598   127971595.596       -1824.746          43.000    24352148.444    98056238.900       -1398.173          49.000  
S31  39473240.104   207433275.141        -765.458          45.000  
G14  23086493.034   121320678.082       -3733.601          44.000    23086490.954    94535794.550       -2909.136          48.000  
G30  24615893.086   129357712.434       -3165.052          43.000    24615892.667   100798593.085       -2466.181          34.000  
E21  25146503.989   132146163.239       -2468.419          48.000    25146505.429   101255052.005       -1891.429          52.000  
G22  21320316.374   112039388.997       -2436.914          47.000                                                                  
E04  25323829.177   133077638.548        1058.291          48.000    25323829.010   101968683.375         810.896          52.000  
> 2024 04 08 22 05 30.0020000  0 23                     
S33  40429771.765   212459869.417        -766.464          44.000  
G05  24014935.984   126199162.117       -3591.421          42.000    24014946.577    98337012.822       -2798.138          40.000  
G24  24020201.363   126227073.632        1337.763          46.000    24020202.239    98358830.508        1042.505          43.000  
G15  21809106.219   114607598.942         867.222          50.000    21809102.515    89304683.484         675.808          45.000  
R06  21346532.070   113909221.237        1657.648          43.000                                                                  
R04  24137310.393   129254131.878       -5255.458          43.000    24137325.197   100530928.305       -4087.334          44.000  
R05  20502116.208   109595570.288       -3273.192          53.000    20502112.815    85241047.576       -2545.838          49.000  
R16  20722448.432   110696071.440        -474.993          52.000    20722446.485    86097131.467        -369.394          50.000  
R09  23924801.796                        1898.193          30.000    23924820.993                        1475.754          28.000  
G19  22619002.094   118864019.798        1304.286          45.000                                                                  
G13  20733350.177   108954708.760        -846.776          46.000                                                                  
G17  22458500.800   118020624.770         260.958          47.000    22458496.890    91964332.976         203.224          44.000  
E31  27657175.468   145339447.358        1683.774          34.000    27657196.415   111364211.096        1289.851          39.000  
G12  25091491.875   131856634.828        2351.870          37.000    25091510.330   102745560.438        1832.277          33.000  
R17  24186487.758   129426794.982        1707.596          45.000    24186482.644   100665242.451        1328.048          41.000  
R15  21625315.634   115559507.058       -3224.287          50.000    21625312.140    89879829.389       -2507.635          47.000  
E19  24362599.426   128026516.946       -1836.522          43.000    24362599.686    98098321.521       -1407.268          50.000  
S31  39477612.594   207456254.818        -766.263          44.000  
G14  23107824.381   121432774.039       -3739.862          45.000    23107821.601    94623142.059       -2914.003          48.000  
G30  24633970.749   129452708.610       -3167.785          43.000    24633967.481   100872616.072       -2468.559          31.000  
E21  25160615.552   132220319.030       -2475.349          49.000    25160616.979   101311872.713       -1896.685          52.000  
G22  21334271.197   112112719.383       -2451.898          48.000                                                                  
E04  25317809.476   133046007.198        1050.356          48.000    25317809.584   101944446.416         804.870          51.000  
> 2024 04 08 22 06 00.0020000  0 23                     
S33  40434148.395   212482869.904        -766.780          44.000  
G05  24035454.958   126306989.983       -3596.917          40.000    24035465.468    98421033.836       -2802.709          40.000  
G24  24012567.289   126186956.898        1336.914          46.000    24012567.955    98327570.831        1041.890          43.000  
G15  21804196.873   114581802.105         852.735          49.000    21804193.355    89284582.059         664.573          46.000  
R06  21337273.860   113859819.253        1636.176          43.000                                                                  
R04  24166764.627   129411862.511       -5259.508          42.000    24166780.343   100653607.470       -4090.666          44.000  
R05  20520550.815   109694113.063       -3296.047          52.000    20520547.406    85317691.907       -2563.526          48.000  
R16  20725152.042   110710509.917        -487.477          53.000    20725150.045    86108361.465        -379.064          51.000  
R09  23914158.215   127700256.5651       1889.515          32.000    23914167.857                        1469.525          27.000  
G19  22611596.518   118825105.620        1290.008          46.000                                                                  
G13  20738232.508   108980364.582        -863.317          47.000                                                                  
G17  22457067.083   118013093.304         241.683          47.000    22457063.557    91958464.407         188.301          44.000  
E31  27647583.082   145289037.433        1677.429          37.000    27647603.193   111325586.316        1285.231          39.000  
G12  25078089.530   131786198.077        2344.487          37.000    25078105.043                        1826.952          30.000  
R17  24176951.118   129375766.982        1694.341          45.000    24176947.969   100625554.219        1317.722          42.000  
R15  21643429.287   115656301.062       -3228.414          48.000    21643425.358    89955113.638       -2511.106          48.000  
E19  24373118.125   128081792.829       -1848.116          44.000    24373118.564    98140675.780       -1416.103          50.000  
S31  39481989.327   207479254.578        -766.775          44.000  
G14  23129191.439   121545054.594       -3745.527          47.000    23129188.318    94710633.409       -2918.522          48.000  
G30  24652062.565   129547786.270       -3170.449          42.000    24652060.381   100946702.587       -2470.770          34.000  
E21  25174766.445   132294679.946       -2481.874          49.000    25174767.529   101368850.601       -1901.751          52.000  
G22  21348310.483   112186493.591       -2466.302          49.000                                                                  
E04  25311834.911   133014614.376        1042.584          47.000    25311835.383   101920392.222         798.921          51.000  
> 2024 04 08 22 06 30.0020000  0 23                     
S33  40438527.668   212505881.753        -767.308          45.000  
G05  24056005.594   126414982.324       -3602.364          40.000    24056016.614    98505183.037       -2806.760          39.000  
G24  24004937.631   126146861.121        1336.347          45.000    24004937.554    98296327.484        1041.118          43.000  
G15  21799370.398   114556439.336         838.176          49.000    21799367.415    89264818.879         653.187          46.000  
R06  21328136.633   113811062.714        1614.630          43.000                                                                  
R04  24196243.426   129569715.099       -5263.710          44.000    24196258.637   100776381.436       -4094.076          44.000  
R05  20539112.548   109793335.771       -3318.668          53.000    20539109.880    85394865.070       -2581.190          49.000  
R16  20727925.626   110725322.463        -499.929          52.000    20727922.927    86119882.401        -388.777          52.000  
R09  23903571.456                1       1881.510          26.000    23903574.143                        1463.698          25.000  
G19  22604273.743   118786620.878        1275.704          47.000                                                                  
G13  20743209.402   109006519.084        -880.131          47.000                                                                  
G17  22455743.604   118006138.563         222.274          47.000    22455738.817    91953045.194         173.150          42.000  
E31  27638019.213   145238803.451        1671.167          34.000    27638042.103   111287096.435        1280.936          38.000  
G12  25064725.090   131715968.064        2337.308          36.000    25064738.690                        1821.874          31.000  
R17  24167490.791   129325139.069        1680.802          46.000    24167488.350   100586177.082        1307.408          42.000  
R15  21661565.892   115753220.400       -3232.786          50.000    21661562.738    90030495.327       -2514.282          47.000  
E19  24383703.018   128137415.387       -1859.927          43.000    24383703.016    98183295.670       -1425.022          50.000  
S31  39486368.584   207502267.665        -767.495          45.000  
G14  23150591.809   121657509.530       -3751.372          47.000    23150588.045    94798260.653       -2923.097          48.000  
G30  24670169.806   129642937.436       -3172.798          40.000    24670169.109   101020846.442       -2472.310          37.000  
E21  25188954.210   132369236.533       -2488.535          48.000    25188954.996   101425978.396       -1906.698          52.000  
G22  21362431.266   112260701.383       -2480.750          49.000                                                                  
E04  25305905.593   132983453.679        1034.850          47.000    25305905.775   101896515.881         792.941          51.000  
> 2024 04 08 22 07 00.0020000  0 23                     
S33  40442907.378   212528898.655        -766.951          44.000  
G05  24076585.058   126523126.884       -3606.978          40.000    24076596.890    98589450.765       -2810.387          38.000  
G24  23997310.216   126106778.047        1336.285          46.000    23997310.050    98265094.033        1041.129          43.000  
G15  21794625.247   114531504.052         824.426          49.000    21794622.455    89245388.807         642.294          46.000  
R06  21319120.131   113762946.627        1593.439          43.000                                                                  
R04  24225742.222   129727677.260       -5266.823          43.000    24225756.519   100899240.631       -4096.314          42.000  
R05  20557799.218   109893226.689       -3340.390          53.000    20557796.518    85472557.949       -2598.119          49.000  
R16  20730767.020   110740499.049        -511.545          52.000    20730764.458    86131686.486        -397.897          51.000  
R09  23893028.739                3       1883.128          15.000    23893070.665                3       1445.445          22.000  
G19  22597030.744   118748559.492        1262.189          46.000                                                                  
G13  20748280.223   109033165.057        -896.112          47.000                                                                  
G17  22454528.232   117999753.892         203.832          45.000    22454523.452    91948070.225         158.694          43.000  
E31  27628493.001   145188737.781        1666.520          38.000    27628513.780   111248735.508        1276.955          38.000  
G12  25051398.403   131645937.565        2331.451          37.000    25051412.518                        1816.751          28.000  
R17  24158101.823   129274906.602        1668.292          46.000    24158098.859   100547107.589        1297.324          39.000  
R15  21679724.893   115850254.706       -3235.972          50.000    21679721.661    90105966.473       -2516.933          48.000  
E19  24394351.609   128193376.210       -1870.518          43.000    24394351.932    98226174.757       -1433.370          50.000  
S31  39490748.854   207525285.129        -767.008          45.000  
G14  23172021.976   121770128.009       -3756.094          46.000    23172018.551    94886015.362       -2926.915          48.000  
G30  24688289.298   129738153.589       -3174.406          43.000    24688288.715   101095040.880       -2474.396          37.000  
E21  25203177.493   132443978.822       -2494.046          49.000    25203177.920   101483248.496       -1911.054          52.000  
G22  21376632.201   112335332.049       -2494.336          48.000                                                                  
E04  25300018.117   132952518.153        1027.795          47.000    25300018.967   101872812.097         787.581          51.000  
> 2024 04 08 22 07 30.0020000  0 23                     
S33  40447286.581   212551911.799        -767.140          44.000  
G05  24097192.850   126631413.177       -3611.750          41.000    24097204.163    98673828.992       -2814.469          39.000  
G24  23989683.559   126066699.604        1335.844          45.000    23989683.355    98233864.174        1040.978          42.000  
G15  21789960.217   114506989.851         810.109          49.000    21789957.353    89226286.842         631.357          45.000  
R06  21310221.601   113715465.841        1571.857          42.000                                                                  
R04  24255259.536   129885737.227       -5270.450          41.000    24255272.848   101022175.945       -4098.860          39.000  
R05  20576609.158   109993774.776       -3362.470          53.000    20576606.090    85550761.981       -2615.245          49.000  
R16  20733673.889   110756029.703        -523.569          52.000    20733671.520    86143765.959        -407.174          51.000  
R09  23882520.283                3       1858.256          20.000    23882519.050                2       1451.726          26.000  
G19  22589865.867   118710916.023        1247.961          44.000                                                                  
G13  20753443.140   109060295.102        -912.270          48.000                                                                  
G17  22453420.618   117993932.782         184.819          46.000    22453417.343    91943534.404         143.848          45.000  
E31  27618996.478   145138832.740        1660.597          38.000    27619016.701   111210497.625        1272.317          38.000  
G12  25038107.318   131576099.388        2325.071          39.000    25038128.208                3       1811.311          25.000  
R17  24148789.695   129225065.502        1654.869          48.000    24148786.286   100508342.417        1287.200          41.000  
R15  21697903.523   115947393.363       -3239.593          50.000    21697899.607    90181518.778       -2519.649          48.000  
E19  24405063.389   128249666.783       -1881.742          43.000    24405063.638    98269306.506       -1441.929          50.000  
S31  39495128.132   207548298.523        -766.932          44.000  
G14  23193481.933   121882899.633       -3761.492          45.000    23193477.853    94973889.319       -2930.957          48.000  
G30  24706419.658   129833426.621       -3176.468          43.000    24706418.837   101169279.550       -2474.726          36.000  
E21  25217433.075   132518897.063       -2500.240          48.000    25217434.328   101540653.421       -1915.631          52.000  
G22  21390911.988   112410375.312       -2508.240          48.000                                                                  
E04  25294172.558   132921801.079        1020.348          47.000    25294173.555   101849275.692         781.772          51.000  
> 2024 04 08 22 08 00.0020000  0 23                     
S33  40451667.295   212574933.733        -767.587          44.000  
G05  24117827.728   126739850.806       -3617.293          40.000    24117839.202    98758325.128       -2818.432          37.000  
G24  23982060.399   126026639.437        1334.954          46.000    23982060.154    98202648.581        1040.346          43.000  
G15  21785378.806   114482912.319         795.189          49.000    21785375.507    89207525.164         619.625          46.000  
R06  21301444.647   113668637.554        1550.116          41.000                                                                  
R04  24284797.168   130043904.853       -5274.115          39.000    24284810.018   101145195.012       -4101.764          35.000  
R05  20595543.526   110094990.277       -3385.040          53.000    20595541.207    85629485.085       -2632.849          50.000  
R16  20736650.503   110771926.359        -536.099          52.000    20736647.294    86156130.106        -416.969          51.000  
R09  23872046.528                1       1857.687          31.000    23872063.072    99147583.5561       1444.458          29.000  
G19  22582784.900   118673706.567        1233.138          45.000                                                                  
G13  20758700.895   109087923.611        -929.398          48.000                                                                  
G17  22452422.607   117988690.504         164.894          46.000    22452419.319    91939449.615         128.438          44.000  
E31  27609530.157   145089102.100        1654.623          37.000    27609552.080   111172393.447        1267.811          37.000  
G12  25024856.514   131506468.598        2317.059          39.000                                                                  
R17  24139553.036   129175633.405        1640.641          48.000    24139549.580   100469895.400        1275.979          43.000  
R15  21716104.019   116044647.898       -3243.846          50.000    21716099.714    90257161.205       -2523.069          47.000  
E19  24415840.218   128306300.529       -1893.523          43.000    24415840.642    98312701.207       -1450.940          50.000  
S31  39499508.778   207571321.110        -767.563          44.000  
G14  23214972.107   121995835.282       -3767.357          43.000    23214968.633    95061891.145       -2935.510          47.000  
G30  24724562.964   129928769.799       -3179.426          42.000    24724560.543   101243572.916       -2477.001          34.000  
E21  25231725.141   132594003.061       -2506.707          48.000    25231726.615   101598202.209       -1920.712          52.000  
G22  21405273.373   112485842.198       -2522.668          48.000                                                                  
E04  25288371.312   132891317.335        1012.160          46.000    25288372.613   101825918.062         775.564          51.000  
> 2024 04 08 22 08 30.0020000  0 23                     
S33  40456050.871   212597969.921        -767.984          44.000  
G05  24138492.583   126848441.678       -3621.536          41.000    24138503.618    98842940.681       -2822.427          35.000  
G24  23974440.693   125986601.836        1334.489          44.000    23974440.776    98171450.578        1039.934          42.000  
G15  21780881.666   114459277.526         780.721          49.000    21780877.943    89189108.469         608.287          46.000  
R06  21292793.312   113622469.426        1528.528          41.000                                                                  
R04  24314354.672   130202181.439       -5276.850          35.000    24314368.475   101268298.902       -4105.548          32.000  
R05  20614602.685   110196874.797       -3406.937          52.000    20614600.913    85708728.541       -2649.755          49.000  
R16  20739694.027   110788191.706        -547.894          52.000    20739691.911    86168780.963        -426.260          51.000  
R09  23861629.435                        1849.945          30.000    23861638.245    99104334.495        1438.459          32.000  
G19  22575787.508   118636938.184        1218.796          45.000                                                                  
G13  20764054.654   109116055.529        -945.747          49.000                                                                  
G17  22451536.322   117984032.698         145.896          46.000    22451532.315    91935820.199         113.688          43.000  
E31  27600100.683   145039550.942        1648.809          38.000    27600121.568   111134426.789        1263.589          36.000  
G12  25011645.941   131437050.801        2310.649          37.000                                                                  
R17  24130393.260   129126618.971        1627.192          46.000    24130389.832   100431773.282        1265.495          41.000  
R15  21734323.166   116142020.554       -3247.315          46.000    21734320.537    90332895.503       -2525.624          47.000  
E19  24426682.821   128363281.704       -1904.629          42.000    24426683.898    98356362.121       -1459.463          50.000  
S31  39503892.330   207594356.963        -767.550          44.000  
G14  23236494.224   122108936.994       -3772.400          43.000    23236490.203    95150022.398       -2939.493          46.000  
G30  24742720.651   130024187.444       -3181.268          41.000    24742716.790   101317924.400       -2479.123          35.000  
E21  25246053.471   132669299.648       -2512.716          47.000    25246055.134   101655897.030       -1925.280          52.000  
G22  21419715.373   112561734.794       -2536.420          47.000                                                                  
E04  25282615.916   132861072.751        1004.424          45.000    25282617.048   101802743.688         769.668          51.000  
> 2024 04 08 22 09 00.0020000  0 23                     
S33  40460434.439   212621006.877        -767.960          44.000  
G05  24159183.239   126957169.265       -3626.312          42.000    24159192.589    98927662.810       -2826.243          33.000  
G24  23966823.520   125946574.796        1334.169          45.000    23966823.539    98140260.793        1039.421          43.000  
G15  21776466.384   114436075.113         766.152          50.000    21776462.615    89171028.712         597.153          46.000  
R06  21284264.359   113576952.362        1506.224          43.000                                                                  
R04  24343930.082   130360550.360       -5280.597          34.000    24343941.745                       -4106.733          28.000  
R05  20633784.096   110299413.130       -3428.848          53.000    20633782.509    85788480.531       -2666.916          49.000  
R16  20742804.926   110804811.451        -559.881          52.000    20742803.546    86181707.482        -435.493          51.000  
R09  23851256.636   127364449.5261       1842.021          33.000    23851269.047    99061268.417        1432.383          33.000  
G19  22568873.055   118600601.234        1203.782          45.000                                                                  
G13  20769500.895   109144679.665        -962.279          48.000                                                                  
G17  22450758.509   117979948.648         126.762          46.000    22450754.433    91932637.946          98.524          43.000  
E31  27590702.562   144990167.434        1643.516          39.000    27590724.203   111096588.530        1259.533          36.000  
G12  24998473.829   131367834.605        2303.741          40.000                                                                  
R17  24121308.574   129078013.765        1613.422          44.000    24121306.791   100393969.366        1254.698          41.000  
R15  21752563.868   116239497.038       -3250.875          49.000    21752562.731    90408710.570       -2528.447          48.000  
E19  24437589.446   128420598.010       -1916.171          42.000    24437590.728    98400279.808       -1468.281          50.000  
S31  39508276.430   207617394.352        -767.919          45.000  
G14  23258046.297   122222190.165       -3777.513          44.000    23258042.336    95238271.659       -2943.472          47.000  
G30  24760889.126   130119667.201       -3183.766          39.000    24760885.929   101392324.220       -2480.448          36.000  
E21  25260415.896   132744772.934       -2518.729          47.000    25260417.290   101713727.229       -1929.916          53.000  
G22  21434235.081   112638038.443       -2550.226          48.000                                                                  
E04  25276903.630   132831056.441         996.691          46.000    25276905.129   101779744.237         763.684          51.000  
> 2024 04 08 22 09 30.0020000  0 23                     
S33  40464819.428   212644048.234        -767.921          44.000  
G05  24179899.650   127066033.243       -3630.872          40.000    24179910.253    99012491.161       -2828.911          35.000  
G24  23959209.518   125906561.504        1333.682          44.000    23959209.007    98109081.705        1038.993          43.000  
G15  21772133.833   114413309.979         751.713          50.000    21772130.236    89153289.683         585.814          46.000  
R06  21275857.923   113532092.556        1484.427          43.000                                                                  
R04  24373520.081                       -5282.282          30.000    24373534.852                       -4108.820          25.000  
R05  20653088.410   110402604.956       -3450.384          52.000    20653087.051    85868740.757       -2683.668          50.000  
R16  20745983.061   110821786.800        -571.586          52.000    20745980.761    86194910.591        -444.533          50.000  
R09  23840930.008   127309316.011        1833.615          36.000    23840942.749    99018388.011        1426.613          36.000  
G19  22562041.751   118564701.406        1189.556          46.000                                                                  
G13  20775042.701   109173799.520        -978.868          49.000                                                                  
G17  22450091.781   117976443.046         107.203          47.000    22450086.651    91929906.396          83.513          42.000  
E31  27581336.925   144940955.107        1638.082          38.000    27581358.138   111058881.548        1254.813          35.000  
G12  24985340.929   131298824.234        2296.959          38.000                                                                  
R17  24112302.953   129029824.843        1599.394          44.000    24112301.525   100356489.277        1244.079          42.000  
R15  21770824.939   116337078.021       -3254.221          47.000    21770823.588    90484606.983       -2531.094          48.000  
E19  24448560.230   128478251.931       -1927.209          42.000    24448561.803    98444456.204       -1476.769          49.000  
S31  39512660.815   207640436.171        -768.060          45.000  
G14  23279626.859   122335595.541       -3782.641          44.000    23279622.678    95326639.516       -2947.475          47.000  
G30  24779069.902   130215212.118       -3186.055          38.000    24779068.306   101466774.832       -2482.610          37.000  
E21  25274812.458   132820424.382       -2524.616          48.000    25274813.203   101771693.955       -1934.422          53.000  
G22  21448833.944   112714753.795       -2563.861          48.000                                                                  
E04  25271236.150   132801272.969         988.979          46.000    25271237.594   101756923.183         757.776          51.000  
> 2024 04 08 22 10 00.0020000  0 23                     
S33  40469204.533   212667094.295        -768.458          44.000  
G05  24200642.343   127175031.066       -3635.618          41.000    24200654.532    99097423.852       -2832.835          37.000  
G24  23951598.081   125866562.373        1333.000          45.000    23951597.625    98077913.681        1038.645          43.000  
G15  21767885.122   114390984.543         736.600          50.000    21767881.704    89135893.303         573.728          46.000  
R06  21267574.390   113487893.674        1462.178          43.000                                                                  
R04  24403129.118                       -5286.530          27.000    24403159.226                3      -4103.276          21.000  
R05  20672514.334   110506447.618       -3472.438          53.000    20672512.560    85949507.195       -2700.732          49.000  
R16  20749226.931   110839116.711        -583.826          52.000    20749224.758    86208389.479        -454.090          50.000  
R09  23830649.874   127254421.490        1825.740          40.000    23830660.413    98975693.346        1419.877          40.000  
G19  22555294.375   118529241.406        1174.486          46.000                                                                  
G13  20780678.631   109203416.847        -995.790          49.000                                                                  
G17  22449534.470   117973517.724          87.554          46.000    22449530.756    91927626.982          68.039          44.000  
E31  27572005.021   144891914.787        1631.572          38.000    27572024.222   111021306.244        1249.523          34.000  
G12  24972247.125   131230021.370        2289.924          37.000    24972268.448                        1783.584          27.000  
R17  24103378.262   128982056.547        1584.973          47.000    24103373.142   100319336.201        1232.585          41.000  
R15  21789106.145   116434761.852       -3258.068          49.000    21789103.593    90560583.311       -2534.082          48.000  
E19  24459596.503   128536243.940       -1938.900          42.000    24459597.207    98488891.653       -1485.701          49.000  
S31  39517046.370   207663481.681        -768.369          44.000  
G14  23301235.875   122449150.974       -3787.782          44.000    23301230.789    95415124.284       -2951.676          47.000  
G30  24797264.790   130310822.290       -3188.159          40.000    24797263.413   101541276.247       -2484.465          36.000  
E21  25289242.499   132896252.663       -2530.766          48.000    25289242.622   101829796.186       -1939.156          53.000  
G22  21463510.756   112791878.974       -2577.893          48.000                                                                  
E04  25265613.387   132771724.013         980.701          46.000    25265614.503   101734281.815         751.511          51.000  
> 2024 04 08 22 10 30.0020000  0 23                     
S33  40473594.478   212690163.437        -769.066          44.000  
G05  24221413.173   127284178.922       -3640.286          42.000    24221426.072    99182473.506       -2836.966          38.000  
G24  23943993.011   125826596.570        1332.037          45.000    23943992.441    98046771.611        1037.745          43.000  
G15  21763724.401   114369119.245         721.617          50.000    21763720.808    89118855.440         562.149          46.000  
R06  21259419.732   113444378.180        1439.399          43.000                                                                  
R04  24432766.796                3      -5286.348          17.000    24432763.282                3      -4109.343          19.000  
R05  20692066.241   110610957.380       -3494.374          53.000    20692063.444    86030792.512       -2717.900          49.000  
R16  20752539.737   110856818.429        -595.969          51.000    20752538.347    86222157.552        -463.541          50.000  
R09  23820417.760   127199784.836        1817.304          43.000    23820427.276    98933199.241        1413.506          39.000  
G19  22548633.253   118494242.963        1159.160          45.000                                                                  
G13  20786412.836   109233551.265       -1012.833          49.000                                                                  
G17  22449091.818   117971193.235          67.678          46.000    22449088.215    91925815.786          52.710          43.000  
E31  27562708.298   144843065.940        1625.339          38.000    27562728.440   110983877.739        1245.199          34.000  
G12  24959196.556   131161446.105        2282.246          36.000    24959217.397                        1779.544          31.000  
R17  24094533.608   128934732.590        1570.382          44.000    24094529.244   100282528.790        1221.543          43.000  
R15  21807409.595   116532565.560       -3261.773          50.000    21807407.127    90636652.903       -2536.918          49.000  
E19  24470699.050   128594592.739       -1950.699          42.000    24470700.536    98533600.482       -1494.672          49.000  
S31  39521436.087   207686550.295        -768.911          44.000  
G14  23322875.781   122562873.222       -3793.015          43.000    23322871.465    95503739.019       -2955.723          46.000  
G30  24815475.324   130406516.819       -3191.053          38.000    24815472.714   101615843.524       -2486.781          37.000  
E21  25303708.340   132972275.241       -2536.971          48.000    25303709.348   101888047.304       -1944.027          53.000  
G22  21478268.661   112869430.774       -2591.846          49.000                                                                  
E04  25260039.077   132742430.037         972.452          46.000    25260040.066   101711835.826         745.151          51.000  
> 2024 04 08 22 11 00.0020000  0 23                     
S33  40477988.619   212713255.451        -770.320          44.000  
G05  24242211.970   127393473.442       -3645.700          40.000    24242225.315    99267637.481       -2841.109          38.000  
G24  23936393.700   125786664.344        1330.439          46.000    23936393.479    98015655.698        1036.670          43.000  
G15  21759652.025   114347715.955         705.605          50.000    21759647.889    89102177.598         549.635          46.000  
R06  21251393.486   113401549.249        1416.036          43.000                                                                  
R04  24462404.346                3      -5295.180          24.000    24462423.588                3      -4130.366          16.000  
R05  20711740.296   110716131.112       -3516.982          52.000    20711737.856    86112594.246       -2735.469          48.000  
R16  20755923.801   110874890.309        -608.644          52.000    20755921.330    86236213.536        -473.407          50.000  
R09  23810233.187   127145406.639        1807.890          40.000    23810242.551    98890906.177        1406.165          38.000  
G19  22542062.045   118459708.720        1143.230          46.000                                                                  
G13  20792244.857   109264203.292       -1030.489          48.000                                                                  
G17  22448763.798   117969470.914          47.209          46.000    22448760.120    91924473.827          36.720          43.000  
E31  27553447.911   144794409.190        1618.571          38.000    27553464.640                        1240.536          30.000  
G12  24946189.863   131093099.800        2274.122          35.000    24946211.062   102150551.7381       1772.660          33.000  
R17  24085773.298   128887856.690        1555.009          43.000    24085768.717   100246069.806        1209.508          43.000  
R15  21825733.956   116630487.347       -3266.218          50.000    21825731.052    90712814.343       -2540.266          47.000  
E19  24481870.718   128653298.242       -1963.072          42.000    24481871.948    98578582.629       -1504.042          49.000  
S31  39525830.250   207709642.798        -770.397          45.000  
G14  23344547.107   122676759.902       -3799.182          40.000    23344542.605    95592481.892       -2960.238          46.000  
G30  24833700.178   130502295.487       -3193.951          34.000    24833699.456   101690476.330       -2488.903          37.000  
E21  25318211.423   133048490.542       -2543.903          47.000    25318212.711   101946446.083       -1949.247          53.000  
G22  21493106.709   112947406.690       -2606.439          48.000                                                                  
E04  25254513.927   132713392.493         963.326          46.000    25254514.637   101689586.333         738.233          51.000  
> 2024 04 08 22 11 30.0020000  0 23                     
S33  40482381.628   212736342.788        -769.189          44.000  
G05  24263031.203   127502883.325       -3648.610          37.000    24263044.939    99352891.366       -2843.375          35.000  
G24  23928795.906   125746738.132        1331.073          45.000    23928795.774    97984544.454        1037.294          43.000  
G15  21755662.308   114326748.684         691.866          50.000    21755657.573    89085839.523         539.185          45.000  
R06  21243491.260   113359381.869        1394.762          43.000                                                                  
R04  24492043.691                3      -5290.176          22.000    24492027.597                3      -4111.887          19.000  
R05  20731533.544   110821937.675       -3537.111          52.000    20731531.278    86194888.176       -2751.100          48.000  
R16  20759371.061   110893302.137        -619.191          52.000    20759368.020    86250533.919        -481.468          49.000  
R09  23800091.893   127091258.118        1801.208          41.000    23800101.836    98848791.627        1401.317          35.000  
G19  22535574.308   118425613.681        1129.274          47.000                                                                  
G13  20798171.225   109295346.059       -1046.078          48.000                                                                  
G17  22448547.370   117968325.132          28.785          48.000    22448543.027    91923581.064          22.661          44.000  
E31  27544218.995   144745917.112        1613.733          37.000    27544237.779                        1236.372          30.000  
G12  24933221.754   131024955.773        2268.085          35.000    24933240.449   102097453.447        1767.468          34.000  
R17  24077091.131   128841404.809        1541.639          42.000    24077088.746   100209940.670        1198.936          45.000  
R15  21844074.478   116728497.054       -3268.241          49.000    21844071.181    90789044.195       -2541.838          46.000  
E19  24493103.743   128712332.456       -1972.971          41.000    24493105.735    98623816.651       -1511.787          49.000  
S31  39530223.436   207732729.402        -769.361          44.000  
G14  23366243.703   122790780.900       -3802.483          42.000    23366240.311    95681329.523       -2963.028          44.000  
G30  24851936.571   130598130.726       -3195.534          37.000    24851935.362   101765153.093       -2489.788          36.000  
E21  25332746.670   133124869.301       -2548.464          48.000    25332747.098   102004970.085       -1952.652          53.000  
G22  21508020.206   113025777.003       -2618.591          49.000                                                                  
E04  25249032.044   132684585.133         956.583          46.000    25249032.556   101667513.212         732.973          51.000  
> 2024 04 08 22 12 00.0020000  0 24                     
S33  40486772.948   212759417.546        -769.280          44.000  
G05  24283871.356   127612397.747       -3652.393          39.000    24283886.176    99438226.725       -2846.118          38.000  
G24  23921197.475   125706810.217        1330.581          44.000    23921197.465    97953431.901        1036.739          43.000  
G15  21751753.806   114306211.614         676.969          50.000    21751750.464    89069836.652         527.618          46.000  
R06  21235711.460   113317871.331        1372.196          42.000                                                                  
R04  24521729.127                3      -5301.539          20.000    24521684.444                3      -4138.473          12.000  
R05  20751443.429   110928365.303       -3558.254          53.000    20751441.682    86277665.148       -2767.644          49.000  
R16  20762879.128   110912044.489        -630.649          52.000    20762876.447    86265111.368        -490.462          49.000  
R09  23789992.186   127037331.576        1793.298          43.000    23790001.874    98806849.662        1395.097          38.000  
G19  22529168.595   118391952.201        1114.507          46.000                                                                  
G13  20804190.175   109326972.730       -1062.737          49.000                                                                  
G17  22448436.840   117967748.740           9.357          46.000    22448434.405    91923132.035           7.247          45.000  
E31  27535021.565   144697582.446        1608.290          38.000    27535033.705                3       1230.585          25.000  
G12  24920293.940   130957007.066        2261.177          33.000    24920306.826   102044507.306        1761.771          36.000  
R17  24068490.986   128795372.866        1527.032          43.000    24068486.397   100174138.167        1187.626          45.000  
R15  21862430.771   116826584.639       -3271.236          51.000    21862427.119    90865334.570       -2544.321          46.000  
E19  24504399.314   128771687.346       -1984.305          42.000    24504400.611    98669296.372       -1520.334          49.000  
S31  39534614.666   207755804.679        -769.370          44.000  
G14  23387965.498   122904926.176       -3807.231          42.000    23387963.515    95770273.896       -2966.768          47.000  
G30  24870183.302   130694014.371       -3197.260          38.000    24870180.269   101839867.666       -2490.997          33.000  
E21  25347310.010   133201401.954       -2553.966          48.000    25347310.704   102063612.030       -1956.982          53.000  
G22  21523006.612   113104531.178       -2631.793          49.000                                                                  
E04  25243592.083   132656001.451         948.690          45.000    25243593.276   101645611.489         726.882          51.000  
G23                                                                  25168045.359                3        256.483          24.000  
> 2024 04 08 22 12 30.0020000  0 24                     
S33  40491164.437   212782497.761        -769.277          44.000  
G05  24304734.690   127722030.844       -3656.311          37.000    24304748.131    99523654.523       -2848.877          36.000  
G24  23913601.708   125666898.260        1330.156          44.000    23913602.808    97922331.793        1036.425          43.000  
G15  21747931.339   114286123.875         662.170          50.000    21747928.716    89054183.919         515.816          47.000  
R06  21228059.592   113277038.442        1349.895          43.000                                                                  
R04  24551421.390                3      -5302.240          23.000    24551402.584                3      -4133.337          16.000  
R05  20771472.185   111035428.797       -3579.230          52.000    20771469.989    86360936.676       -2783.913          49.000  
R16  20766452.695   110931133.143        -641.955          53.000    20766450.195    86279958.185        -499.361          50.000  
R09  23779937.709   126983644.625        1785.601          45.000    23779947.228    98765094.053        1388.800          44.000  
G19  22522848.711   118358744.559        1099.514          46.000                                                                  
G13  20810303.762   109359101.165       -1079.150          48.000                                                                  
G17  22448438.439   117967760.631         -10.121          46.000    22448435.717    91923141.413          -7.959          44.000  
E31  27525856.865   144649423.089        1602.463          37.000    27525872.819   110835273.1571       1227.885          32.000  
G12  24907408.856   130889272.383        2255.078          31.000    24907416.374   101991728.052        1756.660          36.000  
R17  24059973.881   128749782.693        1512.248          45.000    24059967.037   100138679.217        1176.250          45.000  
R15  21880804.831   116924765.576       -3274.175          51.000    21880799.617    90941697.575       -2546.507          46.000  
E19  24515757.891   128831380.142       -1995.332          42.000    24515759.847    98715035.027       -1528.862          49.000  
S31  39539006.292   207778883.452        -769.219          45.000  
G14  23409714.521   123019210.846       -3811.603          44.000    23409709.788    95859326.911       -2970.110          45.000  
G30  24888441.868   130789963.992       -3199.512          40.000    24888439.537   101914633.682       -2493.085          38.000  
E21  25361904.967   133278104.479       -2559.579          47.000    25361906.620   102122384.129       -1961.169          53.000  
G22  21538069.231   113183684.260       -2645.050          50.000                                                                  
E04  25238199.463   132627660.428         940.710          46.000    25238200.232   101623895.682         720.872          52.000  
G23                                                                  25166237.459                3        243.399          26.000  
> 2024 04 08 22 13 00.0030000  0 24                     
S33  40495555.772   212805572.970        -769.412          44.000  
G05  24325618.816   127831773.368       -3660.060          41.000    24325632.076    99609167.731       -2851.823          37.000  
G24  23906008.408   125626991.898        1329.528          44.000    23906007.909    97891235.969        1036.194          42.000  
G15  21744192.521   114266477.227         647.095          49.000    21744189.829    89038874.868         504.193          46.000  
R06  21220533.318   113236875.302        1327.140          43.000                                                                  
R04  24581101.656                3      -5306.849          18.000                                                                  
R05  20791617.493   111143119.346       -3600.403          52.000    20791615.285    86444695.884       -2800.355          49.000  
R16  20770089.009   110950557.627        -653.463          52.000    20770086.531    86295066.181        -508.191          50.000  
R09  23769925.916   126930185.762        1777.807          46.000    23769935.052    98723515.938        1382.595          45.000  
G19  22516613.595   118325982.699        1084.090          46.000                                                                  
G13  20816511.619   109391724.147       -1096.106          49.000                                                                  
G17  22448552.015   117968353.314         -29.835          45.000    22448548.916    91923603.354         -23.326          44.000  
E31  27516721.634   144601428.622        1596.404          35.000    27516738.489   110798499.276        1222.538          33.000  
G12  24894561.461   130821802.2103       2246.614          32.000    24894563.152   101939107.662        1750.526          35.000  
R17  24051534.676   128704627.169        1497.546          44.000    24051528.865   100103558.354        1164.739          46.000  
R15  21899194.489   117023031.932       -3277.287          51.000    21899189.688    91018126.980       -2548.944          46.000  
E19  24527181.029   128891403.326       -2006.477          43.000    24527181.620    98761026.812       -1537.589          49.000  
S31  39543396.919   207801958.790        -769.618          45.000  
G14  23431486.891   123133627.126       -3816.175          43.000    23431482.764    95948482.389       -2973.522          44.000  
G30  24906712.314   130885973.369       -3201.192          40.000    24906710.169   101989446.224       -2494.815          40.000  
E21  25376532.047   133354968.581       -2565.131          48.000    25376533.479   102181280.032       -1965.513          53.000  
G22  21553205.746   113263227.499       -2658.242          49.000                                                                  
E04  25232850.962   132599553.229         932.478          46.000    25232851.724   101602359.052         714.427          52.000  
G23                                                                  25164499.978                3        226.166          14.000  
> 2024 04 08 22 13 30.0030000  0 22                     
S33  40499946.833   212828648.500        -769.261          44.000  
G05  24346522.014   127941620.828       -3663.614          39.000    24346536.457    99694762.614       -2854.573          38.000  
G24  23898416.895   125587099.733        1329.320          44.000    23898416.225    97860151.298        1036.111          42.000  
G15  21740539.645   114247280.730         632.275          50.000    21740536.596    89023916.581         492.609          46.000  
R06  21213134.584   113197393.909        1304.561          42.000                                                                  
R05  20811879.686   111251432.168       -3620.935          52.000    20811877.325    86528939.100       -2816.265          49.000  
R16  20773788.615   110970321.023        -664.493          52.000    20773786.265    86310437.800        -516.845          50.000  
R09  23759957.860   126876964.308        1769.984          46.000    23759965.362    98682122.377        1376.743          44.000  
G19  22510465.824   118293677.231        1069.154          46.000                                                                  
G13  20822814.950   109424845.855       -1112.367          49.000                                                                  
G17  22448776.644   117969533.596         -49.315          47.000    22448772.394    91924523.090         -38.197          44.000  
E31  27507622.084   144553608.467        1591.145          36.000    27507639.571   110761858.900        1219.044          38.000  
R17  24043177.919   128659919.484        1482.458          38.000    24043173.452   100068785.834        1153.239          44.000  
R15  21917598.712   117121381.149       -3279.863          51.000    21917594.273    91094620.806       -2550.897          47.000  
E19  24538666.784   128951758.606       -2017.488          44.000    24538666.945    98807273.085       -1545.798          49.000  
S31  39547788.427   207825034.689        -769.319          45.000  
G14  23453283.263   123248170.843       -3820.230          42.000    23453281.013    96037737.317       -2976.928          46.000  
G30  24924991.976   130982041.991       -3203.515          36.000    24924992.336   102064304.906       -2496.253          39.000  
E21  25391189.437   133431993.380       -2570.196          48.000    25391190.598   102240299.094       -1969.392          53.000  
G22  21568415.505   113343158.976       -2670.973          50.000                                                                  
E04  25227548.893   132571689.035         924.703          46.000    25227548.990   101581008.605         708.622          52.000  
G12                                                                  24881752.480   101886655.103        1745.270          34.000  
> 2024 04 08 22 14 00.0030000  0 23                     
S33  40504337.984   212851725.343        -769.222          44.000  
G05  24367445.775   128051573.553       -3667.085          37.000    24367459.933    99780439.598       -2857.060          38.000  
G24  23890828.921   125547220.614        1328.950          44.000    23890828.101    97829076.776        1035.624          43.000  
G15  21736972.692   114228535.410         617.273          50.000    21736968.855    89009309.892         480.988          46.000  
R06  21205864.376   113158595.636        1281.835          43.000                                                                  
R05  20832258.529   111360367.550       -3641.580          53.000    20832256.325    86613666.515       -2832.281          50.000  
R16  20777550.808   110990421.479        -675.773          52.000    20777549.270    86326071.533        -525.508          50.000  
R09  23750035.420   126823978.449        1762.288          45.000    23750042.146    98640912.115        1370.334          46.000  
G19  22504406.094   118261829.438        1053.829          46.000                                                                  
G13  20829213.157   109458467.948       -1129.215          49.000                                                                  
G17  22449112.737   117971302.912         -68.964          46.000    22449108.714    91925901.850         -53.485          42.000  
E31  27498554.911   144505961.471        1585.430          38.000    27498572.217   110725351.164        1214.797          39.000  
G12  24868965.024                3       2233.362          27.000    24868982.728   101834369.166        1739.905          33.000  
R17  24034905.496   128615661.698        1467.744          40.000    24034902.614   100034363.286        1141.498          45.000  
R15  21936018.184   117219814.143       -3282.424          50.000    21936014.715    91171179.826       -2553.059          45.000  
E19  24550215.025   129012447.492       -2028.583          43.000    24550215.900    98853774.967       -1554.308          50.000  
S31  39552179.391   207848110.253        -769.006          44.000  
G14  23475104.799   123362843.477       -3824.348          41.000    23475100.914    96127092.651       -2980.173          46.000  
G30  24943285.162   131078172.750       -3205.250          39.000    24943284.933   102139212.043       -2497.398          40.000  
E21  25405877.569   133509179.753       -2575.506          48.000    25405878.737   102299441.939       -1973.503          53.000  
G22  21583699.487   113423478.597       -2683.845          49.000                                                                  
E04  25222293.231   132544068.171         916.451          47.000    25222292.937   101559844.622         702.337          52.000  
R04                                                                  24640580.680                3      -4128.750          15.000  
> 2024 04 08 22 14 30.0030000  0 22                     
S33  40508729.358   212874802.402        -769.281          44.000  
G05  24388389.227   128161628.840       -3670.129          39.000    24388402.933    99866196.561       -2859.876          38.000  
G24  23883242.776   125507354.759        1328.785          43.000    23883242.528    97798012.581        1035.255          44.000  
G15  21733491.663   114210242.987         602.179          50.000    21733487.689    88995056.096         469.183          46.000  
R06  21198722.141   113120483.743        1258.802          43.000                                                                  
R05  20852752.795   111469922.244       -3662.169          52.000    20852751.057    86698875.613       -2848.270          50.000  
R16  20781376.360   111010857.786        -686.807          52.000    20781374.658    86341966.525        -534.220          50.000  
R09  23740156.559   126771228.071        1754.343          48.000    23740161.759    98599884.855        1364.630          46.000  
G19  22498433.322   118230441.667        1038.496          47.000                                                                  
G13  20835706.736   109492591.103       -1145.808          49.000                                                                  
G17  22449561.272   117973662.535         -88.451          47.000    22449558.131    91927740.624         -68.800          44.000  
E31  27489518.584   144458488.024        1579.583          39.000    27489537.234   110688976.449        1210.490          41.000  
G12  24856243.776                3       2226.031          27.000    24856254.532   101782251.137        1734.308          35.000  
R17  24026722.162   128571857.997        1452.382          44.000    24026717.892   100000293.739        1129.847          43.000  
R15  21954454.774   117318329.175       -3285.217          51.000    21954450.744    91247802.666       -2555.226          46.000  
E19  24561826.987   129073469.763       -2039.627          43.000    24561828.076    98900532.298       -1562.801          49.000  
S31  39556570.918   207871187.264        -769.225          45.000  
G14  23496950.191   123477642.771       -3828.806          43.000    23496946.154    96216546.689       -2983.452          44.000  
G30  24961590.294   131174365.659       -3207.534          37.000    24961589.992   102214167.586       -2499.173          40.000  
E21  25420595.038   133586526.189       -2580.926          47.000    25420597.167   102358707.432       -1977.568          53.000  
G22  21599057.775   113504184.312       -2696.716          50.000                                                                  
E04  25217083.794   132516692.157         908.425          47.000    25217083.641   101538868.246         696.064          52.000  
