     3.00           OBSERVATION DATA    M: Mixed            RINEX VERSION / TYPE
CONVBIN 2.4.3                           20240408 212942 UTC PGM / RUN BY / DATE 
format: u-blox UBX                                          COMMENT             
log: data/2024-04-08/20240408211500.ubx                     COMMENT             
AQUI00CHL                                                   MARKER NAME         
                                                            MARKER NUMBER       
                                                            MARKER TYPE         
                                                            OBSERVER / AGENCY   
UNKNOWN             UBLOX-ZED-F9P                           REC # / TYPE / VERS 
UNKNOWN             TWIVSP6037L                             ANT # / TYPE        
  1713381.0000 -5047934.0000 -3490983.0000                  APPROX POSITION XYZ 
        0.0000        0.0000        0.0000                  ANTENNA: DELTA H/E/N
G    8 C1C L1C D1C S1C C2L L2L D2L S2L                      SYS / # / OBS TYPES 
R    8 C1C L1C D1C S1C C2C L2C D2C S2C                      SYS / # / OBS TYPES 
E    8 C1C L1C D1C S1C C7Q L7Q D7Q S7Q                      SYS / # / OBS TYPES 
S    4 C1C L1C D1C S1C                                      SYS / # / OBS TYPES 
  2024    04    08    21    15   00.0010000     GPS         TIME OF FIRST OBS   
  2024    04    08    21    29   30.0010000     GPS         TIME OF LAST OBS    
                                                            END OF HEADER       
> 2024 04 08 21 15 00.0010000  0 22                     
S33  39977993.920   210085713.6921       -803.204          44.000  
G05  22185474.594   116585440.9791      -2589.031          47.000    22185476.201    90845840.9461      -2017.412          44.000  
G24  24787328.192   130258280.0241       1324.880          39.000    24787333.920   101500012.3161       1032.521          40.000  
G20  23701775.679   124553478.4441      -3945.468          42.000                                                                  
G15  22634331.889   118944168.1001       1863.836          47.000    22634328.965    92683823.5371       1452.291          42.000  
R06  22755355.898   121426960.1221       3075.714          33.000                                                                  
R04  21373124.720   114452241.4661      -4324.525          51.000    21373123.252    89018400.0301      -3363.395          47.000  
R05  19335369.956   103358650.7481       -795.577          51.000    19335367.199    80390111.8951       -618.745          50.000  
R16  20833252.353   111287903.8751        921.825          53.000    20833251.671    86557433.3151        716.855          51.000  
G19  23662862.158   124349331.6601       2133.186          45.000                                                                  
G13  20659798.382   108568179.5051        493.943          49.000                                                                  
G17  23068632.456   121226820.9521       1698.277          45.000    23068634.329    94462648.7151       1323.422          43.000  
R14  23263444.022   124007722.3811      -4335.151          50.000    23263443.444    96450411.8331      -3371.836          45.000  
R15  19972559.250   106727672.7341      -2459.592          51.000    19972556.703    83010622.7871      -1913.079          48.000  
E19  23608571.520   124064070.1301       -810.230          41.000    23608572.621    95062159.4911       -620.689          49.000  
S31  39025774.964   205081789.2641       -803.508          45.000  
G14  21179573.764   111299739.2071      -2810.791          48.000    21179571.311    86727268.4071      -2190.167          50.000  
G30  22857220.700   120115815.1881      -2990.863          44.000    22857219.339    93597112.7201      -2330.574          43.000  
E21  23950427.664   125860724.3031      -1644.307          49.000    23950430.140    96438932.7141      -1259.917          53.000  
G22  20382398.973   107110580.3801       -767.179          46.000                                                                  
E04  26074537.035   137022614.2141       1487.689          46.000    26074538.690   104991450.8761       1139.894          47.000  
E27  27439713.731   144197025.9991      -3458.939          36.000    27439717.547   110488811.7961      -2650.367          48.000  
> 2024 04 08 21 15 30.0010000  0 22                     
S33  39982581.934   210109822.804        -803.678          44.000  
G05  22200299.538   116663342.276       -2604.122          48.000    22200300.173    90906543.096       -2029.342          44.000  
G24  24779767.137   130218545.031        1324.072          38.000    24779772.061   101469050.237        1031.656          40.000  
G20  23724306.128   124671875.691       -3947.594          41.000                                                                  
G15  22623711.085   118888355.114        1857.259          47.000    22623708.302    92640333.008        1447.183          42.000  
R06  22738092.026   121334817.430        3067.378          34.000                                                                  
R04  21397394.692   114582208.659       -4339.664          51.000    21397394.584    89119485.327       -3375.358          48.000  
R05  19339905.759   103382902.710        -820.966          51.000    19339903.730    80408974.523        -638.580          49.000  
R16  20828119.439   111260488.277         906.140          52.000    20828119.225    86536110.289         704.760          51.000  
G19  23650693.895   124285392.841        2129.885          45.000                                                                  
G13  20657010.769   108553527.515         483.124          49.000                                                                  
G17  23058966.804   121176025.953        1688.299          45.000    23058968.657    94423068.475        1315.368          43.000  
R14  23287839.733   124137762.854       -4334.018          50.000    23287839.467    96551554.452       -3370.920          45.000  
R15  19986404.373   106801656.584       -2472.340          51.000    19986401.831    83068165.802       -1922.906          48.000  
E19  23613223.686   124088521.131        -819.618          41.000    23613225.515    95080894.702        -628.166          49.000  
S31  39030364.846   205105905.546        -804.081          45.000  
G14  21195659.541   111384272.196       -2824.664          48.000    21195657.207    86793138.309       -2201.044          50.000  
G30  22874302.445   120205584.697       -2993.511          43.000    22874301.475    93667063.019       -2332.758          43.000  
E21  23959846.734   125910224.764       -1655.479          48.000    23959849.657    96476861.685       -1268.520          53.000  
G22  20386835.015   107133888.387        -786.445          46.000                                                                  
E04  26066051.607   136978023.877        1485.107          46.000    26066053.373   104957284.319        1138.089          47.000  
E27  27459468.281   144300833.234       -3461.232          35.000    27459471.363   110568352.338       -2652.231          48.000  
> 2024 04 08 21 16 00.0010000  0 22                     
S33  39987170.059   210133934.272        -803.754          44.000  
G05  22215209.867   116741694.121       -2618.999          49.000    22215210.830    90967596.307       -2041.044          45.000  
G24  24772208.668   130178826.848        1323.726          38.000    24772213.529   101438101.330        1031.786          40.000  
G20  23746850.309   124790340.292       -3949.794          42.000                                                                  
G15  22613127.333   118832738.546        1850.767          47.000    22613124.658    92596995.504        1442.166          42.000  
R06  22720868.943   121242911.260        3059.798          34.000                                                                  
R04  21421750.058   114712628.188       -4354.721          52.000    21421750.631    89220922.432       -3386.997          49.000  
R05  19344585.328   103407915.718        -846.334          51.000    19344582.866    80428429.068        -658.254          49.000  
R16  20823074.320   111233540.513         890.579          52.000    20823074.141    86515151.130         692.741          50.000  
G19  23638544.491   124221553.909        2126.205          43.000                                                                  
G13  20654283.506   108539197.572         472.464          49.000                                                                  
G17  23049356.971   121125526.505        1678.542          46.000    23049359.047    94383718.539        1307.886          43.000  
R14  23312226.202   124267762.356       -4332.458          50.000    23312227.148    96652665.206       -3369.656          45.000  
R15  20000320.153   106876016.488       -2484.717          51.000    20000317.270    83126001.324       -1932.535          49.000  
E19  23617931.470   124113258.525        -829.103          41.000    23617932.915    95099849.351        -635.245          48.000  
S31  39034954.322   205130023.860        -803.833          45.000  
G14  21211824.538   111469217.203       -2838.104          48.000    21211821.851    86859329.267       -2211.560          50.000  
G30  22891398.172   120295429.492       -2995.845          41.000    22891398.292    93737071.976       -2334.720          42.000  
E21  23969328.268   125960052.934       -1666.095          47.000    23969331.364    96515041.751       -1276.622          53.000  
G22  20391379.919   107157770.595        -805.437          46.000                                                                  
E04  26057579.984   136933505.768        1482.828          46.000    26057581.876   104923173.123        1136.247          47.000  
E27  27479235.086   144404711.963       -3463.662          37.000    27479238.680   110647947.721       -2653.950          47.000  
> 2024 04 08 21 16 30.0010000  0 23                     
S33  39991755.852   210158033.173        -802.622          43.000  
G05  22230202.519   116820479.628       -2633.170          49.000    22230203.327    91028987.460       -2051.673          44.000  
G24  24764651.302   130139110.917        1324.250          38.000    24764655.455   101407154.153        1031.597          40.000  
G20  23769403.513   124908854.870       -3950.963          43.000                                                                  
G15  22602578.128   118777306.484        1844.958          47.000    22602576.169    92553801.791        1437.544          42.000  
R06  22703687.271   121151231.046        3053.019          35.000                                                                  
R04  21446186.241   114843482.318       -4368.737          51.000    21446186.815    89322697.564       -3397.891          48.000  
R05  19349403.865   103433676.436        -870.852          50.000    19349402.218    80448465.178        -677.387          49.000  
R16  20818113.021   111207045.101         876.014          52.000    20818114.234    86494543.760         681.206          50.000  
G19  23626413.413   124157803.731        2123.848          45.000                                                                  
G13  20651615.604   108525177.278         462.384          49.000                                                                  
G17  23039801.407   121075311.129        1669.312          47.000    23039802.910    94344589.927        1300.882          43.000  
R14  23336602.878   124397703.660       -4330.064          49.000    23336604.157    96753730.636       -3367.904          45.000  
R15  20014302.474   106950734.591       -2496.232          51.000    20014300.752    83184115.466       -1941.465          49.000  
E19  23622690.256   124138269.026        -837.843          41.000    23622692.072    95119013.266        -642.148          48.000  
S31  39039540.859   205154129.123        -803.040          45.000  
G14  21228063.865   111554557.392       -2850.812          48.000    21228061.522    86925828.156       -2221.521          50.000  
G30  22908507.018   120385334.800       -2997.661          43.000    22908507.194    93807128.066       -2335.750          43.000  
E21  23978869.852   126010193.144       -1676.226          48.000    23978872.669    96553460.927       -1284.404          52.000  
G22  20396030.073   107182211.775        -823.786          46.000                                                                  
E04  26049119.124   136889046.732        1481.324          45.000    26049121.706   104889107.198        1135.068          47.000  
E27  27499011.819   144508646.209       -3464.781          33.000    27499016.648   110727585.747       -2655.137          47.000  
R24                                                                  24857073.285                3        830.828          14.000  
> 2024 04 08 21 17 00.0010000  0 23                     
S33  39996337.118   210182108.819        -801.916          44.000  
G05  22245275.150   116899685.821       -2646.911          49.000    22245275.807    91090706.417       -2062.606          44.000  
G24  24757091.660   130099385.793        1324.426          38.000    24757095.450   101376199.850        1031.912          40.000  
G20  23791963.100   125027405.880       -3952.371          41.000                                                                  
G15  22592062.914   118722049.936        1839.176          47.000    22592061.127    92510744.851        1432.958          42.000  
R06  22686548.492   121059769.293        3045.418          35.000                                                                  
R04  21470701.059   114974757.160       -4382.636          51.000    21470701.981    89424799.865       -3408.528          49.000  
R05  19354360.986   103460174.948        -895.374          51.000    19354359.240    80469075.132        -696.372          49.000  
R16  20813236.172   111180991.082         861.261          52.000    20813236.739    86474279.718         669.799          50.000  
R24  24849403.564                3        617.573          11.000    24850934.436                3        800.852          13.000  
G19  23614296.550   124094134.636        2120.945          45.000                                                                  
G13  20649005.071   108511457.820         452.404          49.000                                                                  
G17  23030298.064   121025372.091        1660.252          48.000    23030299.285    94305676.680        1293.608          43.000  
R14  23360965.884   124527574.246       -4327.635          50.000    23360967.218    96854741.089       -3365.848          45.000  
R15  20028349.308   107025796.901       -2507.642          52.000    20028346.559    83242497.264       -1950.368          49.000  
E19  23627499.582   124163542.416        -846.647          41.000    23627501.530    95138378.585        -648.780          48.000  
S31  39044123.463   205178211.033        -802.153          44.000  
G14  21244376.409   111640279.423       -2863.586          48.000    21244374.089    86992624.569       -2231.378          50.000  
G30  22925624.421   120475289.316       -2998.969          42.000    22925625.477    93877222.487       -2336.864          43.000  
E21  23988469.071   126060633.229       -1686.182          48.000    23988471.081    96592109.858       -1291.996          52.000  
G22  20400784.877   107207200.478        -841.887          46.000                                                                  
E04  26040668.261   136844637.114        1479.641          45.000    26040670.507   104855079.151        1133.660          47.000  
E27  27518798.847   144612623.683       -3466.206          31.000    27518803.111   110807256.829       -2656.106          47.000  
> 2024 04 08 21 17 30.0010000  0 22                     
S33  40000913.451   210206157.668        -801.073          44.000  
G05  22260426.220   116979306.492       -2660.911          49.000    22260426.857    91152748.356       -2073.498          43.000  
G24  24749529.395   130059647.913        1324.664          38.000    24749532.364   101345235.569        1032.455          39.000  
G20  23814528.471   125145986.657       -3953.119          41.000                                                                  
G15  22581580.709   118666967.594        1833.230          46.000    22581579.385    92467823.610        1428.590          43.000  
R06  22669449.935   120968526.471        3038.023          36.000                                                                  
R04  21495293.336   115106446.132       -4396.421          52.000    21495294.493    89527224.307       -3419.478          49.000  
R05  19359456.313   103487408.670        -919.988          51.000    19359453.863    80490256.904        -715.562          49.000  
R16  20808441.639   111155374.432         846.729          53.000    20808440.079    86454355.849         658.570          49.000  
G19  23602194.595   124030546.253        2118.416          44.000                                                                  
G13  20646451.442   108498038.068         442.414          49.000                                                                  
G17  23020848.815   120975709.225        1650.881          49.000    23020848.572    94266978.623        1286.511          43.000  
R14  23385315.202   124657368.932       -4325.158          50.000    23385315.491    96955692.529       -3364.006          44.000  
R15  20042459.227   107101197.013       -2518.878          52.000    20042456.375    83301141.823       -1959.131          48.000  
E19  23632358.356   124189076.283        -855.558          40.000    23632360.480    95157943.483        -655.426          48.000  
S31  39048700.850   205202266.422        -801.497          44.000  
G14  21260760.704   111726377.444       -2876.086          48.000    21260757.924    87059713.966       -2241.150          50.000  
G30  22942752.346   120565289.280       -3000.720          44.000    22942751.391    93947352.319       -2338.097          43.000  
E21  23998123.601   126111368.553       -1695.902          48.000    23998125.549    96630985.036       -1299.552          52.000  
G22  20405643.620   107232732.595        -860.010          45.000                                                                  
E04  26032226.446   136800274.831        1478.056          45.000    26032228.538   104821087.379        1132.494          47.000  
E27                                                                  27538596.756   110886957.266       -2657.100          48.000  
> 2024 04 08 21 18 00.0010000  0 22                     
S33  40005484.595   210230177.487        -800.060          44.000  
G05  22275654.524   117059336.749       -2674.545          46.000    22275655.987    91215109.433       -2084.226          42.000  
G24  24741964.336   130019894.424        1325.920          35.000    24741967.205   101314259.132        1032.520          38.000  
G20  23837098.314   125264591.795       -3953.890          40.000                                                                  
G15  22571132.155   118612059.177        1827.325          47.000    22571130.620    92425037.900        1423.868          44.000  
R06  22652392.552   120877504.087        3029.899          35.000                                                                  
R04  21519962.233   115238543.500       -4410.015          52.000    21519962.797    89629966.373       -3430.001          49.000  
R05  19364687.894   103515375.804        -944.464          51.000    19364686.073    80512009.118        -734.617          49.000  
R16  20803725.764   111130192.315         832.029          52.000    20803726.369    86434769.972         647.271          50.000  
G19  23590109.622   123967039.499        2115.419          45.000                                                                  
G13  20643953.898   108484916.812         432.376          49.000                                                                  
G17  23011449.669   120926323.126        1641.644          47.000    23011450.081    94228496.190        1279.124          42.000  
R14  23409649.018   124787082.386       -4322.376          49.000    23409649.864    97056580.825       -3361.938          43.000  
R15  20056631.423   107176929.535       -2529.945          52.000    20056628.428    83360044.959       -1967.741          48.000  
E19  23637267.658   124214868.668        -863.867          42.000    23637268.121    95177706.504        -662.154          47.000  
S31  39053272.701   205226292.137        -800.291          44.000  
G14  21277215.048   111812846.438       -2888.489          48.000    21277212.631    87127092.406       -2250.775          50.000  
G30  22959886.843   120655331.726       -3001.895          44.000    22959885.987    94017515.301       -2339.308          43.000  
E21  24007833.588   126162395.291       -1705.712          49.000    24007835.539    96670083.498       -1306.981          52.000  
G22  20410604.622   107258804.707        -877.931          46.000                                                                  
E04  26023792.529   136755958.617        1476.416          44.000    26023795.288   104787130.870        1131.393          47.000  
E27  27558394.698   144820347.5491      -3468.722          38.000    27558396.784   110966683.892       -2657.940          49.000  
> 2024 04 08 21 18 30.0010000  0 22                     
S33  40010049.610   210254169.152        -799.448          44.000  
G05  22290962.020   117139775.174       -2688.107          48.000    22290962.541    91277788.553       -2094.633          41.000  
G24  24734396.519   129980126.431        1326.014          39.000    24734399.928   101283271.393        1033.152          40.000  
G20  23859672.487   125383219.419       -3954.881          41.000                                                                  
G15  22560717.352   118557328.511        1821.253          47.000    22560715.465    92382390.698        1419.245          43.000  
R06  22635376.366   120786707.151        3022.489          35.000                                                                  
R04  21544706.221   115371047.906       -4423.587          51.000    21544707.051    89733025.019       -3440.545          48.000  
R05  19370057.118   103544078.909        -969.159          50.000    19370055.259    80534333.735        -753.754          49.000  
R16  20799093.312   111105446.082         817.490          52.000    20799092.764    86415523.135         635.887          49.000  
G19  23578040.172   123903618.821        2112.254          44.000                                                                  
G13  20641514.603   108472097.783         422.145          49.000                                                                  
G17  23002105.164   120877218.463        1631.929          48.000    23002104.876    94190233.138        1271.649          43.000  
R14  23433967.808   124916714.743       -4319.786          50.000    23433968.741    97157405.938       -3359.756          45.000  
R15  20070865.743   107252992.713       -2541.030          52.000    20070862.654    83419205.237       -1976.364          48.000  
E19  23642224.927   124240922.065        -873.053          41.000    23642225.904    95197669.498        -668.865          47.000  
S31  39057839.436   205250289.644        -799.501          44.000  
G14  21293739.621   111899685.345       -2900.711          48.000    21293737.105    87194759.144       -2260.441          50.000  
G30  22977029.154   120745417.807       -3003.549          44.000    22977029.169    94087712.245       -2340.537          43.000  
E21  24017599.798   126213713.669       -1715.469          49.000    24017601.418    96709405.415       -1314.448          53.000  
G22  20415669.285   107285417.905        -896.469          45.000                                                                  
E04  26015369.315   136711691.248        1474.739          45.000    26015371.847   104753211.831        1129.959          47.000  
E27  27578201.064                       -3469.786          31.000    27578203.391   111046436.709       -2658.885          48.000  
> 2024 04 08 21 19 00.0010000  0 22                     
S33  40014609.571   210278134.352        -799.116          43.000  
G05  22306346.217   117220621.009       -2702.042          47.000    22306347.778    91340785.138       -2105.423          42.000  
G24  24726825.833   129940344.857        1326.168          39.000    24726830.103   101252273.096        1032.950          39.000  
G20  23882250.221   125501868.123       -3955.560          39.000                                                                  
G15  22550336.825   118502778.954        1814.859          48.000    22550334.653    92339884.628        1414.361          43.000  
R06  22618403.118   120696141.009        3014.556          35.000                                                                  
R04  21569526.783   115503957.529       -4437.501          52.000    21569527.132    89836398.839       -3451.461          48.000  
R05  19375565.415   103573519.864        -994.198          51.000    19375562.307    80557232.238        -773.143          48.000  
R16  20794542.767   111081136.323         802.635          52.000    20794541.716    86396615.765         624.204          50.000  
G19  23565988.278   123840288.709        2109.055          45.000                                                                  
G13  20639133.477   108459583.963         411.536          49.000                                                                  
G17  22992814.676   120828399.535        1621.977          47.000    22992814.788    94152192.685        1263.924          43.000  
R14  23458270.771   125046264.955       -4317.399          49.000    23458271.406    97258167.226       -3357.930          42.000  
R15  20085162.518   107329385.281       -2552.341          53.000    20085158.960    83478621.720       -1985.006          48.000  
E19  23647232.413   124267238.437        -881.773          40.000    23647233.562    95217834.012        -675.875          47.000  
S31  39062401.141   205274260.281        -799.027          44.000  
G14  21310334.896   111986893.034       -2913.293          48.000    21310331.784    87262713.190       -2270.303          50.000  
G30  22994180.209   120835548.245       -3005.506          44.000    22994179.625    94157943.767       -2341.750          43.000  
E21  24027420.650   126265323.566       -1725.583          49.000    24027422.583    96748950.719       -1322.166          53.000  
G22  20420836.359   107312572.707        -914.722          45.000                                                                  
E04  26006955.097   136667475.174        1472.547          45.000    26006957.425   104719332.083        1128.354          47.000  
E27  27598013.030                       -3471.259          30.000    27598016.293   111126215.447       -2660.062          48.000  
> 2024 04 08 21 19 30.0010000  0 22                     
S33  40019168.085   210302089.871        -798.074          43.000  
G05  22321810.966   117301886.842       -2715.605          47.000    22321811.761    91404109.015       -2116.329          42.000  
G24  24719256.431   129900565.894        1326.226          42.000    24719260.654   101221276.727        1033.516          39.000  
G20  23904835.161   125620551.324       -3957.103          38.000                                                                  
G15  22539994.319   118448429.445        1808.420          48.000    22539992.156    92297534.449        1409.138          43.000  
R06  22601477.787   120605826.102        3006.054          36.000                                                                  
R04  21594425.345   115637285.862       -4450.996          52.000    21594425.119    89940098.280       -3461.886          47.000  
R05  19381213.657   103603716.335       -1019.027          51.000    19381211.373    80580718.379        -792.615          48.000  
R16  20790076.044   111057279.552         787.788          52.000    20790075.820    86378060.702         612.732          50.000  
G19  23553957.225   123777068.901        2105.613          44.000                                                                  
G13  20636813.205   108447393.590         401.027          48.000                                                                  
G17  22983582.335   120779886.093        1612.182          46.000    22983583.263    94114390.267        1256.353          44.000  
R14  23482560.862   125175747.792       -4314.742          49.000    23482562.967    97358876.155       -3356.085          45.000  
R15  20099521.885   107406120.596       -2563.344          52.000    20099518.910    83538304.764       -1993.811          48.000  
E19  23652293.594   124293834.943        -890.982          40.000    23652294.628    95238213.136        -682.769          47.000  
S31  39066960.313   205298220.125        -798.555          44.000  
G14  21327002.207   112074483.297       -2925.725          47.000    21326999.775    87330965.366       -2279.947          50.000  
G30  23011343.611   120925739.173       -3007.080          44.000    23011341.898    94228222.421       -2343.515          42.000  
E21  24037299.347   126317240.057       -1735.588          48.000    24037301.849    96788730.944       -1329.802          53.000  
G22  20426110.367   107340284.604        -932.989          46.000                                                                  
E04  25998554.236   136623328.063        1470.432          45.000    25998556.313   104685505.164        1126.818          47.000  
E27                                                                  27617838.411   111206031.470       -2661.018          48.000  
> 2024 04 08 21 20 00.0010000  0 22                     
S33  40023725.756   210326039.970        -798.201          44.000  
G05  22337356.190   117383577.547       -2730.156          48.000    22337356.682    91467763.893       -2127.216          42.000  
G24  24711687.584   129860795.600        1325.787          41.000    24711691.427   101190287.161        1033.057          39.000  
G20  23927427.915   125739272.505       -3957.999          40.000                                                                  
G15  22529691.442   118394288.193        1801.167          47.000    22529689.321    92255346.526        1403.641          43.000  
R06  22584602.166   120515773.001        2997.454          37.000                                                                  
R04  21619402.740   115771036.695       -4465.488          52.000    21619401.635    90044126.365       -3472.976          47.000  
R05  19387005.448   103634675.578       -1044.744          51.000    19387003.609    80604797.798        -812.553          49.000  
R16  20785696.225   111033881.703         772.265          53.000    20785695.991    86359862.599         600.640          50.000  
G19  23541949.152   123713968.815        2101.294          45.000                                                                  
G13  20634556.645   108435535.177         389.708          49.000                                                                  
G17  22974410.972   120731687.826        1601.290          47.000    22974411.855    94076833.482        1247.667          45.000  
R14  23506839.988   125305168.190       -4312.907          48.000    23506842.044    97459536.490       -3354.543          44.000  
R15  20113946.782   107483202.811       -2575.106          52.000    20113944.098    83598257.628       -2002.932          49.000  
E19  23657409.253   124320718.941        -900.929          41.000    23657410.359    95258812.598        -690.395          47.000  
S31  39071518.858   205322176.658        -798.528          44.000  
G14  21343743.475   112162460.195       -2939.091          48.000    21343741.356    87399518.811       -2290.129          49.000  
G30  23028518.997   121015996.699       -3009.756          45.000    23028517.440    94298552.948       -2345.281          43.000  
E21  24047238.544   126369468.378       -1746.128          49.000    24047240.136    96828750.114       -1337.948          53.000  
G22  20431490.615   107368559.186        -951.794          46.000                                                                  
E04  25990167.447   136579257.759        1467.647          45.000    25990170.036   104651737.106        1124.568          47.000  
E27                                                                  27637671.053   111285888.628       -2662.624          48.000  
> 2024 04 08 21 20 30.0010000  0 23                     
S33  40028282.680   210349985.692        -798.210          44.000  
G05  22352981.120   117465688.477       -2743.714          47.000    22352982.852    91531746.260       -2138.061          41.000  
G24  24704120.537   129821031.838        1325.808          40.000    24704124.049   101159302.710        1032.966          38.000  
G20  23950026.684   125858026.878       -3958.480          42.000                                                                  
G15  22519428.721   118340355.754        1794.522          48.000    22519426.285    92213321.297        1398.356          43.000  
R06  22567775.639   120425983.758        2988.683          37.000                                                                  
R04  21644457.538   115905204.796       -4479.005          52.000    21644458.914    90148478.962       -3483.689          49.000  
R05  19392939.500   103666396.377       -1069.816          51.000    19392938.059    80629469.516        -832.094          49.000  
R16  20781401.476   111010940.444         757.311          52.000    20781401.447    86342019.598         589.006          50.000  
G19  23529964.123   123650989.838        2097.466          43.000                                                                  
G13  20632363.147   108424008.906         378.869          48.000                                                                  
G17  22965299.247   120683805.754        1591.027          47.000    22965298.601    94039523.042        1239.863          43.000  
R14  23531106.095   125434522.155       -4310.503          48.000    23531109.008    97560145.168       -3352.751          45.000  
R15  20128435.174   107560626.937       -2586.286          52.000    20128432.602    83658476.449       -2011.455          49.000  
E19  23662579.017   124347889.399        -910.292          40.000    23662580.577    95279631.511        -697.463          47.000  
S31  39076076.408   205346127.113        -798.027          44.000  
G14  21360557.474   112250819.325       -2951.335          47.000    21360555.686    87468370.109       -2299.888          50.000  
G30  23045706.547   121106318.548       -3011.628          45.000    23045705.391    94368933.612       -2346.694          43.000  
E27  27657507.710   145341189.2881      -3476.135          31.000    27657513.259   111365784.331       -2663.715          48.000  
E21  24057235.274   126422005.341       -1756.175          49.000    24057237.602    96869005.772       -1345.670          53.000  
G22  20436977.522   107397393.724        -970.221          46.000                                                                  
E04  25981795.426   136535263.611        1465.200          45.000    25981798.005   104618027.395        1122.742          47.000  
R24                                                                  24811380.612                3        676.695          13.000  
> 2024 04 08 21 21 00.0010000  0 23                     
S33  40032836.178   210373914.814        -797.339          43.000  
G05  22368683.652   117548206.211       -2757.468          46.000    22368684.286    91596045.606       -2148.660          41.000  
G24  24696553.714   129781263.688        1325.365          42.000    24696555.455   101128314.804        1032.687          36.000  
G20  23972629.260   125976800.687       -3959.320          44.000                                                                  
G15  22509203.496   118286623.574        1787.596          48.000    22509201.251    92171452.154        1393.009          43.000  
R06  22550995.256   120336451.468        2979.798          36.000                                                                  
R04  21669587.130   116039776.076       -4492.501          51.000    21669589.618    90253145.134       -3494.149          50.000  
R05  19399013.886   103698868.675       -1095.037          51.000    19399012.270    80654725.712        -851.682          49.000  
R16  20777189.413   110988444.721         742.320          52.000    20777190.345    86324523.120         577.385          50.000  
R24  24808691.044                3        888.266          19.000    25407251.926                3        661.531          11.000  
G19  23517999.929   123588124.444        2093.479          43.000                                                                  
G13  20630231.173   108412805.917         367.867          48.000                                                                  
G17  22956246.057   120636232.597        1580.443          46.000    22956246.452    94002453.303        1231.479          44.000  
R14  23555358.522   125563797.403       -4307.955          49.000    23555359.356    97660692.578       -3350.631          46.000  
R15  20142985.699   107638378.845       -2597.258          52.000    20142982.765    83718950.194       -2020.072          49.000  
E19  23667802.107   124375336.104        -919.475          41.000    23667803.580    95300662.137        -704.650          47.000  
S31  39080631.100   205370060.382        -797.494          45.000  
G14  21377442.116   112339547.499       -2963.925          47.000    21377440.363    87537508.932       -2309.346          50.000  
G30  23062904.435   121196693.787       -3013.605          43.000    23062903.707    94439355.831       -2348.168          43.000  
E27  27677361.329   145445498.085       -3478.558          33.000    27677362.407   111445709.252       -2664.727          48.000  
E21  24067288.746   126474838.924       -1766.156          48.000    24067291.282    96909488.711       -1353.353          53.000  
G22  20442568.336   107426776.939        -988.688          46.000                                                                  
E04  25973436.311   136491336.297        1463.153          45.000    25973438.924   104584368.886        1121.051          47.000  
> 2024 04 08 21 21 30.0010000  0 22                     
S33  40037387.044   210397830.465        -797.193          44.000  
G05  22384463.878   117631131.590       -2771.094          46.000    22384464.701    91660662.578       -2159.324          42.000  
G24  24688985.280   129741494.243        1325.464          40.000    24688987.041   101097325.855        1033.083          36.000  
G20  23995235.115   126095594.697       -3959.961          44.000                                                                  
G15  22499017.770   118233097.492        1780.598          48.000    22499016.013    92129743.604        1387.517          44.000  
R06  22534266.613   120247183.210        2971.047          36.000                                                                  
R04  21694793.436   116174751.136       -4506.098          52.000    21694795.472    90358125.345       -3504.751          50.000  
R05  19405229.110   103732096.525       -1120.401          49.000    19405227.558    80680569.610        -871.246          49.000  
R16  20773062.260   110966397.371         727.225          53.000    20773062.338    86307375.361         565.586          50.000  
G19  23506059.151   123525379.373        2089.372          44.000                                                                  
G13  20628161.519   108401931.522         356.876          46.000                                                                  
G17  22947252.244   120588974.945        1569.856          47.000    22947252.830    93965629.466        1223.335          44.000  
R14  23579596.242   125692995.123       -4305.359          48.000    23579597.034    97761179.704       -3348.664          47.000  
R15  20157598.227   107716459.500       -2608.256          53.000    20157594.857    83779679.642       -2028.721          49.000  
E19  23673079.044   124403063.424        -928.982          41.000    23673080.216    95321907.735        -711.901          47.000  
S31  39085182.791   205393980.541        -797.584          44.000  
G14  21394397.481   112428645.680       -2976.250          48.000    21394395.266    87606936.120       -2319.155          49.000  
G30  23080112.311   121287125.407       -3015.643          43.000    23080111.775    94509822.064       -2349.911          43.000  
E27  27697218.268   145549846.852       -3479.543          33.000    27697219.153   111525664.874       -2665.833          48.000  
E21  24077399.791   126527971.318       -1776.207          48.000    24077401.957    96950200.585       -1360.973          52.000  
G22  20448264.715   107456711.447       -1007.113          45.000                                                                  
E04  25965091.226   136447480.579        1460.374          46.000    25965093.394   104550765.246        1119.016          47.000  
> 2024 04 08 21 22 00.0010000  0 22                     
S33  40041937.115   210421741.679        -797.265          43.000  
G05  22400322.683   117714470.845       -2784.934          46.000    22400325.177    91725602.067       -2170.347          44.000  
G24  24681418.369   129701731.957        1324.706          40.000    24681420.412   101066342.512        1032.375          36.000  
G20  24017844.871   126214414.397       -3961.078          43.000                                                                  
G15  22488873.356   118179788.219        1773.145          49.000    22488871.143    92088203.978        1381.751          44.000  
R06  22517589.756   120158192.101        2961.402          38.000                                                                  
R04  21720076.193   116310135.730       -4519.819          52.000    21720079.015    90463424.099       -3515.444          50.000  
R05  19411589.145   103766089.536       -1146.128          51.000    19411586.640    80707008.592        -891.450          48.000  
R16  20769019.788   110944806.751         711.894          53.000    20769020.368    86290582.865         553.728          50.000  
G19  23494142.992   123462766.273        2084.802          43.000                                                                  
G13  20626156.874   108391396.320         345.278          47.000                                                                  
G17  22938321.918   120542044.037        1558.654          46.000    22938323.041    93929060.203        1214.610          45.000  
R14  23603819.793   125822122.374       -4303.410          49.000    23603822.617    97861611.999       -3347.086          47.000  
R15  20172272.143   107794874.685       -2619.647          52.000    20172268.806    83840669.247       -2037.492          49.000  
E19  23678411.350   124431080.949        -938.974          42.000    23678411.973    95343375.708        -719.450          47.000  
S31  39089733.685   205417896.180        -797.385          45.000  
G14  21411424.298   112518120.014       -2988.861          49.000    21411421.437    87676656.398       -2329.095          49.000  
G30  23097332.921   121377621.824       -3018.115          43.000    23097333.058    94580338.721       -2351.518          43.000  
E27  27717083.399   145654242.916       -3480.608          34.000    27717084.990   111605656.700       -2667.112          47.000  
E21  24087568.907   126581409.814       -1786.604          48.000    24087570.991    96991147.013       -1368.924          52.000  
G22  20454067.942   107487204.935       -1026.074          46.000                                                                  
E04  25956760.401   136403706.400        1457.611          45.000    25956763.127   104517224.079        1116.947          47.000  
> 2024 04 08 21 22 30.0010000  0 22                     
S33  40046486.766   210445651.580        -796.858          43.000  
G05  22416260.958   117798224.156       -2798.302          45.000    22416264.004    91790864.173       -2180.439          44.000  
G24  24673853.089   129661979.822        1325.123          39.000    24673855.159   101035367.025        1032.777          38.000  
G20  24040461.124   126333260.367       -3961.462          44.000                                                                  
G15  22478770.811   118126701.565        1766.130          49.000    22478768.988    92046837.841        1376.229          44.000  
R06  22500965.659   120069485.177        2952.874          38.000                                                                  
R04  21745436.045   116445929.935       -4532.926          53.000    21745437.682    90569041.410       -3525.663          50.000  
R05  19418092.252   103800851.276       -1171.172          51.000    19418089.159    80734045.528        -910.888          48.000  
R16  20765063.859   110923675.711         697.088          52.000    20765064.143    86274147.809         542.156          51.000  
G19  23482254.290   123400292.016        2080.300          44.000                                                                  
G13  20624217.752   108381205.520         334.307          47.000                                                                  
G17  22929453.849   120495446.679        1548.047          47.000    22929455.065    93892750.875        1206.223          44.000  
R14  23628031.227   125951181.131       -4300.358          49.000    23628033.045    97961991.122       -3344.850          45.000  
R15  20187008.704   107873624.822       -2630.213          52.000    20187006.423    83901919.385       -2045.671          49.000  
E19  23683798.644   124459392.857        -948.312          42.000    23683799.374    95365069.266        -726.651          47.000  
S31  39094284.550   205441810.717        -796.865          44.000  
G14  21428522.523   112607971.390       -3000.934          49.000    21428519.364    87746670.475       -2338.462          49.000  
G30  23114567.574   121468185.991       -3019.448          45.000    23114566.566    94650908.267       -2353.089          43.000  
E27  27736956.857   145758688.167       -3482.023          34.000    27736960.279   111685686.189       -2668.144          47.000  
E21  24097796.682   126635156.441       -1796.457          48.000    24097798.688    97032329.541       -1376.441          52.000  
G22  20459977.649   107518260.065       -1044.110          46.000                                                                  
E04  25948446.538   136360018.498        1455.057          45.000    25948449.524   104483749.017        1114.941          47.000  
> 2024 04 08 21 23 00.0010000  0 22                     
S33  40051032.499   210469540.259        -795.843          44.000  
G05  22432273.513   117882368.589       -2811.281          45.000    22432275.387    91856431.058       -2190.501          43.000  
G24  24666285.589   129622216.806        1325.625          40.000    24666289.870   101004383.123        1032.858          39.000  
G20  24063077.094   126452108.876       -3961.719          43.000                                                                  
G15  22468707.504   118073818.774        1759.200          49.000    22468705.721    92005630.524        1371.026          44.000  
R06  22484392.939   119981045.705        2943.337          39.000                                                                  
R04  21770866.871   116582109.413       -4545.778          52.000    21770869.227    90674958.386       -3535.765          50.000  
R05  19424735.550   103836361.724       -1196.225          51.000    19424732.629    80761664.769        -930.340          48.000  
R16  20761191.024   110902982.515         682.440          53.000    20761190.129    86258053.312         530.773          50.000  
G19  23470389.334   123337938.987        2076.175          45.000                                                                  
G13  20622340.465   108371340.295         323.445          47.000                                                                  
G17  22920647.129   120449165.191        1537.333          47.000    22920647.874    93856687.631        1197.844          44.000  
R14  23652225.470   126080148.093       -4297.318          49.000    23652225.790    98062298.800       -3342.443          43.000  
R15  20201803.131   107952685.929       -2640.651          51.000    20201801.099    83963411.393       -2053.727          49.000  
E19  23689239.061   124487978.795        -957.558          43.000    23689239.139    95386972.785        -733.688          47.000  
S31  39098830.633   205465703.482        -796.107          44.000  
G14  21445687.374   112698176.448       -3012.741          49.000    21445684.612    87816960.159       -2347.594          49.000  
G30  23131810.998   121558796.900       -3021.102          44.000    23131809.710    94721514.161       -2354.131          44.000  
E27  27756836.793   145863160.243       -3483.194          36.000    27756840.577   111765736.238       -2668.652          46.000  
E21  24108079.198   126689189.070       -1805.905          48.000    24108080.467    97073731.217       -1383.743          52.000  
G22  20465989.818   107549854.807       -1062.290          47.000                                                                  
E04  25940146.016   136316397.351        1452.767          45.000    25940148.742   104450325.090        1113.304          47.000  
> 2024 04 08 21 23 30.0010000  0 22                     
S33  40055574.690   210493408.820        -795.438          44.000  
G05  22448360.752   117966903.819       -2824.601          45.000    22448362.343    91922302.442       -2200.778          43.000  
G24  24658716.869   129582445.174        1325.148          39.000    24658722.091   100973392.445        1033.219          40.000  
G20  24085693.141   126570959.276       -3962.036          43.000                                                                  
G15  22458683.930   118021144.566        1752.062          48.000    22458682.103    91964585.750        1365.352          44.000  
R06  22467871.368   119892879.657        2934.039          39.000                                                                  
R04  21796368.294   116718673.541       -4558.809          51.000    21796371.712    90781174.504       -3545.703          50.000  
R05  19431519.356   103872623.531       -1221.508          51.000    19431516.417    80789868.368        -950.098          48.000  
R16  20757398.935   110882729.363         667.496          53.000    20757398.658    86242301.055         519.218          50.000  
G19  23458547.880   123275712.472        2071.673          45.000                                                                  
G13  20620526.243   108361804.999         312.000          48.000                                                                  
G17  22911901.125   120403205.453        1526.614          45.000    22911900.172    93820875.100        1189.438          42.000  
R14  23676402.962   126209024.211       -4294.534          48.000    23676403.326    98162535.838       -3340.369          45.000  
R15  20216657.013   108032057.704       -2651.063          52.000    20216653.759    84025145.022       -2061.920          48.000  
E19  23694731.146   124516842.107        -967.066          42.000    23694731.524    95409088.838        -740.776          47.000  
S31  39103373.655   205489576.803        -795.708          44.000  
G14  21462919.956   112788735.121       -3024.760          49.000    21462917.149    87887525.397       -2356.986          48.000  
G30  23149062.375   121649456.527       -3022.920          43.000    23149061.480    94792158.048       -2355.636          44.000  
E27  27776722.618   145967660.073       -3483.613          37.000    27776725.689   111845807.585       -2669.439          44.000  
E21  24118415.525   126743508.778       -1815.603          48.000    24118417.012    97115352.856       -1391.222          52.000  
G22  20472105.772   107581991.053       -1080.501          47.000                                                                  
E04  25931858.413   136272846.710        1450.405          44.000    25931861.222   104416955.196        1111.319          47.000  
> 2024 04 08 21 24 00.0010000  0 22                     
S33  40060115.386   210517271.821        -795.682          43.000  
G05  22464523.796   118051840.932       -2838.441          45.000    22464525.274    91988487.015       -2212.002          43.000  
G24  24651149.321   129542678.666        1324.796          40.000    24651155.058   100942405.789        1032.627          40.000  
G20  24108313.075   126689822.922       -3962.518          43.000                                                                  
G15  22448703.200   117968695.291        1744.202          48.000    22448700.976    91923716.242        1359.094          43.000  
R06  22451403.635   119805005.754        2923.864          37.000                                                                  
R04  21821944.965   116855633.654       -4572.354          51.000    21821948.225    90887698.606       -3556.251          49.000  
R05  19438445.524   103909651.463       -1247.398          51.000    19438442.562    80818667.854        -970.241          47.000  
R16  20753692.121   110862930.140         652.013          52.000    20753691.847    86226901.842         507.209          51.000  
G19  23446733.215   123213630.271        2066.558          43.000                                                                  
G13  20618777.557   108352615.648         300.089          48.000                                                                  
G17  22903218.576   120357584.263        1514.673          46.000    22903218.890    93785326.372        1180.239          43.000  
R14  23700563.649   126337821.944       -4292.191          49.000    23700565.520    98262711.870       -3338.488          46.000  
R15  20231570.178   108111751.493       -2662.191          51.000    20231567.843    84087129.139       -2070.584          49.000  
E19  23700279.271   124545997.923        -977.206          43.000    23700279.490    95431429.028        -748.597          47.000  
S31  39107915.395   205513443.545        -795.725          44.000  
G14  21480222.375   112879659.082       -3037.303          49.000    21480219.358    87958375.268       -2366.687          48.000  
G30  23166326.467   121740178.860       -3025.445          44.000    23166326.012    94862850.779       -2357.448          45.000  
E27  27796615.902   146072200.499       -3485.639          37.000    27796618.773   111925910.023       -2671.000          44.000  
E21  24128809.378   126798128.449       -1826.015          48.000    24128810.642    97157204.331       -1399.171          52.000  
G22  20478326.347   107614681.723       -1099.188          47.000                                                                  
E04  25923588.554   136229382.145        1446.959          45.000    25923589.780   104383651.251        1108.700          47.000  
> 2024 04 08 21 24 30.0010000  0 22                     
S33  40064656.777   210541137.992        -795.520          43.000  
G05  22480763.139   118137186.522       -2851.868          44.000    22480766.720    92054989.834       -2222.439          44.000  
G24  24643584.345   129502926.222        1324.850          39.000    24643589.975   100911430.063        1032.245          41.000  
G20  24130935.771   126808706.019       -3963.275          44.000                                                                  
G15  22438767.333   117916482.397        1736.371          48.000    22438765.218    91883030.946        1352.916          44.000  
R06  22434992.333   119717437.064        2913.423          37.000                                                                  
R04  21847596.665   116992995.754       -4585.671          50.000    21847598.808    90994535.359       -3566.586          47.000  
R05  19445518.194   103947455.421       -1273.272          51.000    19445515.330    80848070.945        -990.383          47.000  
R16  20750072.032   110843593.231         636.693          52.000    20750071.879    86211862.215         495.158          50.000  
G19  23434947.776   123151704.432        2061.499          42.000                                                                  
G13  20617097.128   108343783.541         288.291          48.000                                                                  
G17  22894604.432   120312313.939        1503.005          47.000    22894603.727    93750051.014        1171.155          42.000  
R14  23724712.617   126466548.535       -4289.770          48.000    23724714.019    98362832.615       -3336.555          44.000  
R15  20246546.013   108191773.712       -2672.946          52.000    20246543.219    84149368.662       -2079.026          48.000  
E19  23705885.502   124575455.644        -987.091          43.000    23705885.256    95454000.560        -756.407          47.000  
S31  39112458.326   205537315.126        -795.932          44.000  
G14  21497596.050   112970954.884       -3049.448          50.000    21497592.176    88029514.889       -2376.357          48.000  
G30  23183603.340   121830972.689       -3027.872          43.000    23183603.025    94933599.204       -2359.247          44.000  
E27  27816518.744   146176789.123       -3487.332          39.000    27816522.017   112006049.366       -2672.182          44.000  
E21  24139261.987   126853055.849       -1836.221          49.000    24139262.954    97199291.602       -1407.013          52.000  
G22  20484653.704   107647935.305       -1117.959          47.000                                                                  
E04  25915335.833   136186014.114        1444.023          45.000    25915337.299   104350421.285        1106.210          48.000  
> 2024 04 08 21 25 00.0010000  0 23                     
S33  40069198.697   210565006.642        -795.637          43.000  
G05  22497082.066   118222934.689       -2864.832          45.000    22497084.102    92121806.371       -2232.348          44.000  
G24  24636022.373   129463184.811        1324.678          39.000    24636026.827   100880462.915        1032.319          40.000  
G20  24153561.157   126927603.034       -3963.379          42.000                                                                  
G15  22428876.300   117864505.460        1728.621          48.000    22428874.757    91842529.506        1346.967          45.000  
R06  22418638.752   119630174.614        2903.282          38.000                                                                  
R04  21873322.276   117130753.837       -4598.369          51.000    21873323.152    91101680.110       -3576.562          46.000  
R05  19452734.336   103986032.707       -1298.690          51.000    19452731.017    80878075.467       -1010.159          47.000  
R16  20746536.810   110824715.156         621.642          51.000    20746537.185    86197179.438         483.490          50.000  
G19  23423192.464   123089935.703        2056.234          43.000                                                                  
G13  20615484.506   108335307.450         276.598          48.000                                                                  
G17  22886057.071   120267395.026        1491.460          48.000    22886056.229    93715049.492        1162.254          43.000  
R14  23748846.757   126595200.104       -4286.918          47.000    23748848.036    98462894.971       -3334.491          45.000  
R15  20261581.083   108272118.534       -2683.529          52.000    20261578.911    84211859.118       -2087.216          49.000  
E19  23711546.839   124605213.425        -996.858          42.000    23711547.863    95476801.996        -763.798          47.000  
S31  39117000.191   205561186.540        -795.672          44.000  
G14  21515038.944   113062617.193       -3061.471          49.000    21515035.270    88100940.067       -2385.545          48.000  
G30  23200894.199   121921834.841       -3029.551          44.000    23200893.595    95004400.901       -2360.939          44.000  
E27  27836428.759   146281421.589       -3488.193          39.000    27836433.389   112086222.331       -2672.925          45.000  
E21  24149771.450   126908286.745       -1846.084          48.000    24149772.903    97241611.415       -1414.483          52.000  
G22  20491087.968   107681747.810       -1136.317          46.000                                                                  
E04  25907101.511   136142741.113        1440.816          45.000    25907102.638   104317264.131        1104.061          48.000  
R24                                                                  24771897.284                3        589.233          15.000  
> 2024 04 08 21 25 30.0010000  0 22                     
S33  40073740.997   210588875.804        -795.644          44.000  
G05  22513476.464   118309084.354       -2878.387          46.000    22513476.993    92188935.764       -2242.996          43.000  
G24  24628462.629   129423455.505        1323.804          39.000    24628465.334   100849505.221        1031.833          39.000  
G20  24176189.168   127046512.507       -3963.953          42.000                                                                  
G15  22419031.259   117812767.869        1720.467          48.000    22419029.124    91802214.555        1340.656          45.000  
R06  22402344.266   119543224.076        2892.733          38.000                                                                  
R04  21899121.794   117268906.019       -4611.699          51.000    21899123.342    91209131.358       -3586.894          47.000  
R05  19460096.133   104025385.163       -1324.717          51.000    19460092.566    80908682.939       -1030.378          47.000  
R16  20743088.851   110806297.097         606.205          51.000    20743088.948    86182854.421         471.525          50.000  
G19  23411467.795   123028328.548        2050.665          42.000                                                                  
G13  20613939.630   108327190.863         264.405          49.000                                                                  
G17  22877576.601   120222831.923        1479.385          48.000    22877576.938    93680325.222        1152.769          44.000  
R14  23772968.055   126723775.645       -4284.553          48.000    23772968.737    98562898.212       -3332.490          46.000  
R15  20276676.053   108352784.385       -2694.209          51.000    20276673.561    84274599.254       -2095.405          48.000  
E19  23717266.951   124635273.507       -1007.011          42.000    23717268.155    95499835.064        -771.717          47.000  
S31  39121543.301   205585060.027        -795.890          44.000  
G14  21532550.979   113154644.928       -3073.631          48.000    21532547.356    88172650.017       -2395.167          48.000  
G30  23218197.557   122012766.479       -3032.423          45.000    23218198.067    95075256.741       -2362.925          45.000  
E27  27856347.942   146386097.997       -3490.176          39.000    27856352.739   112166428.933       -2674.164          45.000  
E21  24160338.820   126963821.268       -1856.253          47.000    24160341.029    97284163.877       -1422.377          52.000  
G22  20497628.741   107716119.621       -1155.164          47.000                                                                  
E04  25898885.777   136099565.894        1437.582          45.000    25898886.596   104284181.905        1101.594          48.000  
> 2024 04 08 21 26 00.0010000  0 23                     
S33  40078283.356   210612746.498        -795.642          44.000  
G05  22529946.771   118395632.170       -2891.428          47.000    22529946.890    92256375.369       -2252.999          43.000  
G24  24620904.882   129383737.448        1323.898          40.000    24620907.022   100818556.338        1031.451          39.000  
G20  24198818.582   127165430.662       -3963.977          41.000                                                                  
G15  22409231.861   117761271.788        1712.531          49.000    22409229.851    91762087.804        1334.455          45.000  
R06  22386108.985   119456588.417        2882.428          38.000                                                                  
R04  21924993.981   117407448.339       -4624.488          51.000    21924994.996    91316886.051       -3596.852          46.000  
R05  19467602.645   104065512.443       -1350.354          51.000    19467600.503    80939893.056       -1050.354          49.000  
R16  20739726.753   110788337.440         591.143          52.000    20739727.217    86168885.973         459.759          50.000  
R24  24763743.351                3        721.414          18.000                                                                  
G19  23399775.199   122966885.589        2045.408          43.000                                                                  
G13  20612463.809   108319434.898         252.511          49.000                                                                  
G17  22869163.139   120178626.843        1467.637          47.000    22869164.494    93645879.950        1143.537          44.000  
R14  23797075.071   126852273.220       -4281.916          50.000    23797074.620    98662840.826       -3330.248          45.000  
R15  20291831.774   108433768.015       -2704.678          52.000    20291827.914    84337586.561       -2103.571          48.000  
E19  23723045.522   124665635.872       -1017.025          43.000    23723045.754    95523099.745        -779.324          46.000  
S31  39126086.368   205608935.817        -795.761          44.000  
G14  21550131.904   113247034.880       -3085.657          49.000    21550128.093    88244642.205       -2404.408          48.000  
G30  23235514.372   122103766.623       -3034.426          44.000    23235514.364    95146165.944       -2364.397          44.000  
E27  27876275.810   146490816.141       -3491.141          39.000    27876279.843   112246667.532       -2675.067          44.000  
E21  24170963.812   127019657.354       -1866.104          47.000    24170966.587    97326947.398       -1429.910          53.000  
G22  20504275.805   107751048.864       -1173.632          47.000                                                                  
E04  25890688.827   136056489.200        1434.328          46.000    25890689.293   104251175.189        1098.966          49.000  
> 2024 04 08 21 26 30.0010000  0 23                     
S33  40082825.807   210636618.945        -795.958          42.000  
G05  22546491.971   118482574.976       -2904.836          48.000    22546493.828    92324122.806       -2263.486          45.000  
G24  24613348.139   129344029.618        1323.436          39.000    24613350.383   100787615.394        1030.797          38.000  
G20  24221448.689   127284353.913       -3964.026          40.000                                                                  
G15  22399478.533   117710018.123        1704.207          49.000    22399476.267    91722149.950        1327.829          44.000  
R06  22369933.043   119370271.190        2871.665          38.000                                                                  
R04  21950937.875   117546377.178       -4637.496          51.000    21950940.317    91424941.344       -3606.975          48.000  
R05  19475254.455   104106414.330       -1376.462          51.000    19475252.495    80971705.609       -1070.606          49.000  
R16  20736450.957   110770835.154         575.616          52.000    20736451.071    86155273.278         447.692          51.000  
G19  23388113.838   122905609.124        2039.494          44.000                                                                  
G13  20611056.282   108312040.798         240.170          48.000                                                                  
G17  22860820.423   120134782.496        1455.253          48.000    22860819.775    93611715.713        1134.081          43.000  
R14  23821164.560   126980690.505       -4279.394          48.000    23821165.503    98762720.987       -3328.430          45.000  
R15  20307045.486   108515065.941       -2715.354          52.000    20307042.114    84400818.303       -2111.909          49.000  
E19  23728880.974   124696300.607       -1027.301          43.000    23728880.939    95546596.118        -787.187          46.000  
S31  39130630.312   205632811.818        -796.031          45.000  
G14  21567781.052   113339783.787       -3097.774          48.000    21567777.259    88316914.118       -2413.894          47.000  
G30  23252843.842   122194834.308       -3036.786          44.000    23252844.222    95217127.809       -2366.496          45.000  
E27  27896210.919   146595573.962       -3492.690          40.000    27896214.939   112326936.536       -2676.264          44.000  
E21  24181646.265   127075792.963       -1876.249          47.000    24181648.840    97369960.425       -1437.749          53.000  
G22  20511028.437   107786534.277       -1192.280          47.000                                                                  
E04  25882509.273   136013511.620        1430.840          44.000    25882510.848   104218244.424        1096.359          49.000  
R24                                                                  24759805.930                3        542.617          20.000  
> 2024 04 08 21 27 00.0010000  0 22                     
S33  40087367.669   210660487.583        -795.566          43.000  
G05  22563110.522   118569905.493       -2917.573          48.000    22563112.491    92392172.335       -2273.317          45.000  
G24  24605792.365   129304327.607        1323.163          41.000    24605795.618   100756679.033        1031.062          40.000  
G20  24244078.729   127403275.310       -3964.154          41.000                                                                  
G15  22389771.249   117659005.049        1696.234          49.000    22389769.134    91682399.550        1321.768          44.000  
R06  22353816.799   119284271.946        2861.054          38.000                                                                  
R04  21976952.999   117685684.429       -4649.946          51.000    21976955.929    91533290.964       -3616.709          48.000  
R05  19483049.546   104148086.251       -1402.020          51.000    19483048.180    81004117.081       -1090.475          49.000  
R16  20733258.736   110753785.045         560.662          52.000    20733258.826    86142012.240         436.139          50.000  
G19  23376485.429   122844498.301        2034.030          46.000                                                                  
G13  20609717.706   108305006.053         228.487          48.000                                                                  
G17  22852545.721   120091297.509        1443.403          48.000    22852544.386    93577831.540        1124.740          43.000  
R14  23845239.379   127109021.379       -4276.331          48.000    23845240.649    98862533.913       -3325.958          43.000  
R15  20322316.566   108596670.506       -2725.412          52.000    20322313.921    84464288.554       -2119.709          48.000  
E19  23734773.276   124727264.191       -1037.377          43.000    23734772.922    95570321.472        -794.751          46.000  
S31  39135172.698   205656684.888        -795.854          44.000  
G14  21585497.303   113432884.897       -3109.343          47.000    21585493.836    88389460.464       -2422.966          47.000  
G30  23270185.371   122285965.099       -3038.760          44.000    23270185.826    95288138.822       -2368.121          44.000  
E27  27916151.814   146700365.733       -3493.632          40.000    27916155.934   112407231.589       -2677.114          43.000  
E21  24192384.224   127132222.516       -1885.952          47.000    24192387.028    97413198.673       -1445.141          53.000  
G22  20517885.721   107822570.561       -1210.492          47.000                                                                  
E04  25874349.266   135970630.416        1427.703          45.000    25874350.843   104185387.481        1093.888          49.000  
> 2024 04 08 21 27 30.0010000  0 22                     
S33  40091908.664   210684350.600        -795.601          43.000  
G05  22579802.163   118657619.871       -2930.253          48.000    22579803.768    92460520.978       -2283.278          44.000  
G24  24598238.990   129264629.829        1323.096          41.000    24598240.049   100725745.898        1030.983          40.000  
G20  24266706.814   127522190.603       -3963.647          41.000                                                                  
G15  22380109.657   117608233.466        1688.234          48.000    22380107.376    91642837.343        1315.357          45.000  
R06  22337760.804   119198593.432        2850.817          39.000                                                                  
R04  22003037.614   117825365.813       -4662.291          50.000    22003040.935    91641931.542       -3626.148          49.000  
R05  19490988.649   104190527.046       -1427.587          51.000    19490987.085    81037126.602       -1110.395          49.000  
R16  20730150.648   110737185.028         545.860          52.000    20730151.191    86129101.234         424.553          50.000  
G19  23364889.206   122783554.979        2028.591          46.000                                                                  
G13  20608447.619   108298331.338         216.469          48.000                                                                  
G17  22844339.674   120048173.604        1431.276          48.000    22844338.408    93544228.656        1115.199          44.000  
R14  23869296.517   127237262.609       -4273.304          47.000    23869297.373    98962277.104       -3323.722          41.000  
R15  20337644.252   108678577.711       -2735.183          51.000    20337641.510    84527994.160       -2127.422          49.000  
E19  23740721.683   124758525.681       -1047.113          43.000    23740721.941    95594275.108        -802.276          46.000  
S31  39139714.866   205680552.353        -795.559          44.000  
G14  21603280.472   113526334.243       -3120.834          48.000    21603276.732    88462278.151       -2431.908          47.000  
G30  23287538.155   122377157.242       -3041.016          43.000    23287537.267    95359197.644       -2369.269          43.000  
E27  27936100.108   146805188.646       -3494.856          41.000    27936102.375   112487550.483       -2677.813          41.000  
E21  24203178.674   127188943.189       -1895.596          47.000    24203180.319    97456659.998       -1452.474          53.000  
G22  20524846.425   107859154.783       -1228.517          46.000                                                                  
E04  25866207.282   135927845.410        1424.474          44.000    25866208.896   104152604.254        1091.465          50.000  
> 2024 04 08 21 28 00.0010000  0 22                     
S33  40096447.111   210708200.098        -794.704          43.000  
G05  22596564.544   118745705.065       -2942.306          48.000    22596566.549    92529158.565       -2292.548          45.000  
G24  24590683.732   129224926.458        1323.573          42.000    24590684.983   100694808.409        1031.151          40.000  
G20  24289332.489   127641087.579       -3962.636          42.000                                                                  
G15  22370492.536   117557696.126        1680.730          48.000    22370490.255    91603457.653        1309.667          45.000  
R06  22321763.672   119113229.759        2839.985          38.000                                                                  
R04  22029190.284   117965408.320       -4673.996          51.000    22029193.863    91750852.990       -3635.273          49.000  
R05  19499070.513   104233727.555       -1452.478          51.000    19499069.599    81070727.030       -1129.701          49.000  
R16  20727126.472   110721024.623         531.499          53.000    20727126.082    86116532.174         413.396          51.000  
G19  23353322.219   122722772.647        2023.634          45.000                                                                  
G13  20607244.454   108292009.061         205.065          48.000                                                                  
G17  22836200.805   120005403.923        1419.786          47.000    22836199.958    93510901.842        1106.324          44.000  
R14  23893334.581   127365403.281       -4269.526          45.000    23893336.999    99061942.111       -3321.006          41.000  
R15  20353026.738   108760774.535       -2744.547          52.000    20353023.244    84591925.073       -2134.633          48.000  
E19  23746725.115   124790076.601       -1056.326          42.000    23746725.758    95618450.507        -809.435          46.000  
S31  39144253.754   205704404.905        -794.830          44.000  
G14  21621127.933   113620119.785       -3131.642          47.000    21621123.406    88535357.823       -2440.292          47.000  
G30  23304901.387   122468400.969       -3042.268          44.000    23304901.120    95430296.642       -2370.511          43.000  
E27  27956050.958   146910031.713       -3494.829          41.000    27956053.352   112567884.844       -2677.945          41.000  
E21  24214025.417   127245944.076       -1904.604          47.000    24214027.002    97500336.039       -1459.335          52.000  
G22  20531911.157   107896276.586       -1246.195          47.000                                                                  
E04  25858081.858   135885148.526        1421.906          44.000    25858083.983   104119888.549        1089.551          50.000  
> 2024 04 08 21 28 30.0010000  0 22                     
S33  40100980.111   210732022.881        -794.058          43.000  
G05  22613394.414   118834147.462       -2954.526          47.000    22613396.722    92598074.479       -2302.220          44.000  
G24  24583125.023   129185206.320        1323.777          42.000    24583127.155   100663857.842        1031.559          42.000  
G20  24311951.877   127759952.115       -3962.048          44.000                                                                  
G15  22360918.410   117507384.436        1672.917          48.000    22360916.189    91564253.781        1303.401          44.000  
R06  22305823.894   119028174.043        2829.382          39.000                                                                  
R04  22055407.467   118105797.305       -4685.857          51.000    22055410.429    91860043.922       -3644.537          48.000  
R05  19507292.536   104277676.220       -1477.841          52.000    19507290.973    81104909.310       -1149.436          49.000  
R16  20724180.858   110705292.047         516.850          53.000    20724180.715    86104295.874         401.920          51.000  
G19  23341783.945   122662143.857        2017.994          43.000                                                                  
G13  20606106.893   108286030.168         193.225          48.000                                                                  
G17  22828128.290   119962981.060        1407.886          48.000    22828127.300    93477845.278        1097.009          44.000  
R14  23917351.282   127493430.300       -4266.256          44.000    23917354.486    99161518.754       -3317.829          37.000  
R15  20368459.818   108843247.679       -2754.157          51.000    20368457.227    84656070.874       -2142.165          49.000  
E19  23752782.499   124821906.338       -1065.969          42.000    23752782.627    95642839.551        -816.810          46.000  
S31  39148787.790   205728232.647        -794.138          44.000  
G14  21639035.623   113714228.023       -3142.753          47.000    21639031.951    88608688.941       -2448.826          47.000  
G30  23322272.272   122559685.046       -3043.983          44.000    23322271.406    95501427.105       -2371.905          42.000  
E27  27976002.508   147014882.601       -3495.518          40.000    27976005.441   112648225.171       -2678.524          41.000  
E21  24224922.871   127303212.842       -1913.776          48.000    24224924.881    97544217.344       -1466.409          52.000  
G22  20539075.422   107933923.972       -1264.035          47.000                                                                  
E04  25849972.014   135842530.196        1418.720          44.000    25849973.968   104087233.022        1087.199          50.000  
> 2024 04 08 21 29 00.0010000  0 22                     
S33  40105512.177   210755836.487        -793.565          43.000  
G05  22630295.042   118922960.036       -2966.682          47.000    22630296.826    92667278.840       -2311.666          44.000  
G24  24575565.345   129145484.557        1323.735          42.000    24575568.788   100632906.024        1031.557          43.000  
G20  24334568.131   127878796.854       -3961.353          44.000                                                                  
G15  22351391.364   117457316.292        1664.735          48.000    22351388.273    91525239.691        1297.151          44.000  
R06  22289945.931   118943445.697        2818.873          39.000                                                                  
R04  22081692.239   118246545.268       -4697.682          51.000    22081694.665    91969514.063       -3653.769          48.000  
R05  19515656.203   104322388.975       -1503.353          51.000    19515654.849    81139685.889       -1169.333          49.000  
R16  20721318.580   110690002.209         502.067          52.000    20721318.643    86092403.911         390.563          51.000  
G19  23330278.719   122601687.054        2012.125          44.000                                                                  
G13  20605037.046   108280411.466         180.995          47.000                                                                  
G17  22820124.699   119920923.245        1395.594          48.000    22820124.507    93445073.161        1087.498          46.000  
R14  23941351.499   127621357.961       -4262.769          43.000    23941352.551    99261018.068       -3315.369          40.000  
R15  20383947.843   108926009.584       -2763.737          52.000    20383944.605    84720441.248       -2149.577          49.000  
E19  23758895.958   124854031.036       -1075.892          43.000    23758895.924    95667454.613        -824.301          47.000  
S31  39153319.825   205752049.835        -793.833          44.000  
G14  21657007.172   113808671.748       -3153.806          48.000    21657004.067    88682281.489       -2457.588          47.000  
G30  23339653.183   122651024.634       -3045.678          43.000    23339653.315    95572600.819       -2373.228          43.000  
E27  27995959.331   147119755.257       -3496.211          41.000    27995962.193   112728582.172       -2679.045          41.000  
E21  24235874.441   127360763.494       -1923.260          47.000    24235876.600    97588314.637       -1473.646          53.000  
G22  20546342.192   107972110.812       -1282.065          46.000                                                                  
E04  25841880.867   135800007.118        1415.802          44.000    25841882.253   104054650.489        1084.788          51.000  
> 2024 04 08 21 29 30.0010000  0 22                     
S33  40110040.724   210779634.978        -792.849          44.000  
G05  22647264.363   119012134.825       -2978.462          46.000    22647265.796    92736765.468       -2320.702          43.000  
G24  24568004.576   129105755.602        1324.735          41.000    24568007.786   100601948.630        1032.192          43.000  
G20  24357178.209   127997613.911       -3959.667          44.000                                                                  
G15  22341909.399   117407487.976        1657.106          49.000    22341906.606    91486412.501        1291.184          44.000  
R06  22274128.670   118859043.367        2807.924          39.000                                                                  
R04  22108041.667   118387643.551       -4708.907          50.000    22108044.226    92079256.597       -3662.496          47.000  
R05  19524162.960   104367860.300       -1528.192          51.000    19524161.146    81175052.461       -1188.573          49.000  
R16  20718537.960   110675149.188         487.989          52.000    20718537.335    86080851.708         379.658          50.000  
G19  23318806.279   122541399.949        2006.929          45.000                                                                  
G13  20604035.495   108275149.539         169.471          47.000                                                                  
G17  22812189.767   119879228.074        1383.967          48.000    22812190.281    93412583.679        1078.494          47.000  
R14  23965329.615   127749179.280       -4258.732          38.000    23965332.243    99360434.680       -3312.082          39.000  
R15  20399487.977   109009051.870       -2772.483          51.000    20399484.766    84785029.727       -2156.346          47.000  
E19  23765064.128   124886446.109       -1085.144          42.000    23765064.666    95692292.166        -831.605          47.000  
S31  39157849.421   205775851.443        -793.015          44.000  
G14  21675042.215   113903443.066       -3164.258          49.000    21675038.199    88756129.327       -2465.763          47.000  
G30  23357044.787   122742414.115       -3046.809          43.000    23357044.772    95643813.402       -2374.170          42.000  
E27  28015918.532   147224642.895       -3496.381          42.000    28015921.308   112808950.650       -2679.188          42.000  
E21  24246877.636   127418589.283       -1931.849          47.000    24246880.559    97632622.755       -1480.297          53.000  
G22  20553710.054   108010830.683       -1299.301          47.000                                                                  
E04  25833806.703   135757575.376        1412.992          44.000    25833807.519   104022137.926        1082.706          51.000  
