     3.00           OBSERVATION DATA    M: Mixed            RINEX VERSION / TYPE
CONVBIN 2.4.3                           20240408 204441 UTC PGM / RUN BY / DATE 
format: u-blox UBX                                          COMMENT             
log: data/2024-04-08/20240408203000.ubx                     COMMENT             
AQUI00CHL                                                   MARKER NAME         
                                                            MARKER NUMBER       
                                                            MARKER TYPE         
                                                            OBSERVER / AGENCY   
UNKNOWN             UBLOX-ZED-F9P                           REC # / TYPE / VERS 
UNKNOWN             TWIVSP6037L                             ANT # / TYPE        
  1713381.0000 -5047934.0000 -3490983.0000                  APPROX POSITION XYZ 
        0.0000        0.0000        0.0000                  ANTENNA: DELTA H/E/N
G    8 C1C L1C D1C S1C C2L L2L D2L S2L                      SYS / # / OBS TYPES 
R    8 C1C L1C D1C S1C C2C L2C D2C S2C                      SYS / # / OBS TYPES 
E    8 C1C L1C D1C S1C C7Q L7Q D7Q S7Q                      SYS / # / OBS TYPES 
S    4 C1C L1C D1C S1C                                      SYS / # / OBS TYPES 
  2024    04    08    20    30   00.4990000     GPS         TIME OF FIRST OBS   
  2024    04    08    20    44   30.0000000     GPS         TIME OF LAST OBS    
                                                            END OF HEADER       
> 2024 04 08 20 30 00.4990000  0 22                     
S33  39563643.533   207908272.8181       -809.501          44.000  
G05  21247657.663   111657205.7991       -993.724          48.000    21247657.730    87005664.4821       -774.523          47.000  
G20  21795223.257   114534673.1291      -3342.257          46.000                                                                  
G15  23689898.957   124491187.8081       2158.418          33.000    23689907.759    97006167.5141       1682.088          33.000  
R04  19590170.387   104904660.7151      -2660.575          51.000    19590167.962    81592517.4011      -2069.344          49.000  
R05  19462518.500   104038330.2161       1183.631          52.000    19462516.752    80918749.6431        920.593          50.000  
R16  21644922.666   115623537.5191       2259.369          45.000    21644930.058    89929553.9261       1757.119          44.000  
R03  23457989.323   125572166.6341      -4746.551          39.000    23458007.545    97667211.0151      -3691.651          33.000  
G09  24909752.042   130901431.2491      -3777.180          40.000    24909767.236   102001131.0911      -2943.626          38.000  
G13  21111645.821   110942637.4621       1180.223          47.000                                                                  
G17  24087379.910   126580148.8611       2122.628          44.000    24087394.234    98634017.8751       1654.182          40.000  
R14  21088396.972   112413494.8921      -4133.033          52.000    21088395.298    87432679.5511      -3214.591          47.000  
R15  19076828.181   101941135.5161       -971.006          51.000    19076827.136    79287755.4231       -755.332          49.000  
E19  23386418.792   122896648.1181       -102.537          41.000    23386421.423    94167639.1981        -78.513          48.000  
S31  38611251.376   202903425.6961       -809.854          44.000  
G14  20101815.091   105636060.0901      -1301.680          48.000    20101813.131    82314007.6851      -1014.357          47.000  
G07  23741144.638                3      -3791.334          32.000    23741146.698    97216000.5321      -2954.216          34.000  
G30  21387920.246   112394592.0311      -2698.668          48.000    21387919.792    87580574.7381      -2102.958          47.000  
E21  23379321.309   122859519.8851       -543.083          49.000    23379325.102    94139302.9011       -416.077          52.000  
G22  20427999.634   107350177.9811        921.893          49.000                                                                  
E04  26863040.679   141166175.0561       1535.607          37.000    26863041.084   108166376.9861       1176.553          38.000  
E27  25752604.020   135331198.8821      -3035.313          43.000    25752608.299   103695513.9251      -2325.726          49.000  
> 2024 04 08 20 30 30.4990000  0 22                     
S33  39568265.148   207932560.664        -810.111          44.000  
G05  21253386.962   111687313.775       -1013.618          47.000    21253386.951    87029125.192        -789.959          46.000  
G20  21814335.514   114635107.944       -3353.696          46.000                                                                  
G15  23677576.625                        2157.837          35.000    23677580.562    96955705.579        1680.621          34.000  
R04  19605134.564   104984793.598       -2681.947          51.000    19605131.915    81654842.923       -2086.020          49.000  
R05  19455926.368   104003087.923        1165.499          53.000    19455924.054    80891338.992         906.450          50.000  
R16  21632270.104   115555953.997        2245.783          46.000    21632276.557    89876989.866        1746.528          44.000  
R03  23484611.211   125714672.109       -4754.169          34.000    23484630.511                       -3697.205          31.000  
G09  24931330.483   131014825.162       -3782.548          42.000    24931344.888   102089489.570       -2947.775          39.000  
G13  21104922.666   110907305.886        1174.846          47.000                                                                  
G17  24075262.150   126516471.381        2122.261          43.000    24075275.105    98584400.131        1653.410          40.000  
R14  21111675.529   112537588.298       -4140.129          52.000    21111675.661    87529196.643       -3220.068          48.000  
R15  19082337.368   101970570.041        -991.523          52.000    19082335.215    79310649.027        -771.314          48.000  
E19  23387021.413   122899816.622        -109.178          41.000    23387024.553    94170067.048         -83.599          48.000  
S31  38615875.346   202927725.037        -810.125          44.000  
G14  20109300.808   105675400.340       -1321.186          47.000    20109298.882    82344662.471       -1029.555          47.000  
G07  23762788.778   124874279.0891      -3791.054          34.000    23762786.658    97304614.828       -2953.226          34.000  
G30  21403338.789   112475621.007       -2703.526          48.000    21403339.639    87643714.218       -2106.812          46.000  
E21  23382459.261   122876011.296        -556.605          49.000    23382463.342    94151939.258        -426.578          53.000  
G22  20422787.327   107322789.897         903.790          49.000                                                                  
E04  26854271.582   141120099.273        1536.083          34.000    26854274.002   108131072.319        1177.009          40.000  
E27  25769952.042   135422370.207       -3042.985          42.000    25769957.751   103765372.522       -2331.532          49.000  
> 2024 04 08 20 31 00.4990000  0 22                     
S33  39572888.784   207956856.066        -810.161          44.000  
G05  21259228.901   111718014.738       -1033.417          48.000    21259228.613    87053047.983        -805.122          45.000  
G20  21833514.403   114735884.571       -3365.058          48.000                                                                  
G15  23665259.032   124361696.263        2157.031          35.000    23665261.588    96905265.220        1681.207          32.000  
R04  19620217.651   105065561.374       -2702.952          52.000    19620215.421    81717662.219       -2102.330          49.000  
R05  19449435.531   103968387.905        1147.413          53.000    19449432.454    80864350.132         892.339          50.000  
R16  21619694.734   115488784.097        2231.946          46.000    21619701.927    89824747.402        1735.996          44.000  
R03  23511272.612   125857399.468       -4761.194          33.000    23511291.439                       -3702.722          31.000  
G09  24952937.644   131128368.148       -3787.115          40.000    24952950.976   102177964.271       -2951.497          37.000  
G13  21098229.551   110872132.266        1169.664          48.000                                                                  
G17  24063144.968   126452804.978        2121.980          42.000    24063159.003    98534791.012        1653.289          41.000  
R14  21134993.938   112661886.996       -4146.791          52.000    21134993.340    87625873.455       -3225.332          49.000  
R15  19087959.070   102000614.423       -1011.787          52.000    19087957.956    79334016.940        -787.097          49.000  
E19  23387661.968   122903182.589        -115.818          41.000    23387664.964    94172646.191         -88.706          48.000  
S31  38620500.609   202952032.288        -810.336          45.000  
G14  20116897.735   105715324.307       -1340.651          47.000    20116895.937    82375772.097       -1044.630          47.000  
G07  23784423.135                       -3789.893          32.000    23784425.056    97393221.478       -2953.708          33.000  
G30  21418784.936   112556791.799       -2708.133          48.000    21418785.612    87706964.168       -2110.238          46.000  
E21  23385674.953   122892907.882        -570.017          49.000    23385678.648    94164886.070        -436.884          53.000  
G22  20417677.808   107295937.384         885.944          49.000                                                                  
E04  26845495.834   141074007.139        1536.405          34.000    26845502.773   108095755.053        1177.370          41.000  
E27  25787344.152   135513765.905       -3050.449          41.000    25787349.353   103835403.015       -2337.264          48.000  
> 2024 04 08 20 31 30.4990000  0 22                     
S33  39577512.883   207981155.815        -810.543          44.000  
G05  21265183.021   111749304.384       -1053.076          47.000    21265183.100    87077429.492        -820.560          46.000  
G20  21852754.855   114836995.724       -3376.380          47.000                                                                  
G15  23652944.018   124296990.139        2155.804          33.000    23652947.760    96854845.003        1680.237          33.000  
R04  19635418.142   105146959.079       -2724.146          51.000    19635415.544    81780971.489       -2118.771          50.000  
R05  19443044.944   103934228.661        1129.128          53.000    19443042.617    80837781.851         878.274          50.000  
R16  21607192.125   115422024.565        2218.076          44.000    21607202.439    89772824.151        1725.256          42.000  
R03  23537975.296                       -4768.860          30.000    23537995.731                       -3709.473          30.000  
G09  24974572.991   131242055.471       -3792.223          37.000    24974585.980   102266551.395       -2955.307          34.000  
G13  21091566.063   110837114.752        1164.298          48.000                                                                  
G17  24051030.519   126389148.629        2121.219          43.000    24051044.814    98485189.686        1652.617          41.000  
R14  21158348.111   112786383.607       -4153.607          51.000    21158349.273    87722704.190       -3230.659          48.000  
R15  19093693.986   102031262.707       -1032.055          51.000    19093692.581    79357854.561        -802.754          48.000  
E19  23388339.910   122906743.310        -122.331          41.000    23388342.334    94175374.568         -93.825          48.000  
S31  38625126.687   202976342.971        -810.734          44.000  
G14  20124605.085   105755826.850       -1360.139          47.000    20124603.298    82407332.601       -1059.852          47.000  
G07  23806055.839                       -3790.283          30.000    23806062.724    97481816.545       -2953.394          35.000  
G30  21434257.526   112638099.316       -2712.932          48.000    21434258.469    87770320.680       -2114.074          47.000  
E21  23388966.823   122910205.285        -583.637          49.000    23388970.116    94178139.995        -447.237          53.000  
G22  20412669.602   107269618.109         868.127          49.000                                                                  
E04  26836721.957   141027895.348        1536.654          33.000    26836728.665   108060422.736        1177.611          42.000  
E27  25804779.064   135605380.187       -3057.736          43.000    25804783.556   103905601.008       -2343.011          49.000  
> 2024 04 08 20 32 00.4990000  0 22                     
S33  39582137.359   208005459.233        -810.127          44.000  
G05  21271249.802   111781182.882       -1072.511          47.000    21271250.041    87102269.827        -835.582          46.000  
G20  21872058.762   114938439.049       -3387.032          47.000                                                                  
G15  23640640.675   124232311.515        2155.829          35.000    23640638.782    96804446.213        1679.279          33.000  
R04  19650735.618   105228986.102       -2744.699          52.000    19650733.077    81844770.211       -2134.717          49.000  
R05  19436756.710   103900614.467        1111.407          52.000    19436754.495    80811637.524         864.293          50.000  
R16  21594771.762   115355677.492        2204.690          46.000    21594781.197    89721221.709        1714.755          41.000  
R03  23564718.561                       -4775.586          30.000    23564740.089                       -3713.531          30.000  
G09  24996234.284                       -3797.318          31.000    24996248.648                       -2958.138          32.000  
G13  21084931.770   110802254.928        1159.126          48.000                                                                  
G17  24038920.349   126325505.698        2121.151          45.000    24038932.826    98435598.823        1652.843          41.000  
R14  21181740.649   112911075.517       -4159.719          52.000    21181742.035    87819686.803       -3235.337          50.000  
R15  19099541.587   102062513.838       -1051.733          51.000    19099539.896    79382161.079        -818.089          48.000  
E19  23389055.298   122910500.162        -128.445          42.000    23389057.200    94178253.210         -98.506          48.000  
S31  38629753.217   203000657.479        -810.565          44.000  
G14  20132422.782   105796907.422       -1379.055          48.000    20132420.450    82439343.501       -1074.537          46.000  
G07  23827691.620   125215369.940       -3788.801          36.000    23827694.787    97570400.085       -2952.578          34.000  
G30  21449755.716   112719543.059       -2717.012          48.000    21449756.883    87833783.342       -2117.206          47.000  
E21  23392334.589   122927903.645        -596.667          50.000    23392337.694    94191701.168        -457.233          52.000  
G22  20407762.252   107243833.968         850.592          48.000                                                                  
E04  26827943.148   140981765.117        1537.545          34.000    26827949.995   108025076.318        1178.276          42.000  
E27  25822256.012   135697211.878       -3064.732          45.000    25822258.032   103975965.563       -2348.338          48.000  
> 2024 04 08 20 32 30.4990000  0 22                     
S33  39586760.341   208029753.193        -809.537          44.000  
G05  21277425.419   111813635.595       -1091.364          48.000    21277425.695    87127557.627        -850.443          46.000  
G20  21891423.302   115040197.687       -3397.350          47.000                                                                  
G15  23628336.424   124167648.043        2154.712          35.000    23628333.114    96754059.232        1679.749          34.000  
R04  19666168.857   105311627.431       -2765.129          52.000    19666164.965    81909046.709       -2150.608          49.000  
R05  19430567.675   103867534.628        1093.620          52.000    19430566.026    80785908.794         850.532          50.000  
R16  21582425.763   115289730.293        2191.390          45.000    21582435.367    89669930.201        1704.187          41.000  
R03  23591486.565                3      -4781.535          24.000    23591522.296                1      -3719.348          27.000  
G13  21078325.500   110767540.618        1154.415          48.000                                                                  
G17  24026810.036   126261865.925        2121.036          46.000    24026822.228    98386010.440        1652.645          42.000  
R14  21205165.549   113035945.035       -4165.477          51.000    21205165.647    87916807.561       -3239.799          48.000  
R15  19105500.646   102094351.149       -1071.167          52.000    19105498.180    79406923.505        -833.122          49.000  
E19  23389804.683   122914440.540        -134.493          42.000    23389806.767    94181272.471        -103.132          47.000  
S31  38634378.452   203024962.474        -810.106          44.000  
G14  20140347.704   105838550.994       -1397.713          48.000    20140344.661    82471793.074       -1089.088          46.000  
G07  23849323.953   125329022.513       -3788.333          39.000    23849320.943    97658960.532       -2951.747          34.000  
G30  21465276.948   112801108.072       -2720.836          48.000    21465277.850    87897340.466       -2120.107          46.000  
E21  23395776.147   122945988.705        -609.386          50.000    23395778.889    94205558.634        -466.943          52.000  
G22  20402955.145   107218572.204         833.105          49.000                                                                  
E04  26819160.248   140935603.296        1538.992          34.000    26819165.386   107989705.677        1179.206          42.000  
E27  25839767.809   135789245.252       -3071.316          44.000    25839771.932   104046484.682       -2353.249          48.000  
G09                                                                  25017936.616                       -2961.552          29.000  
> 2024 04 08 20 33 00.4990000  0 22                     
S33  39591382.148   208054040.480        -809.314          44.000  
G05  21283711.782   111846665.164       -1110.621          48.000    21283710.593    87153294.899        -865.377          46.000  
G20  21910847.171   115142272.374       -3407.635          46.000                                                                  
G15  23616035.100                        2154.541          31.000    23616031.761    96703687.887        1678.772          35.000  
R04  19681718.000   105394885.673       -2785.591          52.000    19681714.434    81973803.062       -2166.569          50.000  
R05  19424480.556   103834996.095        1075.602          52.000    19424478.634    80760601.066         836.615          50.000  
R16  21570156.788   115224187.964        2178.035          48.000    21570166.560    89618953.664        1694.013          41.000  
R03  23618324.703                       -4787.848          26.000    23618340.201                3      -3730.141          20.000  
G13  21071748.233   110732977.089        1149.670          47.000                                                                  
G17  24014700.909   126198235.356        2120.850          46.000    24014712.860    98336429.236        1652.410          42.000  
R14  21228624.004   113160992.319       -4171.166          51.000    21228624.404    88014066.589       -3244.290          49.000  
R15  19111567.978   102126776.555       -1090.560          52.000    19111566.428    79432143.325        -848.376          48.000  
E19  23390590.855   122918568.628        -140.795          42.000    23390592.036    94184435.558        -107.764          47.000  
S31  38639002.300   203049260.785        -809.932          44.000  
G14  20148379.843   105880759.694       -1416.383          48.000    20148376.566    82504683.041       -1103.626          46.000  
G07  23870945.274   125442648.236       -3787.322          38.000    23870943.596    97747500.165       -2951.505          36.000  
G30  21480821.707   112882796.705       -2725.058          47.000    21480822.537    87960993.949       -2123.373          46.000  
E21  23399291.483   122964463.404        -622.302          49.000    23399294.316    94219714.659        -476.777          52.000  
G22  20398248.737   107193837.846         815.625          49.000                                                                  
E04  26810370.698   140889414.047        1540.337          34.000    26810376.315   107954314.025        1180.124          43.000  
E27  25857320.352   135881481.947       -3077.895          46.000    25857323.178   104117159.573       -2358.339          47.000  
G09                                                                  25039647.074                       -2964.832          25.000  
> 2024 04 08 20 33 30.5000000  0 22                     
S33  39596003.738   208078327.643        -809.573          44.000  
G05  21290107.513   111880278.647       -1130.210          48.000    21290106.497    87179487.198        -880.743          46.000  
G20  21930332.881   115244669.709       -3418.434          47.000                                                                  
G15  23603738.133   124038387.127        2153.552          35.000    23603735.714    96653336.737        1678.033          36.000  
R04  19697381.749   105478768.956       -2806.457          52.000    19697380.103    82039045.550       -2182.806          51.000  
R05  19418497.059   103803007.644        1056.966          52.000    19418494.667    80735721.216         822.039          49.000  
R16  21557961.574   115159056.084        2163.952          45.000    21557971.886    89568296.251        1683.049          41.000  
R03  23645172.872                3      -4794.039          24.000    23645187.632                3      -3728.109          23.000  
G13  21065201.228   110698570.964        1144.041          47.000                                                                  
G17  24002593.995   126134621.015        2120.022          45.000    24002605.812    98286860.649        1651.921          42.000  
R14  21252117.671   113286224.445       -4177.273          51.000    21252117.977    88111469.404       -3249.070          50.000  
R15  19117747.237   102159795.573       -1110.504          52.000    19117746.198    79457824.842        -863.719          49.000  
E19  23391414.091   122922892.150        -147.416          43.000    23391414.975    94187748.395        -112.995          47.000  
S31  38643626.043   203073559.616        -810.289          44.000  
G14  20156520.402   105923540.111       -1435.518          49.000    20156518.449    82538018.522       -1118.613          47.000  
G07  23892564.160   125556256.579       -3786.511          40.000    23892563.261    97836026.084       -2950.519          38.000  
G30  21496392.037   112964616.953       -2729.490          48.000    21496391.909    88024749.992       -2126.761          46.000  
E21  23402882.938   122983334.321        -635.685          49.000    23402885.074    94234174.276        -487.075          52.000  
G22  20393643.682   107169637.569         797.846          48.000                                                                  
E04  26801577.669   140843202.821        1540.553          37.000    26801581.560   107918905.579        1180.369          42.000  
E27  25874913.146   135973929.677       -3085.039          46.000    25874916.009   104187996.203       -2363.815          48.000  
G09                                                                  25061381.797                3      -2968.001          17.000  
> 2024 04 08 20 34 00.5000000  0 22                     
S33  39600625.048   208102613.877        -809.740          44.000  
G05  21296614.019   111914472.485       -1149.491          47.000    21296613.679    87206131.710        -895.719          46.000  
G20  21949878.122   115347379.000       -3428.951          47.000                                                                  
G15  23591446.952   123973800.679        2152.325          35.000    23591445.688    96603009.776        1677.437          36.000  
R04  19713161.367   105563270.200       -2827.030          51.000    19713159.680    82104768.632       -2198.757          50.000  
R05  19412616.668   103771573.306        1038.479          52.000    19412614.193    80711272.305         807.810          50.000  
R16  21545845.440   115094339.566        2150.289          47.000    21545856.463    89517961.847        1672.354          44.000  
R03  23672062.206                       -4801.723          28.000    23672083.495                3      -3743.520          22.000  
G13  21058685.346   110664325.417        1138.698          48.000                                                                  
G17  23990491.877   126071029.705        2119.446          43.000    23990504.301    98237310.025        1651.263          42.000  
R14  21275643.138   113411629.202       -4183.112          51.000    21275644.367    88209006.456       -3253.527          50.000  
R15  19124036.595   102193402.905       -1130.081          52.000    19124035.026    79483963.965        -878.845          49.000  
E19  23392274.156   122927411.023        -153.795          43.000    23392274.895    94191210.922        -117.844          48.000  
S31  38648249.540   203097856.353        -810.040          43.000  
G14  20164768.677   105966887.373       -1454.435          48.000    20164767.809    82571795.672       -1133.154          48.000  
G07  23914178.564   125669838.516       -3786.023          41.000    23914177.983    97924531.433       -2949.664          39.000  
G30  21511985.532   113046561.516       -2733.679          48.000    21511985.404    88088602.893       -2130.090          45.000  
E21  23406548.285   123002598.898        -648.767          49.000    23406551.139    94248935.530        -497.144          52.000  
G22  20389139.939   107145973.686         779.746          47.000                                                                  
E04  26792780.100   140796972.675        1541.495          37.000    26792783.836   107883482.619        1180.938          41.000  
E27  25892542.980   136066579.660       -3091.763          46.000    25892546.039   104258987.760       -2368.831          47.000  
G09                                                                  25083147.673                3      -2972.701          20.000  
> 2024 04 08 20 34 30.0000000  0 22                     
S33  39605168.873   208126491.128        -809.355          44.000  
G05  21303119.993   111948660.534       -1168.297          48.000    21303120.377    87232771.692        -910.534          47.000  
G20  21969155.110   115448678.964       -3438.959          47.000                                                                  
G15  23579366.393   123910317.854        2151.297          35.000    23579364.454    96553542.795        1676.931          36.000  
R04  19728791.285   105646964.915       -2847.237          51.000    19728789.063    82169864.452       -2214.438          51.000  
R05  19406934.536   103741203.754        1020.389          52.000    19406932.862    80687651.571         793.683          50.000  
R16  21534008.091   115031103.326        2136.702          49.000    21534018.582    89468778.828        1661.859          46.000  
R03  23698510.662                3      -4799.747          21.000    23698559.625                3      -3728.550          19.000  
G13  21052306.801   110630805.256        1133.600          48.000                                                                  
G17  23978594.989   126008518.761        2118.683          44.000    23978607.425    98188601.205        1650.757          40.000  
R14  21298807.122   113535110.714       -4188.604          51.000    21298808.469    88305047.683       -3257.781          50.000  
R15  19130327.827   102227020.822       -1149.211          52.000    19130325.882    79510111.294        -893.833          49.000  
E19  23393155.428   122932043.928        -160.187          43.000    23393156.465    94194760.841        -122.767          48.000  
S31  38652795.385   203121744.771        -809.525          44.000  
G14  20172984.340   106010062.866       -1472.886          47.000    20172982.783    82605438.951       -1147.659          48.000  
G07  23935427.800   125781502.421       -3784.637          41.000    23935426.977    98011542.276       -2949.280          39.000  
G30  21527342.158   113127260.976       -2737.579          49.000    21527341.646    88151485.610       -2133.036          45.000  
E21  23410225.424   123021924.256        -661.465          49.000    23410228.483    94263743.357        -506.820          52.000  
G22  20384810.687   107123225.331         762.376          47.000                                                                  
E04  26784125.779   140751491.495        1541.857          38.000    26784128.334   107848633.604        1181.217          40.000  
E27  25909918.100   136157881.729       -3098.291          46.000    25909921.249   104328946.574       -2374.004          48.000  
G09                                                                  25104577.712                3      -2976.482          18.000  
> 2024 04 08 20 35 00.0000000  0 22                     
S33  39609789.416   208150772.248        -809.159          44.000  
G05  21309846.440   111984004.235       -1187.557          48.000    21309846.141    87260312.203        -925.497          47.000  
G20  21988817.286   115552003.035       -3449.048          46.000                                                                  
G15  23567085.626   123845790.936        2150.300          33.000    23567085.037    96503262.277        1675.436          36.000  
R04  19744799.940   105732691.804       -2867.811          51.000    19744797.843    82236540.852       -2230.454          50.000  
R05  19401261.347   103710875.046        1001.684          52.000    19401258.565    80664062.609         779.064          49.000  
R16  21522046.776   114967207.927        2123.018          48.000    21522057.396    89419083.119        1651.140          47.000  
R03  23725463.531                3      -4812.477          19.000                                                                  
G13  21045850.320   110596878.521        1128.331          48.000                                                                  
G17  23966502.529   125944974.968        2117.633          44.000    23966513.540    98139087.554        1650.287          39.000  
R14  21322397.543   113660853.884       -4194.142          52.000    21322397.789    88402847.958       -3262.134          51.000  
R15  19136833.836   102261789.532       -1168.569          51.000    19136832.244    79537153.648        -908.913          49.000  
E19  23394089.328   122936951.703        -166.775          43.000    23394090.512    94198521.359        -127.750          48.000  
S31  38657418.352   203146037.174        -809.631          44.000  
G14  20181446.449   106054531.514       -1491.593          47.000    20181445.218    82640089.873       -1162.320          49.000  
G07  23957032.629   125895035.288       -3783.783          42.000    23957031.582    98100009.443       -2948.590          39.000  
G30  21542982.514   113209452.563       -2741.672          49.000    21542982.700    88215531.018       -2136.279          45.000  
E21  23414039.584   123041967.647        -674.517          49.000    23414042.763    94279101.354        -516.896          52.000  
G22  20380509.659   107100625.097         744.467          47.000                                                                  
E04  26775321.242   140705221.038        1542.706          39.000    26775322.654   107813179.717        1182.086          39.000  
E27  25927625.022   136250931.831       -3104.975          47.000    25927627.438   104400244.689       -2379.151          47.000  
G09                                                                  25126385.626                3      -2985.374          18.000  
> 2024 04 08 20 35 30.0000000  0 22                     
S33  39614409.878   208175052.279        -809.375          44.000  
G05  21316680.868   112019926.737       -1207.242          47.000    21316681.337    87288303.721        -940.471          46.000  
G20  22008537.017   115655633.492       -3459.457          45.000                                                                  
G15  23554812.037   123781297.099        2149.174          37.000    23554811.802    96453007.516        1674.361          36.000  
R04  19760924.309   105819035.452       -2888.534          51.000    19760922.547    82303696.962       -2246.581          51.000  
R05  19395693.004   103681109.241         982.556          52.000    19395690.883    80640911.463         764.284          49.000  
R16  21510162.393   114903729.296        2108.862          47.000    21510173.057    89369711.556        1640.220          47.000  
R03  23752467.119                3      -4820.570          17.000                                                                  
G13  21039425.311   110563115.728        1122.655          48.000                                                                  
G17  23954415.907   125881460.567        2116.327          46.000    23954427.166    98089596.796        1648.816          40.000  
R14  21346017.611   113786763.647       -4199.954          52.000    21346017.943    88500777.764       -3266.603          50.000  
R15  19143449.280   102297141.585       -1188.184          51.000    19143448.143    79564649.742        -924.150          50.000  
E19  23395061.014   122942057.956        -173.634          43.000    23395062.208    94202433.980        -133.078          48.000  
S31  38662040.433   203170328.362        -809.689          44.000  
G14  20190015.900   106099564.299       -1510.654          48.000    20190014.446    82675180.415       -1177.177          48.000  
G07  23978632.066   126008542.936       -3783.240          42.000    23978631.584    98188456.938       -2947.754          38.000  
G30  21558646.947   113291767.867       -2745.975          50.000    21558647.345    88279672.837       -2139.717          46.000  
E21  23417928.458   123062403.680        -687.901          49.000    23417931.715    94294760.216        -527.133          52.000  
G22  20376310.863   107078563.678         726.181          47.000                                                                  
E04  26766512.076   140658932.012        1543.223          38.000    26766514.137   107777711.654        1182.196          40.000  
E27  25945368.552   136344181.689       -3111.737          46.000    25945372.854   104471695.961       -2384.370          48.000  
G09                                                                  25148220.738                3      -2983.388          14.000  
> 2024 04 08 20 36 00.5000000  0 21                     
S33  39619107.414   208199739.771        -809.626          44.000  
G05  21323743.628   112057045.181       -1226.892          46.000    21323744.879    87317227.133        -955.917          46.000  
G20  22028646.311   115761306.655       -3469.908          46.000                                                                  
G15  23542343.409   123715768.675        2147.760          37.000    23542341.906    96401946.540        1673.498          37.000  
R04  19777435.773   105907454.664       -2909.534          51.000    19777434.179    82372467.371       -2262.920          51.000  
R05  19390141.237   103651432.819         963.222          52.000    19390139.422    80617829.812         749.297          49.000  
R16  21498162.306   114839626.196        2094.475          46.000    21498170.976    89319854.252        1629.360          46.000  
R03  23779952.339                3      -4829.303          21.000                                                                  
G13  21032926.661   110528964.988        1116.635          48.000                                                                  
G17  23942133.944   125816925.291        2115.265          45.000    23942145.475    98039310.543        1647.858          39.000  
R14  21370063.034   113914943.902       -4205.382          51.000    21370064.055    88600473.567       -3270.852          50.000  
R15  19150286.965   102333682.906       -1207.988          52.000    19150286.184    79593070.843        -939.556          49.000  
E19  23396088.007   122947458.468        -180.628          43.000    23396090.002    94206572.061        -138.433          48.000  
S31  38666740.639   203195026.598        -809.756          45.000  
G14  20198839.382   106145929.376       -1529.814          48.000    20198837.778    82711309.074       -1192.100          49.000  
G07  24000586.464   126123920.982       -3782.584          40.000    24000586.297    98278361.904       -2947.206          37.000  
G30  21574596.945   113375585.617       -2750.271          49.000    21574597.054    88344985.401       -2143.116          45.000  
E21  23421959.385   123083587.069        -701.275          49.000    23421962.610    94310991.715        -537.321          52.000  
G22  20372149.416   107056693.564         707.854          47.000                                                                  
E04  26757554.067   140611858.034        1543.278          39.000    26757555.746   107741642.168        1182.622          38.000  
E27  25963449.151   136439193.457       -3118.608          46.000    25963452.473   104544497.196       -2389.503          47.000  
> 2024 04 08 20 36 30.5000000  0 21                     
S33  39623728.728   208224023.064        -809.510          43.000  
G05  21330802.627   112094140.403       -1246.245          45.000    21330803.970    87346132.447        -971.126          45.000  
G20  22048484.291   115865553.326       -3479.805          46.000                                                                  
G15  23530084.863   123651354.146        2146.439          38.000    23530084.060    96351753.523        1673.118          37.000  
R04  19793793.643   105995047.539       -2930.116          50.000    19793791.100    82440595.076       -2279.011          51.000  
R05  19384788.497   103622820.230         944.173          52.000    19384786.732    80595575.593         734.336          49.000  
R16  21486438.421   114776999.875        2080.511          47.000    21486446.672    89271145.582        1618.135          47.000  
R03  23807030.813                3      -4833.509          16.000                                                                  
G13  21026567.243   110495545.965        1111.047          49.000                                                                  
G17  23930061.453   125753487.063        2113.879          44.000    23930071.511    97989879.130        1647.229          39.000  
R14  21393745.708   114041187.265       -4210.836          51.000    21393747.191    88698662.850       -3275.138          51.000  
R15  19157123.355   102370212.136       -1227.368          52.000    19157121.718    79621482.541        -954.612          49.000  
E19  23397138.895   122952975.628        -187.289          44.000    23397139.941    94210799.510        -143.567          48.000  
S31  38671363.450   203219321.864        -809.765          44.000  
G14  20207626.264   106192103.632       -1548.583          48.000    20207624.660    82747289.053       -1206.694          49.000  
G07  24022177.761   126237384.095       -3781.743          42.000    24022177.408    98366774.719       -2946.672          38.000  
G30  21590309.825   113458155.112       -2754.553          49.000    21590308.882    88409325.279       -2146.504          44.000  
E21  23426000.768   123104821.218        -714.426          50.000    23426003.778    94327262.117        -547.461          53.000  
G22  20368160.629   107035731.059         689.688          47.000                                                                  
E04  26748739.339   140565541.721        1543.972          39.000    26748741.744   107706153.182        1183.160          38.000  
E27  25981271.255   136532848.654       -3125.165          47.000    25981274.591   104616259.038       -2394.736          47.000  
> 2024 04 08 20 37 00.5000000  0 21                     
S33  39628350.026   208248309.162        -809.490          44.000  
G05  21337972.415   112131815.954       -1265.192          46.000    21337973.389    87375489.990        -985.928          46.000  
G20  22068379.520   115970100.830       -3489.743          47.000                                                                  
G15  23517834.716   123586981.275        2145.097          37.000    23517833.872    96301592.975        1671.507          38.000  
R04  19810266.197   106083257.456       -2950.406          51.000    19810263.712    82509202.685       -2294.712          50.000  
R05  19379543.350   103594784.137         925.118          52.000    19379541.827    80573769.780         719.553          49.000  
R16  21474793.955   114714797.546        2066.670          47.000    21474800.098    89222766.660        1607.250          45.000  
R03  23834149.865                3      -4846.074          12.000                                                                  
G13  21020240.857   110462299.336        1105.452          48.000                                                                  
G17  23917996.314   125690091.050        2112.427          45.000    23918007.073    97940480.594        1646.283          39.000  
R14  21417459.410   114167591.098       -4215.914          51.000    21417460.420    88796976.977       -3279.065          51.000  
R15  19164068.410   102407321.520       -1246.449          52.000    19164066.943    79650345.446        -969.407          50.000  
E19  23398228.078   122958698.099        -194.033          44.000    23398228.775    94215184.266        -148.653          48.000  
S31  38675987.176   203243618.531        -809.738          45.000  
G14  20216520.284   106238841.584       -1567.053          48.000    20216518.392    82783708.263       -1221.069          48.000  
G07  24043765.725   126350823.869       -3780.799          41.000    24043765.172    98455169.347       -2945.889          39.000  
G30  21606045.170   113540848.834       -2758.324          48.000    21606045.289    88473761.952       -2149.304          44.000  
E21  23430116.464   123126450.057        -727.301          50.000    23430119.288    94343834.920        -557.278          53.000  
G22  20364275.189   107015314.761         671.610          47.000                                                                  
E04  26739924.430   140519212.751        1544.922          40.000    26739925.047   107670654.511        1183.567          37.000  
E27  25999131.133   136626701.863       -3131.482          47.000    25999134.005   104688172.554       -2399.479          47.000  
> 2024 04 08 20 37 30.0000000  0 21                     
S33  39632892.883   208272181.129        -808.600          44.000  
G05  21345128.208   112169418.211       -1283.760          47.000    21345129.581    87404790.398       -1000.349          47.000  
G20  22087996.275   116073186.097       -3498.770          46.000                                                                  
G15  23505795.228   123523713.416        2144.496          38.000    23505794.585    96252293.466        1671.212          37.000  
R04  19826574.301   106170587.509       -2969.882          51.000    19826571.859    82577125.986       -2309.921          51.000  
R05  19374490.297   103567770.145         906.723          52.000    19374488.517    80552758.929         705.120          49.000  
R16  21463418.687   114654036.519        2053.328          47.000    21463425.296    89175508.724        1597.008          46.000  
R03  23860781.561                3      -4838.352          18.000                                                                  
G13  21014049.836   110429766.445        1100.447          49.000                                                                  
G17  23906138.876   125627785.277        2111.798          44.000    23906150.145    97891931.541        1645.435          40.000  
R14  21440804.132   114292030.871       -4220.396          52.000    21440804.901    88893763.505       -3282.579          51.000  
R15  19171000.293   102444365.698       -1264.673          52.000    19170999.323    79679157.641        -983.658          50.000  
E19  23399335.036   122964515.947        -200.108          44.000    23399336.096    94219642.120        -153.283          48.000  
S31  38680532.121   203267501.868        -809.067          45.000  
G14  20225367.895   106285338.572       -1584.895          49.000    20225365.987    82819939.733       -1234.863          48.000  
G07  24064987.087   126462339.407       -3779.450          42.000    24064986.306    98542064.594       -2945.069          40.000  
G30  21621540.149   113622274.258       -2761.624          48.000    21621539.147    88537210.384       -2152.134          43.000  
E21  23434234.771   123148092.509        -739.614          50.000    23434237.626    94360418.165        -566.686          52.000  
G22  20360554.808   106995762.131         654.164          47.000                                                                  
E04  26731249.375   140473634.103        1545.783          38.000    26731251.932   107635730.757        1184.318          37.000  
E27  26016727.779   136719171.973       -3137.224          46.000    26016730.340   104759026.323       -2403.906          47.000  
> 2024 04 08 20 38 00.0000000  0 20                     
S33  39637510.735   208296449.602        -808.838          43.000  
G05  21352512.427   112208221.818       -1302.872          48.000    21352513.611    87435026.918       -1015.367          47.000  
G20  22107999.291   116178301.142       -3508.586          46.000                                                                  
G15  23493558.775   123459407.451        2142.987          39.000    23493557.978    96202185.045        1669.595          38.000  
R04  19843271.949   106259997.238       -2990.393          51.000    19843269.195    82646666.817       -2325.860          51.000  
R05  19369458.125   103540866.199         887.090          52.000    19369455.858    80531833.672         689.988          50.000  
R16  21451929.127   114592658.842        2038.940          48.000    21451934.894    89127771.206        1585.640          45.000  
G13  21007784.659   110396846.575        1094.472          48.000                                                                  
G17  23894088.292   125564461.350        2110.205          43.000    23894099.190    97842589.153        1644.159          41.000  
R14  21464572.881   114418722.494       -4225.416          52.000    21464572.254    88992301.476       -3286.461          51.000  
R15  19178155.464   102482598.780       -1283.844          52.000    19178153.962    79708894.543        -998.500          50.000  
E19  23400497.576   122970628.010        -207.036          44.000    23400498.960    94224325.420        -158.528          47.000  
S31  38685151.704   203291781.104        -809.270          44.000  
G14  20234469.763   106333170.019       -1603.537          49.000    20234467.692    82857211.074       -1249.627          48.000  
G07  24086560.582   126575710.467       -3778.517          41.000    24086559.474    98630405.669       -2944.063          39.000  
G30  21637318.585   113705191.210       -2765.863          48.000    21637318.914    88601820.949       -2155.157          44.000  
E21  23438495.000   123170482.249        -752.668          49.000    23438498.042    94377574.004        -576.753          52.000  
G22  20356872.735   106976412.212         635.995          47.000                                                                  
E04  26722425.847   140427262.047        1545.982          39.000    26722428.486   107600199.068        1184.531          39.000  
E27  26034657.039   136813392.320       -3143.695          47.000    26034660.207   104831221.191       -2408.770          48.000  
> 2024 04 08 20 38 30.0000000  0 20                     
S33  39642127.886   208320711.669        -808.741          43.000  
G05  21360005.335   112247595.407       -1322.078          49.000    21360006.631    87465707.591       -1030.120          46.000  
G20  22128056.591   116283700.193       -3518.005          46.000                                                                  
G15  23481329.102   123395139.967        2141.459          40.000    23481328.826    96152106.623        1668.331          38.000  
R04  19860081.799   106350012.478       -3010.662          51.000    19860078.839    82716678.598       -2341.624          50.000  
R05  19364532.936   103514540.267         867.811          52.000    19364531.377    80511357.958         675.043          50.000  
R16  21440518.134   114531700.808        2024.833          50.000    21440522.527    89080360.047        1574.691          44.000  
G13  21001552.516   110364096.418        1088.715          48.000                                                                  
G17  23882046.290   125501180.708        2108.545          45.000    23882056.911    97793280.466        1642.987          41.000  
R14  21488364.693   114545556.400       -4230.288          51.000    21488365.738    89090950.054       -3290.216          51.000  
R15  19185415.593   102521397.728       -1302.725          51.000    19185413.966    79739071.584       -1013.262          49.000  
E19  23401698.752   122976940.506        -213.777          43.000    23401699.810    94229162.295        -163.920          47.000  
S31  38689770.667   203316054.256        -809.097          44.000  
G14  20243676.776   106381553.127       -1621.949          48.000    20243674.672    82894912.242       -1263.992          48.000  
G07  24108127.550   126689048.161       -3777.635          39.000    24108126.948    98718720.808       -2943.432          39.000  
G30  21653118.816   113788221.610       -2769.598          48.000    21653118.518    88666519.984       -2158.260          43.000  
E21  23442828.822   123193257.257        -765.560          49.000    23442831.680    94395025.051        -586.675          52.000  
G22  20353292.875   106957604.146         617.752          47.000                                                                  
E04  26713597.434   140380871.813        1546.627          38.000    26713600.545   107564653.489        1184.889          38.000  
E27  26052622.310   136907797.647       -3149.971          47.000    26052624.646   104903557.738       -2413.616          48.000  
> 2024 04 08 20 39 00.5000000  0 20                     
S33  39646822.807   208345384.775        -808.751          44.000  
G05  21367736.138   112288221.426       -1341.619          48.000    21367737.392    87497364.171       -1045.450          47.000  
G20  22148505.644   116391157.181       -3527.877          47.000                                                                  
G15  23468906.360   123329855.804        2139.776          41.000    23468905.364    96101235.932        1667.399          39.000  
R04  19877290.245   106442160.893       -3031.450          51.000    19877287.092    82788349.509       -2357.768          50.000  
R05  19359639.546   103488385.090         847.651          51.000    19359638.055    80491015.088         659.402          50.000  
R16  21428999.037   114470172.089        2010.260          50.000    21429002.893    89032504.996        1563.378          44.000  
G13  20995252.808   110330989.876        1082.498          49.000                                                                  
G17  23869814.923   125436906.524        2106.628          44.000    23869824.572    97743197.622        1641.431          41.000  
R14  21512582.764   114674660.998       -4235.232          50.000    21512585.361    89191364.736       -3294.060          51.000  
R15  19192907.664   102561434.322       -1322.164          51.000    19192905.901    79770211.227       -1028.320          49.000  
E19  23402962.044   122983578.077        -221.033          43.000    23402963.057    94234248.251        -169.247          47.000  
S31  38694467.933   203340738.645        -809.133          44.000  
G14  20253147.149   106431320.020       -1640.981          47.000    20253144.996    82933691.657       -1278.696          48.000  
G07  24130050.081   126804253.642       -3776.623          39.000    24130050.160    98808491.321       -2943.065          38.000  
G30  21669207.274   113872764.552       -2773.793          49.000    21669206.313    88732397.621       -2161.372          44.000  
E21  23447312.110   123216819.539        -778.965          48.000    23447315.252    94413079.335        -596.866          51.000  
G22  20349763.112   106939052.517         599.083          48.000                                                                  
E04  26704621.613   140333703.990        1546.938          38.000    26704625.348   107528512.018        1185.300          39.000  
E27  26070924.046   137003977.397       -3156.466          47.000    26070927.480   104977253.961       -2418.618          49.000  
> 2024 04 08 20 39 30.5000000  0 20                     
S33  39651440.558   208369651.934        -808.686          43.000  
G05  21375451.451   112328759.147       -1360.569          49.000    21375451.656    87528951.920       -1060.283          47.000  
G20  22168673.614   116497137.975       -3537.131          47.000                                                                  
G15  23456696.129   123265688.950        2138.354          42.000    23456695.172    96051235.934        1666.248          39.000  
R04  19894331.349   106533411.609       -3051.614          51.000    19894326.469    82859322.198       -2373.552          49.000  
R05  19354937.931   103463253.206         828.095          52.000    19354936.033    80471468.094         644.120          49.000  
R16  21417749.179   114410083.186        1996.025          49.000    21417752.612    88985769.763        1552.330          43.000  
G13  20989090.929   110298605.440        1076.579          50.000                                                                  
G17  23857794.069   125373740.926        2104.633          43.000    23857802.806    97693978.624        1639.642          40.000  
R14  21536432.063   114801791.433       -4239.884          50.000    21536434.691    89290243.968       -3297.539          51.000  
R15  19200384.574   102601385.787       -1340.907          52.000    19200381.800    79801284.637       -1042.844          48.000  
E19  23404244.300   122990316.227        -227.972          43.000    23404245.077    94239411.275        -174.650          47.000  
S31  38699088.010   203365017.144        -809.116          43.000  
G14  20262568.247   106480829.393       -1659.311          48.000    20262566.440    82972270.438       -1292.933          49.000  
G07  24151608.044   126917540.910       -3775.698          39.000    24151607.740    98896767.157       -2942.255          38.000  
G30  21685053.783   113956039.084       -2777.558          49.000    21685053.434    88797286.882       -2164.437          44.000  
E21  23451796.861   123240387.924        -791.965          48.000    23451799.877    94431138.305        -606.810          51.000  
G22  20346397.121   106921358.460         580.789          48.000                                                                  
E04  26695790.619   140287297.779        1547.504          38.000    26695794.351   107492954.168        1185.270          39.000  
E27  26088962.319   137098768.380       -3162.598          47.000    26088964.696   105049886.047       -2423.287          48.000  
> 2024 04 08 20 40 00.5000000  0 20                     
S33  39656055.886   208393905.308        -808.094          43.000  
G05  21383272.014   112369856.348       -1379.106          48.000    21383271.399    87560975.678       -1074.866          45.000  
G20  22188892.063   116603386.153       -3545.937          47.000                                                                  
G15  23444491.513   123201558.451        2137.083          42.000    23444490.852    96001264.246        1665.208          40.000  
R04  19911481.061   106625256.634       -3071.364          50.000    19911478.242    82930757.093       -2388.794          50.000  
R05  19350345.494   103438701.162         808.842          52.000    19350342.486    80452372.074         629.080          49.000  
R16  21406575.628   114350409.852        1982.271          46.000    21406581.373    88939357.779        1541.703          42.000  
G13  20982960.043   110266388.523        1071.045          50.000                                                                  
G17  23845781.572   125310620.535        2103.326          43.000    23845790.380    97644794.850        1638.641          40.000  
R14  21560305.822   114929047.942       -4243.818          51.000    21560307.749    89389221.281       -3300.770          51.000  
R15  19207963.660   102641888.910       -1359.072          52.000    19207962.033    79832787.133       -1057.184          49.000  
E19  23405563.713   122997250.615        -234.310          43.000    23405564.370    94244724.657        -179.563          46.000  
S31  38703705.824   203389281.366        -808.337          44.000  
G14  20272092.748   106530878.599       -1677.263          49.000    20272090.235    83011269.861       -1306.881          48.000  
G07  24173157.479   127030786.043       -3773.758          38.000    24173158.054    98985010.084       -2941.031          38.000  
G30  21700920.315   114039416.874       -2780.737          49.000    21700918.621    88862256.599       -2166.791          43.000  
E21  23456353.916   123264332.485        -804.149          48.000    23456356.452    94449485.493        -616.224          51.000  
G22  20343132.146   106904202.056         562.798          48.000                                                                  
E04  26686955.211   140240868.476        1547.926          38.000    26686959.478   107457378.628        1186.261          39.000  
E27  26107033.568   137193731.607       -3168.329          47.000    26107036.310   105122650.118       -2427.609          49.000  
> 2024 04 08 20 40 30.5000000  0 20                     
S33  39660668.468   208418145.564        -807.870          43.000  
G05  21391198.256   112411512.168       -1397.900          48.000    21391197.979    87593434.687       -1089.337          46.000  
G20  22209160.535   116709899.231       -3554.846          46.000                                                                  
G15  23432295.182   123137465.756        2135.741          42.000    23432294.175    95951322.036        1664.202          40.000  
R04  19928743.695   106717694.250       -3091.219          51.000    19928741.224    83002652.922       -2404.205          51.000  
R05  19345861.510   103414732.958         789.175          52.000    19345858.959    80433730.175         613.721          48.000  
R16  21395481.633   114291153.976        1968.266          44.000    21395487.600    88893270.454        1530.548          41.000  
G13  20976861.338   110234340.972        1065.222          50.000                                                                  
G17  23833777.579   125247549.019        2101.459          42.000    23833787.486    97595649.161        1637.512          41.000  
R14  21584202.518   115056426.891       -4248.014          51.000    21584204.320    89488293.806       -3304.104          52.000  
R15  19215646.021   102682941.172       -1377.592          51.000    19215645.111    79864716.767       -1071.499          49.000  
E19  23406920.711   123004382.360        -240.955          43.000    23406921.419    94250189.256        -184.701          46.000  
S31  38708320.282   203413531.978        -808.029          44.000  
G14  20281719.442   106581466.395       -1695.243          48.000    20281716.211    83050688.965       -1321.136          48.000  
G07  24194700.419   127143988.591       -3772.594          40.000    24194698.626    99073219.861       -2939.846          35.000  
G30  21716805.948   114122897.141       -2784.715          49.000    21716805.107    88927306.175       -2169.909          44.000  
E21  23460981.969   123288652.848        -817.168          48.000    23460984.492    94468120.636        -626.042          51.000  
G22  20339970.044   106887584.747         544.894          48.000                                                                  
E04  26678116.474   140194417.184        1548.211          38.000    26678120.122   107421786.204        1186.457          40.000  
E27  26125136.624   137288865.502       -3173.985          47.000    26125139.174   105195544.937       -2432.090          49.000  
> 2024 04 08 20 41 00.0000000  0 20                     
S33  39665201.994   208441969.135        -807.633          43.000  
G05  21399097.245   112453020.164       -1416.637          48.000    21399097.178    87625778.502       -1103.947          46.000  
G20  22229141.299   116814894.503       -3563.968          47.000                                                                  
G15  23420308.748   123074482.706        2133.682          41.000    23420308.710    95902244.440        1662.852          40.000  
R04  19945824.989   106809170.222       -3110.957          49.000    19945824.131    83073800.806       -2419.553          51.000  
R05  19341559.147   103391738.560         769.310          51.000    19341557.362    80415845.647         598.424          49.000  
R16  21384649.951   114233295.920        1954.019          46.000    21384655.355    88848270.319        1519.760          41.000  
G13  20970896.566   110202996.569        1059.296          50.000                                                                  
G17  23821984.743   125185581.084        2099.231          44.000    23821995.575    97547363.315        1635.876          42.000  
R14  21607721.970   115181801.670       -4252.221          50.000    21607724.223    89585807.500       -3307.350          51.000  
R15  19223300.944   102723845.052       -1396.003          52.000    19223299.457    79896530.933       -1085.752          50.000  
E19  23408292.473   123011591.293        -247.957          43.000    23408293.257    94255712.990        -190.030          46.000  
S31  38712855.502   203437367.053        -808.352          44.000  
G14  20291285.007   106631737.008       -1713.329          48.000    20291282.377    83089860.903       -1334.976          48.000  
G07  24215876.218   127255264.392       -3771.611          39.000    24215872.871    99159928.288       -2938.969          35.000  
G30  21732446.461   114205087.392       -2788.002          49.000    21732445.176    88991350.517       -2172.490          44.000  
E21  23465602.179   123312935.955        -829.695          48.000    23465605.596    94486727.231        -635.769          52.000  
G22  20336959.847   106871773.037         526.680          48.000                                                                  
E04  26669420.580   140148721.566        1548.925          37.000    26669424.496   107386772.834        1187.041          39.000  
E27  26142969.497   137382580.791       -3179.986          47.000    26142972.768   105267352.798       -2436.531          50.000  
> 2024 04 08 20 41 30.0000000  0 20                     
S33  39669813.388   208466202.932        -808.115          44.000  
G05  21407238.587   112495803.631       -1435.847          48.000    21407238.216    87659116.201       -1118.876          45.000  
G20  22249513.214   116921945.540       -3573.064          47.000                                                                  
G15  23408132.438   123010492.763        2131.883          42.000    23408130.873    95852382.285        1661.174          40.000  
R04  19963310.000   106902801.699       -3131.331          50.000    19963309.488    83146625.184       -2435.449          51.000  
R05  19337297.865   103368958.930         749.052          51.000    19337296.640    80398128.175         582.525          49.000  
R16  21373716.856   114174893.050        1939.427          46.000    21373721.120    88802846.449        1507.991          40.000  
G13  20964866.669   110171311.919        1052.856          49.000                                                                  
G17  23810005.986   125122636.540        2096.759          42.000    23810016.476    97498316.462        1634.027          41.000  
R14  21631665.196   115309437.027       -4256.797          49.000    21631668.227    89685079.446       -3310.899          51.000  
R15  19231189.683   102766002.501       -1414.819          52.000    19231188.733    79929320.118       -1100.302          50.000  
E19  23409728.845   123019140.024        -255.297          42.000    23409729.743    94261497.104        -195.461          46.000  
S31  38717468.944   203461612.184        -808.230          44.000  
G14  20301117.989   106683410.459       -1731.779          48.000    20301115.026    83130125.991       -1349.405          48.000  
G07  24237405.040   127368402.273       -3771.052          37.000    24237402.078    99248087.653       -2938.422          36.000  
G30  21748374.159   114288790.259       -2792.188          48.000    21748374.581    89056573.510       -2175.727          45.000  
E21  23470376.267   123338021.793        -842.823          48.000    23470379.066    94505948.888        -645.772          52.000  
G22  20334005.966   106856249.369         508.055          48.000                                                                  
E04  26660576.994   140102250.965        1548.381          37.000    26660581.299   107351165.639        1187.035          40.000  
E27  26161141.689   137478069.952       -3186.190          48.000    26161143.772   105340519.850       -2441.352          50.000  
> 2024 04 08 20 42 00.0000000  0 20                     
S33  39674426.108   208490441.087        -807.684          43.000  
G05  21415489.205   112539160.734       -1454.423          48.000    21415489.068    87692900.903       -1133.301          46.000  
G20  22269936.395   117029269.882       -3581.649          47.000                                                                  
G15  23395966.752   122946563.477        2130.428          43.000    23395965.147    95802567.422        1659.776          39.000  
R04  19980908.220   106997039.803       -3151.008          50.000    19980908.311    83219921.388       -2450.783          51.000  
R05  19333151.869   103346789.877         729.176          51.000    19333150.036    80380885.625         567.075          50.000  
R16  21362866.401   114116928.647        1925.170          48.000    21362870.121    88757763.509        1497.314          43.000  
G13  20958873.614   110139819.208        1046.881          49.000                                                                  
G17  23798042.406   125059767.627        2094.617          43.000    23798052.058    97449328.593        1631.860          41.000  
R14  21655634.465   115437203.715       -4260.763          50.000    21655636.546    89784453.560       -3313.878          50.000  
R15  19239184.062   102808720.509       -1432.867          52.000    19239182.664    79962545.294       -1114.430          50.000  
E19  23411206.932   123026907.247        -262.191          42.000    23411207.887    94267448.656        -200.923          46.000  
S31  38722083.586   203485861.289        -808.011          44.000  
G14  20311056.035   106735635.592       -1749.659          49.000    20311053.320    83170820.959       -1363.423          49.000  
G07  24258927.590                       -3769.643          34.000    24258927.114    99336226.342       -2937.291          36.000  
G30  21764324.664   114372610.589       -2795.541          48.000    21764324.424    89121888.081       -2178.420          44.000  
E21  23475224.955   123363499.301        -855.390          48.000    23475227.474    94525470.662        -655.523          52.000  
G22  20331157.967   106841285.414         489.707          48.000                                                                  
E04  26651733.342   140055778.519        1549.490          35.000    26651737.549   107315557.062        1187.322          39.000  
E27  26179346.509   137573742.273       -3191.728          47.000    26179349.615   105413827.242       -2445.688          50.000  
> 2024 04 08 20 42 30.5000000  0 20                     
S33  39679114.858   208515082.507        -807.924          43.000  
G05  21423987.800   112583823.787       -1473.843          47.000    21423988.176    87727703.227       -1148.447          45.000  
G20  22290752.609   117138656.941       -3590.827          47.000                                                                  
G15  23383609.603   122881629.459        2128.255          42.000    23383608.637    95751969.620        1658.185          39.000  
R04  19998915.848   107093465.476       -3171.494          50.000    19998914.869    83294919.050       -2466.783          51.000  
R05  19329053.091   103324877.271         708.330          52.000    19329049.865    80363842.503         550.867          49.000  
R16  21351917.280   114058445.460        1910.261          46.000    21351921.990    88712277.197        1485.437          42.000  
G13  20952818.608   110107997.605        1040.234          48.000                                                                  
G17  23785893.968   124995928.381        2091.974          43.000    23785903.517    97399584.583        1630.042          42.000  
R14  21680027.112   115567227.978       -4265.017          49.000    21680028.697    89885583.542       -3317.240          51.000  
R15  19247417.658   102852719.247       -1451.712          52.000    19247416.539    79996766.611       -1129.160          50.000  
E19  23412752.120   123035025.399        -269.662          43.000    23412753.005    94273669.085        -206.616          46.000  
S31  38726775.238   203510514.658        -808.267          45.000  
G14  20321266.744   106789291.837       -1768.283          49.000    20321264.121    83212631.076       -1377.876          49.000  
G07  24280804.267   127596478.654       -3768.334          33.000    24280804.508    99425809.626       -2936.579          38.000  
G30  21780563.051   114457944.225       -2799.630          48.000    21780563.112    89188381.820       -2181.621          45.000  
E21  23480229.574   123389799.060        -868.651          48.000    23480232.096    94545622.476        -665.556          52.000  
G22  20328372.173   106826643.508         470.830          48.000                                                                  
E04  26642740.860   140008527.296        1549.541          35.000    26642745.419   107279351.776        1187.285          39.000  
E27  26197890.692   137671191.835       -3197.859          47.000    26197893.452   105488496.437       -2450.239          50.000  
> 2024 04 08 20 43 00.5000000  0 20                     
S33  39683727.830   208539323.391        -807.705          43.000  
G05  21432456.353   112628328.614       -1492.915          47.000    21432457.371    87762382.239       -1163.396          45.000  
G20  22311277.580   117246518.078       -3599.632          48.000                                                                  
G15  23371467.668   122817822.817        2125.760          40.000    23371466.188    95702250.285        1656.509          39.000  
R04  20016740.185   107188916.974       -3191.727          49.000    20016739.858    83369159.021       -2482.398          51.000  
R05  19325136.507   103303944.144         687.544          52.000    19325133.356    80347561.198         534.771          49.000  
R16  21341230.967   114001363.180        1895.484          48.000    21341236.872    88667880.441        1474.248          43.000  
G13  20946899.471   110076893.318        1033.527          48.000                                                                  
G17  23773959.744   124933216.286        2089.105          44.000    23773969.053    97350718.834        1628.076          41.000  
R14  21704042.801   115695244.848       -4269.021          48.000    21704043.977    89985152.245       -3320.481          51.000  
R15  19255620.754   102896554.884       -1470.409          52.000    19255619.107    80030861.058       -1143.579          50.000  
E19  23414313.550   123043230.939        -277.251          43.000    23414314.562    94279956.478        -212.411          47.000  
S31  38731389.872   203534765.277        -808.116          44.000  
G14  20331414.502   106842619.637       -1786.591          49.000    20331411.831    83254185.234       -1392.108          49.000  
G07  24302318.023   127709529.347       -3768.124          34.000    24302317.292    99513901.065       -2935.493          37.000  
G30  21796557.109   114541993.673       -2803.434          48.000    21796556.780    89253874.890       -2184.591          44.000  
E21  23485225.331   123416059.370        -881.724          47.000    23485229.358    94565744.083        -675.738          52.000  
G22  20325738.694   106812806.038         451.909          48.000                                                                  
E04  26633895.797   139962048.675        1549.473          36.000    26633900.541   107243738.435        1186.932          39.000  
E27  26216164.662   137767223.058       -3203.907          47.000    26216167.595   105562078.812       -2454.907          50.000  
> 2024 04 08 20 43 30.5000000  0 20                     
S33  39688340.372   208563562.148        -808.130          43.000  
G05  21441032.715   112673398.940       -1511.836          48.000    21441034.677    87797501.921       -1178.132          46.000  
G20  22331852.596   117354638.712       -3608.486          48.000                                                                  
G15  23359337.143   122754077.445        2123.528          42.000    23359336.580    95652578.765        1654.589          40.000  
R04  20034677.562   107284965.569       -3211.508          50.000    20034675.915    83443863.377       -2497.944          51.000  
R05  19321335.793   103283625.948         666.901          52.000    19321332.726    80331758.203         518.590          49.000  
R16  21330626.212   113944717.949        1880.813          47.000    21330631.780    88623823.521        1462.588          44.000  
G13  20941017.231   110045981.751        1027.051          48.000                                                                  
G17  23762041.424   124870584.151        2086.353          46.000    23762049.723    97301915.355        1625.916          40.000  
R14  21728079.455   115823379.082       -4273.157          48.000    21728080.880    90084812.155       -3323.703          49.000  
R15  19263927.229   102940939.000       -1488.760          52.000    19263925.141    80065382.109       -1157.847          50.000  
E19  23415915.008   123051653.276        -284.313          42.000    23415917.346    94286409.979        -217.974          47.000  
S31  38736004.113   203559014.842        -808.319          44.000  
G14  20341665.441   106896489.536       -1804.616          49.000    20341663.296    83296161.849       -1406.453          49.000  
G07  24323823.881   127822546.989       -3766.986          35.000    24323824.342    99601966.706       -2935.276          37.000  
G30  21812572.062   114626153.195       -2807.288          48.000    21812571.904    89319453.743       -2187.521          44.000  
E21  23490295.144   123442704.662        -894.522          46.000    23490299.485    94586160.687        -685.534          51.000  
G22  20323211.368   106799526.340         433.371          47.000                                                                  
E04  26625049.792   139915566.079        1549.750          33.000    26625055.103   107208122.084        1187.101          39.000  
E27  26234471.488   137863427.378       -3209.735          47.000    26234474.500   105635793.886       -2459.489          49.000  
> 2024 04 08 20 44 00.0000000  0 20                     
S33  39692875.434   208587392.183        -807.555          44.000  
G05  21449570.830   112718265.594       -1530.040          47.000    21449572.556    87832462.868       -1192.108          46.000  
G20  22352131.861   117461204.308       -3616.552          47.000                                                                  
G15  23347421.039   122691453.142        2121.956          43.000    23347419.966    95603780.711        1653.511          40.000  
R04  20052421.293   107379991.059       -3230.942          49.000    20052421.042    83517771.990       -2512.879          51.000  
R05  19317710.210   103264246.221         646.892          53.000    19317707.493    80316685.060         503.101          50.000  
R16  21320277.349   113889440.711        1866.532          47.000    21320283.632    88580830.563        1451.819          45.000  
G13  20935268.265   110015772.074        1020.868          48.000                                                                  
G17  23750336.418   124809074.026        2083.801          46.000    23750343.849    97253986.154        1623.828          41.000  
R14  21751736.127   115949485.904       -4276.596          48.000    21751737.891    90182895.219       -3326.329          49.000  
R15  19272192.978   102985112.927       -1506.258          51.000    19272191.690    80099739.656       -1171.504          50.000  
E19  23417530.894   123060144.891        -291.404          42.000    23417533.082    94292916.571        -223.371          46.000  
S31  38740540.928   203582856.334        -807.984          44.000  
G14  20351845.904   106949985.736       -1822.305          50.000    20351843.638    83337847.226       -1419.849          50.000  
G07  24344966.598   127933645.063       -3765.527          38.000    24344966.793    99688536.698       -2933.899          37.000  
G30  21828339.717   114709013.547       -2810.262          46.000    21828339.310    89384020.269       -2190.130          44.000  
E21  23495352.088   123469277.651        -906.996          46.000    23495355.688    94606521.885        -695.013          50.000  
G22  20320829.907   106787009.571         415.160          48.000                                                                  
E04  26616350.450   139869852.178        1549.645          35.000    26616355.175   107173094.720        1187.282          38.000  
E27  26252504.692   137958192.474       -3215.081          47.000    26252508.038   105708406.093       -2463.542          50.000  
> 2024 04 08 20 44 30.0000000  0 20                     
S33  39697487.595   208611630.353        -807.807          43.000  
G05  21458360.586   112764456.262       -1549.194          47.000    21458362.125    87868455.543       -1207.008          46.000  
G20  22372803.309   117569832.526       -3625.167          47.000                                                                  
G15  23335314.940   122627836.671        2119.547          41.000    23335313.716    95554209.567        1651.619          39.000  
R04  20070579.830   107477221.555       -3250.842          50.000    20070578.388    83593395.632       -2528.506          51.000  
R05  19314139.812   103245159.061         625.802          52.000    19314137.391    80301839.495         486.732          50.000  
R16  21309836.102   113833666.723        1851.697          47.000    21309842.947    88537451.323        1440.366          46.000  
G13  20929460.478   109985250.273        1013.983          48.000                                                                  
G17  23738448.667   124746612.592        2080.585          45.000    23738457.414    97205315.661        1621.179          42.000  
R14  21775816.504   116077845.820       -4280.464          48.000    21775818.811    90282730.680       -3329.300          50.000  
R15  19280701.704   103030579.778       -1524.694          52.000    19280699.732    80135102.820       -1185.882          50.000  
E19  23419217.177   123069002.642        -298.993          42.000    23419218.486    94299703.685        -229.101          46.000  
S31  38745155.695   203607105.303        -808.169          44.000  
G14  20362300.680   107004928.146       -1840.425          50.000    20362298.692    83380659.559       -1434.090          50.000  
G07  24366461.109   128046597.695       -3764.651          40.000    24366461.214    99776551.795       -2933.494          36.000  
G30  21844396.609   114793390.898       -2814.520          46.000    21844396.195    89449768.848       -2193.084          43.000  
E21  23500568.747   123496686.641        -920.157          47.000    23500570.772    94627523.639        -704.971          50.000  
G22  20318514.712   106774840.775         396.164          48.000                                                                  
E04  26607504.977   139823366.354        1549.287          34.000    26607509.829   107137475.917        1187.110          39.000  
E27  26270877.106   138054737.135       -3220.998          47.000    26270879.580   105782381.911       -2468.140          50.000  
