     3.00           OBSERVATION DATA    M: Mixed            RINEX VERSION / TYPE
CONVBIN 2.4.3                           20240408 211441 UTC PGM / RUN BY / DATE 
format: u-blox UBX                                          COMMENT             
log: data/2024-04-08/20240408210000.ubx                     COMMENT             
AQUI00CHL                                                   MARKER NAME         
                                                            MARKER NUMBER       
                                                            MARKER TYPE         
                                                            OBSERVER / AGENCY   
UNKNOWN             UBLOX-ZED-F9P                           REC # / TYPE / VERS 
UNKNOWN             TWIVSP6037L                             ANT # / TYPE        
  1713381.0000 -5047934.0000 -3490983.0000                  APPROX POSITION XYZ 
        0.0000        0.0000        0.0000                  ANTENNA: DELTA H/E/N
G    8 C1C L1C D1C S1C C2L L2L D2L S2L                      SYS / # / OBS TYPES 
R    8 C1C L1C D1C S1C C2C L2C D2C S2C                      SYS / # / OBS TYPES 
E    8 C1C L1C D1C S1C C7Q L7Q D7Q S7Q                      SYS / # / OBS TYPES 
S    4 C1C L1C D1C S1C                                      SYS / # / OBS TYPES 
  2024    04    08    21    00   00.0000000     GPS         TIME OF FIRST OBS   
  2024    04    08    21    14   30.0010000     GPS         TIME OF LAST OBS    
                                                            END OF HEADER       
> 2024 04 08 21 00 00.0000000  0 22                     
S33  39840336.253   209362312.7941       -805.976          44.000  
G05  21782605.514   114468359.2861      -2106.729          49.000    21782605.511    89196170.2581      -1641.456          45.000  
G20  23034402.907   121046489.3161      -3835.238          43.000                                                                  
G15  22968070.152   120697968.5851       2020.761          46.000    22968066.340    94050418.8761       1574.644          39.000  
R06  23290251.000                        3247.140          28.000                                                                  
R04  20686664.996   110776312.0681      -3832.855          52.000    20686664.060    86159350.7721      -2981.098          50.000  
R05  19263980.272   102977028.7901        -62.802          52.000    19263977.541    80093294.5071        -48.869          49.000  
R16  21027781.415   112327021.5301       1384.931          52.000    21027783.738    87365628.1301       1077.191          49.000  
G19  24033543.734   126297170.8311       2177.917          41.000                                                                  
G07  25029145.485                3      -3725.116          24.000    25029129.687                3      -2909.273          22.000  
G13  20769870.137   109146606.4841        779.767          48.000                                                                  
G17  23381466.228   122870723.7911       1936.717          46.000    23381470.644    95743601.2581       1509.297          43.000  
R14  22529721.791   120096575.9241      -4347.010          51.000    22529720.958    93408409.6611      -3380.959          47.000  
R15  19592370.336   104696051.9401      -2042.664          52.000    19592367.947    81430471.8831      -1588.809          48.000  
E19  23493262.197   123458109.9001       -543.087          44.000    23493262.286    94597851.7231       -416.169          47.000  
S31  38888065.369   204358110.1451       -806.387          44.000  
G14  20735453.507   108965865.4181      -2366.138          48.000    20735450.820    84908664.1861      -1843.689          49.000  
G30  22351584.744   117458689.8611      -2913.285          45.000    22351584.555    91526625.3561      -2270.092          43.000  
E21  23697713.564   124532698.8341      -1303.207          48.000    23697716.533    95421353.3011       -998.510          52.000  
G22  20300283.492   106679044.5301       -192.593          49.000                                                                  
E04  26334084.119   138386538.3971       1535.459          42.000    26334086.941   106036533.3011       1176.448          46.000  
E27  26854667.832   141122584.2321      -3367.352          42.000    26854671.420   108133070.2391      -2580.135          46.000  
> 2024 04 08 21 00 30.0000000  0 22                     
S33  39844936.082   209386485.133        -805.632          43.000  
G05  21794679.809   114531808.695       -2123.262          49.000    21794679.384    89245611.311       -1654.721          44.000  
G20  23056309.872   121161608.432       -3839.746          44.000                                                                  
G15  22956543.878   120637398.328        2016.934          46.000    22956539.861    94003221.379        1571.687          40.000  
R06  23272004.250                        3243.709          28.000                                                                  
R04  20708186.438   110891556.812       -3850.122          52.000    20708185.420    86248985.395       -2994.562          51.000  
R05  19264397.702   102979261.633         -86.069          51.000    19264394.714    80095031.190         -66.955          49.000  
R16  21020044.184   112285695.461        1370.070          50.000    21020047.345    87333485.994        1065.582          49.000  
G19  24021109.502   126231826.220        2178.328          43.000                                                                  
G13  20765442.484   109123337.727         771.478          48.000                                                                  
G17  23370427.069   122812712.661        1930.622          46.000    23370430.664    95698398.228        1504.164          44.000  
R14  22554187.053   120226990.350       -4347.408          49.000    22554187.063    93509843.056       -3381.317          48.000  
R15  19603880.349   104757555.373       -2057.613          52.000    19603877.531    81478307.942       -1600.363          48.000  
E19  23496386.346   123474524.752        -551.334          44.000    23496386.100    94610429.356        -422.351          48.000  
S31  38892667.238   204382292.467        -805.583          44.000  
G14  20749005.802   109037083.418       -2381.732          48.000    20749002.880    84964158.803       -1855.866          49.000  
G30  22368223.294   117546126.424       -2915.949          43.000    22368223.733    91594757.725       -2271.981          43.000  
E21  23705186.142   124571967.212       -1314.627          48.000    23705189.189    95451442.116       -1007.375          52.000  
G22  20301436.436   106685106.130        -211.518          49.000                                                                  
E04  26325321.094   138340488.473        1534.590          42.000    26325323.829   106001248.406        1175.886          46.000  
E27  26873901.223   141223653.002       -3370.850          42.000    26873903.899   108210512.513       -2582.782          45.000  
G07                                                                  25050385.881                3      -2899.350          23.000  
> 2024 04 08 21 01 00.0000000  0 22                     
S33  39849533.575   209410644.877        -805.538          44.000  
G05  21806849.070   114595760.379       -2140.524          49.000    21806849.835    89295443.716       -1667.893          45.000  
G20  23078243.272   121276870.344       -3844.959          42.000                                                                  
G15  22945040.448   120576946.100        2012.760          46.000    22945036.605    93956115.785        1568.403          39.000  
R06  23253782.985                        3238.209          30.000                                                                  
R04  20729803.713   111007319.159       -3867.786          53.000    20729803.552    86339022.603       -3008.271          51.000  
R05  19264945.119   102982191.515        -109.686          51.000    19264942.354    80097310.021         -85.368          48.000  
R16  21012391.788   112244820.405        1354.607          51.000    21012395.068    87301694.642        1053.536          49.000  
G19  24008672.785   126166473.551        2178.375          43.000                                                                  
G13  20761061.814   109100317.592         762.732          48.000                                                                  
G17  23359421.916   122754884.895        1924.155          46.000    23359425.597    95653338.047        1499.285          42.000  
R14  22578655.185   120357415.216       -4348.100          51.000    22578655.305    93611284.593       -3381.846          50.000  
R15  19615473.558   104819505.448       -2072.849          53.000    19615471.223    81526491.365       -1612.125          49.000  
E19  23499555.307   123491183.227        -559.853          43.000    23499556.207    94623193.676        -428.845          48.000  
S31  38897267.045   204406462.666        -805.937          45.000  
G14  20762646.433   109108767.616       -2397.595          47.000    20762643.896    85020016.667       -1868.170          49.000  
G30  22384875.837   117633637.984       -2918.563          43.000    22384877.528    91662948.572       -2274.337          45.000  
E21  23712724.839   124611581.988       -1326.621          48.000    23712727.614    95481796.355       -1016.432          52.000  
G22  20302697.078   106691734.109        -230.760          48.000                                                                  
E04  26316561.876   138294459.958        1533.451          42.000    26316564.523   105965979.883        1175.010          46.000  
E27  26893154.623   141324825.982       -3374.419          43.000    26893156.356   108288034.724       -2585.807          45.000  
G07                                                                  25071614.809                       -2897.574          26.000  
> 2024 04 08 21 01 30.5000000  0 22                     
S33  39854206.968   209435202.697        -805.189          44.000  
G05  21819320.283   114661298.321       -2157.450          49.000    21819321.026    89346512.167       -1681.216          45.000  
G20  23100571.860   121394204.406       -3849.607          42.000                                                                  
G15  22933369.983   120515617.042        2008.427          47.000    22933366.219    93908327.013        1564.692          40.000  
R06  23235281.562   123987922.675        3235.327          29.000                                                                  
R04  20751882.375   111125547.338       -3885.248          53.000    20751881.665    86430977.660       -3021.821          50.000  
R05  19265638.564   102985894.906        -133.415          51.000    19265635.271    80100190.452        -103.872          49.000  
R16  21004701.006   112203734.894        1339.180          52.000    21004703.922    87269739.528        1041.609          50.000  
G19  23996028.774   126100034.406        2178.002          43.000                                                                  
G13  20756659.404   109077178.645         754.181          50.000                                                                  
G17  23348271.600   122696291.829        1917.739          47.000    23348274.371    95607681.532        1494.273          42.000  
R14  22603534.618   120490030.565       -4348.521          50.000    22603534.336    93714429.834       -3382.049          50.000  
R15  19627346.923   104882951.425       -2087.961          53.000    19627344.674    81575838.289       -1624.040          49.000  
E19  23502826.889   123508377.855        -568.097          43.000    23502827.981    94636368.803        -435.275          48.000  
S31  38901941.973   204431030.494        -805.443          45.000  
G14  20776606.741   109182129.938       -2413.275          47.000    20776604.061    85077182.172       -1880.566          48.000  
G30  22401822.750   117722692.132       -2921.407          44.000    22401824.009    91732341.399       -2276.492          44.000  
E21  23720457.644   124652218.810       -1338.400          48.000    23720460.912    95512933.713       -1025.545          53.000  
G22  20304090.981   106699061.151        -250.205          47.000                                                                  
E04  26307663.783   138247695.087        1532.735          43.000    26307665.797   105930147.144        1174.400          47.000  
E27  26912748.445   141427798.132       -3377.883          42.000    26912752.077   108366935.448       -2588.357          46.000  
G07                                                                  25093196.564                1      -2896.190          26.000  
> 2024 04 08 21 02 00.5000000  0 22                     
S33  39858802.793   209459355.405        -805.479          44.000  
G05  21831684.621   114726273.033       -2174.367          49.000    21831684.289    89397141.761       -1694.446          43.000  
G20  23122562.943   121509761.839       -3854.407          44.000                                                                  
G15  22921916.130   120455425.115        2003.845          46.000    22921912.837    93861424.282        1561.896          41.000  
R06  23217105.049                        3230.573          29.000                                                                  
R04  20773697.613   111242363.659       -3902.686          53.000    20773695.970    86521834.629       -3035.468          50.000  
R05  19266453.489   102990254.190        -157.257          51.000    19266451.127    80103580.986        -122.355          49.000  
R16  20997223.057   112163787.306        1323.616          53.000    20997224.940    87238669.503        1029.578          49.000  
G19  23983594.424   126034691.345        2177.886          44.000                                                                  
G13  20752378.373   109054682.206         745.215          50.000                                                                  
G17  23337341.913   122638859.420        1910.913          47.000    23337344.892    95562929.415        1489.088          41.000  
R14  22628006.830   120620486.745       -4348.919          48.000    22628007.178    93815895.730       -3382.496          51.000  
R15  19639110.359   104945811.481       -2102.956          53.000    19639107.837    81624729.468       -1635.698          49.000  
E19  23506093.815   123525547.499        -576.427          43.000    23506095.186    94649524.787        -441.871          48.000  
S31  38906539.443   204455192.688        -805.633          44.000  
G14  20790428.630   109254764.245       -2429.187          48.000    20790425.542    85133780.392       -1892.780          48.000  
G30  22418507.078   117810369.778       -2924.123          44.000    22418508.826    91800661.644       -2278.653          45.000  
E21  23728131.340   124692545.673       -1350.103          48.000    23728134.697    95543833.558       -1034.572          53.000  
G22  20305572.686   106706848.105        -269.219          47.000                                                                  
E04  26298915.939   138201729.668        1531.593          42.000    26298918.683   105894926.963        1173.525          47.000  
E27  26932043.225   141529193.015       -3381.723          43.000    26932046.238   108444627.638       -2591.371          44.000  
G07                                                                  25114401.722                       -2895.560          26.000  
> 2024 04 08 21 02 30.5000000  0 22                     
S33  39863399.818   209483513.502        -805.449          44.000  
G05  21844147.598   114791761.927       -2191.684          49.000    21844146.666    89448171.948       -1707.812          43.000  
G20  23144581.863   121625471.116       -3859.623          44.000                                                                  
G15  22910488.729   120395375.470        1999.146          47.000    22910486.235    93814632.442        1557.844          42.000  
R06  23198957.070                        3226.130          31.000                                                                  
R04  20795611.310   111359709.074       -3920.465          53.000    20795609.149    86613103.074       -3049.158          49.000  
R05  19267404.171   102995335.113        -181.622          51.000    19267401.641    80107532.845        -141.196          49.000  
R16  20989832.605   112124310.389        1307.983          53.000    20989835.202    87207965.531        1017.155          49.000  
G19  23971162.819   125969367.439        2176.807          44.000                                                                  
G13  20748149.076   109032458.386         735.962          49.000                                                                  
G17  23326453.399   122581638.047        1903.613          46.000    23326455.154    95518341.730        1483.394          40.000  
R14  22652484.249   120750964.743       -4349.797          46.000    22652484.956    93917378.587       -3383.175          50.000  
R15  19650958.736   105009128.577       -2118.271          53.000    19650956.596    81673976.154       -1647.517          49.000  
E19  23509412.343   123542982.047        -585.741          43.000    23509412.787    94662883.742        -448.677          48.000  
S31  38911138.409   204479361.284        -805.859          44.000  
G14  20804341.451   109327876.428       -2445.148          47.000    20804339.110    85190750.968       -1905.316          49.000  
G30  22435208.447   117898138.916       -2927.203          41.000    22435210.822    91869053.171       -2280.980          45.000  
E21  23735874.763   124733234.125       -1362.447          48.000    23735877.467    95575010.459       -1043.885          53.000  
G22  20307166.044   106715219.739        -288.859          47.000                                                                  
E04  26290177.051   138155807.219        1529.915          42.000    26290180.015   105859739.712        1172.226          47.000  
E27  26951360.122   141630705.420       -3385.732          42.000    26951363.961   108522409.909       -2594.275          45.000  
G07                                                                  25135625.425                1      -2893.991          27.000  
> 2024 04 08 21 03 00.5000000  0 22                     
S33  39867997.053   209507671.900        -805.342          43.000  
G05  21856706.222   114857757.289       -2208.326          48.000    21856705.256    89499596.811       -1720.882          42.000  
G20  23166628.353   121741323.404       -3863.987          44.000                                                                  
G15  22899087.744   120335464.209        1994.709          46.000    22899085.878    93767948.436        1554.219          43.000  
R06  23180833.367                        3221.463          29.000                                                                  
R04  20817621.892   111477574.929       -3937.451          52.000    20817620.281    86704776.318       -3062.391          50.000  
R05  19268488.968   103001133.962        -205.238          51.000    19268486.085    80112043.080        -159.651          49.000  
R16  20982529.496   112085298.091        1292.767          53.000    20982531.283    87177622.920        1005.438          49.000  
G19  23958734.753   125904059.688        2176.697          44.000                                                                  
G13  20743970.995   109010503.179         727.234          49.000                                                                  
G17  23315603.841   122524624.918        1896.973          46.000    23315606.410    95473916.293        1478.045          41.000  
R14  22676963.159   120881455.655       -4349.897          45.000    22676963.588    94018871.529       -3383.206          50.000  
R15  19662891.229   105072893.559       -2132.925          52.000    19662889.400    81723571.183       -1658.988          49.000  
E19  23512779.451   123560676.141        -594.011          43.000    23512779.722    94676441.587        -455.357          47.000  
S31  38915737.505   204503529.054        -805.629          44.000  
G14  20818343.926   109401458.152       -2460.541          48.000    20818341.310    85248087.438       -1917.175          49.000  
G30  22451927.182   117985992.846       -2929.678          43.000    22451929.242    91937510.773       -2283.123          46.000  
E21  23743684.839   124774276.991       -1373.985          48.000    23743687.501    95606458.935       -1052.836          53.000  
G22  20308869.253   106724169.851        -307.917          48.000                                                                  
E04  26281445.080   138109922.754        1528.793          42.000    26281448.325   105824581.553        1171.476          47.000  
E27  26970698.870   141732327.629       -3389.127          44.000    26970702.122   108600276.285       -2596.899          46.000  
G07                                                                  25156822.131                3      -2893.971          24.000  
> 2024 04 08 21 03 30.0000000  0 21                     
S33  39872516.177   209531420.420        -805.137          44.000  
G05  21869148.226   114923137.938       -2224.625          49.000    21869146.473    89550542.720       -1733.680          43.000  
G20  23188332.015   121855373.973       -3868.498          43.000                                                                  
G15  22887901.789   120276681.661        1990.204          46.000    22887900.109    93722143.944        1550.664          44.000  
R06  23163032.813                        3216.659          29.000                                                                  
R04  20839359.419   111593974.290       -3954.297          53.000    20839357.642    86795308.958       -3075.653          50.000  
R05  19269685.226   103007531.108        -228.708          51.000    19269683.022    80117018.663        -177.938          49.000  
R16  20975431.250   112047382.209        1277.515          52.000    20975433.904    87148133.093         993.677          50.000  
G19  23946515.506   125839852.232        2176.019          43.000                                                                  
G13  20739911.515   108989170.691         718.628          49.000                                                                  
G17  23304973.214   122468761.498        1890.084          45.000    23304975.042    95430386.701        1472.657          40.000  
R14  22701033.651   121009775.449       -4350.130          44.000    22701036.461    94118675.784       -3383.403          50.000  
R15  19674704.869   105136022.904       -2147.316          53.000    19674703.117    81772671.826       -1670.155          49.000  
E19  23516137.357   123578322.673        -602.573          43.000    23516137.879    94689962.968        -461.648          48.000  
S31  38920258.568   204527287.303        -805.678          44.000  
G14  20832198.200   109474262.437       -2475.635          47.000    20832195.511    85304818.107       -1929.132          49.000  
G30  22468381.653   118072457.850       -2932.483          44.000    22468381.601    92004886.097       -2285.024          44.000  
E21  23751429.455   124814973.575       -1385.439          49.000    23751431.511    95637642.087       -1061.549          53.000  
G22  20310650.777   106733528.358        -326.742          49.000                                                                  
E04  26272865.428   138064834.348        1527.509          42.000    26272868.316   105790033.371        1170.571          47.000  
E27  26989733.280   141832354.772       -3392.580          44.000    26989735.882   108676920.478       -2599.528          44.000  
> 2024 04 08 21 04 00.0000000  0 21                     
S33  39877110.806   209555566.894        -804.828          44.000  
G05  21881894.110   114990120.319       -2241.089          47.000    21881893.318    89602736.677       -1746.294          44.000  
G20  23210428.901   121971488.894       -3872.638          44.000                                                                  
G15  22876551.766   120217039.226        1985.773          46.000    22876550.257    93675669.409        1547.148          44.000  
R06  23144960.233                        3212.437          31.000                                                                  
R04  20861559.508   111712853.471       -3971.228          53.000    20861558.058    86887770.338       -3088.703          50.000  
R05  19271035.335   103014748.008        -252.556          51.000    19271033.358    80122631.849        -196.532          50.000  
R16  20968297.936   112009280.575        1262.286          52.000    20968300.601    87118498.782         981.891          50.000  
G19  23934092.278   125774574.411        2175.507          43.000                                                                  
G13  20735833.699   108967742.565         709.814          49.000                                                                  
G17  23294201.172   122412160.059        1883.122          45.000    23294203.539    95386282.044        1467.206          40.000  
R14  22725515.781   121140274.237       -4350.043          44.000    22725517.816    94220174.798       -3383.332          50.000  
R15  19686800.307   105200656.324       -2161.697          52.000    19686798.837    81822942.300       -1681.312          49.000  
E19  23519601.106   123596523.690        -611.173          43.000    23519601.535    94703909.234        -468.151          48.000  
S31  38924855.479   204551444.234        -805.292          44.000  
G14  20846374.304   109548757.714       -2490.784          48.000    20846371.683    85362866.426       -1940.912          48.000  
G30  22485129.770   118160467.145       -2934.996          45.000    22485129.929    92073464.792       -2286.982          45.000  
E21  23759370.995   124856705.122       -1396.871          49.000    23759372.732    95669618.275       -1070.328          53.000  
G22  20312569.636   106743615.100        -345.927          48.000                                                                  
E04  26264146.791   138019017.466        1526.480          43.000    26264149.808   105754927.011        1169.722          47.000  
E27  27009109.271   141934178.774       -3395.885          44.000    27009112.277   108754941.493       -2601.976          43.000  
> 2024 04 08 21 04 30.0000000  0 21                     
S33  39881704.645   209579705.140        -804.315          43.000  
G05  21894732.557   115057593.825       -2257.190          47.000    21894733.707    89655313.362       -1759.028          44.000  
G20  23232548.109   122087728.600       -3876.612          43.000                                                                  
G15  22865228.040   120157532.493        1981.387          47.000    22865226.030    93629300.606        1543.878          44.000  
R06  23126914.594                        3207.901          29.000                                                                  
R04  20883852.528   111832236.523       -3987.695          52.000    20883851.617    86980623.657       -3101.557          49.000  
R05  19272519.786   103022679.708        -276.255          52.000    19272517.072    80128800.957        -214.884          50.000  
R16  20961250.103   111971635.551        1247.351          52.000    20961252.325    87089219.625         970.129          48.000  
G19  23921672.948   125709313.335        2175.092          43.000                                                                  
G13  20731806.625   108946580.055         701.099          49.000                                                                  
G17  23283469.884   122355767.628        1876.541          44.000    23283472.019    95342340.263        1461.989          40.000  
R14  22749995.558   121270770.413       -4349.512          41.000    22749998.816    94321671.786       -3382.974          48.000  
R15  19698976.649   105265720.567       -2175.804          53.000    19698974.616    81873547.880       -1692.257          49.000  
E19  23523112.683   123614978.688        -619.231          43.000    23523113.530    94718050.101        -474.474          48.000  
S31  38929450.743   204575591.946        -804.804          45.000  
G14  20860635.891   109623707.279       -2505.829          47.000    20860634.337    85421268.730       -1952.582          49.000  
G30  22501891.100   118248550.920       -2937.212          45.000    22501891.950    92142101.494       -2288.802          45.000  
E21  23767377.163   124898779.276       -1408.064          49.000    23767379.106    95701856.981       -1078.886          53.000  
G22  20314597.342   106754271.711        -364.526          47.000                                                                  
E04  26255435.213   137973233.308        1525.787          43.000    26255437.071   105719845.717        1168.953          47.000  
E27  27028503.417   142036098.984       -3398.672          43.000    27028507.186   108833036.262       -2604.275          44.000  
> 2024 04 08 21 05 00.5000000  0 21                     
S33  39886373.090   209604237.502        -804.442          44.000  
G05  21907882.166   115126694.924       -2273.990          47.000    21907882.957    89709158.233       -1771.914          44.000  
G20  23255060.940   122206032.051       -3880.808          42.000                                                                  
G15  22853742.843   120097176.599        1976.327          47.000    22853740.256    93582270.097        1540.050          43.000  
R06  23108593.987                        3202.703          25.000                                                                  
R04  20906614.846   111954124.547       -4004.926          53.000    20906613.444    87075425.223       -3114.881          50.000  
R05  19274166.108   103031479.738        -300.746          51.000    19274163.636    80135645.450        -233.971          50.000  
R16  20954173.572   111933832.525        1231.574          52.000    20954175.229    87059817.535         957.947          49.000  
G19  23909050.026   125642985.727        2174.170          42.000                                                                  
G13  20727764.572   108925340.155         691.595          49.000                                                                  
G17  23272601.885   122298654.354        1868.896          45.000    23272603.548    95297836.765        1456.201          41.000  
R14  22774883.839   121403437.090       -4349.546          39.000    22774886.384    94424857.000       -3383.188          48.000  
R15  19711437.806   105332308.971       -2190.549          53.000    19711435.164    81925338.917       -1703.698          49.000  
E19  23526733.307   123634003.683        -628.098          43.000    23526733.735    94732627.718        -481.259          48.000  
S31  38934121.017   204600134.113        -804.683          45.000  
G14  20875223.839   109700370.562       -2521.283          47.000    20875223.084    85481006.402       -1964.594          50.000  
G30  22518947.765   118338179.694       -2939.983          46.000    22518946.927    92211942.109       -2290.848          45.000  
E21  23775583.038   124941905.967       -1419.786          49.000    23775585.516    95734902.155       -1087.961          53.000  
G22  20316770.319   106765691.304        -384.262          48.000                                                                  
E04  26246583.548   137926721.953        1524.344          42.000    26246586.301   105684207.228        1167.972          47.000  
E27  27048240.076   142139816.076       -3402.185          43.000    27048243.565   108912507.803       -2606.840          43.000  
> 2024 04 08 21 05 30.5000000  0 21                     
S33  39890964.329   209628365.498        -804.446          44.000  
G05  21920911.330   115195162.013       -2290.584          47.000    21920911.316    89762509.110       -1784.918          43.000  
G20  23277228.361   122322523.024       -3885.054          42.000                                                                  
G15  22842473.755   120037958.154        1971.349          47.000    22842470.968    93536125.934        1536.241          43.000  
R06  23090589.177                3       3195.234          25.000                                                                  
R04  20929099.249   112074524.603       -4021.833          53.000    20929097.242    87169069.481       -3128.125          50.000  
R05  19275921.977   103040867.391        -325.107          52.000    19275919.660    80142946.954        -252.870          50.000  
R16  20947300.541   111897117.004        1215.991          52.000    20947302.266    87031261.289         945.770          50.000  
G19  23896640.368   125577775.286        2173.053          44.000                                                                  
G13  20723841.571   108904727.345         682.410          49.000                                                                  
G17  23261953.920   122242701.955        1861.318          45.000    23261955.783    95254237.900        1450.281          40.000  
R14  22799365.394   121533928.606       -4349.324          41.000    22799366.176    94526350.276       -3383.064          48.000  
R15  19723775.842   105398241.378       -2204.977          53.000    19723772.855    81976619.737       -1715.030          49.000  
E19  23530344.849   123652981.897        -636.987          43.000    23530345.335    94747169.488        -488.147          49.000  
S31  38938714.411   204624272.563        -804.725          45.000  
G14  20889660.799   109776237.667       -2536.475          47.000    20889659.681    85540123.674       -1976.544          49.000  
G30  22535738.855   118426420.229       -2942.765          46.000    22535738.895    92280700.985       -2292.999          45.000  
E21  23783721.537   124984676.096       -1431.552          49.000    23783724.572    95767674.120       -1096.899          53.000  
G22  20319018.745   106777505.329        -403.491          48.000                                                                  
E04  26237885.933   137881015.567        1522.866          43.000    26237888.721   105649185.513        1166.835          47.000  
E27  27067672.420   142241933.772       -3405.642          44.000    27067676.508   108990753.874       -2609.579          44.000  
> 2024 04 08 21 06 00.0010000  0 21                     
S33  39895477.685   209652083.943        -803.845          44.000  
G05  21933813.267   115262963.346       -2306.361          47.000    21933813.984    89815341.219       -1797.197          44.000  
G20  23299048.918   122437189.087       -3888.763          39.000                                                                  
G15  22831418.314   119979863.241        1966.768          46.000    22831416.085    93490857.257        1532.424          43.000  
R06  23072920.383                3       3191.360          21.000                                                                  
R04  20951299.905   112193405.959       -4037.941          53.000    20951298.348    87261532.578       -3140.522          49.000  
R05  19277780.598   103050801.422        -348.630          53.000    19277777.994    80150673.439        -271.125          49.000  
R16  20940624.351   111861457.398        1201.158          53.000    20940626.283    87003526.287         934.264          50.000  
G19  23884442.113   125513674.674        2172.363          46.000                                                                  
G13  20720034.781   108884722.059         673.614          49.000                                                                  
G17  23251525.020   122187893.803        1854.168          44.000    23251525.989    95211530.554        1444.893          41.000  
R14  22823437.287   121662239.584       -4349.220          38.000    22823437.742    94626147.754       -3382.623          49.000  
R15  19735985.582   105463488.555       -2218.620          52.000    19735982.585    82027367.583       -1725.655          48.000  
E19  23533943.708   123671894.736        -645.518          44.000    23533944.494    94761661.160        -494.477          49.000  
S31  38943229.076   204647999.832        -804.128          44.000  
G14  20903940.720   109851279.105       -2550.995          47.000    20903939.464    85598597.548       -1987.812          49.000  
G30  22552264.174   118513263.911       -2944.948          46.000    22552264.115    92348371.419       -2294.848          45.000  
E21  23791788.646   125027065.593       -1442.576          50.000    23791790.831    95800154.457       -1105.320          53.000  
G22  20321335.270   106789678.048        -421.995          48.000                                                                  
E04  26229339.942   137836104.556        1521.646          43.000    26229342.498   105614773.283        1165.844          47.000  
E27  27086798.411   142342441.858       -3408.454          44.000    27086802.197   109067766.574       -2611.769          43.000  
> 2024 04 08 21 06 30.0010000  0 21                     
S33  39900065.749   209676194.500        -803.497          44.000  
G05  21947025.279   115332390.281       -2321.998          48.000    21947026.221    89869440.026       -1809.285          44.000  
G20  23321260.620   122553906.850       -3892.221          41.000                                                                  
G15  22820203.407   119920928.521        1962.399          46.000    22820201.020    93444934.186        1529.008          43.000  
R06  23055002.118                3       3189.001          25.000                                                                  
R04  20973967.689   112314787.678       -4053.980          53.000    20973965.940    87355940.360       -3153.102          50.000  
R05  19279804.529   103061619.445        -372.362          52.000    19279802.069    80159087.496        -289.728          50.000  
R16  20933921.031   111825648.139        1186.285          52.000    20933922.589    86975674.936         922.638          50.000  
G19  23872043.072   125448519.028        2171.650          46.000                                                                  
G13  20716215.246   108864649.618         664.777          48.000                                                                  
G17  23240959.982   122132379.343        1847.162          46.000    23240962.253    95168272.920        1439.141          42.000  
R14  22847914.703   121792709.220       -4348.630          42.000    22847912.663    94727624.159       -3382.341          48.000  
R15  19748479.755   105530254.911       -2232.205          52.000    19748476.862    82079297.043       -1736.184          48.000  
E19  23537652.252   123691383.277        -653.619          43.000    23537652.843    94776593.972        -500.836          48.000  
S31  38947819.041   204672119.746        -803.628          44.000  
G14  20918547.291   109928031.508       -2565.466          48.000    20918544.698    85658404.622       -1999.227          49.000  
G30  22569083.378   118601648.384       -2947.133          46.000    22569083.350    92417242.437       -2296.352          44.000  
E21  23800055.505   125070507.702       -1453.395          49.000    23800057.730    95833441.321       -1113.652          53.000  
G22  20323797.723   106802621.571        -440.618          47.000                                                                  
E04  26220655.704   137790471.079        1520.800          43.000    26220658.419   105579807.447        1165.272          47.000  
E27  27106265.853   142444739.200       -3411.058          45.000    27106268.895   109146150.311       -2613.949          44.000  
> 2024 04 08 21 07 00.0010000  0 21                     
S33  39904652.624   209700297.479        -803.355          44.000  
G05  21960328.551   115402299.251       -2338.409          49.000    21960328.989    89923914.438       -1822.160          43.000  
G20  23343493.386   122670735.659       -3896.237          42.000                                                                  
G15  22809016.273   119862141.015        1957.078          46.000    22809014.295    93399125.819        1524.921          44.000  
R06  23037088.271                        3182.145          27.000                                                                  
R04  20996725.487   112436661.701       -4070.587          51.000    20996725.397    87450731.024       -3166.052          49.000  
R05  19281964.227   103073162.900        -396.961          52.000    19281962.032    80168065.746        -308.683          51.000  
R16  20927302.684   111790297.133        1170.633          52.000    20927304.763    86948179.938         910.619          50.000  
G19  23859649.601   125383396.265        2170.139          45.000                                                                  
G13  20712448.105   108844853.630         655.050          49.000                                                                  
G17  23230437.521   122077091.550        1838.974          44.000    23230441.085    95125191.936        1432.881          42.000  
R14  22872386.892   121923165.848       -4348.373          41.000    22872386.804    94829090.354       -3382.092          48.000  
R15  19761052.554   105597438.797       -2246.468          53.000    19761048.975    82131551.225       -1747.189          48.000  
E19  23541410.330   123711131.964        -662.608          43.000    23541410.491    94791726.099        -507.749          48.000  
S31  38952407.492   204696232.431        -803.740          45.000  
G14  20933237.724   110005228.064       -2580.704          48.000    20933234.589    85718557.801       -2010.940          49.000  
G30  22585915.936   118690105.838       -2950.024          45.000    22585915.912    92486170.341       -2298.561          44.000  
E21  23808385.627   125114288.184       -1465.008          49.000    23808388.998    95866987.445       -1122.532          54.000  
G22  20326369.950   106816135.554        -459.999          47.000                                                                  
E04  26211979.525   137744877.328        1519.025          43.000    26211982.454   105544872.030        1163.989          48.000  
E27  27125749.903   142547125.866       -3414.389          46.000    27125752.342   109224602.448       -2616.211          44.000  
> 2024 04 08 21 07 30.0010000  0 21                     
S33  39909237.166   209724390.648        -802.906          44.000  
G05  21973722.743   115472686.545       -2353.918          48.000    21973723.230    89978761.580       -1834.056          42.000  
G20  23365746.232   122787670.828       -3899.377          42.000                                                                  
G15  22797857.582   119803501.183        1952.367          46.000    22797855.908    93353432.509        1521.160          44.000  
R06  23019216.261                        3176.769          29.000                                                                  
R04  21019576.102   112559023.565       -4086.634          53.000    21019575.203    87545901.142       -3178.528          48.000  
R05  19284258.852   103085431.336        -420.869          52.000    19284256.966    80177607.867        -327.361          50.000  
R16  20920769.723   111755402.940        1155.652          51.000    20920771.982    86921040.269         898.847          50.000  
G19  23847262.656   125318308.149        2169.259          44.000                                                                  
G13  20708734.287   108825334.451         646.248          49.000                                                                  
G17  23219960.165   122022032.057        1831.536          46.000    23219963.467    95082288.803        1427.166          43.000  
R14  22896855.973   122053604.982       -4347.200          42.000    22896856.857    94930542.971       -3381.381          49.000  
R15  19773702.091   105665035.669       -2259.932          52.000    19773699.217    82184126.630       -1757.800          48.000  
E19  23545217.405   123731139.892        -671.083          43.000    23545217.873    94807056.868        -514.151          48.000  
S31  38956993.893   204720335.198        -803.049          44.000  
G14  20948011.091   110082864.862       -2595.093          47.000    20948008.481    85779054.043       -2022.057          49.000  
G30  22602763.599   118778634.127       -2952.047          46.000    22602762.927    92555153.430       -2300.252          45.000  
E21  23816779.973   125158404.280       -1476.014          49.000    23816783.939    95900790.726       -1130.868          54.000  
G22  20329048.638   106830217.935        -478.851          47.000                                                                  
E04  26203311.155   137699322.812        1518.009          44.000    26203313.743   105509966.700        1163.080          47.000  
E27  27145249.747   142649598.657       -3417.018          45.000    27145251.477   109303120.568       -2618.323          43.000  
> 2024 04 08 21 08 00.0010000  0 22                     
S33  39913820.273   209748475.025        -802.512          44.000  
G05  21987208.271   115543550.301       -2370.051          48.000    21987208.882    90033979.940       -1846.622          43.000  
G20  23388018.634   122904709.308       -3903.006          43.000                                                                  
G15  22786727.859   119745011.359        1947.057          46.000    22786725.974    93307856.093        1517.321          43.000  
R06  23001372.709                        3171.576          30.000                                                                  
R04  21042517.193   112681870.955       -4102.960          52.000    21042516.997    87641448.907       -3191.199          49.000  
R05  19286689.868   103098427.005        -445.302          52.000    19286687.044    80187715.628        -346.300          50.000  
R16  20914323.608   111720965.951        1140.386          53.000    20914324.765    86894256.188         886.987          49.000  
G19  23834883.134   125253257.940        2167.761          43.000                                                                  
G13  20705072.836   108806094.291         636.712          50.000                                                                  
G17  23209527.692   121967204.261        1823.603          46.000    23209529.508    95039566.215        1420.885          43.000  
R14  22921322.036   122184025.015       -4346.968          43.000    22921323.238    95031980.683       -3380.978          48.000  
R15  19786428.913   105733042.882       -2273.698          52.000    19786425.653    82237021.175       -1768.537          48.000  
E19  23549074.030   123751408.099        -679.969          42.000    23549074.672    94822587.057        -520.993          48.000  
S31  38961579.245   204744429.175        -802.957          45.000  
G14  20962867.866   110160939.824       -2609.767          48.000    20962865.882    85839891.722       -2033.564          50.000  
G30  22619622.267   118867232.961       -2954.371          46.000    22619622.734    92624191.519       -2302.340          45.000  
E21  23825239.357   125202855.121       -1487.295          49.000    23825242.729    95934850.502       -1139.606          54.000  
G22  20331836.943   106844869.396        -497.855          47.000                                                                  
E04  26194650.312   137653808.953        1516.338          44.000    26194652.461   105475092.532        1161.929          47.000  
E27  27164765.909   142752156.182       -3419.892          46.000    27164768.713   109381703.661       -2620.444          45.000  
G24                                                                  24893572.818                3       1038.430          25.000  
> 2024 04 08 21 08 30.0010000  0 22                     
S33  39918402.448   209772554.606        -802.307          44.000  
G05  22000784.528   115614893.319       -2385.727          49.000    22000784.196    90089571.781       -1858.822          43.000  
G20  23410311.021   123021853.492       -3906.376          43.000                                                                  
G15  22775627.831   119686679.133        1942.229          47.000    22775625.485    93262402.505        1513.100          44.000  
R06  22983558.602                        3166.155          27.000                                                                  
R04  21065549.747   112805206.421       -4118.939          53.000    21065549.071    87737376.268       -3203.620          49.000  
R05  19289258.108   103112156.660        -469.662          52.000    19289255.447    80198394.249        -365.408          50.000  
R16  20907962.859   111686991.285        1125.061          52.000    20907964.266    86867831.705         875.061          49.000  
G19  23822512.081   125188253.717        2166.364          44.000                                                                  
G13  20701466.341   108787140.437         627.363          50.000                                                                  
G17  23199139.247   121912616.731        1815.972          45.000    23199140.921    94997030.834        1414.973          42.000  
R14  22945786.938   122314428.551       -4346.246          44.000    22945786.140    95133405.692       -3380.406          48.000  
R15  19799232.510   105801462.773       -2287.180          52.000    19799230.114    82290236.698       -1778.994          49.000  
E19  23552981.146   123771942.822        -688.690          42.000    23552982.485    94838321.484        -527.671          48.000  
S31  38966162.662   204768519.025        -802.472          44.000  
G14  20977809.249   110239455.800       -2624.169          48.000    20977806.497    85901073.050       -2044.911          49.000  
G30  22636496.544   118955907.123       -2956.564          45.000    22636495.915    92693288.262       -2303.866          44.000  
E21  23833763.243   125247644.781       -1498.310          49.000    23833765.799    95969169.882       -1148.085          54.000  
G22  20334733.954   106860094.535        -516.792          47.000                                                                  
E04  26185998.177   137608342.143        1515.104          44.000    26186000.438   105440254.396        1160.990          47.000  
E27  27184298.811   142854802.037       -3422.747          46.000    27184301.416   109460354.388       -2622.644          45.000  
G24                                                                  24885962.469                        1038.552          29.000  
> 2024 04 08 21 09 00.0010000  0 22                     
S33  39922983.524   209796627.674        -802.273          44.000  
G05  22014451.106   115686711.152       -2401.817          49.000    22014450.833    90145533.653       -1871.380          42.000  
G24  24878343.577                1       1332.842          29.000    24878352.974   101872706.2841       1038.268          31.000  
G20  23432622.349   123139097.723       -3909.847          41.000                                                                  
G15  22764556.933   119628504.069        1936.580          46.000    22764554.850    93217071.358        1508.829          44.000  
R06  22965775.308                        3159.788          28.000                                                                  
R04  21088672.086   112929024.904       -4135.364          52.000    21088671.940    87833679.291       -3216.345          49.000  
R05  19291962.683   103126619.601        -494.337          51.000    19291961.274    80209643.198        -384.476          50.000  
R16  20901687.789   111653476.510        1109.411          53.000    20901689.959    86841764.886         862.933          49.000  
G19  23810151.229   125123296.295        2164.471          44.000                                                                  
G13  20697913.822   108768472.219         617.437          50.000                                                                  
G17  23188797.367   121858270.185        1807.659          44.000    23188798.527    94954683.215        1408.555          42.000  
R14  22970246.259   122444811.360       -4345.626          45.000    22970246.198    95234814.483       -3379.991          49.000  
R15  19812111.756   105870290.009       -2301.043          51.000    19812110.482    82343769.037       -1789.739          49.000  
E19  23556939.328   123792742.650        -697.755          42.000    23556940.522    94854259.041        -534.624          48.000  
S31  38970745.775   204792601.584        -802.586          45.000  
G14  20992832.736   110318408.066       -2638.959          47.000    20992830.736    85962594.355       -2056.415          49.000  
G30  22653384.330   119044653.602       -2959.416          44.000    22653384.186    92762441.355       -2306.061          44.000  
E21  23842350.727   125292769.673       -1509.773          50.000    23842352.755    96003746.136       -1156.860          54.000  
G22  20337740.082   106875890.634        -536.036          47.000                                                                  
E04  26177356.022   137562921.166        1513.118          44.000    26177356.617   105405451.379        1159.370          46.000  
E27  27203847.478   142957532.197       -3425.779          46.000    27203849.066   109539069.693       -2624.929          44.000  
> 2024 04 08 21 09 30.0010000  0 22                     
S33  39927564.342   209820700.594        -802.232          44.000  
G05  22028208.033   115759007.534       -2417.718          48.000    22028208.989    90201868.413       -1884.062          43.000  
G24  24870739.875   130696605.3721       1332.068          34.000    24870747.820   101841561.113        1038.741          32.000  
G20  23454953.999   123256445.599       -3913.117          41.000                                                                  
G15  22753518.200   119570494.829        1930.961          46.000    22753516.091    93171869.411        1504.469          44.000  
R06  22948031.224                        3153.494          27.000                                                                  
R04  21111885.106   113053329.769       -4151.361          51.000    21111884.981    87930360.608       -3228.852          49.000  
R05  19294807.821   103141824.016        -519.101          52.000    19294805.286    80221468.862        -403.764          50.000  
R16  20895501.379   111620428.332        1093.888          52.000    20895503.052    86816060.964         850.773          50.000  
G19  23797800.304   125058395.359        2162.430          44.000                                                                  
G13  20694417.052   108750098.083         607.646          50.000                                                                  
G17  23178502.992   121804174.420        1799.141          46.000    23178504.695    94912531.021        1401.786          42.000  
R14  22994701.559   122575177.554       -4345.182          42.000    22994702.531    95336210.392       -3379.414          48.000  
R15  19825068.895   105939528.142       -2314.579          51.000    19825067.154    82397620.971       -1800.336          49.000  
E19  23560949.785   123813814.617        -706.654          42.000    23560950.688    94870405.096        -541.561          49.000  
S31  38975328.230   204816684.020        -802.608          44.000  
G14  21007940.732   110397800.690       -2653.607          47.000    21007938.685    86024458.756       -2067.755          50.000  
G30  22670287.226   119133478.357       -2961.935          45.000    22670286.316    92831655.430       -2307.871          44.000  
E21  23851001.737   125338235.084       -1521.068          49.000    23851004.433    96038583.317       -1165.435          54.000  
G22  20340855.892   106892263.515        -555.273          47.000                                                                  
E04  26168722.420   137517553.536        1511.522          44.000    26168723.174   105370689.254        1158.132          46.000  
E27  27223412.533   143060351.457       -3428.575          46.000    27223415.367   109617853.340       -2627.189          44.000  
> 2024 04 08 21 10 00.0010000  0 22                     
S33  39932145.704   209844776.683        -802.176          43.000  
G05  22042057.648   115831783.561       -2433.619          47.000    22042057.874    90258576.861       -1896.189          43.000  
G24  24863138.757   130656656.219        1331.602          37.000    24863145.078   101810432.235        1037.765          34.000  
G20  23477304.336   123373896.890       -3916.730          39.000                                                                  
G15  22742511.376   119512656.054        1925.358          46.000    22742509.751    93126800.298        1500.194          44.000  
R06  22930326.749                        3147.026          28.000                                                                  
R04  21135189.439   113178121.755       -4167.548          51.000    21135188.973    88027420.790       -3241.425          49.000  
R05  19297791.394   103157774.183        -543.887          51.000    19297789.014    80233874.547        -422.994          50.000  
R16  20889402.128   111587849.673        1078.453          52.000    20889404.224    86790722.256         838.780          50.000  
G19  23785461.261   124993556.701        2160.473          44.000                                                                  
G13  20690977.562   108732022.799         597.771          50.000                                                                  
G17  23168257.313   121750335.290        1790.564          46.000    23168258.666    94870578.783        1395.351          42.000  
R14  23019153.157   122705527.850       -4344.450          44.000    23019156.288    95437593.883       -3379.095          48.000  
R15  19838102.952   106009177.222       -2328.123          51.000    19838100.659    82451792.515       -1810.845          49.000  
E19  23565012.874   123835162.777        -715.904          42.000    23565012.975    94886762.783        -548.367          48.000  
S31  38979911.375   204840769.488        -802.799          45.000  
G14  21023132.412   110477634.230       -2668.353          47.000    21023130.633    86086666.748       -2079.041          50.000  
G30  22687205.119   119222383.794       -2964.617          44.000    22687205.684    92900932.388       -2310.104          45.000  
E21  23859718.007   125384042.757       -1532.247          48.000    23859721.440    96073682.759       -1174.096          54.000  
G22  20344081.457   106909216.138        -574.523          47.000                                                                  
E04  26160099.636   137472243.485        1509.598          44.000    26160101.400   105335971.230        1156.766          47.000  
E27  27242995.720   143163261.194       -3431.552          45.000    27242998.709   109696706.242       -2629.393          46.000  
> 2024 04 08 21 10 30.0010000  0 22                     
S33  39936727.665   209868854.335        -802.552          43.000  
G05  22055997.198   115905036.506       -2449.614          48.000    22055997.585    90315656.963       -1908.849          43.000  
G24  24855541.365   130616727.552        1330.686          41.000    24855546.181   101779319.325        1036.853          36.000  
G20  23499674.151   123491448.489       -3919.940          40.000                                                                  
G15  22731537.932   119454989.929        1919.314          46.000    22731536.164    93081865.746        1495.482          44.000  
R06  22912651.280                1       3140.473          27.000                                                                  
R04  21158584.369   113303397.625       -4183.881          52.000    21158584.366    88124857.308       -3254.047          49.000  
R05  19300914.674   103174471.442        -568.979          52.000    19300912.905    80246861.312        -442.538          50.000  
R16  20883391.264   111555740.351        1062.525          52.000    20883392.999    86765748.564         826.379          50.000  
G19  23773134.225   124928783.284        2158.218          44.000                                                                  
G13  20687595.008   108714248.097         587.500          50.000                                                                  
G17  23158061.729   121696756.127        1781.640          45.000    23158064.029    94828829.159        1388.163          44.000  
R14  23043603.542   122835859.758       -4343.985          42.000    23043606.402    95538963.176       -3378.655          48.000  
R15  19851212.514   106079234.214       -2341.988          51.000    19851210.467    82506281.323       -1821.573          49.000  
E19  23569127.852   123856787.908        -725.305          42.000    23569127.987    94903332.725        -555.907          48.000  
S31  38984495.053   204864857.062        -803.037          45.000  
G14  21038407.610   110557906.198       -2682.971          46.000    21038405.699    86149216.372       -2090.631          50.000  
G30  22704138.154   119311369.289       -2967.538          44.000    22704138.527    92970271.752       -2312.233          44.000  
E21  23868499.632   125430191.358       -1544.009          49.000    23868502.951    96109043.444       -1183.062          53.000  
G22  20347418.423   106926748.017        -594.064          47.000                                                                  
E04  26151488.736   137426991.951        1507.508          44.000    26151489.661   105301298.075        1155.102          46.000  
E27  27262595.549   143266259.612       -3434.732          45.000    27262598.477   109775627.115       -2631.767          46.000  
> 2024 04 08 21 11 00.0010000  0 22                     
S33  39941311.306   209892942.835        -803.326          44.000  
G05  22070028.366   115978771.819       -2466.012          48.000    22070028.785    90373112.906       -1921.643          43.000  
G24  24847948.551   130576826.320        1329.539          40.000    24847952.793   101748227.747        1036.068          36.000  
G20  23522063.278   123609104.850       -3924.113          40.000                                                                  
G15  22720599.434   119397506.172        1912.862          46.000    22720597.361    93037073.287        1490.407          44.000  
R06  22895007.820                3       3132.384          26.000                                                                  
R04  21182070.382   113429162.163       -4200.507          52.000    21182070.145    88222673.910       -3266.968          49.000  
R05  19304179.969   103191925.306        -594.693          52.000    19304178.251    80260436.523        -462.515          51.000  
R16  20877468.904   111524107.514        1046.311          51.000    20877470.311    86741145.481         813.755          50.000  
G19  23760821.994   124864086.161        2155.077          44.000                                                                  
G13  20684271.668   108696783.398         576.691          50.000                                                                  
G17  23147917.821   121643447.561        1772.092          46.000    23147918.453    94787290.347        1380.768          42.000  
R14  23068050.244   122966178.870       -4343.779          42.000    23068053.104    95640322.408       -3378.588          47.000  
R15  19864400.404   106149703.826       -2356.015          52.000    19864398.976    82561091.065       -1832.458          49.000  
E19  23573297.011   123878698.071        -735.327          42.000    23573297.124    94920121.033        -563.425          48.000  
S31  38989080.351   204888954.215        -803.643          44.000  
G14  21053767.824   110638621.658       -2698.151          47.000    21053765.331    86212111.582       -2102.435          50.000  
G30  22721088.785   119400441.773       -2970.738          45.000    22721088.537    93039678.896       -2315.095          44.000  
E21  23877349.374   125476687.116       -1555.751          50.000    23877350.367    96144670.110       -1192.071          53.000  
G22  20350865.271   106944866.149        -613.949          46.000                                                                  
E04  26142890.528   137381807.634        1504.879          44.000    26142891.212   105266676.401        1153.063          47.000  
E27  27282214.332   143369352.526       -3438.182          46.000    27282216.089   109854620.398       -2634.397          46.000  
> 2024 04 08 21 11 30.0010000  0 22                     
S33  39945896.880   209917040.303        -803.113          44.000  
G05  22084151.293   116052986.089       -2481.623          48.000    22084151.699    90430942.066       -1933.722          43.000  
G24  24840360.169   130536951.424        1328.854          40.000    24840364.628   101717156.716        1035.687          37.000  
G20  23544471.906   123726862.011       -3926.662          41.000                                                                  
G15  22709694.843   119340205.887        1907.184          46.000    22709693.124    92992423.794        1485.865          43.000  
R06  22877425.413                        3126.895          26.000                                                                  
R04  21205646.510   113555411.841       -4216.138          52.000    21205645.932    88320867.810       -3279.193          49.000  
R05  19307587.270   103210135.949        -619.449          52.000    19307584.471    80274600.376        -481.735          50.000  
R16  20871636.913   111492950.686        1030.857          52.000    20871637.586    86716912.644         801.762          49.000  
G19  23748524.855   124799467.088        2152.811          44.000                                                                  
G13  20681007.244   108679630.252         566.837          50.000                                                                  
G17  23137824.110   121590412.048        1763.691          44.000    23137825.341    94745964.301        1374.285          42.000  
R14  23092497.247   123096482.210       -4342.765          45.000    23092497.831    95741669.513       -3377.799          47.000  
R15  19877665.037   106220582.306       -2369.210          51.000    19877662.835    82616218.829       -1842.719          50.000  
E19  23577520.571   123900893.759        -744.478          42.000    23577520.931    94937128.138        -570.304          48.000  
S31  38993667.679   204913060.451        -803.535          45.000  
G14  21069211.047   110719777.487       -2712.213          47.000    21069209.008    86275349.935       -2113.501          50.000  
G30  22738055.349   119489600.108       -2973.098          45.000    22738055.085    93109152.934       -2316.815          44.000  
E21  23886261.937   125523528.227       -1566.832          49.000    23886264.034    96180561.392       -1200.611          53.000  
G22  20354424.022   106963569.713        -632.895          46.000                                                                  
E04  26134304.250   137336691.022        1503.102          44.000    26134305.850   105232106.619        1151.614          47.000  
E27  27301848.658   143472537.721       -3440.864          45.000    27301851.945   109933684.399       -2636.471          46.000  
> 2024 04 08 21 12 00.0010000  0 22                     
S33  39950482.253   209941137.817        -803.277          43.000  
G05  22098363.344   116127668.727       -2497.269          48.000    22098364.187    90489136.182       -1945.998          44.000  
G24  24832774.980   130497094.218        1328.391          41.000    24832778.660   101686099.484        1035.033          36.000  
G20  23566897.532   123844708.691       -3929.847          41.000                                                                  
G15  22698824.431   119283082.940        1900.943          45.000    22698822.857    92947912.494        1481.357          43.000  
R06  22859865.745                3       3118.856          26.000                                                                  
R04  21229311.467   113682135.286       -4231.995          52.000    21229311.797    88419430.235       -3291.583          49.000  
R05  19311133.240   103229096.130        -644.506          51.000    19311131.725    80289347.211        -501.405          50.000  
R16  20865891.768   111462261.207        1015.159          52.000    20865892.293    86693043.282         789.561          50.000  
G19  23736242.105   124734920.820        2150.335          45.000                                                                  
G13  20677800.615   108662781.922         556.609          50.000                                                                  
G17  23127780.996   121537644.273        1754.521          44.000    23127783.758    94704846.935        1367.147          42.000  
R14  23116935.747   123226759.060       -4342.142          45.000    23116937.353    95842995.927       -3377.235          47.000  
R15  19891003.379   106291858.281       -2382.527          51.000    19891000.948    82671655.718       -1853.110          49.000  
E19  23581796.808   123923367.281        -753.858          42.000    23581797.461    94954348.125        -577.473          48.000  
S31  38998255.111   204937166.544        -803.445          45.000  
G14  21084735.614   110801362.926       -2726.709          45.000    21084734.271    86338923.018       -2124.677          50.000  
G30  22755036.589   119578835.446       -2975.873          46.000    22755035.665    93178686.940       -2318.989          44.000  
E21  23895238.786   125570705.007       -1578.100          49.000    23895241.256    96216709.878       -1209.154          53.000  
G22  20358092.805   106982849.421        -652.321          46.000                                                                  
E04  26125730.713   137291634.901        1500.843          45.000    26125732.182   105197583.166        1149.937          47.000  
E27  27321500.966   143575805.166       -3443.706          45.000    27321503.298   110012811.400       -2638.718          47.000  
> 2024 04 08 21 12 30.0010000  0 23                     
S33  39955067.604   209965234.146        -802.964          44.000  
G05  22112662.754   116202814.482       -2512.485          48.000    22112663.561    90547691.170       -1957.592          43.000  
G24  24825192.964   130457251.741        1328.322          42.000    24825196.884   101655053.780        1034.840          38.000  
G20  23589340.719   123962639.403       -3932.227          42.000                                                                  
G15  22687988.280   119226136.881        1895.380          45.000    22687985.872    92903539.021        1476.977          43.000  
R06  22842341.897                3       3113.031          26.000                                                                  
R04  21253063.316   113809327.132       -4247.235          51.000    21253063.643    88518356.947       -3303.272          48.000  
R05  19314819.828   103248804.807        -669.210          50.000    19314818.274    80304676.158        -520.509          50.000  
R16  20860233.603   111432036.088        1000.043          52.000    20860235.018    86669535.052         777.782          51.000  
G19  23723972.070   124670448.003        2148.064          44.000                                                                  
G13  20674652.205   108646237.679         546.592          49.000                                                                  
G17  23117790.660   121485145.167        1745.633          43.000    23117793.554    94663938.874        1360.280          42.000  
R14  23141370.265   123357004.648       -4340.728          47.000    23141372.008    95944298.068       -3376.092          48.000  
R15  19904414.958   106363526.289       -2395.188          52.000    19904412.541    82727397.567       -1862.863          49.000  
E19  23586126.046   123946117.039        -762.679          42.000    23586126.729    94971779.766        -584.365          48.000  
S31  39002841.968   204961271.426        -803.022          45.000  
G14  21100341.805   110883373.029       -2740.424          45.000    21100339.791    86402827.005       -2135.297          50.000  
G30  22772031.415   119668144.654       -2978.066          44.000    22772031.533    93248278.524       -2320.453          44.000  
E21  23904278.457   125618213.717       -1588.885          48.000    23904282.130    96253112.703       -1217.462          53.000  
G22  20361870.457   107002702.332        -671.104          47.000                                                                  
E04  26117167.269   137246637.959        1499.130          44.000    26117169.525   105163105.071        1148.634          47.000  
E27  27341167.395   143679150.730       -3445.906          45.000    27341169.174   110091998.244       -2640.389          47.000  
R24                                                                  24907088.587                3        986.172          15.000  
> 2024 04 08 21 13 00.0010000  0 22                     
S33  39959651.814   209989323.136        -802.789          44.000  
G05  22127049.776   116278415.872       -2527.467          47.000    22127050.088    90606601.228       -1969.481          43.000  
G24  24817611.919   130417418.678        1327.512          41.000    24817616.521   101624015.339        1034.745          37.000  
G20  23611798.609   124080645.995       -3934.714          43.000                                                                  
G15  22677184.697   119169365.068        1889.680          45.000    22677182.567    92859301.330        1472.376          42.000  
R06  22824860.169                        3106.123          27.000                                                                  
R04  21276901.203   113936979.197       -4262.537          51.000    21276902.126    88617641.625       -3315.338          48.000  
R05  19318646.270   103269258.164        -694.037          51.000    19318644.492    80320584.316        -539.847          49.000  
R16  20854660.234   111402270.160         984.711          52.000    20854662.232    86646383.984         765.770          50.000  
G19  23711715.567   124606047.473        2145.654          44.000                                                                  
G13  20671561.399   108629994.711         536.542          49.000                                                                  
G17  23107851.133   121432913.228        1736.508          45.000    23107853.983    94623238.973        1353.408          43.000  
R14  23165797.890   123487211.701       -4339.309          49.000    23165798.121    96045570.190       -3375.049          46.000  
R15  19917899.055   106435578.104       -2407.890          52.000    19917895.722    82783437.936       -1872.892          49.000  
E19  23590507.447   123969138.894        -771.650          42.000    23590507.691    94989419.909        -591.345          48.000  
S31  39007426.939   204985368.310        -802.810          44.000  
G14  21116027.556   110965800.288       -2754.382          47.000    21116025.218    86467056.064       -2146.283          50.000  
G30  22789038.729   119757522.306       -2980.385          44.000    22789039.143    93317923.467       -2322.199          44.000  
E21  23913381.565   125666048.091       -1599.774          48.000    23913384.742    96289765.057       -1225.833          53.000  
G22  20365757.057   107023123.115        -690.029          47.000                                                                  
E04  26108614.592   137201696.301        1497.324          44.000    26108617.300   105128669.329        1147.217          47.000  
E27  27360845.505   143782567.748       -3448.050          42.000    27360848.604   110171239.850       -2642.139          47.000  
> 2024 04 08 21 13 30.0010000  0 22                     
S33  39964234.992   210013409.769        -802.977          44.000  
G05  22141522.733   116354476.129       -2543.068          45.000    22141524.378    90665868.802       -1981.591          43.000  
G24  24810034.251   130377599.580        1327.119          40.000    24810039.717   101592987.760        1033.644          38.000  
G20  23634269.667   124198730.403       -3937.506          42.000                                                                  
G15  22666415.783   119112774.410        1883.171          46.000    22666413.806    92815204.813        1467.381          43.000  
R06  22807407.936                        3098.392          29.000                                                                  
R04  21300825.686   114065093.850       -4278.304          52.000    21300826.963    88717286.073       -3327.636          49.000  
R05  19322613.130   103290462.439        -719.541          51.000    19322611.254    80337076.517        -559.607          50.000  
R16  20849176.173   111372968.407         968.859          53.000    20849176.691    86623593.924         753.613          50.000  
G19  23699475.156   124541726.834        2142.578          43.000                                                                  
G13  20668528.925   108614059.797         525.940          50.000                                                                  
G17  23097965.126   121380955.800        1727.066          47.000    23097966.168    94582752.968        1345.784          43.000  
R14  23190218.149   123617383.148       -4338.671          49.000    23190216.956    96146814.636       -3374.357          45.000  
R15  19931454.162   106508015.699       -2421.166          51.000    19931451.824    82839778.330       -1883.160          49.000  
E19  23594940.571   123992438.505        -781.455          42.000    23594941.531    95007272.867        -598.809          49.000  
S31  39012011.788   205009462.853        -803.444          45.000  
G14  21131792.978   111048647.261       -2768.750          48.000    21131790.627    86531612.184       -2157.379          51.000  
G30  22806060.664   119846972.928       -2983.009          43.000    22806061.306    93387625.271       -2324.688          44.000  
E21  23922547.436   125714211.876       -1611.133          49.000    23922549.925    96326669.812       -1234.484          53.000  
G22  20369752.060   107044116.029        -709.220          47.000                                                                  
E04  26100073.848   137156816.170        1494.754          44.000    26100077.009   105094280.730        1145.362          47.000  
E27  27380540.116   143886059.729       -3451.216          40.000    27380542.091   110250538.866       -2644.534          46.000  
> 2024 04 08 21 14 00.0010000  0 23                     
S33  39968820.232   210037504.386        -803.134          44.000  
G05  22156085.451   116431002.873       -2558.614          46.000    22156087.528    90725499.878       -1993.811          44.000  
G24  24802461.281   130337804.620        1326.194          39.000    24802466.640   101561978.956        1033.363          39.000  
G20  23656757.283   124316900.471       -3940.039          41.000                                                                  
G15  22655684.207   119056377.534        1876.717          45.000    22655682.117    92771259.289        1462.388          43.000  
R06  22790019.234                        3089.758          31.000                                                                  
R04  21324838.765   114193678.683       -4293.864          52.000    21324839.890    88817296.217       -3339.622          49.000  
R05  19326722.878   103312429.480        -744.796          51.000    19326720.155    80354162.007        -579.302          49.000  
R16  20843779.416   111344141.332         953.180          52.000    20843779.577    86601173.081         741.314          50.000  
G19  23687252.238   124477499.375        2139.435          44.000                                                                  
G13  20665557.607   108598445.260         515.210          49.000                                                                  
G17  23088133.032   121329286.754        1717.661          47.000    23088133.261    94542491.653        1338.284          42.000  
R14  23214631.744   123747527.943       -4337.574          50.000    23214632.079    96248038.329       -3373.752          45.000  
R15  19945082.820   106580846.881       -2434.129          51.000    19945081.793    82896424.830       -1893.175          50.000  
E19  23599429.002   124016027.257        -791.052          41.000    23599430.433    95025347.373        -606.031          49.000  
S31  39016598.418   205033565.756        -803.636          45.000  
G14  21147639.378   111131921.961       -2782.800          48.000    21147637.282    86596501.624       -2168.445          50.000  
G30  22823097.534   119936506.519       -2985.612          43.000    22823097.838    93457391.715       -2326.612          42.000  
E21  23931777.361   125762714.255       -1622.268          49.000    23931779.648    96363834.022       -1243.021          53.000  
G22  20373857.459   107065691.211        -728.735          47.000                                                                  
E04  26091547.457   137112009.215        1492.407          45.000    26091550.209   105059948.197        1143.581          47.000  
E27  27400251.409   143989635.384       -3453.864          41.000    27400251.920   110329902.039       -2646.409          46.000  
R24                                                                  25485580.807                3        924.584          14.000  
> 2024 04 08 21 14 30.0010000  0 22                     
S33  39973406.614   210061606.292        -803.813          44.000  
G05  22170736.584   116507992.823       -2574.306          46.000    22170738.453    90785491.868       -2005.790          45.000  
G24  24794893.023   130298032.180        1325.000          39.000    24794898.800   101530987.727        1032.703          40.000  
G20  23679259.239   124435151.362       -3943.316          41.000                                                                  
G15  22644988.969   119000175.379        1869.847          46.000    22644987.158    92727465.488        1457.152          43.000  
R06  22772666.597                        3082.422          32.000                                                                  
R04  21348939.057   114322729.572       -4309.700          52.000    21348939.313    88917668.845       -3351.989          48.000  
R05  19330975.099   103335159.317        -770.650          51.000    19330972.520    80371840.775        -599.454          50.000  
R16  20838471.923   111315787.002         937.016          53.000    20838471.714    86579119.951         728.671          51.000  
G19  23675047.348   124413367.118        2135.848          44.000                                                                  
G13  20662646.928   108583151.916         504.150          49.000                                                                  
G17  23078354.817   121277908.115        1707.524          46.000    23078356.056    94502456.601        1330.630          42.000  
R14  23239041.436   123877642.406       -4336.967          50.000    23239040.417    96349238.479       -3373.110          43.000  
R15  19958785.608   106654067.608       -2447.424          51.000    19958782.974    82953374.340       -1903.536          49.000  
E19  23603972.903   124039904.882        -800.902          41.000    23603974.175    95043643.234        -613.639          49.000  
S31  39021186.329   205057674.900        -803.977          45.000  
G14  21163566.981   111215620.741       -2797.247          48.000    21163564.277    86661721.503       -2179.718          50.000  
G30  22840152.122   120026121.400       -2988.754          42.000    22840151.044    93527221.486       -2329.009          42.000  
E21  23941071.099   125811552.792       -1633.729          49.000    23941073.108    96401255.800       -1251.825          53.000  
G22  20378072.958   107087846.823        -748.458          47.000                                                                  
E04  26083035.700   137067275.467        1489.779          45.000    26083037.644   105025671.766        1141.402          47.000  
E27  27419974.988   144093291.940       -3456.710          39.000    27419977.464   110409327.227       -2648.635          47.000  
