     3.00           OBSERVATION DATA    M: Mixed            RINEX VERSION / TYPE
CONVBIN 2.4.3                           20240408 155942 UTC PGM / RUN BY / DATE 
format: u-blox UBX                                          COMMENT             
log: data/2024-04-08/20240408154500.ubx                     COMMENT             
AQUI00CHL                                                   MARKER NAME         
                                                            MARKER NUMBER       
                                                            MARKER TYPE         
                                                            OBSERVER / AGENCY   
UNKNOWN             UBLOX-ZED-F9P                           REC # / TYPE / VERS 
UNKNOWN             TWIVSP6037L                             ANT # / TYPE        
  1713381.0000 -5047934.0000 -3490983.0000                  APPROX POSITION XYZ 
        0.0000        0.0000        0.0000                  ANTENNA: DELTA H/E/N
G    8 C1C L1C D1C S1C C2L L2L D2L S2L                      SYS / # / OBS TYPES 
R    8 C1C L1C D1C S1C C2C L2C D2C S2C                      SYS / # / OBS TYPES 
E    8 C1C L1C D1C S1C C7Q L7Q D7Q S7Q                      SYS / # / OBS TYPES 
S    4 C1C L1C D1C S1C                                      SYS / # / OBS TYPES 
  2024    04    08    15    45   00.0110000     GPS         TIME OF FIRST OBS   
  2024    04    08    15    59   30.4910000     GPS         TIME OF LAST OBS    
                                                            END OF HEADER       
> 2024 04 08 15 45 00.0110000  0 24                     
S33  43185393.700   226940773.2631       -884.917          43.000  
G19  27603228.712   145055870.5981      -2737.893          46.000                                                                  
E07  27313559.527   143533707.7671      -1928.300          49.000    27313564.970   109980392.5981      -1477.412          52.000  
R13  25856142.798   138070504.4841       2862.865          38.000    25856152.770   107388216.2851       2226.598          40.000  
R17  24088513.091   128902466.7241      -3755.780          51.000    24088514.602   100257345.7931      -2921.051          49.000  
R02  23974165.828   127930726.0661      -1929.773          52.000    23974167.517    99501712.1741      -1500.860          49.000  
R03  24572161.981   131536766.0301        435.069          50.000    24572161.840   102306428.7411        338.411          48.000  
R18  24176743.519   129057088.1841        -32.965          51.000    24176745.752   100377573.7391        -25.671          48.000  
E33  28679478.921   150711698.2061        890.379          43.000    28679484.197   115480454.4411        682.398          49.000  
G09  24155027.210   126935550.0501       -454.962          49.000    24155028.046    98910890.2751       -354.572          46.000  
G03  24988472.676   131315274.0501      -2261.539          50.000    24988476.065   102323552.5521      -1762.289          46.000  
E26  26883796.680   141275296.3581      -1713.850          47.000    26883799.729   108249911.3961      -1313.266          51.000  
G06  25028335.602   131524841.6651       1021.796          47.000    25028337.714   102486908.2731        796.371          45.000  
R11  26793222.411   143174841.1151      -3094.319          42.000    26793227.883   111358180.3651      -2406.609          43.000  
R12  24810539.194   132533564.9401        643.409          52.000    24810541.094   103081793.3881        500.529          47.000  
R01  26661191.297   142519270.4291      -3242.991          38.000    26661201.603   110848247.9001      -2522.323          40.000  
R19  26976451.498                3       2566.445          26.000    26976446.671                1       1995.190          26.000  
S31  42232420.125   221932851.8391       -884.668          43.000  
E13  29504874.001   155049049.4891      -3841.000          44.000    29504887.630   118803817.4411      -2943.067          49.000  
G07  25924926.029   136236537.0871       2853.365          46.000    25924929.533   106158442.5391       2223.087          41.000  
G04  24495446.925   128724427.4691      -2685.321          46.000    24495447.526   100304727.5121      -2092.305          47.000  
E30  31159052.388   163741980.0241       1063.679          41.000    31159068.076   125464708.5691        814.787          46.000  
G16  28875150.669   151739954.6001        587.648          35.000                                                                  
E08  30817585.128   161947413.4311      -3071.185          36.000    30817596.753   124089573.3351      -2353.243          45.000  
> 2024 04 08 15 45 30.0110000  0 24                     
S33  43190440.035   226967291.937        -883.016          43.000  
G19  27618874.502   145138087.549       -2743.420          46.000                                                                  
E07  27324572.712   143591583.213       -1930.106          48.000    27324578.330   110024738.698       -1478.905          51.000  
R13  25840072.082   137984689.185        2858.417          38.000    25840081.750   107321471.521        2222.947          39.000  
R17  24109618.047   129015400.831       -3773.035          51.000    24109619.281   100345183.301       -2934.595          49.000  
R02  23985020.089   127988646.430       -1931.628          53.000    23985021.725    99546761.319       -1502.374          49.000  
R03  24569731.750   131523758.202         432.172          51.000    24569730.599   102296311.572         336.104          48.000  
R18  24176999.535   129058454.553         -58.142          52.000    24177001.489   100378636.429         -45.135          48.000  
E33  28674421.162   150685118.053         881.247          43.000    28674426.096   115460087.900         675.266          49.000  
G09  24157645.806   126949309.861        -462.286          49.000    24157646.598    98921612.213        -360.413          45.000  
G03  25001404.568   131383230.788       -2268.863          50.000    25001406.956   102376505.786       -1767.923          45.000  
E26  26893615.656   141326895.958       -1726.041          47.000    26893619.066   108289448.689       -1322.589          51.000  
G06  25022545.531   131494417.727        1006.473          46.000    25022548.363   102463201.333         784.283          46.000  
R11  26810647.799   143267954.933       -3113.326          42.000    26810653.462   111430602.018       -2421.302          42.000  
R12  24806982.291   132514570.611         622.909          51.000    24806985.387   103067020.140         484.437          47.000  
R01  26679384.716   142616526.376       -3240.384          35.000    26679395.376   110923891.228       -2520.559          39.000  
S31  42237465.777   221959366.382        -882.650          43.000  
E13  29526810.644   155164326.889       -3844.163          44.000    29526824.522   118892146.434       -2945.543          49.000  
G07  25908654.051   136151028.204        2847.344          46.000    25908657.637   106091812.484        2218.628          41.000  
G04  24510789.132   128805050.528       -2689.601          47.000    24510789.842   100367550.609       -2095.660          48.000  
E30  31152988.336   163710112.819        1061.009          42.000    31153004.290   125440291.053         812.760          47.000  
G16  28871812.604   151722401.575         582.485          38.000                                                                  
E08  30835107.160   162039497.871       -3067.425          37.000    30835119.756   124160131.315       -2350.589          45.000  
R19                                                                  26962105.852                3       1987.155          23.000  
> 2024 04 08 15 46 00.0120000  0 24                     
S33  43195472.319   226993734.980        -880.196          43.000  
G19  27634549.376   145220458.489       -2748.067          46.000                                                                  
E07  27335592.762   143649495.300       -1930.924          48.000    27335598.282   110069112.880       -1479.508          51.000  
R13  25824023.808   137898990.587        2854.564          39.000    25824032.905   107254817.491        2219.987          41.000  
R17  24130817.157   129128837.764       -3789.369          52.000    24130817.244   100433411.873       -2947.310          49.000  
R02  23995882.121   128046608.992       -1932.795          53.000    23995883.378    99591843.272       -1503.254          48.000  
R03  24567315.249   131510819.283         430.090          52.000    24567314.203   102286248.041         334.521          49.000  
R18  24177393.986   129060559.512         -82.540          52.000    24177395.659   100380273.600         -64.125          48.000  
E33  28669410.706   150658788.128         873.321          44.000    28669415.312   115439913.055         669.241          49.000  
G09  24160303.392   126963275.109        -468.953          49.000    24160303.834    98932494.249        -365.462          45.000  
G03  25014375.191   131451394.316       -2275.372          49.000    25014379.041   102429620.146       -1773.142          46.000  
E26  26903500.636   141378839.926       -1737.201          47.000    26903503.745   108329249.859       -1331.092          51.000  
G06  25016840.237   131464437.561         991.829          46.000    25016843.215   102439840.224         772.703          45.000  
R11  26828176.111   143361620.497       -3130.949          39.000    26828182.237   111503452.883       -2435.265          41.000  
R12  24803539.052   132496174.718         603.142          51.000    24803541.540   103052712.330         469.073          47.000  
R01  26697564.219   142713699.628       -3237.667          41.000    26697573.108   110999470.121       -2518.258          38.000  
R19  26947813.667                3       2550.379          23.000    26947847.457                1       1976.088          31.000  
S31  42242496.819   221985805.909        -879.906          44.000  
E13  29548764.092   155279687.233       -3846.409          45.000    29548777.288   118980538.977       -2947.366          49.000  
G07  25892412.772   136065681.073        2842.037          46.000    25892417.120   106025308.474        2214.464          42.000  
G04  24526152.160   128885784.618       -2692.859          47.000    24526153.142   100430460.236       -2098.248          48.000  
E30  31146936.360   163678309.701        1058.842          41.000    31146952.089   125415922.623         811.321          47.000  
G16  28868501.248   151704997.220         577.800          40.000                                                                  
E08  30852607.552   162131458.769       -3063.189          36.000    30852619.543   124230594.610       -2347.084          44.000  
> 2024 04 08 15 46 30.0120000  0 24                     
S33  43200488.046   227020093.801        -876.785          43.000  
G19  27650250.849   145302967.909       -2752.513          47.000                                                                  
E07  27346618.145   143707431.939       -1931.396          49.000    27346623.224   110113505.864       -1479.900          51.000  
R13  25807997.306   137813411.666        2850.858          39.000    25808006.578   107188256.508        2217.379          41.000  
R17  24152107.111   129242758.553       -3805.287          53.000    24152105.920   100522016.773       -2959.589          48.000  
R02  24006750.112   128104602.194       -1933.552          53.000    24006751.672    99636949.027       -1503.766          50.000  
R03  24564910.935   131497941.760         428.436          52.000    24564908.696   102276232.255         333.252          49.000  
R18  24177925.416   129063396.720        -106.648          52.000    24177928.123   100382480.319         -83.028          49.000  
E33  28664446.895   150632704.437         865.614          44.000    28664451.465   115419926.907         663.282          49.000  
G09  24162997.765   126977436.697        -475.202          49.000    24162998.170    98943529.254        -370.240          44.000  
G03  25027383.958   131519753.274       -2281.804          49.000    25027386.990   102482886.759       -1777.938          45.000  
E26  26913448.717   141431117.112       -1748.007          47.000    26913451.669   108369306.354       -1339.361          51.000  
G06  25011218.993   131434898.101         977.380          46.000    25011222.384   102416822.494         761.573          46.000  
R11  26845804.831   143455821.980       -3148.619          41.000    26845810.967   111576720.549       -2449.318          39.000  
R12  24800206.755   132478373.781         583.496          51.000    24800210.243   103038867.240         453.981          48.000  
R01  26715724.363   142810776.377       -3234.414          39.000    26715734.157   111074974.007       -2515.444          39.000  
R19  26933603.922                3       2527.828          25.000    26933672.184                3       1994.283          11.000  
S31  42247511.644   222012160.081        -876.780          43.000  
E13  29570729.287   155395113.858       -3848.506          45.000    29570742.724   119068982.283       -2948.861          49.000  
G07  25876202.639   135980497.079        2836.815          46.000    25876207.153   105958931.601        2210.725          42.000  
G04  24541534.356   128966615.497       -2695.862          47.000    24541535.226   100493445.263       -2100.647          49.000  
E30  31140895.095   163646567.475        1057.427          39.000    31140911.005   125391600.873         810.063          46.000  
G16  28865216.366   151687737.664         573.038          40.000                                                                  
E08  30870081.907   162223282.202       -3058.031          37.000    30870092.982   124300952.635       -2343.496          44.000  
> 2024 04 08 15 47 00.0120000  0 24                     
S33  43205489.106   227046375.894        -874.969          43.000  
G19  27665979.184   145385623.495       -2757.561          46.000                                                                  
E07  27357649.333   143765401.868       -1932.822          48.000    27357654.342   110157924.343       -1481.017          51.000  
R13  25791994.117   137727962.085        2846.295          37.000    25792003.897   107121796.151        2213.834          41.000  
R17  24173487.271   129357170.419       -3821.820          52.000    24173487.014   100611003.604       -2972.516          49.000  
R02  24017625.304   128162634.929       -1935.046          52.000    24017627.150    99682085.568       -1505.016          49.000  
R03  24562516.493   131485132.696         425.983          50.000    24562515.683   102266269.692         331.274          48.000  
R18  24178595.230   129066974.983        -131.628          52.000    24178598.305   100385263.366        -102.418          48.000  
E33  28659531.708   150606875.456         856.626          44.000    28659536.273   115400135.910         656.474          49.000  
G09  24165731.573   126991801.901        -482.147          49.000    24165732.008    98954722.973        -375.708          45.000  
G03  25040431.597   131588318.125       -2288.873          49.000    25040434.842   102536313.832       -1783.501          46.000  
E26  26923461.946   141483736.605       -1759.676          48.000    26923465.072   108409625.136       -1348.268          51.000  
G06  25005683.664   131405808.223         962.177          45.000    25005687.293   102394155.091         749.833          46.000  
R11  26863535.837   143550567.394       -3167.145          40.000    26863541.494   111650411.274       -2463.317          37.000  
R12  24796986.251   132461178.246         563.036          48.000    24796990.755   103025493.042         437.871          48.000  
R01  26733868.844   142907768.145       -3231.408          40.000    26733879.825   111150411.829       -2513.534          39.000  
R19  26919463.415                1       2514.789          25.000    26919464.513                2       1955.519          27.000  
S31  42252513.332   222038438.836        -874.852          44.000  
E13  29592708.946   155510616.661       -3851.462          45.000    29592722.735   119157483.968       -2951.006          49.000  
G07  25860025.298   135895484.301        2830.854          48.000    25860029.639   105892688.146        2205.922          42.000  
G04  24556936.137   129047551.960       -2699.573          47.000    24556937.124   100556512.594       -2103.619          49.000  
E30  31134868.027   163614894.883        1054.555          39.000    31134884.112   125367332.453         808.145          46.000  
G16  28861962.341   151670632.694         567.737          39.000                                                                  
E08  30887531.570   162314978.741       -3054.428          37.000    30887542.783   124371213.378       -2340.433          44.000  
> 2024 04 08 15 47 30.0120000  0 24                     
S33  43210476.155   227072583.660        -871.748          43.000  
G19  27681735.746   145468423.721       -2761.872          46.000                                                                  
E07  27368686.904   143823405.212       -1933.403          48.000    27368691.992   110202368.441       -1481.431          51.000  
R13  25776016.939   137642647.426        2841.955          38.000    25776026.697   107055440.761        2210.325          40.000  
R17  24194958.566   129472070.531       -3837.476          52.000    24194959.437   100700370.179       -2984.711          50.000  
R02  24028508.611   128220707.972       -1935.853          53.000    24028510.304    99727253.465       -1505.646          49.000  
R03  24560137.211   131472391.724         424.097          51.000    24560135.724   102256360.082         329.803          49.000  
R18  24179405.115   129071296.346        -155.885          51.000    24179407.605   100388624.447        -121.315          48.000  
E33  28654665.698   150581303.815         848.639          44.000    28654669.938   115380542.092         650.331          48.000  
G09  24168503.798   127006371.011        -488.509          48.000    24168504.490    98966075.550        -380.659          45.000  
G03  25053518.383   131657090.526       -2295.411          49.000    25053521.835   102589902.625       -1788.655          45.000  
E26  26933540.039   141536699.153       -1770.510          47.000    26933543.741   108450206.760       -1356.603          51.000  
G06  25000234.482   131377171.232         947.494          46.000    25000237.949   102371840.579         738.354          47.000  
R11  26881367.637   143645855.091       -3184.593          39.000    26881372.888   111724523.773       -2477.373          36.000  
R12  24793883.001   132444592.091         543.273          50.000    24793884.960   103012592.821         422.489          46.000  
R01  26751997.881   143004676.368       -3228.344          39.000    26752008.064   111225784.693       -2510.982          40.000  
R19  26905381.402                3       2498.647          22.000    26905400.758   111942239.6111       1946.715          33.000  
S31  42257499.773   222064642.260        -871.591          44.000  
E13  29614702.674   155626195.039       -3853.369          45.000    29614717.273   119246043.568       -2952.485          50.000  
G07  25843881.407   135810646.689        2825.446          47.000    25843885.538   105826581.152        2201.684          42.000  
G04  24572358.077   129128593.571       -2702.588          48.000    24572358.835   100619661.875       -2105.951          48.000  
E30  31128854.610   163583294.993        1052.734          39.000    31128870.108   125343119.757         806.436          45.000  
G16  28858737.054   151653685.506         562.972          37.000                                                                  
E08  30904957.461   162406549.058       -3049.559          38.000    30904968.191   124441377.420       -2336.847          44.000  
> 2024 04 08 15 48 00.0120000  0 24                     
S33  43215445.682   227098697.368        -869.361          44.000  
G19  27697516.010   145551346.853       -2766.397          44.000                                                                  
E07  27379726.963   143881422.045       -1934.464          49.000    27379732.036   110246822.858       -1482.125          50.000  
R13  25760063.069   137557453.112        2837.646          38.000    25760072.085   106989178.961        2206.710          40.000  
R17  24216516.170   129587435.239       -3853.530          51.000    24216518.754   100790098.152       -2997.120          49.000  
R02  24039395.679   128278801.482       -1937.196          53.000    24039397.646    99772437.218       -1506.610          49.000  
R03  24557766.173   131459699.897         421.936          51.000    24557765.388   102246488.727         328.253          48.000  
R18  24180349.652   129076342.342        -180.610          50.000    24180353.037   100392549.138        -140.498          49.000  
E33  28649846.141   150555972.106         839.921          45.000    28649849.471   115361132.122         643.583          48.000  
G09  24171310.897   127021124.085        -495.123          48.000    24171311.488    98977571.475        -385.822          44.000  
G03  25066641.280   131726051.928       -2302.192          49.000    25066644.667   102643638.683       -1793.826          45.000  
E26  26943680.346   141589985.305       -1781.964          47.000    26943683.952   108491036.346       -1365.470          51.000  
G06  24994867.972   131348970.233         932.288          45.000    24994871.363   102349865.788         726.545          46.000  
R11  26899297.451   143741663.601       -3202.479          38.000    26899301.204   111799041.323       -2490.856          34.000  
R12  24790888.305   132428598.687         522.836          50.000    24790890.992   103000153.563         406.626          47.000  
R01  26770107.229   143101482.013       -3225.826          40.000    26770117.359   111301077.745       -2508.840          39.000  
R19  26891389.603                        2489.695          28.000    26891406.154                        1936.998          30.000  
S31  42262467.229   222090751.692        -868.896          42.000  
E13  29636707.475   155741828.287       -3855.649          45.000    29636722.080   119334645.197       -2954.334          50.000  
G07  25827767.376   135725968.326        2819.648          46.000    25827771.690   105760598.263        2197.054          43.000  
G04  24587796.119   129209719.756       -2705.950          48.000    24587796.461   100682877.035       -2108.442          48.000  
E30  31122851.239   163551750.838        1050.274          39.000    31122866.972   125318949.763         804.822          44.000  
G16  28855539.037   151636879.475         557.902          37.000                                                                  
E08  30922356.080   162497973.760       -3045.274          39.000    30922365.820   124511429.883       -2333.468          43.000  
> 2024 04 08 15 48 30.0120000  0 24                     
S33  43220400.427   227124735.134        -866.948          43.000  
G19  27713322.826   145634408.290       -2771.118          45.000                                                                  
E07  27390772.723   143939469.603       -1935.343          48.000    27390778.121   110291300.838       -1483.070          50.000  
R13  25744135.776   137472401.927        2832.385          39.000    25744144.198   106923028.418        2203.140          40.000  
R17  24238164.721   129703278.711       -3869.491          52.000    24238167.095   100880198.437       -3009.609          49.000  
R02  24050288.983   128336933.245       -1938.355          52.000    24050290.312    99817650.794       -1507.668          49.000  
R03  24555407.370   131447074.373         419.800          50.000    24555406.266   102236668.918         326.404          48.000  
R18  24181435.319   129082132.284        -205.453          52.000    24181438.116   100397052.389        -159.730          49.000  
E33  28645074.237   150530900.058         831.387          45.000    28645078.243   115341921.104         636.943          48.000  
G09  24174155.812   127036078.351        -501.684          47.000    24174157.477    98989224.152        -391.079          45.000  
G03  25079803.814   131795220.996       -2309.031          49.000    25079807.237   102697536.557       -1799.235          45.000  
E26  26953885.815   141643612.821       -1793.300          48.000    26953888.736   108532127.486       -1374.076          51.000  
G06  24989588.363   131321225.549         917.084          46.000    24989591.709   102328246.604         714.570          46.000  
R11  26917327.301   143838008.172       -3220.496          35.000    26917331.395   111873975.833       -2504.924          35.000  
R12  24788008.882   132413219.483         502.352          49.000    24788011.719   102988192.044         390.595          47.000  
R01  26788201.922   143198204.140       -3222.539          41.000    26788212.565   111376305.842       -2506.625          39.000  
R19  26877466.269                        2477.109          28.000    26877473.338                3       1923.280          18.000  
S31  42267422.121   222116785.444        -866.590          43.000  
E13  29658725.811   155857532.909       -3857.961          44.000    29658739.777   119423301.498       -2956.056          50.000  
G07  25811687.991   135641470.391        2813.499          46.000    25811691.555   105694755.911        2192.415          42.000  
G04  24603253.384   129290947.111       -2709.113          48.000    24603253.732   100746171.031       -2111.180          48.000  
E30  31116865.079   163520282.615        1047.604          41.000    31116878.787   125294837.943         802.704          44.000  
G16  28852371.630   151620235.558         551.891          38.000                                                                  
E08  30939728.777   162589270.657       -3040.834          36.000    30939739.167   124581384.432       -2330.254          43.000  
> 2024 04 08 15 49 00.0120000  0 24                     
S33  43225338.544   227150683.690        -863.279          43.000  
G19  27729152.713   145717592.148       -2774.783          43.000                                                                  
E07  27401822.631   143997533.835       -1935.531          48.000    27401827.583   110335791.563       -1483.129          50.000  
R13  25728233.597   137387485.497        2828.168          39.000    25728241.746   106856982.715        2199.803          40.000  
R17  24259899.370   129819583.603       -3884.432          51.000    24259900.953   100970657.611       -3021.132          48.000  
R02  24061186.940   128395089.938       -1938.806          52.000    24061188.930    99862883.721       -1507.966          48.000  
R03  24553058.333   131434501.735         418.359          50.000    24553058.025   102226890.296         325.317          48.000  
R18  24182657.743   129088653.556        -229.414          53.000    24182659.744   100402124.476        -178.480          49.000  
E33  28640349.852   150506076.122         823.406          45.000    28640354.311   115322900.192         630.842          48.000  
G09  24177037.557   127051219.835        -507.783          47.000    24177038.830    99001022.695        -395.643          45.000  
G03  25093003.481   131864585.063       -2315.294          49.000    25093006.628   102751586.374       -1803.909          45.000  
E26  26964152.233   141697568.115       -1803.961          47.000    26964155.909   108573469.783       -1382.240          51.000  
G06  24984393.088   131293926.168         902.633          47.000    24984396.934   102306974.398         703.398          47.000  
R11  26935453.341   143934873.186       -3237.656          33.000    26935458.186                       -2516.796          30.000  
R12  24785242.134   132398443.833         482.543          49.000    24785245.534   102976699.937         375.327          47.000  
R01  26806278.274   143294829.579       -3219.461          41.000    26806288.482   111451458.709       -2503.651          38.000  
R19  26863611.756                        2463.502          30.000    26863615.183                1       1916.743          29.000  
S31  42272359.425   222142729.901        -863.201          44.000  
E13  29680754.649   155973294.103       -3859.641          44.000    29680768.818   119512001.131       -2957.309          49.000  
G07  25795640.300   135557142.717        2808.268          46.000    25795644.489   105629046.291        2187.824          42.000  
G04  24618726.462   129372260.957       -2711.766          48.000    24618727.459   100809532.444       -2113.074          48.000  
E30  31110888.772   163488879.189        1045.644          41.000    31110902.501   125270775.736         801.366          44.000  
G16  28849231.424   151603742.685         547.173          37.000                                                                  
E08  30957071.365   162680426.232       -3036.052          31.000    30957086.591   124651230.684       -2326.281          44.000  
> 2024 04 08 15 49 30.4910000  0 24                     
S33  36934700.794   194093160.791        -860.415          43.000  
G19  21449628.379   112718472.023       -2779.129          40.000                                                                  
E07  21117419.080   110972769.164       -1936.447          48.000    21117424.031    85031101.721       -1483.763          50.000  
R13  19416452.512   103682928.469        2822.939          39.000    19416461.054    80642327.630        2195.714          41.000  
R17  17986443.629    96249052.556       -3900.069          52.000    17986444.766    74860244.419       -3033.289          47.000  
R02  17776631.522    94859497.951       -1939.886          52.000    17776633.208    73779645.466       -1508.894          48.000  
R03  18255040.157    97720717.757         416.327          51.000    18255039.167    76005058.332         323.761          47.000  
R18  17888399.889    95489478.774        -254.567          52.000    17888401.605    74269432.974        -198.061          48.000  
E33  22339955.442   117397281.557         814.517          45.000    22339960.366    89953823.866         624.069          48.000  
G09  17884363.655    93982991.817        -514.222          48.000    17884365.076    73233572.305        -400.813          46.000  
G03  18810821.845    98851492.809       -2322.219          50.000    18810824.496    77027098.788       -1809.653          45.000  
E26  20679014.523   108668945.437       -1815.248          47.000    20679018.170    83265823.779       -1390.949          51.000  
G06  18683558.497    98182817.714         887.206          46.000    18683562.480    76506110.690         691.409          47.000  
R11  20658339.964   110391890.017       -3254.652          31.000    20658344.631                       -2531.868          29.000  
R12  18486905.216    98753863.224         461.576          48.000    18486909.464    76808692.873         359.225          47.000  
R01  20528996.707   109739161.361       -3216.190          40.000    20529007.895    85352605.373       -2501.682          38.000  
R19  20553961.571                        2449.861          30.000    20553970.187                        1905.987          27.000  
S31  35981721.571   189085203.242        -860.506          44.000  
E13  23407520.027   123007228.051       -3861.566          43.000    23407535.623    94252287.694       -2958.961          49.000  
G07  19483719.710   102387774.455        2801.907          46.000    19483723.517    79782785.517        2183.281          42.000  
G04  18338833.828    96371204.332       -2715.007          47.000    18338835.399    75094423.318       -2115.619          48.000  
E30  24809185.365   130373208.045        1043.189          41.000    24809199.989    99896430.523         799.275          44.000  
G16  22550429.563   118503319.488         542.158          38.000                                                                  
E08  24679027.584                       -3031.750          28.000    24679053.779    99372195.313       -2322.762          43.000  
> 2024 04 08 15 50 00.4910000  0 24                     
S33  36939605.550   194118935.381        -858.108          43.000  
G19  21465504.034   112801899.565       -2783.226          40.000                                                                  
E07  21128475.311   111030869.498       -1937.204          48.000    21128480.097    85075620.139       -1484.343          50.000  
R13  19400604.486   103598302.483        2817.879          39.000    19400613.009    80576507.819        2192.096          41.000  
R17  18008350.869    96366280.142       -3915.412          52.000    18008351.155    74951421.214       -3045.282          47.000  
R02  17787540.853    94917708.176       -1941.058          52.000    17787541.942    73824920.062       -1509.803          49.000  
R03  18252712.623    97708254.793         414.209          51.000    18252710.451    75995364.971         322.162          48.000  
R18  17889898.197    95497482.488        -279.334          51.000    17889900.273    74275658.054        -217.341          47.000  
E33  22335328.913   117372967.957         805.911          45.000    22335333.997    89935193.972         617.435          48.000  
G09  17887317.447    93998513.329        -520.647          48.000    17887318.433    73245666.998        -405.848          45.000  
G03  18824096.671    98921256.839       -2329.161          49.000    18824100.215    77081460.270       -1814.924          46.000  
E26  20689408.635   108723565.704       -1826.583          47.000    20689412.334    83307675.606       -1399.448          51.000  
G06  18678537.223    98156428.133         871.860          47.000    18678540.675    76485547.398         679.427          47.000  
R11  20676662.999                1      -3272.690          29.000    20676669.008    85936480.541       -2545.468          33.000  
R12  18484369.863    98740318.632         440.907          48.000    18484375.227    76798158.270         342.990          49.000  
R01  20547036.614   109835598.142       -3213.504          39.000    20547048.045    85427611.412       -2498.972          35.000  
R19  20540254.279                        2437.037          27.000    20540260.901                        1895.926          28.000  
S31  35986625.431   189110973.889        -857.949          44.000  
E13  23429570.674   123123103.357       -3863.729          43.000    23429586.765    94341074.774       -2960.541          49.000  
G07  19467740.881   102303804.628        2795.731          46.000    19467744.310    79717354.712        2178.372          42.000  
G04  18354340.235    96452693.201       -2717.982          47.000    18354341.747    75157921.084       -2117.845          48.000  
E30  24803236.534   130341946.683        1040.563          42.000    24803250.602    99872477.156         797.371          43.000  
G16  22547350.486   118487144.146         536.119          35.000                                                                  
E08                                                                  24696346.913    99441826.483       -2319.521          43.000  
> 2024 04 08 15 50 30.4910000  0 24                     
S33  36944496.145   194144633.438        -855.286          43.000  
G19  21481404.302   112885454.136       -2787.524          40.000                                                                  
E07  21139535.525   111088996.802       -1938.045          47.000    21139541.491    85120159.220       -1484.957          51.000  
R13  19384787.441   103513838.119        2812.681          39.000    19384794.892    80510813.688        2187.899          40.000  
R17  18030344.149    96483969.473       -3930.609          53.000    18030344.523    75042957.156       -3057.037          48.000  
R02  17798456.332    94975954.815       -1942.133          52.000    17798457.966    73870222.930       -1510.590          50.000  
R03  18250397.015    97695855.889         412.286          52.000    18250395.050    75985721.420         320.630          48.000  
R18  17891537.181    95506232.875        -304.121          51.000    17891540.530    74282463.867        -236.605          49.000  
E33  22330753.018   117348920.127         797.010          45.000    22330757.988    89916767.727         610.813          49.000  
G09  17890308.468    94014232.332        -527.240          48.000    17890309.106    73257915.589        -410.828          45.000  
G03  18837412.064    98991230.336       -2335.925          49.000    18837415.873    77135984.967       -1820.166          45.000  
E26  20699867.275   108778525.414       -1837.838          47.000    20699870.684    83349787.525       -1408.131          50.000  
G06  18673604.258    98130503.191         856.267          47.000    18673606.990    76465346.179         667.329          47.000  
R11  20695088.162                3      -3287.503          23.000    20695093.040    86013041.400       -2558.931          32.000  
R12  18481953.570    98727399.070         420.158          50.000    18481956.557    76788109.796         326.675          48.000  
R01  20565060.652   109931952.557       -3210.434          37.000    20565074.769    85502553.572       -2497.370          35.000  
R19  20526605.780                1       2424.051          27.000    20526635.150                1       1885.501          26.000  
S31  35991514.718   189136668.722        -855.111          44.000  
E13  23451633.676   123239043.140       -3865.679          42.000    23451650.213    94429911.220       -2962.028          50.000  
G07  19451798.272   102220027.125        2789.339          47.000    19451800.870    79652073.741        2173.660          41.000  
G04  18369865.307    96534276.965       -2721.135          47.000    18369866.433    75221492.795       -2120.244          47.000  
E30  24797302.264   130310769.164        1037.837          41.000    24797318.698    99848588.066         795.152          46.000  
G16  22544306.032   118471140.075         530.442          35.000                                                                  
E08  24713593.471                1      -3022.230          28.000    24713615.498    99511358.639       -2316.014          43.000  
> 2024 04 08 15 51 00.4910000  0 24                     
S33  36949371.001   194170252.438        -852.947          43.000  
G19  21497326.872   112969129.180       -2791.127          39.000                                                                  
E07  21150600.848   111147146.200       -1938.728          47.000    21150607.073    85164715.221       -1485.519          51.000  
R13  19368998.945   103429535.899        2807.459          39.000    19369007.513    80445245.669        2183.352          40.000  
R17  18052422.060    96602112.076       -3945.697          53.000    18052423.287    75134845.662       -3068.817          49.000  
R02  17809377.300    95034233.568       -1943.214          52.000    17809379.823    73915550.789       -1511.341          50.000  
R03  18248091.628    97683516.432         410.217          51.000    18248089.675    75976124.102         319.080          48.000  
R18  17893315.911    95515726.389        -328.920          51.000    17893319.053    74289847.701        -255.855          49.000  
E33  22326227.249   117325135.657         788.400          46.000    22326231.954    89898543.284         604.028          49.000  
G09  17893336.283    94030143.941        -533.606          48.000    17893336.805    73270314.266        -415.962          46.000  
G03  18850767.485    99061409.798       -2342.843          50.000    18850770.458    77190670.141       -1825.588          45.000  
E26  20710389.581   108833820.116       -1848.772          48.000    20710392.728    83392156.141       -1416.516          50.000  
G06  18668757.933    98105040.991         840.845          46.000    18668761.966    76445505.534         655.229          47.000  
R11  20713590.226                3      -3306.416          25.000    20713614.413                       -2571.421          25.000  
R12  18479651.475    98715103.044         399.348          49.000    18479654.694    76778546.288         310.606          48.000  
R01  20583069.363   110028221.052       -3207.387          39.000    20583084.360    85577428.800       -2494.550          34.000  
R19  20513072.839                        2410.105          30.000                                                                  
S31  35996389.624   189162283.753        -852.618          44.000  
E13  23473708.086   123355041.783       -3867.754          42.000    23473724.129    94518792.740       -2963.475          49.000  
G07  19435892.667   102136440.888        2782.912          48.000    19435895.155    79586941.820        2168.603          42.000  
G04  18385407.823    96615950.170       -2723.989          47.000    18385408.613    75285134.215       -2122.606          48.000  
E30  24791385.716   130279673.612        1035.070          41.000    24791401.153    99824761.801         793.218          46.000  
G16  22541293.383   118455305.731         524.852          38.000                                                                  
E08  24730851.958   129961410.9431      -3019.353          32.000    24730858.663    99580788.449       -2312.684          43.000  
> 2024 04 08 15 51 30.4910000  0 24                     
S33  36954233.220   194195803.321        -850.308          43.000  
G19  21513275.104   113052933.539       -2795.610          39.000                                                                  
E07  21161673.466   111205328.554       -1939.925          48.000    21161678.836    85209296.474       -1486.404          51.000  
R13  19353244.392   103345412.430        2801.519          38.000    19353252.814    80379816.656        2178.311          40.000  
R17  18074586.133    96720715.656       -3960.968          53.000    18074587.830    75227092.690       -3080.676          49.000  
R02  17820306.467    95092555.659       -1944.708          52.000    17820309.831    73960912.379       -1512.586          50.000  
R03  18245799.331    97671248.064         407.953          51.000    18245797.986    75966582.073         317.242          48.000  
R18  17895235.769    95525975.661        -354.176          50.000    17895238.582    74297819.347        -275.446          48.000  
E33  22321754.118   117301627.841         779.059          46.000    22321758.425    89880530.825         596.837          49.000  
G09  17896402.934    94046259.049        -540.510          48.000    17896403.292    73282871.487        -421.161          45.000  
G03  18864163.647    99131807.374       -2350.143          49.000    18864166.785    77245525.274       -1831.344          45.000  
E26  20720977.986   108889461.090       -1860.414          48.000    20720981.245    83434790.092       -1425.589          50.000  
G06  18664002.803    98080055.345         825.099          46.000    18664007.456    76426036.244         642.808          47.000  
R11  20732219.633                       -3324.488          27.000    20732232.388                3      -2584.314          26.000  
R12  18477468.601    98703445.327         377.842          49.000    18477471.838    76769479.237         294.012          48.000  
R01  20601068.010   110124415.935       -3205.261          43.000    20601077.564                       -2492.889          30.000  
R19  20499594.051                        2395.729          28.000                                                                  
S31  36001250.921   189187830.648        -850.437          44.000  
E13  23495795.355   123471109.254       -3869.981          42.000    23495811.389    94607727.016       -2965.328          49.000  
G07  19420025.576   102053060.857        2775.987          48.000    19420027.819    79521970.596        2163.165          42.000  
G04  18400968.754    96697723.026       -2727.201          48.000    18400969.970    75348853.271       -2125.286          48.000  
E30  24785486.574   130248673.759        1031.681          42.000    24785501.681    99801008.837         790.600          46.000  
G16  22538315.248   118439655.004         518.760          37.000                                                                  
E08  24748072.546   130051900.944       -3014.177          33.000    24748079.055    99650124.717       -2309.599          43.000  
> 2024 04 08 15 52 00.4910000  0 24                     
S33  36959082.884   194221287.071        -848.523          43.000  
G19  21529247.320   113136865.233       -2800.002          40.000                                                                  
E07  21172751.700   111263543.746       -1941.191          48.000    21172756.732    85253902.898       -1487.373          51.000  
R13  19337524.997   103261472.816        2794.630          38.000    19337533.540    80314530.613        2173.746          40.000  
R17  18096836.299    96839776.682       -3976.404          53.000    18096837.858    75319695.496       -3092.719          49.000  
R02  17831244.743    95150921.989       -1946.418          52.000    17831246.129    74006308.380       -1513.836          49.000  
R03  18243519.971    97659051.218         405.273          50.000    18243519.344    75957095.677         315.198          48.000  
R18  17897297.842    95536981.994        -379.714          50.000    17897300.131    74306379.822        -295.339          48.000  
E33  22317333.642   117278399.023         769.485          46.000    22317338.018    89862732.143         589.673          49.000  
G09  17899508.203    94062577.570        -547.499          49.000    17899509.317    73295587.206        -426.539          46.000  
G03  18877601.741    99202424.337       -2357.698          49.000    18877605.615    77300551.357       -1837.098          45.000  
E26  20731632.225   108945448.608       -1872.221          48.000    20731635.450    83477689.545       -1434.466          51.000  
G06  18659339.972    98055549.150         808.755          45.000    18659344.157    76406940.497         630.132          47.000  
R11  20750935.424                       -3342.955          31.000    20750966.962                3      -2596.250          19.000  
R12  18475405.856    98692429.168         356.266          49.000    18475410.366    76760911.163         277.051          48.000  
R01  20619050.700   110220538.418       -3203.118          42.000    20619061.605    85727008.675       -2491.696          34.000  
R19  20486188.416                3       2381.045          24.000    20486213.436                1       1852.147          29.000  
S31  36006099.129   189213310.063        -848.292          44.000  
E13  23517895.443   123587244.688       -3872.388          42.000    23517911.343    94696713.352       -2967.171          48.000  
G07  19404199.727   101969890.717        2768.692          49.000    19404200.547    79457162.888        2157.479          40.000  
G04  18416548.178    96779594.904       -2730.869          48.000    18416549.829    75412649.466       -2128.011          48.000  
E30  24779606.365   130217772.450        1028.112          43.000    24779621.082    99777331.353         787.767          45.000  
G16  22535372.925   118424191.373         511.702          36.000                                                                  
E08  24765268.794   130142269.365       -3010.137          34.000    24765275.638    99719367.804       -2306.718          43.000  
> 2024 04 08 15 52 30.4910000  0 24                     
S33  36963918.690   194246699.608        -845.729          43.000  
G19  21545243.119   113220918.687       -2803.932          41.000                                                                  
E07  21183835.435   111321788.094       -1941.809          49.000    21183840.329    85298531.666       -1487.885          51.000  
R13  19321841.341   103177719.483        2788.811          39.000    19321850.051    80249389.474        2169.208          41.000  
R17  18119169.486    96959287.867       -3991.089          51.000    18119171.407    75412648.445       -3104.303          49.000  
R02  17842190.174    95209328.832       -1947.376          52.000    17842191.209    74051735.879       -1514.650          48.000  
R03  18241254.017    97646921.826         403.302          50.000    18241253.508    75947661.714         313.623          48.000  
R18  17899501.555    95548742.985        -404.550          51.000    17899502.937    74315527.243        -314.632          48.000  
E33  22312965.846   117255447.900         760.483          46.000    22312970.551    89845146.247         582.664          49.000  
G09  17902651.243    94079095.778        -553.816          48.000    17902652.678    73308458.530        -431.606          46.000  
G03  18891080.563    99273258.329       -2364.693          48.000    18891084.969    77355746.552       -1842.566          45.000  
E26  20742351.209   109001779.352       -1883.281          48.000    20742355.186    83520852.006       -1443.017          51.000  
G06  18654767.323    98031521.465         793.220          46.000    18654771.526    76388217.666         617.975          47.000  
R11  20769746.801                3      -3351.631          23.000                                                                  
R12  18473463.364    98682054.430         335.325          49.000    18473467.410    76752841.955         260.848          48.000  
R01  20637017.334   110316585.910       -3200.441          40.000    20637029.990                       -2489.378          30.000  
R19  20472869.354                3       2365.940          25.000                                                                  
S31  36010934.900   189238719.850        -845.830          44.000  
E13  23540007.748   123703443.557       -3874.111          42.000    23540023.923    94785748.285       -2968.530          48.000  
G07  19388411.450   101886930.690        2761.955          48.000    19388412.585    79392518.926        2151.928          39.000  
G04  18432146.131    96861561.480       -2733.741          47.000    18432147.434    75476519.464       -2130.088          48.000  
E30  24773744.702   130186968.799        1025.425          43.000    24773758.799    99753728.706         785.691          45.000  
G16  22532465.930   118408914.477         506.235          37.000                                                                  
E08  24782441.479   130232513.049       -3006.038          35.000    24782448.052    99788515.316       -2303.366          41.000  
> 2024 04 08 15 53 00.4910000  0 25                     
S33  36968739.102   194272031.370        -842.646          43.000  
G19  21561258.731   113305079.229       -2806.803          41.000                                                                  
E07  21194921.794   111380048.672       -1942.161          49.000    21194926.910    85343172.854       -1488.104          51.000  
R13  19306190.419   103094144.201        2782.775          40.000    19306198.351    80184386.812        2164.631          42.000  
R17  18141583.372    97079232.758       -4005.133          50.000    18141586.239    75505938.684       -3115.179          49.000  
R02  17853141.731    95267763.882       -1948.146          51.000    17853142.637    74097185.275       -1515.235          49.000  
R03  18238998.453    97634847.568         401.849          50.000    18238997.173    75938270.639         312.463          47.000  
R18  17901844.359    95561246.791        -428.914          51.000    17901846.797    74325252.414        -333.755          50.000  
E33  22308649.599   117232763.931         751.965          47.000    22308653.966    89827765.050         576.141          49.000  
G09  17905830.386    94095800.708        -559.638          48.000    17905831.552    73321475.354        -436.301          47.000  
G03  18904599.518    99344297.700       -2371.216          48.000    18904603.392    77411101.792       -1847.663          45.000  
E26  20753134.020   109058440.710       -1894.094          48.000    20753137.635    83564267.782       -1451.362          51.000  
G06  18650284.621    98007962.348         777.523          46.000    18650287.970    76369859.920         605.895          46.000  
R11  20788655.510                       -3376.715          27.000    20788657.167                3      -2625.131          26.000  
R12  18471638.909    98672311.299         314.327          48.000    18471643.454    76745264.056         244.472          48.000  
R01  20654968.471   110412546.751       -3196.986          41.000    20654978.074                       -2486.607          28.000  
R19  20459629.611                3       2353.687          22.000                                                                  
G11  21769661.170                3       2341.565          26.000    21769708.103                3       1824.964          25.000  
S31  36015753.933   189264046.981        -842.684          43.000  
E13  23562129.936   123819692.072       -3875.465          42.000    23562146.278    94874821.264       -2969.566          48.000  
G07  19372662.670   101804171.493        2755.383          48.000    19372664.707    79328031.447        2147.205          40.000  
G04  18447759.220    96943609.168       -2736.086          47.000    18447760.789    75540452.657       -2132.039          48.000  
E30  24767899.007   130156252.852        1022.515          42.000    24767914.003    99730193.228         783.572          45.000  
G16  22529590.731   118393814.433         500.579          33.000                                                                  
E08  24799585.125   130322619.632       -3001.196          35.000    24799594.737    99857557.746       -2299.534          40.000  
> 2024 04 08 15 53 30.4910000  0 25                     
S33  36973542.852   194297273.192        -840.342          43.000  
G19  21577292.206   113389336.868       -2810.709          39.000                                                                  
E07  21206010.573   111438317.321       -1942.874          49.000    21206015.067    85387820.229       -1488.744          51.000  
R13  19290571.255   103010744.330        2776.975          39.000    19290579.924    80119520.602        2159.375          41.000  
R17  18164076.293    97199599.561       -4019.757          50.000    18164079.032    75599557.081       -3126.428          48.000  
R02  17864095.812    95326219.233       -1949.329          52.000    17864097.943    74142650.448       -1516.236          49.000  
R03  18236752.061    97622820.268         399.518          51.000    18236750.349    75928916.069         310.645          48.000  
R18  17904324.306    95574486.396        -454.275          51.000    17904326.956    74335549.835        -353.279          50.000  
E33  22304383.064   117210341.383         742.459          47.000    22304386.862    89810584.142         568.991          49.000  
G09  17909043.031    94112684.160        -566.402          48.000    17909044.767    73334631.304        -441.322          46.000  
G03  18918155.563    99415535.619       -2378.482          49.000    18918159.589    77466611.741       -1853.381          45.000  
E26  20763977.870   109115424.868       -1905.411          48.000    20763981.335    83607930.904       -1459.975          51.000  
G06  18645889.645    97984866.414         761.508          46.000    18645893.223    76351863.106         593.521          46.000  
R11  20807647.814                3      -3400.049          21.000    20807655.124                       -2639.222          30.000  
R12  18469933.361    98663194.938         292.771          48.000    18469936.163    76738173.566         227.652          48.000  
R01  20672902.012   110508414.092       -3194.288          40.000    20672915.192                       -2484.176          31.000  
R19  20446491.267                3       2339.518          25.000    20446533.158                3       1821.577          27.000  
S31  36020556.891   189289285.144        -840.489          44.000  
E13  23584258.468   123935981.317       -3877.547          42.000    23584275.836    94963925.394       -2970.960          48.000  
G07  19356951.576   101721609.062        2748.155          48.000    19356952.740    79263697.282        2141.163          39.000  
G04  18463386.830    97025729.266       -2739.047          47.000    18463387.682    75604442.291       -2134.432          48.000  
E30  24762068.529   130125619.255        1019.410          41.000    24762084.811    99706720.844         780.977          47.000  
G16  22526751.860   118378886.761         494.165          38.000                                                                  
E08  24816707.720   130412581.553       -2996.893          35.000    24816713.861    99926489.333       -2296.308          40.000  
G11                                                                  21756330.752                3       1819.261          24.000  
> 2024 04 08 15 54 00.4910000  0 25                     
S33  36978335.966   194322462.701        -838.734          43.000  
G19  21593350.887   113473725.230       -2815.287          34.000                                                                  
E07  21217106.875   111496629.867       -1944.387          49.000    21217111.692    85432501.240       -1489.859          51.000  
R13  19274993.745   102927561.818        2769.058          40.000    19275002.426    80054823.397        2153.845          42.000  
R17  18186656.141    97320421.326       -4034.814          51.000    18186657.283    75693529.357       -3138.287          48.000  
R02  17875060.245    95384731.797       -1951.203          51.000    17875064.415    74188160.137       -1517.603          50.000  
R03  18234520.556    97610876.898         396.893          50.000    18234520.126    75919626.810         308.655          49.000  
R18  17906949.112    95588499.443        -479.810          50.000    17906951.955    74346448.852        -373.213          49.000  
E33  22300173.121   117188218.382         732.500          47.000    22300177.193    89793632.773         561.272          49.000  
G09  17912297.105    94129781.932        -573.427          48.000    17912298.461    73347954.228        -446.735          46.000  
G03  18931757.063    99487009.194       -2386.288          49.000    18931759.442    77522305.304       -1859.537          44.000  
E26  20774890.097   109172767.952       -1917.274          48.000    20774892.822    83651869.020       -1469.099          50.000  
G06  18641589.904    97962272.331         744.507          46.000    18641593.541    76334257.318         580.309          46.000  
R11  20826751.793                3      -3406.647          19.000    20826757.552                       -2652.320          28.000  
R12  18468351.284    98654745.017         270.486          49.000    18468354.514    76731601.457         210.438          48.000  
R01  20690827.628   110604225.393       -3192.591          42.000    20690837.936                       -2483.497          29.000  
R19  20433419.596                3       2322.382          23.000    20433447.772                1       1806.897          28.000  
S31  36025349.547   189314471.047        -838.463          44.000  
E13  23606402.968   124052346.215       -3880.165          42.000    23606419.375    95053087.508       -2972.992          47.000  
G07  19341286.037   101639283.060        2740.355          48.000    19341286.191    79199547.329        2135.057          40.000  
G04  18479034.525    97107956.960       -2742.608          47.000    18479034.909    75668515.731       -2137.133          48.000  
E30  24756262.138   130095106.786        1015.201          39.000    24756278.516    99683341.289         777.740          47.000  
G16  22523952.418   118364169.950         487.221          39.000                                                                  
E08  24833806.432   130502435.122       -2993.446          36.000    24833812.461    99995338.011       -2293.326          39.000  
G11                                                                  21743044.786                        1815.403          30.000  
> 2024 04 08 15 54 30.4910000  0 25                     
S33  36983121.225   194347609.501        -837.620          43.000  
G19  21609436.199   113558251.159       -2819.910          33.000                                                                  
E07  21228213.528   111554995.038       -1946.551          49.000    21228218.465    85477222.571       -1491.540          51.000  
R13  19259459.952   102844610.898        2760.924          41.000    19259467.599    79990306.331        2147.251          41.000  
R17  18209321.329    97441703.068       -4050.482          50.000    18209322.601    75787859.366       -3150.360          48.000  
R02  17886037.614    95443311.000       -1953.883          51.000    17886040.925    74233721.688       -1519.709          49.000  
R03  18232306.727    97599026.676         393.268          50.000    18232307.120    75910409.976         305.908          49.000  
R18  17909721.502    95603295.886        -506.410          51.000    17909723.623    74357957.168        -393.928          49.000  
E33  22296022.036   117166406.042         721.719          47.000    22296026.433    89776919.428         553.070          49.000  
G09  17915593.323    94147102.676        -581.190          49.000    17915593.613    73361450.903        -452.801          46.000  
G03  18945405.010    99558728.400       -2394.935          49.000    18945408.407    77578190.293       -1866.187          45.000  
E26  20785872.087   109230478.949       -1930.010          48.000    20785874.429    83696089.075       -1478.811          49.000  
G06  18637387.920    97940191.561         727.518          46.000    18637391.778    76317051.523         566.787          46.000  
R11  20845967.396                       -3428.582          29.000    20845959.233                3      -2671.267          25.000  
R12  18466896.196    98646973.824         247.508          49.000    18466900.372    76725557.179         192.549          48.000  
R01  20708742.385   110699991.109       -3191.689          42.000    20708752.433                3      -2482.533          25.000  
R19  20420430.560                3       2305.873          25.000    20420456.806    84961147.8131       1795.375          31.000  
S31  36030134.405   189339613.095        -837.490          44.000  
E13  23628563.161   124168794.638       -3883.124          42.000    23628579.050    95142313.623       -2975.352          46.000  
G07  19325667.266   101557206.118        2731.458          49.000    19325667.582    79135591.457        2128.625          39.000  
G04  18494703.549    97190300.354       -2746.642          46.000    18494704.190    75732679.329       -2140.343          47.000  
E30  24750480.997   130064726.896        1010.476          40.000    24750497.361    99660063.342         774.149          47.000  
G16  22521193.849   118349676.003         479.231          37.000                                                                  
E08  24850884.211   130592189.749       -2990.110          33.000    24850892.423   100064110.882       -2291.681          39.000  
G11                                                                  21729729.989                1       1809.480          26.000  
> 2024 04 08 15 55 00.4910000  0 25                     
S33  36987898.231   194372712.234        -836.402          43.000  
G19  21625546.409   113642912.185       -2824.305          33.000                                                                  
E07  21239329.853   111613412.002       -1948.341          49.000    21239335.285    85521983.589       -1492.884          52.000  
R13  19243970.138   102761896.507        2752.927          41.000    19243977.299    79925973.225        2141.082          40.000  
R17  18232071.101    97563440.867       -4065.625          51.000    18232071.856    75882544.074       -3162.061          48.000  
R02  17897028.699    95501956.539       -1956.050          51.000    17897030.955    74279334.782       -1521.333          50.000  
R03  18230109.413    97587269.177         390.173          49.000    18230110.754    75901265.281         303.339          49.000  
R18  17912639.698    95618875.920        -532.589          50.000    17912642.562    74370074.925        -414.260          49.000  
E33  22291930.384   117144905.874         711.264          47.000    22291935.358    89760445.301         544.936          50.000  
G09  17918931.800    94164645.601        -588.458          49.000    17918931.527    73375120.699        -458.545          45.000  
G03  18959098.749    99630693.712       -2403.171          48.000    18959103.294    77634267.052       -1872.666          45.000  
E26  20796924.500   109288557.351       -1942.199          49.000    20796926.465    83740590.648       -1488.287          49.000  
G06  18633284.076    97918626.164         710.150          44.000    18633288.116    76300247.305         553.289          47.000  
R11  20865242.004                1      -3445.905          28.000    20865254.394                3      -2675.793          21.000  
R12  18465568.396    98639883.591         224.672          49.000    18465572.492    76720042.610         174.608          48.000  
R01  20726650.444   110795711.549       -3190.083          39.000    20726662.263                       -2481.183          27.000  
R19  20407545.582                1       2290.576          30.000    20407561.956    84907502.694        1780.986          31.000  
S31  36034910.343   189364712.850        -836.085          43.000  
E13  23650737.409   124285324.999       -3885.969          42.000    23650754.503    95231602.499       -2977.506          46.000  
G07  19310095.610   101475381.024        2723.087          48.000    19310097.177    79071831.826        2121.814          40.000  
G04  18510394.063    97272758.104       -2750.617          46.000    18510394.992    75796932.056       -2143.497          47.000  
E30  24744725.415   130034481.804        1005.644          40.000    24744741.918    99636888.646         770.635          47.000  
G16  22518477.446   118335407.347         471.425          35.000                                                                  
E08  24867943.664   130681845.293       -2986.879          33.000    24867953.490   100132807.761       -2289.026          39.000  
G11                                                                  21716522.584    88925421.0171       1803.067          33.000  
> 2024 04 08 15 55 30.4910000  0 25                     
S33  36992666.806   194397770.996        -834.581          43.000  
G19  21641682.143   113727704.091       -2828.759          33.000                                                                  
E07  21250455.097   111671878.619       -1949.958          49.000    21250461.137    85566782.631       -1494.062          52.000  
R13  19228524.715   102679422.058        2744.759          40.000    19228531.528    79861826.715        2134.926          39.000  
R17  18254905.301    97685628.702       -4080.499          51.000    18254906.369    75977578.814       -3173.657          48.000  
R02  17908031.279    95560666.987       -1958.271          51.000    17908033.737    74324998.396       -1523.133          50.000  
R03  18227930.663    97575602.563         387.219          50.000    18227931.470    75892191.280         301.221          49.000  
R18  17915705.144    95635238.570        -558.638          50.000    17915708.469    74382801.377        -434.529          49.000  
E33  22287898.491   117123718.125         700.756          46.000    22287903.221    89744210.527         537.111          50.000  
G09  17922311.346    94182408.510        -595.948          49.000    17922311.920    73388961.918        -464.380          46.000  
G03  18972840.511    99702904.254       -2411.171          48.000    18972843.853    77690534.888       -1878.874          45.000  
E26  20808045.294   109347001.272       -1954.534          48.000    20808047.815    83785372.293       -1497.511          49.000  
G06  18629278.704    97897576.684         692.986          45.000    18629281.943    76283845.148         539.808          47.000  
R11  20884650.052                       -3463.647          25.000    20884645.916                1      -2694.135          27.000  
R12  18464369.495    98633475.397         202.068          50.000    18464373.034    76715058.470         157.192          47.000  
R01  20744545.048   110891385.852       -3188.772          35.000    20744557.522                       -2479.949          28.000  
R19  20394740.877                        2274.159          30.000    20394760.195                        1769.366          29.000  
S31  36039678.870   189389767.979        -834.575          44.000  
E13  23672928.482   124401934.250       -3888.270          42.000    23672945.166    95320951.802       -2979.309          46.000  
G07  19294572.759   101393809.794        2714.667          49.000    19294575.549    79008270.054        2115.239          41.000  
G04  18526106.628    97355327.476       -2754.227          46.000    18526107.634    75861271.758       -2146.338          47.000  
E30  24738995.494   130004372.168        1001.184          40.000    24739011.727    99613817.721         767.251          47.000  
G16  22515802.154   118321364.992         463.991          35.000                                                                  
E08  24884986.299   130771400.118       -2983.642          32.000    24884995.726   100201427.486       -2286.030          40.000  
G11                                                                  21703322.348    88871392.926        1798.867          32.000  
> 2024 04 08 15 56 00.4910000  0 25                     
S33  36997428.203   194422790.992        -833.499          44.000  
G19  21657843.044                3      -2833.091          30.000                                                                  
E07  21261591.804   111730399.242       -1951.678          49.000    21261597.351    85611623.057       -1495.424          52.000  
R13  19213126.522   102597196.912        2736.595          40.000    19213133.452    79797874.147        2128.262          40.000  
R17  18277822.846    97808267.508       -4095.569          51.000    18277824.280    76072964.301       -3185.443          48.000  
R02  17919046.616    95619447.002       -1960.622          52.000    17919048.876    74370716.127       -1524.847          49.000  
R03  18225770.364    97564031.570         383.978          50.000    18225769.390    75883191.656         298.560          49.000  
R18  17918917.810    95652389.094        -584.976          50.000    17918921.376    74396140.644        -454.858          49.000  
E33  22283927.838   117102849.362         690.210          47.000    22283931.830    89728220.193         528.808          49.000  
G09  17925734.090    94200395.656        -603.432          49.000    17925734.674    73402977.877        -470.124          46.000  
G03  18986629.388    99775365.532       -2419.686          48.000    18986633.011    77746998.113       -1885.591          45.000  
E26  20819237.011   109405815.231       -1966.790          48.000    20819240.466    83830437.491       -1507.068          50.000  
G06  18625373.280    97877050.244         675.301          46.000    18625375.748    76267850.517         526.250          47.000  
R11  20904142.996                3      -3486.279          19.000    20904147.029                3      -2708.649          26.000  
R12  18463298.918    98627756.979         178.913          50.000    18463302.038    76710610.880         139.311          47.000  
R01  20762431.917                       -3187.323          28.000    20762445.839    86323370.3521      -2479.315          33.000  
R19  20382026.705                        2258.177          27.000    20382040.927                        1756.531          25.000  
S31  36044439.031   189414784.289        -833.322          44.000  
E13  23695134.881   124518625.849       -3891.199          42.000    23695151.681    95410364.207       -2981.391          46.000  
G07  19279099.483   101312500.435        2705.733          47.000    19279102.157    78944912.297        2108.565          41.000  
G04  18541841.143    97438012.224       -2758.013          47.000    18541842.106    75925701.330       -2149.163          47.000  
E30  24733293.826   129974405.097         996.238          41.000    24733308.900    99590856.088         763.511          47.000  
G16  22513176.575   118307556.359         455.957          36.000                                                                  
E08  24902008.965   130860859.230       -2980.348          35.000    24902018.625   100269973.881       -2283.609          38.000  
G11                                                                  21690165.833    88817535.326        1792.660          32.000  
> 2024 04 08 15 56 30.4910000  0 26                     
S33  37002183.642   194447779.492        -832.478          43.000  
G19  21674033.052   113897797.7771      -2838.147          31.000                                                                  
E07  21272739.277   111788981.234       -1953.635          49.000    21272744.904    85656510.505       -1496.928          52.000  
R13  19197778.016   102515234.404        2727.670          39.000    19197784.075    79734125.847        2121.798          40.000  
R17  18300826.686    97931361.454       -4110.608          52.000    18300827.907    76168703.785       -3197.196          48.000  
R02  17930077.022    95678304.799       -1963.166          52.000    17930078.792    74416494.322       -1526.874          50.000  
R03  18223627.540    97552563.883         380.695          51.000    18223626.474    75874272.361         296.118          49.000  
R18  17922279.808    95670336.073        -611.477          50.000    17922282.456    74410099.357        -475.613          49.000  
E33  22280019.357   117082309.305         679.231          47.000    22280022.943    89712481.719         520.411          49.000  
G09  17929201.711    94218614.364        -611.104          50.000    17929201.870    73417174.272        -476.179          46.000  
G03  19000467.649    99848086.193       -2428.391          48.000    19000471.578    77803663.421       -1892.275          45.000  
E26  20830500.200   109465006.869       -1979.279          48.000    20830504.204    83875792.056       -1516.533          50.000  
G06  18621568.486    97857056.854         657.614          46.000    18621571.404    76252271.262         512.471          47.000  
R11  20923735.352                3      -3499.890          20.000    20923746.181                3      -2735.759          14.000  
R12  18462359.664    98622739.038         155.657          51.000    18462362.944    76706708.068         120.997          46.000  
R01  20780319.690                1      -3186.180          31.000    20780333.485    86397727.566       -2478.522          34.000  
R19  20369405.957                        2241.306          26.000    20369428.947                1       1743.606          29.000  
S31  36049193.416   189439769.712        -832.130          44.000  
E13  23717358.574   124635406.309       -3893.970          43.000    23717374.879    95499844.671       -2983.705          46.000  
G07  19263678.234   101231464.060        2696.657          47.000    19263681.414    78881767.282        2101.279          41.000  
G30  22067716.017   115966622.0671       3024.573          35.000                                                                  
G04  18557598.745    97520819.137       -2762.209          46.000    18557599.961    75990226.120       -2152.283          47.000  
E30  24727620.484   129944590.856         991.213          41.000    24727635.541    99568011.516         759.620          46.000  
G16  22510597.347   118293992.481         447.996          37.000                                                                  
E08  24919015.030   130950230.525       -2977.963          32.000    24919026.907   100338452.984       -2281.461          40.000  
G11                                                                  21677056.559    88763856.642        1786.125          33.000  
> 2024 04 08 15 57 00.4910000  0 26                     
S33  37006933.250   194472741.949        -831.591          44.000  
G19  21690245.590                1      -2842.246          31.000                                                                  
E07  21283899.293   111847627.108       -1956.098          49.000    21283904.924    85701446.900       -1498.792          52.000  
R13  19182479.449   102433542.323        2718.098          39.000    19182486.390    79670587.871        2114.144          41.000  
R17  18323913.878    98054909.059       -4125.854          51.000    18323915.740    76264796.139       -3209.237          48.000  
R02  17941121.794    95737243.693       -1966.120          53.000    17941123.632    74462335.582       -1529.256          49.000  
R03  18221506.178    97541203.007         376.825          50.000    18221504.239    75865436.130         293.134          48.000  
R18  17925791.156    95689082.963        -638.343          49.000    17925794.770    74424680.238        -496.572          49.000  
E33  22276174.196   117062102.749         667.872          47.000    22276177.764    89696998.791         511.684          49.000  
G09  17932713.461    94237067.065        -619.099          50.000    17932712.867    73431553.020        -482.453          45.000  
G03  19014356.510    99921069.974       -2437.289          48.000    19014360.509    77860533.758       -1899.142          46.000  
E26  20841837.058   109524578.908       -1992.189          48.000    20841840.562    83921438.090       -1526.455          50.000  
G06  18617866.183    97837601.715         639.308          46.000    18617869.045    76237111.412         498.152          47.000  
R11  20943435.997                3      -3512.035          17.000                                                                  
R12  18461552.043    98618427.002         131.793          51.000    18461554.827    76703354.332         102.525          45.000  
R01  20798197.674                       -3185.407          26.000    20798212.085    86472063.203       -2477.267          33.000  
R19  20356878.378                        2224.548          29.000    20356904.267                        1729.779          28.000  
S31  36053942.849   189464727.756        -831.630          44.000  
E13  23739598.593   124752277.262       -3897.197          43.000    23739614.885    95589394.485       -2986.259          45.000  
G07  19248310.721   101150706.791        2687.074          47.000    19248313.556    78818839.732        2093.779          41.000  
G30  22050453.097   115875886.983        3024.159          38.000                                                                  
G04  18573380.003    97603750.128       -2766.658          46.000    18573381.407    76054847.596       -2155.759          46.000  
E30  24721976.255   129914934.712         985.845          40.000    24721991.889    99545288.116         755.362          45.000  
G16  22508061.041   118280678.276         439.783          34.000                                                                  
E08  24936007.404   131039517.161       -2974.865          33.000    24936017.095   100406867.169       -2279.473          39.000  
G11                                                                  21663995.948    88710361.503        1779.557          35.000  
> 2024 04 08 15 57 30.4910000  0 25                     
S33  37011678.773   194497679.593        -830.966          43.000  
G19  21706485.108                       -2847.012          29.000                                                                  
E07  21295072.745   111906339.966       -1958.174          49.000    21295077.677    85746434.624       -1500.432          52.000  
R13  19167232.605   102352129.635        2708.993          39.000    19167240.708    79607267.221        2106.805          40.000  
R17  18347086.699    98178910.180       -4140.955          52.000    18347088.842    76361241.173       -3220.703          48.000  
R02  17952182.782    95796267.052       -1968.854          52.000    17952184.867    74508242.576       -1531.329          49.000  
R03  18219403.083    97529951.875         373.169          50.000    18219401.995    75856685.271         290.173          49.000  
R18  17929454.915    95708633.664        -665.132          51.000    17929456.783    74439886.295        -517.231          49.000  
E33  22272393.775   117042235.078         656.510          48.000    22272397.170    89681775.527         503.074          49.000  
G09  17936269.362    94255756.782        -626.967          50.000    17936269.426    73446116.439        -488.767          45.000  
G03  19028295.104    99994321.148       -2446.274          47.000    19028300.678    77917612.459       -1906.162          46.000  
E26  20853246.246   109584534.521       -2004.873          48.000    20853250.079    83967378.056       -1536.170          50.000  
G06  18614267.206    97818690.529         621.354          46.000    18614270.575    76222375.419         484.181          47.000  
R12  18460877.821    98614827.004         108.056          51.000    18460881.038    76700554.442          83.989          46.000  
R01  20816073.001                1      -3184.768          30.000    20816086.503    86546380.854       -2477.174          33.000  
R19  20344449.112                        2207.993          31.000    20344470.842    84644903.5171       1716.737          32.000  
S31  36058687.775   189489662.253        -831.065          44.000  
E13  23761857.550   124869240.884       -3900.184          44.000    23761872.990    95679015.303       -2988.575          45.000  
G07  19232997.338   101070235.847        2677.448          47.000    19233000.865    78756135.296        2086.311          42.000  
G30  22033188.185   115785162.684        3024.094          39.000                                                                  
G04  18589185.487    97686807.668       -2770.604          47.000    18589186.746    76119567.688       -2158.938          47.000  
E30  24716365.030   129885442.605         980.305          42.000    24716379.314    99522690.390         751.150          45.000  
G16  22505576.897   118267620.339         430.807          36.000                                                                  
E08  24952983.952   131128722.751       -2972.381          32.000    24952992.942   100475219.296       -2277.571          39.000  
G11                                                                  21650977.002    88657055.103        1774.500          34.000  
> 2024 04 08 15 58 00.4910000  0 26                     
S33  37016419.699   194522594.322        -830.090          43.000  
G19  21722751.316                1      -2851.776          26.000                                                                  
E07  21306257.831   111965119.028       -1960.380          49.000    21306263.167    85791473.070       -1502.143          52.000  
R13  19152038.832   102271000.638        2699.714          39.000    19152046.301    79544167.153        2099.360          40.000  
R17  18370344.002    98303360.273       -4155.673          51.000    18370345.278    76458035.423       -3232.187          48.000  
R02  17963259.907    95855374.792       -1971.661          52.000    17963261.496    74554215.215       -1533.471          48.000  
R03  18217322.420    97518810.392         369.501          51.000    18217320.972    75848019.719         287.415          49.000  
R18  17933268.205    95728988.172        -691.876          50.000    17933269.521    74455717.557        -538.215          48.000  
E33  22268677.265   117022707.749         645.177          48.000    22268681.299    89666813.037         494.380          49.000  
G09  17939870.757    94274682.637        -634.623          50.000    17939871.213    73460863.845        -494.708          46.000  
G03  19042286.190   100067840.104       -2455.066          48.000    19042290.771    77974899.824       -1913.018          46.000  
E26  20864727.856   109644873.212       -2017.685          48.000    20864732.144    84013611.526       -1546.041          51.000  
G06  18610773.023    97800325.232         603.097          46.000    18610776.004    76208064.774         469.930          47.000  
R11  20983119.952                3      -3551.596          14.000                                                                  
R12  18460337.793    98611941.483          84.264          51.000    18460341.753    76698310.248          65.607          47.000  
R01  20833947.857                       -3184.199          29.000    20833957.801                       -2476.527          26.000  
R19  20332120.158                        2189.630          28.000    20332132.097                        1703.679          31.000  
S31  36063428.180   189514573.308        -830.244          44.000  
E13  23784132.423   124986295.567       -3903.360          43.000    23784148.322    95768705.854       -2990.801          45.000  
G07  19217739.367   100990054.259        2667.908          48.000    19217742.824    78693656.319        2078.756          42.000  
G30  22015926.571   115694451.628        3023.719          38.000                                                                  
G04  18605014.371    97769990.488       -2774.659          46.000    18605015.986    76184385.396       -2162.239          46.000  
E30  24710784.228   129856116.621         974.694          43.000    24710798.298    99500219.949         746.839          44.000  
G16  22503142.150   118254820.815         422.523          37.000                                                                  
E08  24969941.351   131217847.145       -2969.389          31.000    24969952.740   100543509.213       -2275.128          39.000  
G11                                                                  21638005.511    88603939.693        1767.731          34.000  
> 2024 04 08 15 58 30.4910000  0 26                     
S33  37021157.205   194547489.234        -829.506          43.000  
G19  21739046.844                       -2856.107          28.000                                                                  
E07  21317456.308   112023967.282       -1962.869          48.000    21317461.919    85836564.522       -1504.003          53.000  
R13  19136900.029   102190164.195        2689.536          37.000    19136907.564    79481294.647        2091.818          40.000  
R17  18393684.766    98428258.777       -4170.761          52.000    18393685.349    76555178.438       -3243.941          48.000  
R02  17974352.525    95914570.963       -1974.738          51.000    17974355.305    74600256.600       -1535.864          49.000  
R03  18215261.466    97507781.982         365.607          51.000    18215260.854    75839442.094         284.375          49.000  
R18  17937231.599    95750150.381        -719.014          50.000    17937234.577    74472176.970        -559.267          49.000  
E33  22265026.845   117003526.025         633.481          47.000    22265031.460    89652115.358         485.389          50.000  
G09  17943517.362    94293847.575        -642.822          49.000    17943518.729    73475797.551        -500.798          46.000  
G03  19056328.069   100141631.010       -2464.189          48.000    19056332.404    78032399.131       -1920.172          45.000  
E26  20876283.947   109705598.020       -2030.667          48.000    20876287.851    84060140.863       -1556.059          51.000  
G06  18607383.132    97782511.346         584.509          48.000    18607385.789    76194183.841         455.536          47.000  
R11  21003120.066                3      -3561.948          13.000                                                                  
R12  18459933.592    98609776.240          60.043          52.000    18459936.755    76696626.243          46.638          48.000  
R01  20851819.000   111464832.4571      -3183.500          32.000    20851823.259    86694966.482       -2475.867          29.000  
R19  20319890.867                        2172.246          31.000    20319901.679    84542705.981        1690.164          35.000  
S31  36068164.753   189539464.424        -829.661          44.000  
E13  23806425.377   125103443.305       -3906.418          43.000    23806441.440    95858467.725       -2993.366          45.000  
G07  19202537.598   100910168.272        2657.945          48.000    19202541.061    78631407.677        2070.937          43.000  
G30  21998668.290   115603759.984        3022.788          40.000    21998691.471    90081141.0551       2355.081          37.000  
G04  18620867.873    97853300.999       -2779.188          46.000    18620869.601    76249302.548       -2165.612          47.000  
E30  24705236.820   129826962.496         968.808          42.000    24705250.453    99477881.214         742.211          45.000  
G16  22500755.633   118242285.813         413.534          34.000                                                                  
E08  24986886.736                       -2966.895          30.000    24986898.729   100611739.753       -2273.438          40.000  
G11                                                                  21625082.998    88551020.234        1760.345          35.000  
> 2024 04 08 15 59 00.4910000  0 25                     
S33  37025892.019   194572368.659        -828.837          44.000  
G19  21755365.661                       -2860.581          27.000                                                                  
E07  21328668.383   112082887.232       -1965.167          48.000    21328674.333    85881710.916       -1505.818          53.000  
R13  19121818.796   102109628.112        2679.171          38.000    19121825.708    79418655.806        2083.924          40.000  
R17  18417108.449    98553604.373       -4185.496          51.000    18417110.046    76652669.185       -3255.317          49.000  
R02  17985463.220    95973858.090       -1977.777          52.000    17985465.595    74646368.760       -1538.294          49.000  
R03  18213222.845    97496869.467         361.865          50.000    18213222.205    75830954.613         281.439          49.000  
R18  17941348.719    95772123.403        -745.998          51.000    17941351.909    74489267.022        -580.085          50.000  
E33  22261443.229   116984694.677         621.928          47.000    22261448.435    89637686.133         476.509          50.000  
G09  17947209.892    94313254.000        -650.867          49.000    17947212.039    73490919.455        -507.129          47.000  
G03  19070422.501   100215697.643       -2473.494          48.000    19070426.595    78090113.254       -1927.473          45.000  
E26  20887913.665   109766711.652       -2043.608          48.000    20887917.782    84106968.101       -1565.782          51.000  
G06  18604099.210    97765254.000         566.008          47.000    18604101.980    76180736.556         440.897          47.000  
R12  18459662.745    98608336.898          35.914          50.000    18459667.532    76695506.834          27.849          48.000  
R01  20869682.349                       -3182.436          31.000    20869688.031                       -2475.427          28.000  
R19  20307760.441                        2153.833          30.000    20307768.353                        1675.639          30.000  
S31  36072898.549   189564339.860        -828.794          44.000  
E13  23828736.035   125220685.786       -3909.613          42.000    23828753.021    95948302.137       -2995.608          46.000  
G07  19187393.941   100830584.634        2647.746          47.000    19187396.336    78569394.647        2063.083          42.000  
G30  21981415.170   115513093.541        3022.076          40.000    21981436.000    90010492.186        2354.680          36.000  
G04  18636746.275    97936741.099       -2783.331          47.000    18636747.230    76314320.722       -2168.866          46.000  
E30  24699722.132   129797985.547         963.235          41.000    24699736.118    99455678.216         737.881          46.000  
G16  22498420.907   118230020.896         404.052          35.000                                                                  
E08  25003820.692   131395866.466       -2964.194          32.000    25003829.860   100679913.262       -2271.616          40.000  
G11                                                                  21612207.787    88498301.359        1754.388          33.000  
> 2024 04 08 15 59 30.4910000  0 25                     
S33  37030623.053   194597230.487        -828.500          44.000  
E07  21339892.667   112141878.141       -1967.472          47.000    21339900.068    85926911.675       -1507.550          53.000  
R13  19106794.366   102029397.108        2669.288          39.000    19106800.694    79356254.223        2076.008          41.000  
R17  18440615.375    98679393.057       -4200.269          50.000    18440616.052    76750504.541       -3266.807          48.000  
R02  17996590.557    96033236.173       -1980.652          51.000    17996594.411    74692551.640       -1540.484          51.000  
R03  18211206.016    97486072.571         358.099          51.000    18211205.426    75822557.063         278.583          48.000  
R18  17945616.738    95794907.217        -772.895          50.000    17945620.656    74506987.709        -601.167          50.000  
E33  22257926.460   116966215.164         610.179          47.000    22257931.544    89623526.500         467.608          50.000  
G09  17950949.474    94332901.078        -658.931          49.000    17950949.636    73506228.838        -513.318          45.000  
G03  19084569.591   100290040.258       -2482.686          47.000    19084573.765    78148042.448       -1934.452          45.000  
G11  21599390.369   113505561.8553       2242.380          32.000    21599384.324    88445785.276        1746.356          33.000  
E26  20899617.542   109828213.359       -2056.401          49.000    20899620.953    84154092.723       -1575.676          51.000  
G06  18600921.094    97748554.910         547.297          47.000    18600924.357    76167724.269         426.455          48.000  
R11  21043387.356                3      -3617.037          17.000                                                                  
R12  18459529.379    98607625.356          11.536          52.000    18459533.298    76694953.485           9.083          47.000  
R01  20887543.543   111655810.676       -3182.458          32.000    20887546.087                       -2475.479          28.000  
R19  20295725.944                        2136.528          29.000    20295739.752                1       1662.023          30.000  
S31  36077629.044   189589199.301        -828.378          44.000  
E13  23851065.029   125338021.261       -3912.723          42.000    23851081.609    96038207.791       -2997.937          45.000  
G07  19172307.198   100751306.277        2637.514          48.000    19172309.246    78507619.488        2055.288          43.000  
G30  21964167.089   115422454.723        3020.599          40.000    21964187.389    89939864.835        2354.016          37.000  
G04  18652649.453    98020309.517       -2787.727          48.000    18652650.071    76379438.860       -2172.144          47.000  
E30  24694242.593   129769187.786         956.906          42.000    24694256.762    99433612.574         733.267          46.000  
G16  22496137.426   118218028.679         395.464          35.000                                                                  
E08  25020738.309                       -2962.076          30.000    25020746.427   100748029.483       -2269.505          39.000  
