     3.00           OBSERVATION DATA    M: Mixed            RINEX VERSION / TYPE
CONVBIN 2.4.3                           20240408 225941 UTC PGM / RUN BY / DATE 
format: u-blox UBX                                          COMMENT             
log: data/2024-04-08/20240408224500.ubx                     COMMENT             
AQUI00CHL                                                   MARKER NAME         
                                                            MARKER NUMBER       
                                                            MARKER TYPE         
                                                            OBSERVER / AGENCY   
UNKNOWN             UBLOX-ZED-F9P                           REC # / TYPE / VERS 
UNKNOWN             TWIVSP6037L                             ANT # / TYPE        
  1713381.0000 -5047934.0000 -3490983.0000                  APPROX POSITION XYZ 
        0.0000        0.0000        0.0000                  ANTENNA: DELTA H/E/N
G    8 C1C L1C D1C S1C C2L L2L D2L S2L                      SYS / # / OBS TYPES 
R    8 C1C L1C D1C S1C C2C L2C D2C S2C                      SYS / # / OBS TYPES 
E    8 C1C L1C D1C S1C C7Q L7Q D7Q S7Q                      SYS / # / OBS TYPES 
S    4 C1C L1C D1C S1C                                      SYS / # / OBS TYPES 
  2024    04    08    22    45   00.0030000     GPS         TIME OF FIRST OBS   
  2024    04    08    22    59   30.0040000     GPS         TIME OF LAST OBS    
                                                            END OF HEADER       
> 2024 04 08 22 45 00.0030000  0 24                     
S33  40776111.439   214279923.0211       -772.234          43.000  
G05  25678927.028   134943396.8881      -3686.523          41.000    25678943.753   105150676.8171      -2872.148          36.000  
G24  23428019.800   123115168.5341       1267.722          46.000    23428018.141    95933976.8831        987.714          46.000  
G15  21695648.694   114011386.0161       -418.793          48.000    21695645.489    88840103.5291       -326.294          47.000  
R06  21025118.079   112194108.7281       -295.354          44.000                                                                  
R07  23895029.592   127911980.9031       2877.151          42.000    23895025.702    99487045.4191       2237.759          38.000  
R05  22294895.776   119178952.7391      -4690.031          52.000    22294896.125    92694775.5631      -3647.843          48.000  
R16  21120189.184   112820744.0261      -1262.270          52.000    21120185.228    87749659.1031       -981.794          49.000  
R09  23218904.789   123987886.8871       1287.846          48.000    23218906.335    96435092.1651       1001.634          48.000  
G19  22316151.374   117272564.7441        -37.747          48.000                                                                  
G13  21414888.679   112536215.8121      -2189.308          48.000                                                                  
G17  22695971.491   119268568.4811      -1343.230          47.000    22695967.176    92936762.0531      -1046.836          46.000  
E31  27003607.114   141905150.9741       1197.799          44.000    27003616.577   108732561.5151        917.863          48.000  
G12  24164629.675   126986203.4301       1720.799          45.000    24164631.458    98950441.9371       1340.860          40.000  
R17  23714973.761   126903659.6361        294.495          44.000    23714968.663    98702811.2941        229.037          38.000  
R15  23095405.188   123415234.8291      -3355.720          51.000    23095402.549    95989842.7921      -2609.897          48.000  
R18  24171615.401   129029915.8381       2540.174          47.000    24171615.924   100356553.5571       1975.749          45.000  
E19  25387062.423   133410110.4841      -2695.821          43.000    25387064.646   102223411.6491      -2065.671          48.000  
S31  39823929.608   209276176.8731       -772.232          45.000  
G14  24859107.401   130635837.9921      -3961.572          40.000    24859102.660   101794363.8841      -3087.189          33.000  
G30  26100303.329   137158350.0621      -3340.016          42.000    26100300.845   106877014.6881      -2602.507          37.000  
E21  26364646.547   138547548.4821      -2818.980          45.000    26364646.062   106160012.4081      -2160.046          48.000  
G22  22656742.448   119062361.3611      -3336.277          48.000                                                                  
E04  24998009.136   131365456.4781        314.124          49.000    24998008.369   100656755.0641        240.627          52.000  
> 2024 04 08 22 45 30.0030000  0 24                     
S33  40780521.292   214303097.854        -773.231          44.000  
G05  25699965.631   135053954.511       -3684.586          39.000    25699982.157   105236825.676       -2871.156          36.000  
G24  23420789.324   123077172.413        1265.032          47.000    23420787.469    95904369.575         985.775          46.000  
G15  21698093.323   114024228.119        -437.524          48.000    21698089.157    88850110.368        -340.930          47.000  
R06  21026856.250   112203382.100        -323.265          44.000                                                                  
R07  23878942.454   127825874.995        2863.005          40.000    23878943.765    99420074.317        2226.816          34.000  
R05  22321255.182   119319853.243       -4703.616          52.000    22321255.246    92804364.464       -3658.470          47.000  
R16  21127301.105   112858735.197       -1270.760          52.000    21127297.192    87779207.837        -988.388          49.000  
R09  23211690.413   123949365.450        1279.783          48.000    23211692.540    96405131.313         995.329          48.000  
G19  22316423.197   117273997.008         -58.063          47.000                                                                  
G13  21427437.026   112602158.767       -2207.248          47.000                                                                  
G17  22703701.769   119309190.274       -1364.886          47.000    22703697.765    92968415.462       -1063.658          46.000  
E31  26996790.195   141869321.017        1190.623          45.000    26996797.516   108705107.702         912.238          48.000  
G12  24154832.552   126934723.044        1710.841          43.000    24154835.418    98910327.808        1333.125          41.000  
R17  23713388.274   126895167.839         271.477          45.000    23713381.650    98696206.648         210.929          40.000  
R15  23114244.521   123515910.666       -3356.531          51.000    23114242.727    96068146.203       -2610.500          49.000  
R18  24157358.501   128953813.755        2532.736          47.000    24157359.850   100297363.343        1970.016          45.000  
E19  25402483.536   133491145.666       -2706.840          43.000    25402484.939   102285503.468       -2074.163          48.000  
S31  39828338.839   209299347.515        -772.874          45.000  
G14  24881725.493   130754697.881       -3962.799          41.000    24881722.522                       -3087.677          30.000  
G30  26119375.396   137258574.418       -3342.538          42.000    26119372.287   106955111.580       -2604.541          36.000  
E21  26380746.936   138632161.741       -2822.169          45.000    26380746.833   106224845.989       -2162.540          47.000  
G22  22675812.510   119162576.200       -3345.242          48.000                                                                  
E04  24996248.635   131356207.137         302.065          49.000    24996247.940   100649667.894         231.559          52.000  
> 2024 04 08 22 46 00.0030000  0 24                     
S33  40784934.150   214326287.836        -773.132          44.000  
G05  25720990.953   135164442.357       -3681.682          36.000    25721007.731   105322920.096       -2868.196          34.000  
G24  23413571.243   123039240.890        1263.465          47.000    23413569.727    95874812.574         984.500          46.000  
G15  21700641.755   114037621.672        -455.487          49.000    21700637.837    88860546.940        -354.919          47.000  
R06  21028749.490   112213485.014        -350.634          43.000                                                                  
R07  23862933.561   127740183.033        2849.530          37.000    23862933.640    99353425.022        2216.311          37.000  
R05  22347687.289   119461147.523       -4716.201          51.000    22347687.406    92914259.626       -3668.159          47.000  
R16  21134458.565   112896970.248       -1278.426          52.000    21134455.249    87808946.254        -994.375          50.000  
R09  23204520.306   123911074.209        1272.689          48.000    23204521.105    96375349.410         989.801          49.000  
G19  22316808.613   117276024.939         -77.355          47.000                                                                  
G13  21440085.645   112668625.174       -2224.153          46.000                                                                  
G17  22711553.623   119350448.944       -1385.776          47.000    22711548.615    93000565.074       -1079.575          45.000  
E31  26990011.682   141833700.549        1183.796          45.000    26990019.020   108677814.422         907.122          47.000  
G12  24145089.788   126883530.018        1701.822          44.000    24145093.210    98870437.596        1325.827          41.000  
R17  23711927.944   126887356.786         249.025          44.000    23711923.417    98690131.316         193.800          45.000  
R15  23133087.869   123616596.035       -3356.097          50.000    23133084.038    96146457.078       -2610.311          49.000  
R18  24143141.684   128877926.008        2526.183          46.000    24143144.402   100238339.930        1964.814          46.000  
E19  25417965.083   133572498.033       -2716.903          44.000    25417965.750   102347838.370       -2081.761          48.000  
S31  39832750.980   209322533.647        -773.062          44.000  
G14  24904348.078   130873580.370       -3962.821          42.000    24904346.406   101979617.779       -3087.859          33.000  
G30  26138461.686   137358878.162       -3344.831          42.000    26138460.201   107033270.354       -2606.160          37.000  
E21  26396863.829   138716863.881       -2824.696          43.000    26396865.595   106289747.625       -2164.458          49.000  
G22  22694931.633   119263046.448       -3353.123          48.000                                                                  
E04  24994554.830   131347306.637         291.050          48.000    24994554.313   100642848.077         222.994          52.000  
> 2024 04 08 22 46 30.0030000  0 24                     
S33  40789346.344   214349474.531        -772.877          44.000  
G05  25741999.004                       -3679.556          30.000    25742016.102   105408944.305       -2866.122          33.000  
G24  23406362.223   123001357.423        1261.790          47.000    23406361.004    95845293.070         983.113          46.000  
G15  21703292.488   114051550.480        -473.376          49.000    21703288.398    88871400.554        -368.951          47.000  
R06  21030794.878   112224400.414        -377.459          44.000                                                                  
R07  23846999.480   127654891.173        2836.207          37.000    23846997.243    99287087.075        2206.017          37.000  
R05  22374188.419   119602814.017       -4728.524          50.000    22374190.119    93024444.213       -3677.797          48.000  
R16  21141657.452   112935429.927       -1285.822          51.000    21141654.655    87838859.381       -1000.129          50.000  
R09  23197388.570   123872995.137        1265.787          47.000    23197389.597    96345732.616         984.399          48.000  
G19  22317305.097   117278632.433         -96.747          47.000                                                                  
G13  21452829.121   112735597.155       -2240.986          46.000                                                                  
G17  22719522.728   119392326.721       -1406.374          47.000    22719517.427    93033197.136       -1095.709          45.000  
E31  26983269.463   141798272.371        1177.595          45.000    26983277.225   108650668.471         902.322          47.000  
G12  24135399.822   126832607.620        1692.942          45.000    24135402.037    98830758.192        1319.142          40.000  
R17  23710592.553   126880211.389         227.101          47.000    23710588.236    98684573.876         176.525          44.000  
R15  23151928.139   123717272.183       -3355.826          51.000    23151923.581    96224760.802       -2610.101          48.000  
R18  24128963.608   128802239.696        2519.354          48.000    24128965.899   100179473.101        1959.509          46.000  
E19  25433502.556   133654149.302       -2726.668          44.000    25433503.566   102410402.284       -2089.308          48.000  
S31  39837161.870   209345716.112        -772.865          44.000  
G14  24926971.528   130992466.564       -3963.039          42.000    24926965.596   102072256.442       -3088.118          33.000  
G30  26157560.413   137459243.912       -3346.942          40.000    26157559.458   107111477.410       -2607.758          38.000  
E21  26412995.312   138801636.280       -2826.919          44.000    26412996.970   106354703.160       -2166.166          49.000  
G22  22714095.212   119363752.453       -3360.925          48.000                                                                  
E04  24992924.815   131338738.924         279.818          49.000    24992924.060   100636283.216         214.407          52.000  
> 2024 04 08 22 47 00.0040000  0 25                     
S33  40793758.330   214372658.270        -772.250          44.000  
G05  25762988.048                1      -3673.978          31.000    25763006.921                       -2863.667          30.000  
G24  23399162.126   122963521.071        1260.854          47.000    23399161.281    95815810.252         982.473          46.000  
G15  21706044.980   114066014.957        -490.595          49.000    21706041.587    88882671.593        -382.276          47.000  
R06  21032993.852   112236128.855        -403.978          45.000                                                                  
R07  23831140.142                        2824.175          27.000    23831142.164    99221060.809        2195.318          33.000  
R05  22400760.267   119744852.215       -4740.036          51.000    22400761.207    93134917.890       -3686.555          47.000  
R16  21148899.551   112974113.433       -1292.580          51.000    21148896.078    87868946.603       -1005.396          49.000  
R09  23190296.488   123835125.384        1259.405          47.000    23190297.837    96316278.585         979.344          49.000  
G19  22317911.909   117281820.097        -115.440          47.000                                                                  
G13  21465668.788   112803075.966       -2257.105          45.000                                                                  
G17  22727609.208   119434824.060       -1426.245          46.000    22727604.476    93066311.984       -1111.405          44.000  
E31  26976563.822   141763034.838        1171.956          46.000    26976571.157   108623668.605         897.960          47.000  
G12  24125761.125   126781954.150        1684.265          45.000    24125762.173    98791288.395        1312.289          41.000  
R17  23709382.573   126873733.285         205.429          47.000    23709377.665    98679535.356         159.521          45.000  
R15  23170767.008   123817941.245       -3354.776          51.000    23170763.639    96303058.945       -2609.388          49.000  
R18  24114823.635   128726756.140        2513.023          48.000    24114824.626   100120764.076        1954.690          47.000  
E19  25449097.660   133736100.940       -2735.997          44.000    25449098.041   102473196.346       -2096.469          47.000  
S31  39841573.444   209368895.917        -772.244          45.000  
G14  24949595.635   131111358.251       -3962.347          41.000    24949589.730   102164899.273       -3088.019          36.000  
G30  26176672.563   137559674.427       -3348.235          41.000    26176671.205   107189735.004       -2608.970          38.000  
E21  26429141.610   138886479.947       -2828.535          45.000    26429141.976   106419713.246       -2167.359          49.000  
G22  22733303.790   119464694.932       -3367.988          47.000                                                                  
E04  24991357.599   131330504.324         269.326          49.000    24991357.062   100629973.601         206.430          52.000  
E09                                                                  28670064.133                1       1494.572          29.000  
> 2024 04 08 22 47 30.0040000  0 25                     
S33  40798167.347   214395827.926        -772.267          44.000  
G24  23391970.329   122925725.743        1259.041          48.000    23391969.096    95786359.407         980.955          47.000  
G15  21708897.348   114081005.668        -508.656          48.000    21708893.779    88894352.671        -396.302          47.000  
R06  21035342.224   112248660.547        -431.216          45.000                                                                  
R07  23815355.393   127485510.408        2809.168          36.000    23815350.004                3       2184.773          24.000  
R05  22427397.289   119887239.003       -4752.182          50.000    22427398.323    93245662.715       -3696.072          48.000  
R16  21156180.976   113013006.719       -1300.141          52.000    21156176.943    87899196.985       -1011.127          49.000  
R09  23183242.631   123797457.582        1252.082          49.000    23183242.201    96286981.676         973.933          48.000  
G19  22318626.799   117285579.622        -135.016          46.000                                                                  
E09  28658941.173                        1947.491          26.000    28658936.240                        1492.493          30.000  
G13  21478603.329   112871047.195       -2274.161          46.000                                                                  
G17  22735811.210   119477928.258       -1447.064          46.000    22735807.218    93099899.703       -1127.625          45.000  
E31  26969892.606   141727980.964        1165.257          46.000    26969900.080   108596809.442         892.879          47.000  
G12  24116170.965   126731564.032        1675.049          45.000    24116172.745    98752023.805        1305.290          40.000  
R17  23708295.340   126867915.469         182.728          47.000    23708289.954    98675010.441         142.180          45.000  
R15  23189601.123   123918585.862       -3354.558          51.000    23189596.570    96381338.126       -2609.042          49.000  
R18  24100720.590   128651475.449        2505.752          48.000    24100721.178   100062212.788        1948.900          45.000  
E19  25464746.430   133818337.449       -2746.446          44.000    25464747.283   102536208.691       -2104.221          47.000  
S31  39845981.994   209392061.403        -772.076          45.000  
G14  24972217.460   131230236.470       -3962.610          43.000    24972212.343   102257531.667       -3087.775          35.000  
G30  26195793.017   137660153.687       -3350.493          41.000    26195791.111   107268030.495       -2610.653          37.000  
E21  26445298.526   138971378.548       -2831.040          47.000    26445298.036   106484765.436       -2169.260          50.000  
G22  22752553.650   119565855.466       -3375.746          47.000                                                                  
E04  24989852.513   131322595.148         258.075          49.000    24989852.303   100623913.355         197.735          52.000  
G05                                                                  25783978.409                       -2860.614          30.000  
> 2024 04 08 22 48 00.0040000  0 25                     
S33  40802576.503   214418996.597        -772.532          44.000  
G24  23384788.179   122887983.054        1256.905          49.000    23384786.329    95756949.557         979.432          46.000  
G15  21711852.880   114096535.541        -526.888          49.000    21711848.919    88906453.886        -410.677          47.000  
R06  21037843.187   112262008.939        -458.844          45.000                                                                  
R07  23799651.524   127401435.060        2795.131          40.000    23799644.765    99089940.6781       2174.137          35.000  
R05  22454101.600   120029987.484       -4764.531          50.000    22454102.860    93356688.830       -3705.546          48.000  
R16  21163503.103   113052121.931       -1307.757          51.000    21163499.896    87929619.964       -1017.103          50.000  
R09  23176228.537   123760002.425        1244.755          48.000    23176227.885    96257850.169         968.184          48.000  
G19  22319452.899   117289924.017        -154.880          47.000                                                                  
G13  21491635.300   112939524.188       -2291.263          47.000                                                                  
G17  22744131.428   119521652.325       -1467.744          45.000    22744127.740    93133970.433       -1143.862          45.000  
E31  26963260.014   141693121.631        1158.511          47.000    26963266.519   108570099.353         887.663          47.000  
G12  24106634.474   126681448.127        1665.709          45.000    24106635.937    98712972.864        1297.915          41.000  
R17  23707333.793   126862772.281         159.990          46.000    23707326.992    98671010.224         124.493          44.000  
R15  23208433.222   124019220.681       -3354.498          51.000    23208429.314    96459609.636       -2608.975          48.000  
R18  24086658.378   128576411.825        2498.294          48.000    24086660.043   100003830.277        1942.996          47.000  
E19  25480452.261   133900872.049       -2756.305          44.000    25480453.222   102599449.450       -2112.004          47.000  
S31  39850389.859   209415226.016        -772.550          45.000  
G14  24994839.394   131349115.617       -3962.829          42.000    24994835.753                       -3088.062          29.000  
G30  26214925.435   137760696.815       -3352.754          42.000    26214923.046   107346375.720       -2612.170          37.000  
E21  26461467.216   139056345.599       -2833.477          47.000    26461466.798   106549870.140       -2171.204          50.000  
G22  22771847.615   119667247.051       -3383.781          47.000                                                                  
E04  24988411.776   131315024.340         246.569          49.000    24988411.412   100618112.386         188.916          52.000  
E09                                                                  28647824.497   115352930.7071       1489.704          31.000  
G05                                                                  25804929.526                3      -2859.185          23.000  
> 2024 04 08 22 48 30.0040000  0 25                     
S33  40806988.038   214442179.932        -772.991          44.000  
G05  25825829.879                3      -3665.073          26.000    25825861.471                       -2856.922          27.000  
G24  23377618.961   122850308.975        1254.671          48.000    23377616.717    95727593.198         977.754          46.000  
G15  21714914.216   114112620.109        -545.473          48.000    21714909.901    88918987.306        -424.976          47.000  
R06  21040500.162   112276189.669        -486.718          44.000                                                                  
R07  23784025.742   127317793.607        2780.411          34.000    23784036.777                1       2162.796          29.000  
R05  22480875.870   120173108.135       -4776.842          51.000    22480877.256    93468004.443       -3715.207          47.000  
R16  21170869.691   113091472.722       -1315.611          52.000    21170866.719    87960226.188       -1023.301          50.000  
R09  23169256.495   123722774.245        1237.348          48.000    23169256.363    96228895.200         962.156          48.000  
G19  22320393.808   117294869.432        -174.945          47.000                                                                  
G13  21504764.760   113008521.604       -2308.534          47.000                                                                  
G17  22752572.890   119566010.840       -1489.225          45.000    22752567.945    93168535.564       -1160.391          43.000  
E31  26956665.789   141658472.130        1151.523          47.000    26956672.335   108543550.041         882.362          47.000  
G12  24097152.982   126631621.815        1656.045          46.000    24097153.532    98674147.530        1290.355          40.000  
R17  23706500.806   126858321.896         136.742          44.000    23706495.314    98667548.833         106.428          44.000  
R15  23227266.713   124119860.104       -3354.739          51.000    23227261.580    96537884.791       -2609.224          48.000  
R18  24072639.326   128501585.263        2490.137          45.000    24072641.055    99945632.238        1936.740          47.000  
E19  25496217.482   133983719.343       -2766.781          44.000    25496218.803   102662929.786       -2119.985          48.000  
S31  39854800.446   209438404.938        -773.057          44.000  
G14  25017464.077   131468009.318       -3963.373          43.000    25017460.614   102442809.283       -3088.391          34.000  
G30  26234073.522   137861319.012       -3355.281          40.000    26234070.824   107424782.683       -2614.471          37.000  
E21  26477651.257   139141395.142       -2836.311          47.000    26477651.373   106615037.987       -2173.292          50.000  
G22  22791188.694   119768882.726       -3391.936          46.000                                                                  
E04  24987038.600   131307808.300         234.675          49.000    24987038.427   100612583.206         179.753          53.000  
E09                                                                  28636736.669   115308275.032        1487.673          35.000  
> 2024 04 08 22 49 00.0040000  0 25                     
S33  40811403.320   214465382.233        -773.946          44.000  
G05  25846767.910                3      -3662.368          25.000    25846770.508                       -2854.517          25.000  
G24  23370463.951   122812710.574        1251.853          48.000    23370461.655    95698295.836         975.595          46.000  
G15  21718081.330   114129266.257        -564.339          48.000    21718076.822    88931958.357        -439.772          46.000  
R06  21043315.004   112291209.724        -514.758          44.000                                                                  
R07  23768486.492   127234596.468        2765.677          38.000    23768499.205    98960243.2411       2150.877          33.000  
R05  22507718.907   120316603.594       -4789.423          50.000    22507720.658    93579611.519       -3725.150          46.000  
R16  21178281.418   113131063.964       -1323.838          52.000    21178278.588    87991019.412       -1029.586          50.000  
R09  23162329.060   123685778.625        1228.985          49.000    23162327.640    96200121.044         955.977          48.000  
G19  22321451.329   117300423.065        -195.359          47.000                                                                  
G13  21517994.570   113078045.008       -2326.334          47.000                                                                  
G17  22761135.937   119611009.217       -1510.715          46.000    22761131.278    93203599.267       -1177.220          44.000  
E31  26950112.665   141624038.638        1144.136          47.000    26950119.853   108517166.251         876.638          47.000  
G12  24087726.911   126582092.171        1645.946          46.000    24087728.098    98635553.411        1282.590          42.000  
R17  23705801.166   126854572.409         113.024          48.000    23705794.462    98664632.573          88.031          44.000  
R15  23246101.726   124220509.632       -3355.165          51.000    23246097.964    96616167.789       -2609.688          49.000  
R18  24058668.116   128427006.521        2481.691          47.000    24058669.293    99887626.929        1930.147          47.000  
E19  25512043.508   134066884.642       -2777.505          44.000    25512044.522   102726653.815       -2128.260          47.000  
S31  39859214.896   209461603.347        -773.708          44.000  
G14  25040092.506   131586922.165       -3964.124          44.000    25040080.117   102535468.709       -3089.209          33.000  
G30  26253238.191   137962026.512       -3358.507          41.000    26253235.980   107503256.076       -2617.473          37.000  
E21  26493851.956   139226532.087       -2839.535          46.000    26493852.247   106680272.798       -2175.627          50.000  
G22  22810575.291   119870766.201       -3400.382          45.000                                                                  
E04  24985733.696   131300954.276         222.457          48.000    24985734.129   100607331.448         170.482          53.000  
E09                                                                  28625665.763   115263702.890        1483.766          35.000  
> 2024 04 08 22 49 30.0040000  0 25                     
S33  40815822.359   214488604.492        -774.410          44.000  
G05  25867661.627                3      -3660.511          25.000    25867696.658                3      -2849.629          21.000  
G24  23363323.447   122775187.141        1249.539          48.000    23363321.362    95669056.884         973.551          46.000  
G15  21721355.529   114146473.170        -582.916          48.000    21721351.633    88945366.343        -454.347          47.000  
R06  21046286.949   112307067.691        -542.674          45.000                                                                  
R07  23753027.468   127151845.915        2750.354          33.000    23753038.986    98895881.709        2140.204          32.000  
R05  22534633.705   120460467.530       -4801.701          52.000    22534634.838    93691505.202       -3734.511          47.000  
R16  21185737.190   113170892.491       -1331.655          51.000    21185733.715    88021997.190       -1035.720          49.000  
R09  23155443.497   123649013.829        1221.457          48.000    23155442.384    96171526.452         950.114          47.000  
G19  22322623.819   117306584.549        -215.512          46.000                                                                  
G13  21531324.487   113148091.971       -2343.752          48.000                                                                  
G17  22769820.646   119656645.223       -1531.898          46.000    22769814.673    93239159.815       -1193.650          43.000  
E31  26943601.426   141589819.648        1136.996          47.000    26943607.747   108490946.785         871.387          47.000  
G12  24078357.643   126532857.870        1636.219          46.000    24078358.623    98597189.423        1275.065          42.000  
R17  23705232.435   126851524.644          89.740          49.000    23705225.583    98662262.170          69.767          45.000  
R15  23264938.955   124321166.660       -3355.347          51.000    23264933.636    96694456.604       -2609.758          47.000  
R18  24044745.587   128352678.550        2473.213          50.000    24044744.966    99829816.596        1923.541          46.000  
E19  25527929.686   134150365.512       -2788.122          44.000    25527930.368   102790619.618       -2136.279          47.000  
S31  39863632.989   209484820.654        -774.203          44.000  
G14  25062723.941   131705851.016       -3964.636          44.000    25062715.136   102628140.641       -3089.264          35.000  
G30  26272417.216   138062817.594       -3360.883          40.000    26272416.808   107581794.587       -2619.228          38.000  
E21  26510068.631   139311753.603       -2842.222          46.000    26510068.939   106745572.418       -2177.763          49.000  
G22  22830009.695   119972893.787       -3408.554          46.000                                                                  
E04  24984498.876   131294461.922         210.290          48.000    24984498.714   100602356.799         161.180          53.000  
E09                                                                  28614616.476   115219213.896        1481.244          35.000  
> 2024 04 08 22 50 00.0040000  0 25                     
S33  40820244.010   214511842.879        -775.085          44.000  
G24  23356196.930   122737737.898        1246.649          48.000    23356195.067    95639875.720         971.548          46.000  
G15  21724736.403   114164239.769        -601.875          48.000    21724732.369    88959210.442        -469.106          47.000  
R06  21049415.213   112323762.515        -570.742          44.000                                                                  
R07  23737657.446   127069500.7881       2735.568          36.000    23737658.377    98831869.610        2128.101          33.000  
R05  22561613.968   120604694.467       -4813.896          51.000    22561615.682    93803681.219       -3744.049          48.000  
R16  21193236.639   113210954.935       -1339.558          51.000    21193233.663    88053156.919       -1041.946          50.000  
R09  23148600.988   123612477.262        1213.883          46.000    23148599.439    96143109.370         944.054          47.000  
G19  22323911.415   117313352.579        -236.053          46.000                                                                  
G13  21544754.084   113218660.135       -2361.189          48.000                                                                  
G17  22778626.133   119702916.451       -1553.378          46.000    22778620.682    93275215.370       -1210.476          43.000  
E31  26937129.829   141555813.521        1129.690          46.000    26937136.604   108464890.466         865.569          48.000  
G12  24069044.527   126483917.793        1626.128          46.000    24069045.095    98559054.683        1267.072          40.000  
R17  23704793.175   126849179.162          66.182          49.000    23704787.605    98660438.022          51.364          44.000  
R15  23283776.613   124421828.689       -3355.782          50.000    23283770.843    96772749.331       -2610.026          47.000  
R18  24030868.394   128278604.314        2464.506          50.000    24030867.352    99772203.609        1916.877          46.000  
E19  25543875.725   134234159.349       -2798.664          45.000    25543876.217   102854825.239       -2144.455          47.000  
S31  39868053.819   209508054.422        -775.123          44.000  
G14  25085357.151   131824792.695       -3965.222          43.000    25085350.934   102720822.528       -3089.685          36.000  
G30  26291613.401   138163690.583       -3364.025          40.000    26291611.963   107660396.924       -2621.180          37.000  
E21  26526300.184   139397056.736       -2845.024          46.000    26526301.601   106810934.627       -2180.018          50.000  
G22  22849490.730   120075261.546       -3416.555          48.000                                                                  
E04  24983331.672   131288330.673         197.951          47.000    24983332.043   100597658.852         151.727          53.000  
E09                                                                  28603586.363   115174808.255        1478.846          33.000  
G05                                                                  25888597.748                3      -2853.320          23.000  
> 2024 04 08 22 50 30.0040000  0 25                     
S33  40824672.323   214535112.753        -776.147          45.000  
G24  23349087.400   122700378.514        1243.899          48.000    23349085.899    95610764.605         969.213          46.000  
G15  21728226.841   114182581.151        -620.937          49.000    21728222.544    88973502.421        -483.790          47.000  
R06  21052703.772   112341309.350        -599.167          44.000                                                                  
R07  23722375.845   126987667.543        2720.030          39.000    23722357.168                1       2115.215          26.000  
R05  22588664.964   120749294.810       -4826.115          51.000    22588666.560    93916147.645       -3753.655          47.000  
R16  21200782.445   113251264.410       -1347.766          50.000    21200779.582    88084508.766       -1048.284          49.000  
R09  23141804.074   123576183.347        1205.795          48.000    23141802.579    96114880.965         937.815          46.000  
G19  22325318.171   117320743.086        -256.803          46.000                                                                  
G13  21558284.293   113289763.533       -2379.062          48.000                                                                  
G17  22787553.505   119749837.403       -1574.912          44.000    22787548.334    93311777.185       -1227.369          42.000  
E31  26930702.202   141522035.097        1122.167          47.000    26930708.327   108439008.617         859.775          48.000  
G12  24059789.552   126435287.364        1615.958          46.000    24059789.598    98521161.213        1259.092          40.000  
R17  23704490.809   126847552.985          42.229          49.000    23704485.375    98659173.265          32.684          45.000  
R15  23302616.886   124522510.135       -3356.442          50.000    23302612.240    96851057.154       -2610.616          47.000  
R18  24017043.004   128204803.405        2455.419          50.000    24017040.547    99714803.214        1909.794          46.000  
E19  25559882.763   134318279.864       -2809.569          44.000    25559883.985   102919281.171       -2152.634          48.000  
S31  39872481.324   209531319.658        -775.970          45.000  
G14  25107996.592   131943760.536       -3965.991          44.000    25107991.625   102813524.787       -3090.692          38.000  
G30  26310827.421   138264660.212       -3367.209          39.000    26310825.614   107739074.560       -2623.761          38.000  
E21  26542551.986   139482455.149       -2848.116          48.000    26542552.662   106876369.831       -2182.395          50.000  
G22  22869018.168   120177881.960       -3424.807          47.000                                                                  
E04  24982236.126   131282576.532         185.680          47.000    24982236.982   100593249.868         142.131          53.000  
E09                                                                  28592581.515   115130498.375        1475.501          33.000  
G05                                                                  25909434.315                3      -2850.754          20.000  
> 2024 04 08 22 51 00.0040000  0 25                     
S33  40829105.494   214558408.981        -777.184          43.000  
G24  23341994.479   122663105.750        1241.038          48.000    23341993.165    95581720.948         966.931          46.000  
G15  21731825.438   114201493.750        -639.888          48.000    21731821.445    88988239.517        -498.715          47.000  
R06  21056150.858   112359704.520        -627.421          44.000                                                                  
R07  23707179.706                3       2704.555          27.000    23707159.687                1       2103.254          28.000  
R05  22615784.443   120894260.282       -4838.254          51.000    22615786.328    94028898.014       -3763.115          48.000  
R16  21208374.545   113291815.463       -1355.731          52.000    21208370.372    88116048.502       -1054.467          49.000  
R09  23135051.171   123540127.204        1197.761          47.000    23135051.854    96086837.509         931.629          49.000  
G19  22326842.532   117328752.992        -277.436          46.000                                                                  
G13  21571915.738   113361397.216       -2396.734          48.000                                                                  
G17  22796604.883   119797403.214       -1596.293          45.000    22796600.549    93348841.501       -1243.759          44.000  
E31  26924315.901   141488480.264        1114.707          47.000    26924322.598   108413298.071         854.148          48.000  
G12  24050594.158   126386962.820        1605.672          45.000    24050593.111    98483506.097        1251.054          40.000  
R17  23704320.507   126846644.083          18.249          49.000    23704314.565    98658466.443          14.444          42.000  
R15  23321461.129   124623205.471       -3356.780          50.000    23321456.823    96929375.770       -2610.729          47.000  
R18  24003267.274   128131276.019        2446.209          48.000    24003268.007    99657615.594        1902.696          48.000  
E19  25575952.282   134402722.145       -2820.114          45.000    25575952.906   102983983.650       -2160.874          48.000  
S31  39876913.926   209554612.737        -777.197          44.000  
G14  25130638.912   132062748.714       -3966.644          44.000    25130634.856   102906242.885       -3090.912          40.000  
G30  26330057.931   138365722.238       -3369.856          38.000    26330056.747   107817824.218       -2626.257          38.000  
E21  26558820.899   139567943.436       -2851.098          48.000    26558820.553   106941873.871       -2184.663          50.000  
G22  22888593.346   120280748.550       -3433.041          47.000                                                                  
E04  24981212.403   131277196.448         173.041          47.000    24981213.397   100589127.495         132.531          53.000  
E09                                                                  28581600.241   115086282.304        1472.098          33.000  
G05                                                                  25930315.940                3      -2843.294          12.000  
> 2024 04 08 22 51 30.0040000  0 25                     
S33  40833543.301   214581730.500        -777.869          44.000  
G24  23334917.837   122625916.637        1238.290          48.000    23334915.776    95552742.483         964.998          45.000  
G15  21735532.687   114220973.848        -658.900          48.000    21735528.681    89003418.814        -513.410          47.000  
R06  21059756.150   112378944.184        -655.383          44.000                                                                  
R07  23692058.410                1       2688.083          29.000    23692042.247                        2090.629          31.000  
R05  22642969.950   121039582.794       -4850.067          51.000    22642972.241    94141926.043       -3772.111          48.000  
R16  21216010.155   113332602.635       -1363.588          52.000    21216005.806    88147771.903       -1060.535          48.000  
R09  23128341.639   123504304.153        1190.038          48.000    23128344.206    96058975.384         925.591          50.000  
G19  22328483.972   117337379.369        -297.778          46.000                                                                  
G13  21585646.963   113433556.673       -2414.143          48.000                                                                  
G17  22805778.510   119845609.166       -1617.496          45.000    22805772.787    93386404.626       -1260.341          42.000  
E31  26917972.872   141455145.227        1107.471          47.000    26917978.861   108387755.949         848.508          49.000  
G12  24041455.138   126338940.959        1595.488          46.000    24041455.021    98446086.836        1243.298          41.000  
R17  23704283.612   126846450.698          -5.353          48.000    23704276.247    98658316.108          -4.158          41.000  
R15  23340306.570   124723910.248       -3357.038          49.000    23340302.544    97007701.779       -2611.073          45.000  
R18  23989544.674   128058022.977        2437.094          50.000    23989544.715    99600641.284        1895.475          48.000  
E19  25592081.846   134487481.390       -2830.685          45.000    25592081.714   103048928.992       -2168.912          47.000  
S31  39881350.762   209577929.089        -777.591          44.000  
G14  25153283.855   132181751.960       -3967.022          41.000    25153281.857   102998972.725       -3091.089          40.000  
G30  26349306.558   138466872.806       -3373.207          39.000    26349305.874   107896642.855       -2628.291          40.000  
E21  26575104.484   139653516.527       -2853.827          47.000    26575104.363   107007442.909       -2186.708          50.000  
G22  22908213.417   120383855.459       -3440.896          47.000                                                                  
E04  24980259.506   131272187.739         160.722          47.000    24980259.626   100585289.677         123.112          52.000  
E09                                                                  28570641.346   115042158.287        1470.002          33.000  
G05                                                                  25951178.961                3      -2839.889          15.000  
> 2024 04 08 22 52 00.0040000  0 24                     
S33  40837982.783   214605060.768        -777.908          44.000  
G24  23327854.632   122588798.362        1236.046          48.000    23327852.111    95523819.200         963.192          45.000  
G15  21739344.989   114241008.633        -677.143          48.000    21739340.828    89019030.334        -527.644          47.000  
R06  21063517.964   112399014.768        -683.028          44.000                                                                  
R07  23677040.677                3       2673.919          23.000    23677021.890                        2079.652          32.000  
R05  22670218.699   121185243.864       -4860.919          50.000    22670221.442    94255217.415       -3780.726          48.000  
R16  21223686.208   113373610.290       -1370.662          51.000    21223682.118    88179666.767       -1066.004          48.000  
R09  23121674.952   123468699.659        1183.146          49.000    23121674.607    96031283.209         920.306          47.000  
G19  22330239.648   117346609.024        -317.867          45.000                                                                  
G13  21599475.426   113506227.340       -2430.990          47.000                                                                  
G17  22815070.822   119894440.776       -1638.188          46.000    22815066.519    93424455.283       -1276.449          45.000  
E31  26911667.948   141422016.192        1100.822          46.000    26911674.388   108362371.670         843.518          49.000  
G12  24032371.962   126291208.257        1586.110          48.000    24032372.173    98408892.891        1236.177          41.000  
R17  23704379.014   126846960.886         -28.926          48.000    23704374.127    98658712.999         -22.352          45.000  
R15  23359151.017   124824609.487       -3356.755          51.000    23359147.304    97086023.429       -2610.469          46.000  
R18  23975871.244   127985034.868        2428.491          49.000    23975871.732    99543873.040        1888.687          50.000  
E19  25608268.177   134572542.985       -2840.506          45.000    25608268.639   103114106.013       -2176.375          47.000  
S31  39885789.282   209601254.166        -777.705          44.000  
G14  25175929.465   132300755.057       -3966.864          43.000    25175927.193   103091702.405       -3090.863          40.000  
G30  26368569.373   138568098.127       -3375.297          41.000    26368568.359   107975519.694       -2630.122          39.000  
E21  26591400.800   139739159.473       -2855.929          47.000    26591401.702   107073065.461       -2188.302          50.000  
G22  22927877.408   120487186.528       -3448.216          48.000                                                                  
E04  24979375.222   131267537.749         148.864          48.000    24979374.849   100581726.708         114.149          53.000  
E09                                                                  28559702.249   114998116.982        1466.439          31.000  
> 2024 04 08 22 52 30.0040000  0 24                     
S33  40842425.581   214628405.744        -778.749          44.000  
G24  23320806.276   122551757.437        1233.340          48.000    23320803.134    95494956.191         961.037          45.000  
G15  21743263.852   114261604.017        -696.075          48.000    21743259.845    89035078.697        -542.568          47.000  
R06  21067435.260   112419921.952        -711.230          43.000                                                                  
R07  23662126.300                3       2660.704          24.000    23662076.806    98517222.5111       2066.910          33.000  
R05  22697532.480   121331244.552       -4872.530          51.000    22697534.853    94368772.904       -3789.799          48.000  
R16  21231405.423   113414842.605       -1378.476          52.000    21231400.853    88211736.380       -1072.046          49.000  
R09  23115049.134   123433318.896        1175.380          48.000    23115048.925    96003765.038         914.271          48.000  
G19  22332111.760   117356448.572        -338.333          44.000                                                                  
G13  21613402.164   113579414.020       -2448.327          47.000                                                                  
G17  22824482.983   119943903.147       -1659.432          47.000    22824477.492    93462997.442       -1293.081          43.000  
E31  26905402.734   141389098.799        1093.671          45.000    26905410.270   108337149.562         837.931          49.000  
G12  24023344.912   126243770.813        1576.112          48.000    24023345.021    98371928.986        1228.281          42.000  
R17  23704606.782   126848182.391         -52.765          48.000    23704603.101    98659663.140         -41.136          46.000  
R15  23377995.105   124925308.364       -3356.790          50.000    23377990.429    97164344.851       -2610.801          43.000  
R18  23962249.418   127912322.003        2418.858          49.000    23962249.587    99487318.872        1881.340          49.000  
E19  25624513.156   134657911.243       -2851.015          44.000    25624513.313   103179518.009       -2184.458          47.000  
S31  39890231.180   209624595.489        -778.533          44.000  
G14  25198576.376   132419762.030       -3967.190          44.000    25198572.349   103184435.139       -3091.075          40.000  
G30  26387846.643   138669403.642       -3378.261          40.000    26387846.407   108054459.107       -2632.596          39.000  
E21  26607712.000   139824876.690       -2858.646          47.000    26607712.375   107138744.919       -2190.436          49.000  
G22  22947583.642   120590745.345       -3455.967          48.000                                                                  
E04  24978559.547   131263253.251         136.469          48.000    24978559.073   100578443.793         104.653          52.000  
E09                                                                  28548786.001                        1463.635          29.000  
> 2024 04 08 22 53 00.0040000  0 24                     
S33  40846873.051   214651778.259        -779.297          43.000  
G24  23313774.741   122514806.079        1230.076          48.000    23313771.559    95466162.999         958.593          45.000  
E09  28537897.300                        1905.612          28.000    28537894.889                        1459.485          30.000  
G15  21747292.321   114282771.948        -715.126          48.000    21747288.279    89051573.192        -557.314          47.000  
R06  21071512.612   112441677.516        -739.319          44.000                                                                  
R07  23647275.402   126585675.3491       2642.275          35.000    23647225.408    98455398.360        2054.523          34.000  
R05  22724910.756   121477592.443       -4883.942          52.000    22724912.890    94482598.457       -3798.673          47.000  
R16  21239168.114   113456309.550       -1386.105          52.000    21239164.389    88243988.499       -1078.092          50.000  
R09  23108468.244   123398172.694        1167.556          49.000    23108466.876    95976429.381         908.219          48.000  
G19  22334102.009   117366909.976        -359.177          44.000                                                                  
G13  21627430.012   113653127.278       -2465.828          48.000                                                                  
G17  22834017.654   119994006.304       -1680.663          47.000    22834012.767    93502038.922       -1309.562          45.000  
E31  26899180.818   141356404.369        1086.147          45.000    26899188.420   108312098.278         832.240          49.000  
G12  24014376.250   126196640.158        1565.919          49.000    24014376.579    98335204.157        1220.374          43.000  
R17  23704970.720   126850128.526         -76.949          48.000    23704966.284    98661176.872         -59.860          45.000  
R15  23396841.655   125026017.570       -3357.072          49.000    23396837.368    97242674.321       -2611.155          45.000  
R18  23948682.342   127839900.393        2409.085          49.000    23948682.438    99430991.194        1873.718          49.000  
E19  25640818.119   134743596.862       -2861.322          44.000    25640818.884   103245173.193       -2192.576          47.000  
S31  39894677.591   209647962.640        -779.421          44.000  
G14  25221225.279   132538782.789       -3967.699          43.000    25221220.172   103277178.597       -3091.221          38.000  
G30  26407141.449   138770800.730       -3381.345          39.000    26407141.652   108133469.813       -2634.854          37.000  
E21  26624040.323   139910678.244       -2861.398          47.000    26624040.412   107204488.991       -2192.449          50.000  
G22  22967335.340   120694540.838       -3463.771          48.000                                                                  
E04  24977816.114   131259346.567         123.901          48.000    24977815.776   100575450.392          94.970          52.000  
> 2024 04 08 22 53 30.0040000  0 24                     
S33  40851321.959   214675159.217        -779.306          44.000  
G24  23306757.145   122477927.804        1228.247          48.000    23306753.974    95437426.760         956.925          45.000  
E09  28527030.490                        1902.972          27.000    28527022.991                        1457.061          29.000  
G15  21751425.366   114304494.667        -733.296          48.000    21751422.145    89068499.987        -571.394          47.000  
R06  21075745.889   112464263.755        -766.734          44.000                                                                  
R07  23632503.557   126506692.384        2626.480          34.000    23632466.537    98393939.288        2042.683          36.000  
R05  22752349.547   121624265.830       -4894.461          52.000    22752351.131    94596677.152       -3806.786          47.000  
R16  21246970.511   113497991.764       -1392.914          51.000    21246966.830    88276408.029       -1083.373          49.000  
R09  23101927.915   123363242.555        1160.900          51.000    23101926.217    95949261.726         902.823          49.000  
G19  22336207.838   117377976.760        -379.003          44.000                                                                  
G13  21641553.698   113727348.910       -2482.514          48.000                                                                  
G17  22843670.560   120044732.202       -1701.224          47.000    22843664.811    93541565.669       -1325.768          44.000  
E31  26892998.299   141323915.455        1079.574          45.000    26893005.672   108287204.478         827.192          49.000  
G12  24005462.443   126149799.433        1556.566          48.000    24005462.743    98298705.238        1212.982          42.000  
R17  23705466.854   126852783.519        -100.416          49.000    23705460.739    98663241.944         -77.932          41.000  
R15  23415685.461   125126718.407       -3356.490          49.000    23415683.092    97320997.247       -2610.546          45.000  
R18  23935167.837   127767756.749        2400.069          49.000    23935167.592    99374879.711        1866.802          49.000  
E19  25657179.912   134829581.089       -2871.097          43.000    25657181.347   103311057.158       -2200.005          47.000  
S31  39899125.785   209671338.332        -779.369          44.000  
G14  25243873.234   132657798.392       -3967.000          45.000    25243866.873   103369918.072       -3091.178          37.000  
G30  26426450.706   138872271.809       -3383.928          37.000    26426451.342   108212538.236       -2636.661          37.000  
E21  26640380.092   139996545.512       -2863.155          47.000    26640380.213   107270283.434       -2193.943          50.000  
G22  22987127.203   120798553.410       -3470.617          47.000                                                                  
E04  24977141.548   131255801.447         112.229          48.000    24977141.189   100572734.003          86.028          52.000  
> 2024 04 08 22 54 00.0040000  0 24                     
S33  40855772.526   214698545.423        -779.696          44.000  
G24  23299752.873   122441120.039        1225.923          48.000    23299749.385    95408745.443         955.176          45.000  
E09  28516179.962   149853542.937        1898.723          29.000    28516174.257   114822855.235        1454.848          29.000  
G15  21755664.667   114326769.496        -751.819          49.000    21755660.443    89085857.007        -585.852          46.000  
R06  21080133.080   112487677.089        -794.235          44.000                                                                  
R07  23617851.869   126428228.1511       2609.398          34.000    23617796.308    98332845.653        2030.286          38.000  
R05  22779847.936   121771256.424       -4905.023          51.000    22779850.021    94711002.568       -3814.943          49.000  
R16  21254812.771   113539884.395       -1399.885          51.000    21254809.046    88308991.203       -1088.911          49.000  
R09  23095426.122   123328524.500        1153.536          51.000    23095424.058    95922259.010         897.346          48.000  
G19  22338429.065   117389646.071        -399.081          45.000                                                                  
G13  21655773.248   113802073.909       -2499.366          47.000                                                                  
G17  22853441.133   120096076.448       -1721.880          47.000    22853436.151    93581574.248       -1341.675          44.000  
E31  26886854.921   141291628.539        1072.804          45.000    26886861.327   108262465.426         822.005          48.000  
G12  23996602.556   126103245.464        1546.888          48.000    23996603.073    98262429.776        1205.338          42.000  
R17  23706095.344   126856145.902        -123.965          48.000    23706088.416    98665857.160         -96.463          36.000  
R15  23434528.481   125227406.523       -3356.078          48.000    23434525.203    97399310.305       -2610.268          45.000  
R18  23921703.936   127695892.250        2390.561          48.000    23921704.613    99318985.355        1859.451          49.000  
E19  25673597.689   134915859.702       -2880.882          43.000    25673599.997   103377166.689       -2207.424          47.000  
S31  39903575.551   209694719.994        -779.637          44.000  
G14  25266519.381   132776803.833       -3966.622          45.000    25266512.652   103462649.703       -3090.918          36.000  
G30  26445774.570   138973813.283       -3385.702          36.000    26445773.900   108291661.449       -2638.524          37.000  
E21  26656731.261   140082473.833       -2865.411          46.000    26656731.397   107336124.636       -2195.458          50.000  
G22  23006960.379   120902777.106       -3477.590          47.000                                                                  
E04  24976535.396   131252615.433         100.067          48.000    24976534.867   100570292.770          76.682          52.000  
> 2024 04 08 22 54 30.0040000  0 24                     
S33  40860224.134   214721941.214        -780.068          42.000  
G24  23292762.565   122404387.885        1223.081          47.000    23292759.516    95380123.062         952.973          45.000  
E09  28505357.009                1       1895.068          29.000    28505349.527   114779259.545        1451.732          32.000  
G15  21760008.508   114349600.820        -770.424          48.000    21760005.293    89103647.654        -600.392          47.000  
R06  21084676.564   112511921.756        -822.312          44.000                                                                  
R05  22807404.004   121918564.045       -4915.686          49.000    22807408.347    94825574.483       -3823.250          49.000  
R16  21262694.627   113581989.771       -1407.157          51.000    21262691.655    88341739.875       -1094.431          49.000  
R09  23088963.015   123294021.615        1146.266          49.000    23088963.304    95895423.616         891.652          49.000  
G19  22340765.106   117401922.627        -419.541          46.000                                                                  
G13  21670089.861   113877305.553       -2516.225          46.000                                                                  
G17  22863330.534   120148042.390       -1742.689          47.000    22863325.770    93622067.243       -1357.893          46.000  
E31  26880748.585   141259547.723        1065.887          44.000    26880756.435   108237884.315         816.670          49.000  
G12  23987799.016   126056982.785        1537.059          48.000    23987799.223    98226381.254        1197.689          43.000  
R17  23706856.837   126860221.659        -147.957          48.000    23706849.554    98669027.376        -115.243          39.000  
R15  23453368.158   125328085.441       -3356.035          46.000    23453366.339    97477616.105       -2610.054          46.000  
R18  23908296.217   127624315.626        2380.865          50.000    23908295.972    99263314.883        1851.783          49.000  
E19  25690073.130   135002435.645       -2890.917          44.000    25690074.769   103443504.064       -2215.147          47.000  
S31  39908026.356   209718110.723        -779.966          44.000  
G14  25289163.967   132895801.868       -3966.549          46.000    25289157.013   103555375.455       -3090.870          37.000  
G30  26465109.723   139075429.284       -3388.045          36.000    26465109.587   108370842.748       -2640.080          36.000  
E21  26673096.185   140168466.103       -2867.586          47.000    26673095.508   107402014.869       -2197.220          50.000  
G22  23026834.332   121007214.394       -3485.006          48.000                                                                  
E04  24975998.257   131249793.732          87.846          47.000    24975997.838   100568130.698          67.299          52.000  
R07                                                                  23603213.229    98272123.870        2017.859          39.000  
> 2024 04 08 22 55 00.0040000  0 24                     
S33  40864678.857   214745348.993        -780.563          45.000  
G24  23285787.880   122367735.247        1220.300          48.000    23285785.135    95351562.606         950.932          46.000  
G15  21764460.120   114372991.852        -789.039          49.000    21764455.973    89121874.432        -614.788          46.000  
R06  21089376.046   112537000.607        -849.875          44.000                                                                  
R07  23588720.592                3       2577.601          30.000    23588720.573    98211779.221        2005.104          41.000  
R05  22835020.786   122066187.705       -4926.151          51.000    22835024.489    94940392.241       -3831.203          48.000  
R16  21270616.152   113624309.637       -1414.206          51.000    21270613.956    88374655.368       -1099.968          49.000  
R09  23082541.320   123259736.384        1139.154          48.000    23082542.029    95868757.563         886.010          48.000  
G19  22343217.750   117414809.978        -439.755          46.000                                                                  
G13  21684502.436   113953046.286       -2533.255          48.000                                                                  
G17  22873337.165   120200632.024       -1763.414          45.000    22873332.745    93663046.247       -1374.008          44.000  
E31  26874684.236   141227675.883        1058.796          45.000    26874691.130   108213463.341         811.422          49.000  
G12  23979050.774   126011014.634        1527.212          48.000    23979051.099    98190562.281        1190.062          43.000  
R17  23707752.486   126865015.510        -171.718          48.000    23707746.548    98672755.945        -133.944          43.000  
R15  23472208.899   125428757.006       -3355.557          47.000    23472204.692    97555916.255       -2609.763          47.000  
R18  23894942.172   127553034.371        2370.962          49.000    23894942.236    99207874.121        1844.150          49.000  
E19  25706604.504   135089310.823       -2900.909          44.000    25706606.889   103510070.733       -2222.727          48.000  
S31  39912479.401   209741513.849        -780.361          45.000  
G14  25311806.926   133014793.896       -3966.409          45.000    25311800.886   103648096.543       -3090.912          38.000  
G30  26484462.117   139177122.744       -3391.221          39.000    26484460.787   108450084.334       -2642.174          36.000  
E21  26689471.470   140254524.090       -2869.766          46.000    26689471.923   107467955.418       -2198.778          51.000  
G22  23046748.869   121111865.572       -3492.021          47.000                                                                  
E04  24975531.420   131247340.295          75.497          48.000    24975530.882   100566250.811          58.007          52.000  
E09                                                                  28494545.181   114735755.969        1448.455          33.000  
> 2024 04 08 22 55 30.0040000  0 24                     
S33  40869134.723   214768767.026        -780.642          44.000  
G24  23278827.479   122331160.857        1218.079          47.000    23278825.501    95323063.154         948.991          46.000  
E09  28483769.756                        1886.635          30.000    28483763.231   114692344.390        1445.435          32.000  
G15  21769018.083   114396941.065        -807.563          49.000    21769013.384    89140536.141        -629.236          46.000  
R06  21094231.650   112562911.326        -877.277          43.000                                                                  
R07  23574328.741   126195210.5661       2562.115          38.000    23574317.861    98151813.459        1992.752          42.000  
R05  22862695.071   122214120.634       -4936.034          52.000    22862699.447    95055450.514       -3839.108          48.000  
R16  21278578.739   113666840.151       -1421.086          52.000    21278575.995    88407734.711       -1105.298          50.000  
R09  23076162.185   123225665.985        1132.181          50.000    23076161.381    95842258.594         880.541          49.000  
G19  22345786.123   117428306.767        -460.073          46.000                                                                  
G13  21699011.564   114029292.926       -2549.872          47.000                                                                  
G17  22883461.521   120253842.211       -1783.896          45.000    22883457.799    93704508.789       -1390.202          44.000  
E31  26868658.094   141196010.871        1052.217          46.000    26868665.084   108189200.843         806.174          49.000  
G12  23970358.945   125965339.400        1517.761          47.000    23970359.548    98154971.532        1182.505          43.000  
R17  23708783.282   126870526.983        -195.543          46.000    23708778.750    98677042.664        -152.012          44.000  
R15  23491045.136   125529418.800       -3355.250          45.000    23491042.053    97634208.877       -2609.701          46.000  
R18  23881644.510   127482050.995        2361.106          49.000    23881643.927    99152665.021        1836.495          48.000  
E19  25723193.169   135176482.396       -2910.646          44.000    25723195.023   103576864.461       -2230.178          48.000  
S31  39916934.800   209764926.503        -780.668          44.000  
G14  25334447.888   133133776.421       -3965.743          45.000    25334442.615   103740810.251       -3090.030          39.000  
G30  26503828.623   139278891.231       -3393.393          39.000    26503826.011   108529384.409       -2644.029          36.000  
E21  26705858.629   140340644.471       -2871.639          45.000    26705860.398   107533943.807       -2200.364          51.000  
G22  23066703.570   121216726.303       -3498.855          48.000                                                                  
E04  24975134.044   131245254.070          63.413          48.000    24975134.036   100564652.331          48.623          52.000  
> 2024 04 08 22 56 00.0040000  0 24                     
S33  40873590.538   214792181.533        -780.305          44.000  
G24  23271879.975   122294651.852        1215.803          46.000    23271878.468    95294614.643         947.122          46.000  
E09  28473015.607                1       1883.277          28.000    28473000.533   114649015.076        1442.521          31.000  
G15  21773679.347   114421434.504        -825.574          49.000    21773674.491    89159621.952        -643.330          46.000  
R06  21099240.877   112589639.704        -904.823          43.000                                                                  
R07  23560014.068   126118587.919        2545.960          40.000    23560003.037    98092218.087        1980.268          43.000  
R05  22890423.805   122362344.288       -4945.697          50.000    22890427.835    95170734.861       -3846.480          48.000  
R16  21286578.058   113709565.523       -1427.521          52.000    21286574.371    88440965.605       -1110.167          51.000  
R09  23069819.804   123191795.687        1125.724          49.000    23069818.583    95815915.240         875.456          49.000  
G19  22348468.206   117442399.501        -479.734          47.000                                                                  
G13  21713615.220   114106030.641       -2566.181          48.000                                                                  
G17  22893702.404   120307657.872       -1804.225          45.000    22893698.125    93746443.114       -1405.806          44.000  
E31  26862669.497   141164538.718        1045.758          46.000    26862675.833   108165086.096         801.307          50.000  
G12  23961720.852   125919943.476        1508.507          47.000    23961720.612    98119598.417        1175.477          44.000  
R17  23709944.362   126876743.968        -218.989          45.000    23709940.972    98681878.130        -170.367          44.000  
R15  23509878.724   125630056.128       -3354.298          45.000    23509874.432    97712482.303       -2608.903          45.000  
R18  23868400.766   127411355.775        2351.624          49.000    23868400.483    99097679.992        1829.001          47.000  
E19  25739834.700   135263934.908       -2919.993          43.000    25739836.497   103643873.479       -2237.270          47.000  
S31  39921389.804   209788335.671        -780.166          44.000  
G14  25357084.604   133252733.992       -3964.838          46.000    25357080.731   103833504.528       -3089.587          42.000  
G30  26523206.606   139380720.831       -3395.287          36.000    26523203.905   108608732.176       -2645.887          35.000  
E21  26722257.391   140426812.129       -2873.088          47.000    26722256.907   107599968.408       -2201.431          50.000  
G22  23086694.861   121321780.586       -3504.988          49.000                                                                  
E04  24974804.092   131243522.202          51.653          47.000    24974804.365   100563325.340          39.598          52.000  
> 2024 04 08 22 56 30.0040000  0 24                     
S33  40878046.203   214815596.035        -780.607          45.000  
G24  23264945.796   122258213.499        1213.193          46.000    23264944.388    95266221.190         945.219          46.000  
G15  21778444.365   114446476.850        -844.050          49.000    21778439.894    89179135.451        -657.802          47.000  
R06  21104403.598   112617189.866        -932.308          43.000                                                                  
R07  23545790.989   126042450.002        2529.633          42.000    23545779.236    98032999.863        1967.556          44.000  
R05  22918207.285   122510858.879       -4955.482          51.000    22918210.842    95286245.521       -3854.072          47.000  
R16  21294613.157   113752489.090       -1434.298          52.000    21294609.777    88474350.636       -1115.541          50.000  
R09  23063514.504   123158129.101        1118.631          49.000    23063513.260    95789730.319         869.981          48.000  
G19  22351264.251   117457093.162        -500.003          48.000                                                                  
G13  21728311.033   114183262.692       -2582.776          47.000                                                                  
G17  22904059.895   120362082.309       -1824.453          45.000    22904054.775    93788851.773       -1421.751          44.000  
E31  26856717.699   141133263.695        1039.088          45.000    26856724.086   108141122.389         796.184          50.000  
G12  23953134.966   125874831.388        1498.931          47.000    23953136.060    98084446.528        1167.974          44.000  
R17  23711236.606   126883672.134        -242.998          40.000    23711234.511    98687266.733        -188.982          42.000  
R15  23528708.841   125730672.212       -3353.689          46.000    23528702.797    97790739.318       -2608.430          43.000  
R18  23855212.373   127340957.706        2341.486          49.000    23855212.864    99042926.159        1821.003          47.000  
E19  25756531.292   135351671.912       -2929.594          44.000    25756532.294   103711100.498       -2244.695          47.000  
S31  39925844.155   209811745.607        -780.728          44.000  
G14  25379717.293   133371669.569       -3964.392          44.000    25379714.288   103926181.652       -3089.230          43.000  
G30  26542595.947   139482615.730       -3397.782          40.000    26542594.464   108688130.836       -2647.756          38.000  
E21  26738664.089   140513030.270       -2874.908          46.000    26738663.859   107666031.665       -2202.791          51.000  
G22  23106723.665   121427030.625       -3511.853          48.000                                                                  
E04  24974543.359   131242150.042          39.460          48.000    24974543.587   100562273.969          30.327          53.000  
E09                                                                  28462261.848                        1439.937          30.000  
> 2024 04 08 22 57 00.0040000  0 24                     
S33  40882502.659   214839014.664        -780.651          44.000  
G24  23258025.549   122221850.039        1210.580          45.000    23258024.432    95237886.051         943.390          46.000  
E09  28451563.284   149513941.8971       1875.323          32.000    28451548.078   114562621.046        1436.991          34.000  
G15  21783314.553   114472071.561        -862.507          49.000    21783310.295    89199079.379        -671.985          46.000  
R06  21109720.862   112645564.813        -959.592          43.000                                                                  
R07  23531659.612   125966804.321        2513.212          41.000    23531648.310    97974164.499        1954.707          44.000  
R05  22946044.907   122659663.558       -4965.171          51.000    22946049.146    95401981.821       -3861.710          49.000  
R16  21302685.953   113795612.263       -1440.852          52.000    21302681.778    88507890.915       -1120.680          50.000  
R09  23057248.055   123124668.840        1111.651          50.000    23057246.349    95763705.862         864.733          48.000  
G19  22354175.522   117472391.467        -520.265          48.000                                                                  
G13  21743102.415   114260991.266       -2599.373          48.000                                                                  
G17  22914532.660   120417117.969       -1844.644          44.000    22914526.473    93831736.741       -1437.505          44.000  
E31  26850804.677   141102188.959        1032.342          46.000    26850810.688   108117312.156         791.029          50.000  
G12  23944604.916   125830006.807        1489.158          46.000    23944605.605    98049518.605        1160.397          43.000  
R17  23712667.157   126891316.743        -267.120          41.000    23712663.977    98693212.566        -207.579          44.000  
R15  23547533.751   125831269.800       -3353.123          47.000    23547529.336    97868981.963       -2608.117          45.000  
R18  23842081.829   127270864.795        2331.181          50.000    23842081.281    98988409.618        1813.191          47.000  
E19  25773280.916   135439695.642       -2939.095          43.000    25773282.337   103778547.207       -2252.117          47.000  
S31  39930299.676   209835158.433        -780.609          44.000  
G14  25402346.403   133490585.014       -3963.748          44.000    25402343.550   104018843.040       -3088.639          43.000  
G30  26561998.809   139584579.187       -3400.027          41.000    26561997.614   108767582.770       -2649.539          38.000  
E21  26755080.495   140599300.870       -2876.643          46.000    26755080.700   107732135.153       -2204.262          51.000  
G22  23126789.220   121532477.250       -3518.268          48.000                                                                  
E04  24974351.379   131241141.808          27.502          47.000    24974351.785   100561501.457          21.048          53.000  
> 2024 04 08 22 57 30.0040000  0 24                     
S33  40886957.767   214862427.655        -780.270          44.000  
G24  23251119.344   122185554.174        1208.794          45.000    23251117.081    95209603.604         941.995          46.000  
E09  28440870.226   149457736.694        1871.105          31.000    28440851.648   114519554.818        1434.387          34.000  
G15  21788288.773   114498210.186        -880.243          49.000    21788284.346    89219447.138        -685.902          46.000  
R06  21115191.899   112674755.765        -986.474          44.000                                                                  
R07  23517616.555   125891646.070        2497.033          41.000    23517608.207    97915708.163        1942.389          45.000  
R05  22973934.838   122808745.435       -4973.861          52.000    22973938.777    95517933.695       -3868.607          49.000  
R16  21310794.343   113838925.205       -1446.834          52.000    21310789.534    88541578.818       -1125.244          49.000  
R09  23051019.233   123091405.411        1105.679          51.000    23051017.102    95737834.535         859.962          48.000  
G19  22357199.741   117488286.542        -539.606          47.000                                                                  
G13  21757986.398   114339206.759       -2615.241          48.000                                                                  
G17  22925119.926   120472755.556       -1864.499          46.000    22925114.992    93875090.758       -1452.737          45.000  
E31  26844927.493   141071306.151        1026.400          46.000    26844933.286   108093649.003         786.515          49.000  
G12  23936129.398   125785461.694        1480.364          48.000    23936128.562    98014808.439        1153.578          43.000  
R17  23714229.817   126899670.844        -290.087          40.000    23714225.806    98699710.185        -225.758          43.000  
R15  23566354.315   125931839.701       -3351.677          47.000    23566350.000    97947203.010       -2606.899          46.000  
R18  23829006.307   127201072.828        2321.347          49.000    23829006.085    98934127.193        1805.636          47.000  
E19  25790084.166   135527996.667       -2947.729          43.000    25790085.675   103846206.380       -2258.610          47.000  
S31  39934753.727   209858566.440        -780.096          44.000  
G14  25424969.412   133609470.561       -3962.270          44.000    25424966.620   104111481.203       -3087.620          42.000  
G30  26581413.239   139686602.593       -3401.877          41.000    26581411.905   108847081.524       -2650.645          37.000  
E21  26771505.573   140685614.532       -2877.658          46.000    26771505.365   107798271.635       -2204.966          50.000  
G22  23146889.857   121638110.254       -3524.171          48.000                                                                  
E04  24974227.705   131240490.273          15.932          48.000    24974227.872   100561002.252          12.158          53.000  
> 2024 04 08 22 58 00.0040000  0 24                     
S33  40891411.895   214885834.849        -780.213          44.000  
G24  23244225.141   122149324.913        1206.281          46.000    23244222.488    95181373.075         939.910          46.000  
E09  28430189.821                3       1868.077          26.000    28430177.836   114476573.814        1431.200          34.000  
G15  21793365.570   114524891.160        -898.550          48.000    21793361.689    89240237.510        -700.111          47.000  
R06  21120815.147   112704760.469       -1013.723          44.000                                                                  
R07  23503665.994   125816977.281        2480.656          41.000    23503657.239    97857632.571        1929.278          44.000  
R05  23001874.179   122958098.270       -4983.156          51.000    23001878.929    95634096.268       -3875.661          49.000  
R16  21318936.820   113882424.313       -1453.096          51.000    21318933.220    88575411.499       -1130.195          50.000  
R09  23044826.001   123058336.743        1098.902          50.000    23044825.135    95712114.643         854.780          48.000  
G19  22360338.066   117504777.226        -559.655          47.000                                                                  
G13  21772963.176   114417906.659       -2631.471          49.000                                                                  
G17  22935821.723   120528992.064       -1884.630          46.000    22935816.345    93918911.423       -1468.570          45.000  
E31  26839087.570   141040613.252        1019.812          46.000    26839092.177   108070131.360         781.299          49.000  
G12  23927705.182   125741194.512        1470.721          47.000    23927704.496    97980314.868        1146.066          43.000  
R17  23715925.810   126908734.215        -314.086          44.000    23715918.645    98706759.500        -244.243          43.000  
R15  23585169.623   126032379.218       -3350.919          48.000    23585164.393    98025400.397       -2606.265          47.000  
R18  23815989.475   127131584.646        2311.149          50.000    23815988.231    98880081.054        1797.444          47.000  
E19  25806939.735   135616571.872       -2957.229          44.000    25806941.216   103914075.638       -2265.821          47.000  
S31  39939206.748   209881968.080        -779.922          45.000  
G14  25447585.885   133728322.857       -3961.171          43.000    25447583.696   104204093.477       -3086.760          42.000  
G30  26600838.584   139788684.051       -3403.832          41.000    26600837.558   108926625.506       -2652.633          37.000  
E21  26787938.580   140771968.130       -2879.144          47.000    26787937.853   107864438.688       -2206.053          50.000  
G22  23167025.336   121743925.239       -3530.400          48.000                                                                  
E04  24974171.670   131240194.431           3.801          48.000    24974171.533   100560775.585           2.925          53.000  
> 2024 04 08 22 58 30.0040000  0 24                     
S33  40895866.728   214909243.206        -780.312          44.000  
G24  23237345.379   122113171.910        1203.750          46.000    23237342.665    95153201.974         937.925          45.000  
E09  28419537.101                        1863.793          30.000    28419527.568   114433685.776        1427.955          37.000  
G15  21798548.211   114552123.213        -916.871          49.000    21798543.434    89261457.281        -714.423          46.000  
R06  21126592.212   112735587.370       -1041.325          44.000                                                                  
R07  23489810.146   125742810.671        2463.817          42.000    23489801.449    97799947.620        1916.399          43.000  
R05  23029865.576   123107726.499       -4992.134          51.000    23029870.310    95750473.052       -3882.796          48.000  
R16  21327116.389   113926117.144       -1459.565          51.000    21327112.609    88609394.840       -1135.169          50.000  
R09  23038671.070   123025470.183        1092.147          50.000    23038669.760    95686551.949         849.497          48.000  
G19  22363592.139   117521872.373        -579.800          48.000                                                                  
G13  21788032.485   114497098.166       -2647.779          48.000                                                                  
G17  22946638.352   120585834.776       -1904.923          45.000    22946633.480    93963204.477       -1484.216          45.000  
E31  26833284.229   141010118.801        1013.259          46.000    26833288.889   108046765.757         776.394          49.000  
G12  23919335.918   125697214.036        1461.348          47.000    23919335.142    97946044.684        1138.760          43.000  
R17  23717754.744   126918517.086        -338.099          40.000    23717746.459    98714368.382        -262.957          40.000  
R15  23603980.598   126132896.511       -3350.208          47.000    23603974.850    98103580.580       -2605.837          46.000  
R18  23803031.653   127062413.588        2300.443          51.000    23803029.877    98826281.554        1789.294          46.000  
E19  25823848.649   135705428.861       -2966.690          44.000    25823850.396   103982160.804       -2273.104          47.000  
S31  39943660.330   209905370.610        -780.010          45.000  
G14  25470198.153   133847149.140       -3960.456          43.000    25470195.327   104296685.456       -3086.018          43.000  
G30  26620276.977   139890832.050       -3405.991          44.000    26620276.218   109006221.333       -2654.038          39.000  
E21  26804378.028   140858369.155       -2880.862          44.000    26804379.695   107930642.063       -2207.376          51.000  
G22  23187198.323   121849928.806       -3536.464          47.000                                                                  
E04  24974185.301   131240263.887          -8.299          49.000    24974184.799   100560828.838          -6.376          53.000  
> 2024 04 08 22 59 00.0040000  0 24                     
S33  40900320.785   214932651.553        -780.342          43.000  
G24  23230479.593   122077094.635        1201.291          46.000    23230477.592    95125089.869         936.168          46.000  
E09  28408901.367                3       1858.686          25.000    28408897.550   114390890.816        1424.938          35.000  
G15  21803835.084   114579905.123        -935.329          48.000    21803829.991    89283105.530        -728.810          46.000  
R06  21132522.431   112767234.389       -1068.595          44.000                                                                  
R07  23476048.758   125669148.349        2446.693          43.000    23476042.086    97742654.787        1903.224          45.000  
R05  23057907.674   123257624.463       -5001.037          51.000    23057912.912    95867059.635       -3889.652          48.000  
R16  21335331.680   113970000.588       -1465.921          51.000    21335328.001    88643526.460       -1140.217          50.000  
R09  23032553.071   122992803.528        1085.579          50.000    23032551.780    95661144.714         844.230          47.000  
G19  22366959.335   117539570.963        -600.033          48.000                                                                  
G13  21803195.536   114576778.714       -2664.155          48.000                                                                  
G17  22957569.594   120643280.953       -1924.982          44.000    22957565.325    94007967.771       -1500.059          45.000  
E31  26827517.932   140979821.143        1006.738          46.000    26827523.276   108023550.945         771.362          49.000  
G12  23911019.664   125653519.015        1451.821          46.000    23911020.072    97911996.947        1131.124          44.000  
R17  23719715.248   126929019.191        -361.828          34.000    23719708.818    98722536.787        -281.471          37.000  
R15  23622785.619   126233389.425       -3349.228          48.000    23622780.030    98181741.739       -2605.013          46.000  
R18  23790132.857   126993562.393        2289.668          50.000    23790130.978    98772730.794        1780.726          47.000  
E19  25840811.359   135794564.857       -2975.752          44.000    25840812.090   104050459.754       -2280.144          46.000  
S31  39948113.787   209928773.663        -780.038          44.000  
G14  25492804.924   133965946.537       -3959.518          44.000    25492801.064   104389254.904       -3085.114          44.000  
G30  26639727.094   139993044.988       -3408.408          42.000    26639726.514   109085867.732       -2655.552          38.000  
E21  26820827.929   140944814.816       -2882.307          43.000    26820829.360   107996879.711       -2208.450          50.000  
G22  23207405.207   121956117.334       -3542.646          48.000                                                                  
E04  24974267.676   131240698.168         -20.656          49.000    24974267.474   100561161.619         -15.879          53.000  
> 2024 04 08 22 59 30.0040000  0 24                     
S33  40904775.721   214956063.070        -780.182          43.000  
G24  23223629.802   122041097.330        1198.718          47.000    23223627.360    95097040.068         933.942          45.000  
E09  28398286.237                        1855.728          26.000    28398294.176   114348192.611        1422.018          37.000  
G15  21809226.573   114608240.083        -953.504          49.000    21809222.995    89305184.708        -743.136          47.000  
R06  21138607.359   112799704.230       -1095.776          43.000                                                                  
R07  23462382.795   125595997.491        2430.006          43.000    23462378.167    97685759.785        1890.089          47.000  
R05  23085999.261   123407790.562       -5009.785          51.000    23086004.420    95983854.731       -3896.409          48.000  
R16  21343583.009   114014076.434       -1472.205          52.000    21343579.191    88677807.700       -1145.063          51.000  
R09  23026474.002   122960339.913        1079.000          50.000    23026472.158    95635895.385         839.172          48.000  
G19  22370442.789   117557876.438        -620.162          47.000                                                                  
G13  21818451.316   114656950.438       -2680.439          49.000                                                                  
G17  22968616.649   120701332.580       -1945.109          45.000    22968612.005    94053202.844       -1515.545          45.000  
E31  26821791.360   140949723.397         999.982          47.000    26821795.776   108000489.304         766.304          50.000  
G12  23902760.457   125610112.675        1442.267          47.000    23902759.655    97878174.152        1123.871          43.000  
R17  23721822.473   126940242.4811       -385.956          36.000    23721807.141    98731268.406        -300.355          37.000  
R15  23641587.378   126333860.381       -3348.526          47.000    23641582.666    98259885.854       -2604.353          46.000  
R18  23777295.366   126925038.962        2278.821          49.000    23777292.740    98719434.960        1772.310          46.000  
E19  25857826.974   135883982.257       -2985.092          44.000    25857827.351   104118974.333       -2287.306          46.000  
S31  39952567.638   209952179.907        -780.181          45.000  
G14  25515406.133   134084716.814       -3958.574          43.000    25515402.073   104481803.217       -3084.512          46.000  
G30  26659190.708   140095325.851       -3410.460          42.000    26659189.547   109165567.065       -2657.319          36.000  
E21  26837288.254   141031307.278       -2883.638          44.000    26837288.495   108063153.153       -2209.537          50.000  
G22  23227647.946   122062491.555       -3548.681          48.000                                                                  
E04  24974420.631   131241501.355         -32.853          49.000    24974420.210   100561777.049         -25.084          53.000  
