     3.00           OBSERVATION DATA    M: Mixed            RINEX VERSION / TYPE
CONVBIN 2.4.3                           20240408 154442 UTC PGM / RUN BY / DATE 
format: u-blox UBX                                          COMMENT             
log: data/2024-04-08/20240408153000.ubx                     COMMENT             
AQUI00CHL                                                   MARKER NAME         
                                                            MARKER NUMBER       
                                                            MARKER TYPE         
                                                            OBSERVER / AGENCY   
UNKNOWN             UBLOX-ZED-F9P                           REC # / TYPE / VERS 
UNKNOWN             TWIVSP6037L                             ANT # / TYPE        
  1713381.0000 -5047934.0000 -3490983.0000                  APPROX POSITION XYZ 
        0.0000        0.0000        0.0000                  ANTENNA: DELTA H/E/N
G    8 C1C L1C D1C S1C C2L L2L D2L S2L                      SYS / # / OBS TYPES 
R    8 C1C L1C D1C S1C C2C L2C D2C S2C                      SYS / # / OBS TYPES 
E    8 C1C L1C D1C S1C C7Q L7Q D7Q S7Q                      SYS / # / OBS TYPES 
S    4 C1C L1C D1C S1C                                      SYS / # / OBS TYPES 
  2024    04    08    15    30   44.0110000     GPS         TIME OF FIRST OBS   
  2024    04    08    15    44   30.0110000     GPS         TIME OF LAST OBS    
                                                            END OF HEADER       
> 2024 04 08 15 30 44.0110000  0 26                     
S33  43039383.008   226173462.7661       -894.847          43.000  
G19  27175254.009   142806876.2361      -2492.029          45.000                                                                  
E07  27007007.495   141922768.6781      -1818.137          48.000    27007012.226   108746037.4611      -1393.021          51.000  
G02  27860722.380   146408865.0271      -4938.221          42.000                                                                  
R13  26324642.069   140572206.2081       2975.454          38.000    26324654.959   109333969.8941       2314.572          38.000  
R24  26437859.549   141374905.3941      -5353.753          44.000    26437872.450   109958201.5721      -4163.873          40.000  
R17  23532931.604   125929452.7071      -3160.214          52.000    23532932.248    97945005.3221      -2457.987          48.000  
R02  23672265.420   126319734.1241      -1817.878          51.000    23672266.818    98248719.7431      -1413.830          49.000  
R03  24651582.312   131961904.4131        574.574          49.000    24651582.768   102637090.6541        446.871          49.000  
R18  24230780.031   129345536.0751        712.451          51.000    24230781.967   100601922.0441        554.077          49.000  
E33  28846714.389   151590520.9551       1168.163          45.000    28846719.560   116153837.1481        895.017          47.000  
G09  24101575.385   126654653.9661       -184.784          49.000    24101575.452    98692009.4611       -143.976          45.000  
G03  24639543.315   129481643.8061      -2012.569          49.000    24639546.095   100894751.6771      -1568.265          46.000  
E26  26635417.148   139970056.5581      -1322.203          47.000    26635420.554   107249793.5171      -1013.061          51.000  
G06  25231406.314   132591984.3711       1473.517          46.000    25231409.520   103318447.1891       1148.197          45.000  
R11  26345327.759   140781445.9981      -2474.936          47.000    26345333.328   109496654.9721      -1924.899          45.000  
R12  24960790.738   133336176.5871       1229.527          51.000    24960795.818   103706043.3751        956.337          47.000  
R01  26139181.683   139728837.9421      -3264.406          40.000    26139193.021   108677937.7141      -2538.547          37.000  
S31  42086433.830   221165689.4741       -894.698          43.000  
E13  28890745.496   151821817.3371      -3679.124          46.000    28890755.117   116331013.2281      -2819.099          49.000  
G07  26404091.158   138754530.6161       3028.968          43.000    26404097.358   108120506.7371       2360.250          41.000  
G17  27295084.505   143436514.9681      -3711.039          39.000    27295093.827   111768628.4411      -2891.955          34.000  
G04  24071817.637   126498243.9041      -2495.551          48.000    24071817.382    98570040.4471      -1944.660          47.000  
G31  28207157.200   148229545.8811      -3809.871          33.000    28207166.594                       -2968.374          29.000  
E30  31339768.931   164691619.6321       1158.787          41.000    31339784.718   126192348.2021        887.967          47.000  
E08  30311904.566   159290065.4541      -3122.133          38.000    30311913.305   122053430.6931      -2392.429          46.000  
> 2024 04 08 15 32 03.5110000  0 27                     
S33  43052928.678   226244643.267        -896.042          43.000  
G19  27213164.897   143006102.524       -2519.952          43.000                                                                  
E07  27034614.475   142067840.219       -1831.508          49.000    27034618.473   108857196.085       -1403.375          51.000  
G02  27935456.156   146801587.637       -4941.250          41.000                                                                  
R13  26280398.509   140335953.439        2968.080          37.000    26280411.450   109150219.323        2308.086          37.000  
R24  26517495.729   141800744.831       -5359.152          42.000    26517508.056   110289407.252       -4167.859          38.000  
R17  23580339.287   126183137.622       -3221.689          52.000    23580339.290    98142315.489       -2505.752          49.000  
R02  23699447.669   126464782.358       -1831.191          51.000    23699449.768    98361534.933       -1424.139          50.000  
R03  24643166.996   131916849.397         558.829          51.000    24643166.673   102602048.103         434.703          50.000  
R18  24220683.608   129291640.777         643.298          51.000    24220685.264   100560003.456         500.391          48.000  
E33  28829235.777   151498671.590        1142.312          45.000    28829240.488   116083459.177         875.317          47.000  
G09  24104580.519   126670446.356        -212.775          49.000    24104581.020    98704315.272        -165.833          46.000  
G03  24670172.584   129642600.075       -2036.896          48.000    24670174.732   101020171.936       -1587.178          46.000  
E26  26655709.081   140076690.583       -1360.486          48.000    26655712.689   107331500.082       -1042.404          51.000  
G06  25209425.557   132476474.300        1432.334          46.000    25209428.304   103228439.418        1116.136          45.000  
R11  26382608.131   140980659.892       -2536.598          49.000    26382612.779   109651598.802       -1972.986          44.000  
R12  24942881.312   133240504.750        1177.162          51.000    24942885.386   103631632.377         915.574          47.000  
R01  26187728.999   139988346.890       -3264.145          36.000    26187735.252   108879777.395       -2538.886          37.000  
S31  42099976.012   221236858.018        -895.687          43.000  
E13  28946546.951   152115054.070       -3697.906          45.000    28946556.923   116555700.337       -2833.370          48.000  
G07  26358375.476   138514294.870        3014.468          45.000    26358381.185   107933311.010        2348.786          42.000  
G17  27351290.197   143731871.884       -3719.464          42.000    27351299.012   111998775.407       -2898.199          36.000  
G04  24109734.084   126697496.994       -2517.114          48.000    24109733.417    98725302.523       -1961.462          46.000  
G31  28264959.006   148533285.543       -3831.775          33.000    28264957.066                3      -2992.991          22.000  
E30  31322297.918   164599820.082        1150.471          41.000    31322315.317   126122008.740         881.557          46.000  
G16  28973179.174   152255075.1861        741.951          38.000                                                                  
E08  30359126.621   159538204.930       -3120.031          40.000    30359134.010   122243562.869       -2390.682          48.000  
> 2024 04 08 15 32 30.0110000  0 27                     
S33  43057445.901   226268384.151        -896.151          43.000  
G19  27225894.735   143072994.038       -2528.680          45.000                                                                  
E07  27043860.301   142116427.469       -1835.547          49.000    27043863.992   108894425.258       -1406.431          50.000  
G02  27960376.569   146932541.401       -4941.885          42.000                                                                  
R13  26265674.665   140257333.365        2965.534          37.000    26265687.204   109089070.886        2306.490          37.000  
R24  26544057.006   141942776.755       -5360.374          41.000    26544069.440   110399875.639       -4169.071          37.000  
R17  23596344.410   126268777.368       -3241.766          53.000    23596343.071    98208924.078       -2521.344          49.000  
R02  23708551.399   126513360.450       -1835.224          52.000    23708552.980    98399317.878       -1427.331          50.000  
R03  24640412.006   131902104.195         553.982          51.000    24640412.047   102590579.663         430.770          50.000  
R18  24217546.254   129274894.601         620.465          52.000    24217548.756   100546978.666         482.581          49.000  
E33  28823496.093   151468508.518        1134.054          45.000    28823500.547   116060347.262         868.744          47.000  
G09  24105674.419   126676199.656        -221.716          48.000    24105676.220    98708798.385        -172.815          46.000  
G03  24680463.644   129696679.061       -2044.792          49.000    24680465.732   101062311.329       -1593.311          46.000  
E26  26662601.388   140112909.885       -1373.047          48.000    26662604.672   107359252.516       -1052.107          51.000  
G06  25202236.199   132438694.691        1418.953          46.000    25202239.371   103199000.789        1105.472          45.000  
R11  26395237.926   141048149.970       -2556.953          49.000    26395242.918   109704090.962       -1988.658          43.000  
R12  24937084.311   133209539.352        1159.776          51.000    24937089.831   103607548.295         901.940          49.000  
R01  26203907.143   140074842.195       -3263.355          32.000    26203919.321   108947051.227       -2538.489          40.000  
S31  42104493.757   221260594.454        -895.631          44.000  
E13  28965209.828   152213125.641       -3703.924          46.000    28965219.986   116630845.830       -2838.003          49.000  
G07  26343186.652   138434477.503        3009.542          46.000    26343193.012   107871115.977        2344.798          42.000  
G17  27370051.748   143830459.458       -3721.592          41.000    27370061.027   112075596.485       -2900.097          37.000  
G04  24122444.375   126764288.228       -2523.828          48.000    24122443.271    98777347.616       -1966.504          45.000  
G31  28284296.163                       -3838.633          29.000    28284283.287                3      -2993.297          17.000  
E30  31316503.387   164569367.747        1147.774          40.000    31316520.167   126098675.296         879.477          45.000  
G16  28969450.454   152235482.203         737.244          37.000                                                                  
E08  30374855.550   159620873.810       -3119.020          37.000    30374865.227   122306906.367       -2390.017          47.000  
> 2024 04 08 15 33 00.0110000  0 27                     
S33  43062562.595   226295273.309        -896.909          43.000  
G19  27240361.229   143149012.159       -2539.374          46.000                                                                  
E07  27054354.583   142171573.287       -1840.951          49.000    27054357.624   108936679.820       -1410.674          50.000  
G02  27988593.356   147080819.453       -4943.397          42.000                                                                  
R13  26249022.824   140168418.615        2961.834          37.000    26249035.515   109019915.550        2303.693          37.000  
R24  26574136.138   142103617.715       -5362.355          42.000    26574149.718   110524973.026       -4170.533          38.000  
R17  23614583.632   126366378.203       -3265.026          52.000    23614582.415    98284835.713       -2539.503          49.000  
R02  23718884.184   126568495.293       -1840.638          51.000    23718885.222    98442200.487       -1431.629          50.000  
R03  24637324.851   131885579.401         547.461          51.000    24637324.395   102577727.107         425.780          49.000  
R18  24214134.137   129256679.255         593.732          52.000    24214136.961   100532811.178         461.755          49.000  
E33  28817051.398   151434641.794        1123.741          45.000    28817055.963   116034397.483         860.894          48.000  
G09  24106970.378   126683010.900        -232.581          48.000    24106972.639    98714105.881        -181.281          46.000  
G03  24692163.244   129758163.140       -2054.319          48.000    24692166.200   101110220.923       -1600.896          47.000  
E26  26670482.151   140154324.075       -1388.100          48.000    26670485.615   107390985.436       -1063.652          51.000  
G06  25194181.653   132396369.796        1402.537          45.000    25194185.310   103166020.355        1093.045          45.000  
R11  26409659.376   141125210.896       -2580.548          50.000    26409663.437   109764027.129       -2007.216          42.000  
R12  24930627.478   133175051.809        1139.214          50.000    24930631.606   103580724.823         885.901          47.000  
R01  26222224.901                1      -3264.603          28.000    26222237.935   109023209.892       -2538.802          38.000  
S31  42109610.141   221287478.531        -896.716          44.000  
E13  28986374.644   152324348.579       -3711.255          46.000    28986385.535   116716068.298       -2843.624          49.000  
G07  26326023.123   138344284.078        3003.111          46.000    26326029.051   107800835.707        2340.395          42.000  
G17  27391306.268   143942149.191       -3724.705          40.000    27391315.654   112162626.928       -2902.443          37.000  
G04  24136876.478   126840127.927       -2532.239          48.000    24136875.205    98836443.416       -1973.181          45.000  
E30  31309960.873   164534989.289        1143.876          40.000    31309977.887   126072333.583         876.562          45.000  
G16  28965260.101   152213464.896         730.841          39.000                                                                  
E08  30392662.053   159714437.905       -3119.325          36.000    30392669.967   122378598.025       -2389.535          46.000  
G31                                                                  28306213.756                3      -2986.565          15.000  
> 2024 04 08 15 33 30.0110000  0 27                     
S33  43067686.989   226322202.874        -898.794          43.000  
G19  27254890.540   143225365.587       -2550.928          45.000                                                                  
E07  27064881.357   142226896.133       -1847.175          48.000    27064885.381   108979070.029       -1415.376          50.000  
G02  28016820.903   147229153.145       -4945.702          41.000                                                                  
R13  26232395.974   140079631.388        2956.844          37.000    26232407.444   108950859.419        2299.800          36.000  
R24  26604229.585   142264536.133       -5365.208          41.000    26604243.595   110650130.799       -4173.210          38.000  
R17  23632955.905   126464694.075       -3289.427          52.000    23632954.976    98361303.476       -2558.420          48.000  
R02  23729249.170   126623807.096       -1846.882          52.000    23729250.904    98485220.724       -1436.482          50.000  
R03  24634276.002   131869260.630         540.306          52.000    24634276.167   102565034.764         420.308          49.000  
R18  24210874.848   129239282.962         565.973          51.000    24210877.818   100519280.695         440.283          49.000  
E33  28810668.221   151401102.068        1112.440          44.000    28810673.473   116008698.256         852.241          48.000  
G09  24108332.671   126690165.859        -244.458          48.000    24108333.410    98719681.187        -190.479          46.000  
G03  24703922.320   129819954.565       -2064.904          49.000    24703925.069   101158370.013       -1609.159          47.000  
E26  26678451.778   140196202.803       -1403.908          48.000    26678454.887   107423074.302       -1075.705          51.000  
G06  25186223.270   132354547.217        1385.435          46.000    25186226.744   103133431.369        1079.624          44.000  
R11  26424215.744   141202995.454       -2605.193          50.000    26424218.784   109824526.103       -2025.988          41.000  
R12  24924290.026   133141199.320        1117.491          50.000    24924293.884   103554395.254         869.326          47.000  
S31  42114733.774   221314403.461        -898.655          44.000  
E13  29007584.028   152435808.763       -3719.692          44.000    29007595.986   116801472.550       -2849.960          49.000  
G07  26308898.709   138254298.161        2995.874          47.000    26308904.721   107730717.169        2334.342          43.000  
G17  27412581.895   144053948.999       -3728.787          39.000    27412591.155   112249743.156       -2905.555          37.000  
G04  24151358.852   126916234.906       -2541.412          47.000    24151357.942    98895747.526       -1980.536          46.000  
E30  31303443.964   164500742.609        1139.205          41.000    31303460.540   126046092.830         872.900          44.000  
G16  28961108.571   152191651.722         723.516          38.000                                                                  
E08  30410467.910   159808004.396       -3119.134          38.000    30410475.272   122450291.609       -2389.890          46.000  
G31                                                                  28328211.334                3      -2998.647          15.000  
R01                                                                  26240561.039   109099390.393       -2539.792          39.000  
> 2024 04 08 15 34 00.0110000  0 27                     
S33  43072819.101   226349171.898        -899.807          43.000  
G19  27269483.913   143302050.405       -2561.676          46.000                                                                  
E07  27075441.696   142282393.487       -1852.937          48.000    27075446.113   109021593.958       -1419.859          50.000  
G02  28045058.764   147377538.196       -4947.259          41.000                                                                  
R13  26215792.867   139990974.212        2952.633          36.000    26215803.277   108881904.418        2296.550          34.000  
R24  26634336.131   142425526.665       -5367.533          40.000    26634351.294   110775344.618       -4174.998          39.000  
R17  23651462.125   126563720.016       -3312.919          53.000    23651459.916    98438323.533       -2576.674          48.000  
R02  23739646.379   126679293.673       -1852.606          51.000    23739648.247    98528376.928       -1441.047          49.000  
R03  24631266.331   131853145.679         533.555          52.000    24631264.925   102552500.946         414.927          49.000  
R18  24207769.732   129222706.070         538.702          51.000    24207772.206   100506387.582         418.970          49.000  
E33  28804348.474   151367889.593        1101.323          44.000    28804353.575   115983249.747         843.819          49.000  
G09  24109759.604   126697662.219        -255.823          49.000    24109759.981    98725522.536        -199.359          46.000  
G03  24715739.230   129882052.540       -2075.327          49.000    24715741.197   101206757.957       -1616.945          46.000  
E26  26686509.017   140238544.599       -1419.330          48.000    26686512.094   107455517.984       -1087.576          51.000  
G06  25178360.608   132313228.023        1368.619          46.000    25178363.966   103101234.620        1066.626          45.000  
R11  26438907.126   141281500.682       -2629.141          50.000    26438911.244   109885585.590       -2044.755          40.000  
R12  24918073.580   133107983.741        1096.340          51.000    24918075.966   103528561.040         852.673          47.000  
R01  26258887.745   140368705.7791      -3266.392          37.000    26258888.894   109175591.702       -2540.390          37.000  
G31  28350276.307                3      -3864.977          26.000    28350245.848                3      -3017.275          14.000  
S31  42119864.952   221341368.233        -899.759          44.000  
E13  29028839.544   152547503.106       -3727.406          44.000    29028850.712   116887056.219       -2855.952          49.000  
G07  26291814.037   138164520.697        2988.798          46.000    26291820.461   107660761.014        2328.873          43.000  
G17  27433877.080   144165854.775       -3732.246          36.000    27433885.990   112336941.939       -2908.223          36.000  
G04  24165891.426   126992605.975       -2550.439          46.000    24165891.479    98955257.403       -1987.323          46.000  
E30  31296952.225   164466628.232        1134.602          42.000    31296968.492   126019953.462         869.314          44.000  
G16  28956996.631   152170043.861         716.614          39.000                                                                  
E08  30428273.271   159901571.364       -3118.741          38.000    30428280.993   122521985.547       -2389.969          46.000  
> 2024 04 08 15 34 30.0110000  0 27                     
S33  43077957.831   226376175.998        -901.182          43.000  
G19  27284137.878   143379059.049       -2572.541          45.000                                                                  
E07  27086034.774   142338059.753       -1858.504          49.000    27086039.192   109064247.292       -1423.956          50.000  
G02  28073305.288   147525967.590       -4948.479          41.000                                                                  
R13  26199213.945   139902446.847        2948.428          36.000    26199223.717   108813050.360        2293.490          36.000  
R24  26664454.937   142586580.725       -5369.842          39.000    26664469.801   110900607.930       -4176.056          39.000  
R17  23670098.535   126663447.655       -3336.131          52.000    23670097.093    98515889.387       -2594.773          48.000  
R02  23750077.182   126734949.287       -1858.150          52.000    23750078.080    98571664.585       -1445.192          49.000  
R03  24628292.048   131837228.838         527.109          52.000    24628291.945   102540121.211         409.984          50.000  
R18  24204816.430   129206946.009         511.414          51.000    24204819.282   100494129.751         397.925          48.000  
E33  28798091.053   151335001.418        1090.666          45.000    28798095.270   115958049.739         835.624          49.000  
G09  24111249.825   126705494.556        -266.937          49.000    24111250.751    98731625.711        -208.032          46.000  
G03  24727613.576   129944453.055       -2085.190          49.000    24727616.079   101255381.677       -1624.862          47.000  
E26  26694653.938   140281344.843       -1434.422          48.000    26694656.675   107488312.934       -1099.156          51.000  
G06  25170593.647   132272410.174        1352.041          47.000    25170596.671   103069428.541        1053.415          45.000  
R11  26453732.097   141360720.051       -2652.595          49.000    26453736.315   109947200.535       -2063.098          43.000  
R12  24911972.679   133075404.035        1075.206          49.000    24911977.654   103503221.420         836.195          48.000  
R01  26277218.286   140466701.395       -3266.787          40.000    26277221.006   109251810.270       -2540.856          38.000  
G31  28372371.279                3      -3873.627          25.000    28372336.755                3      -3019.519          12.000  
S31  42125002.906   221368367.270        -900.603          44.000  
E13  29050137.407   152659425.417       -3734.787          44.000    29050149.129   116972814.573       -2861.598          49.000  
G07  26274768.819   138074950.197        2982.128          45.000    26274775.284   107590966.142        2323.709          43.000  
G17  27455190.563   144277858.589       -3735.175          36.000    27455200.895   112424217.146       -2910.355          37.000  
G04  24180473.051   127069234.798       -2558.722          46.000    24180473.958    99014968.130       -1993.799          47.000  
E30  31290485.525   164432643.590        1130.276          42.000    31290502.080   125993913.488         866.161          45.000  
G16  28952923.175   152148638.900         709.933          36.000                                                                  
E08  30446078.133   159995133.617       -3118.763          38.000    30446085.964   122593675.846       -2389.670          47.000  
> 2024 04 08 15 35 00.0110000  0 26                     
S33  43083103.221   226403214.271        -902.184          43.000  
G19  27298853.219   143456388.785       -2583.091          45.000                                                                  
E07  27096660.092   142393893.526       -1863.973          49.000    27096664.405   109107028.998       -1428.204          50.000  
G02  28101558.440   147674438.241       -4949.917          41.000                                                                  
R13  26182660.625   139814053.516        2944.119          36.000    26182672.301   108744300.569        2289.481          37.000  
R24  26694584.720   142747693.729       -5371.751          41.000    26694599.346   111025917.168       -4177.987          39.000  
R17  23688865.333   126763873.122       -3359.336          53.000    23688864.310    98593997.962       -2612.814          48.000  
R02  23760538.929   126790772.916       -1863.809          52.000    23760539.692    98615082.915       -1449.580          49.000  
R03  24625355.924   131821509.460         520.466          51.000    24625355.204   102527895.067         404.779          49.000  
R18  24202016.996   129192004.469         484.174          51.000    24202020.622   100482508.572         376.666          49.000  
E33  28791894.447   151302438.912        1079.844          45.000    28791898.641   115933099.278         827.440          49.000  
G09  24112803.802   126713661.735        -277.991          49.000    24112804.855    98737989.794        -216.589          46.000  
G03  24739545.412   130007156.415       -2095.385          49.000    24739549.170   101304241.358       -1632.876          47.000  
E26  26702885.454   140324603.134       -1449.713          48.000    26702888.440   107521458.862       -1110.886          51.000  
G06  25162921.903   132232095.803        1335.273          47.000    25162925.362   103038014.788        1040.465          45.000  
R11  26468690.151   141440650.811       -2676.360          48.000    26468694.342   110009368.706       -2081.489          43.000  
R12  24905994.284   133043463.499        1053.795          50.000    24905998.001   103478378.899         819.655          48.000  
R01  26295552.501   140564718.897       -3267.755          36.000    26295557.859   109328045.816       -2542.161          37.000  
S31  42130147.147   221395401.624        -901.671          44.000  
E13  29071479.272   152771573.799       -3742.243          45.000    29071490.371   117058746.145       -2867.309          49.000  
G07  26257764.026   137985589.344        2974.986          46.000    26257770.399   107521334.627        2318.033          43.000  
G17  27476521.612   144389957.000       -3738.801          31.000    27476534.210   112511566.035       -2913.015          37.000  
G04  24195103.830   127146119.344       -2567.279          46.000    24195105.035    99074878.118       -2000.354          47.000  
E30  31284042.835   164398790.334        1126.133          42.000    31284060.392   125967974.205         862.897          46.000  
G16  28948889.823   152127439.228         702.670          37.000                                                                  
E08  30463880.647   160088690.333       -3118.622          36.000    30463889.488   122665361.890       -2389.676          47.000  
> 2024 04 08 15 35 30.0110000  0 26                     
S33  43088253.146   226430277.621        -902.208          43.000  
G19  27313627.882   143534027.018       -2592.665          45.000                                                                  
E07  27107315.131   142449883.823       -1868.526          49.000    27107319.162   109149930.629       -1431.692          51.000  
G02  28129816.342   147822937.734       -4949.919          41.000                                                                  
R13  26166130.552   139725788.358        2940.757          37.000    26166143.460   108675650.460        2286.863          38.000  
R24  26724722.063   142908851.714       -5372.112          41.000    26724736.729   111151261.469       -4178.048          37.000  
R17  23707758.846   126864982.648       -3381.263          52.000    23707758.426    98672638.596       -2629.952          47.000  
R02  23771029.315   126846753.395       -1868.250          51.000    23771030.517    98658623.243       -1453.027          50.000  
R03  24622453.978   131805976.485         515.176          52.000    24622454.108   102515813.901         400.632          50.000  
R18  24199369.649   129177873.235         458.002          51.000    24199373.014   100471517.630         356.201          48.000  
E33  28785757.715   151270193.885        1069.949          44.000    28785762.332   115908392.083         819.886          49.000  
G09  24114418.906   126722152.956        -287.915          48.000    24114421.000    98744606.398        -224.457          46.000  
G03  24751533.816   130070153.284       -2104.357          50.000    24751536.768   101353329.756       -1639.602          46.000  
E26  26711202.797   140368309.449       -1463.870          48.000    26711205.374   107554948.084       -1121.685          51.000  
G06  25155344.384   132192277.503        1319.347          47.000    25155348.395   103006987.572        1028.080          45.000  
R11  26483778.894   141521281.369       -2698.996          48.000    26483783.082   110072081.233       -2098.843          41.000  
R12  24900133.485   133012155.821        1033.533          50.000    24900137.590   103454028.597         803.799          48.000  
R01  26313889.581   140662748.112       -3267.166          34.000    26313896.172   109404290.512       -2541.429          37.000  
S31  42135296.172   221422460.056        -901.805          45.000  
E13  29092861.225   152883936.637       -3748.487          45.000    29092872.836   117144842.041       -2872.225          49.000  
G07  26240797.449   137896431.189        2969.000          46.000    26240803.770   107451861.045        2313.521          43.000  
G17  27497867.428                       -3739.719          32.000    27497880.942   112598978.064       -2914.311          35.000  
G04  24209781.442   127223247.871       -2574.518          47.000    24209781.823    99134978.215       -2006.238          47.000  
E30  31277624.288   164365060.591        1122.757          43.000    31277641.663   125942129.551         860.313          46.000  
G16  28944894.571   152106437.334         697.140          38.000                                                                  
E08  30481679.592   160182230.977       -3117.260          36.000    30481689.324   122737035.650       -2388.477          46.000  
> 2024 04 08 15 36 00.0110000  0 26                     
S33  43093406.388   226457357.157        -903.128          43.000  
G19  27328458.526   143611963.056       -2602.836          45.000                                                                  
E07  27117997.659   142506021.476       -1873.749          49.000    27118001.753   109192945.171       -1435.662          50.000  
G02  28158078.172   147971455.342       -4951.061          43.000                                                                  
R13  26149623.875   139637647.624        2935.408          38.000    26149637.277   108607097.035        2283.780          37.000  
R24  26754867.235   143070042.660       -5373.491          39.000    26754881.562   111276631.385       -4179.764          34.000  
R17  23726779.652   126966764.358       -3404.000          52.000    23726779.147    98751802.016       -2647.437          48.000  
R02  23781546.934   126902881.994       -1873.543          52.000    23781549.860    98702278.766       -1457.172          49.000  
R03  24619585.060   131790620.585         508.785          52.000    24619585.238   102503870.465         395.764          50.000  
R18  24196874.388   129164545.806         430.682          52.000    24196877.090   100461151.857         334.949          49.000  
E33  28779680.784   151238259.861        1059.353          44.000    28779685.707   115883923.210         811.481          49.000  
G09  24116094.730   126730959.297        -298.987          48.000    24116096.582    98751468.505        -232.776          46.000  
G03  24763576.284   130133436.177       -2114.321          50.000    24763579.420   101402641.050       -1647.426          46.000  
E26  26719603.384   140412455.608       -1478.928          48.000    26719606.285   107588774.341       -1133.198          51.000  
G06  25147860.340   132152949.627        1302.541          46.000    25147863.543   102976342.499        1015.029          45.000  
R11  26498996.552   141602601.296       -2722.319          47.000    26499001.706   110135329.944       -2117.236          43.000  
R12  24894390.358   132981475.760        1011.953          51.000    24894394.360   103430166.443         787.254          49.000  
R01  26332228.722   140760781.100       -3268.188          36.000    26332234.457   109480538.063       -2541.888          38.000  
S31  42140448.120   221449535.112        -902.762          43.000  
E13  29114283.124   152996504.253       -3755.656          45.000    29114294.386   117231094.823       -2877.719          50.000  
G07  26223869.374   137807470.508        2961.960          46.000    26223874.788   107382541.366        2307.794          43.000  
G04  24224503.136   127300610.566       -2582.812          48.000    24224503.199    99195260.791       -2012.689          46.000  
E30  31271227.709   164331448.260        1118.240          43.000    31271244.346   125916374.862         856.798          45.000  
G16  28940934.179   152085627.793         690.317          37.000                                                                  
E08  30499475.534   160275746.977       -3116.859          37.000    30499484.719   122808690.433       -2388.146          44.000  
G17                                                                  27519241.657                       -2917.211          32.000  
> 2024 04 08 15 36 30.0110000  0 26                     
S33  43098558.110   226484428.336        -900.965          43.000  
G19  27343341.680   143690169.634       -2610.071          46.000                                                                  
E07  27128702.560   142562280.785       -1876.200          48.000    27128707.508   109236052.925       -1437.481          51.000  
G02  28186339.706   148119963.602       -4948.740          42.000                                                                  
R13  26133138.017   139549610.691        2933.980          38.000    26133150.642   108538624.398        2282.185          37.000  
R24  26785011.463   143231237.497       -5372.244          34.000    26785025.273                       -4178.395          29.000  
R17  23745920.308   127069189.388       -3423.559          52.000    23745920.462    98831465.810       -2662.756          49.000  
R02  23792087.935   126959132.926       -1875.781          50.000    23792090.685    98746029.442       -1458.941          49.000  
R03  24616745.823   131775416.181         505.558          53.000    24616743.845   102492044.812         393.217          48.000  
R18  24194523.500   129151999.186         406.433          52.000    24194526.263   100451393.368         316.071          49.000  
E33  28773658.995   151206613.889        1051.218          45.000    28773663.564   115859675.003         805.509          49.000  
G09  24117825.519   126740055.194        -306.842          48.000    24117827.120    98758556.272        -239.008          46.000  
G03  24775668.169   130196981.030       -2121.324          50.000    24775670.598   101452156.453       -1652.795          46.000  
E26  26728083.660   140457016.853       -1491.118          49.000    26728085.722   107622918.627       -1142.507          50.000  
G06  25140465.646   132114089.980        1288.684          47.000    25140468.565   102946062.271        1004.221          45.000  
R11  26514338.562   141684583.635       -2742.678          48.000    26514343.656   110199093.890       -2132.930          42.000  
R12  24888760.823   132951402.358         993.447          50.000    24888763.970   103406776.132         772.742          48.000  
R01  26350563.296   140858792.558       -3265.297          36.000    26350569.744   109556769.037       -2539.800          39.000  
S31  42145598.168   221476602.093        -900.566          43.000  
E13  29135736.081   153109250.347       -3759.818          43.000    29135749.392   117317484.367       -2881.032          50.000  
G07  26206974.010   137718685.882        2957.544          46.000    26206979.172   107313358.839        2304.741          44.000  
G04  24239264.400   127378181.028       -2587.872          48.000    24239264.196    99255705.239       -2016.577          46.000  
E30  31264849.591   164297930.658        1116.969          43.000    31264866.161   125890692.765         855.654          45.000  
G16  28937006.845   152064988.346         686.177          37.000                                                                  
E08  30517261.341   160369212.953       -3113.051          37.000    30517271.474   122880307.063       -2385.599          45.000  
G17                                                                  27540609.007                       -2916.987          30.000  
> 2024 04 08 15 37 00.0110000  0 26                     
S33  43103695.230   226511425.154        -898.858          43.000  
G19  27358261.901   143768577.631       -2617.770          45.000                                                                  
E07  27139418.614   142618594.686       -1878.795          48.000    27139423.639   109279202.512       -1439.480          50.000  
G02  28214585.263   148268394.006       -4947.129          42.000                                                                  
R13  26116658.883   139461614.438        2931.893          38.000    26116669.760   108470183.418        2279.643          36.000  
R24  26815144.504                       -5369.522          30.000    26815154.049                3      -4179.140          22.000  
R17  23765168.192   127172186.655       -3443.483          52.000    23765168.029    98911574.675       -2678.236          49.000  
R02  23802639.733   127015437.979       -1878.364          52.000    23802642.065    98789822.190       -1460.987          48.000  
R03  24613920.747   131760295.413         501.923          52.000    24613918.951   102480284.274         390.245          48.000  
R18  24192307.689   129140168.010         381.732          52.000    24192309.083   100442191.342         296.857          49.000  
E33  28767679.298   151175191.582        1043.000          44.000    28767684.010   115835598.207         799.209          49.000  
G09  24119598.678   126749373.806        -315.143          47.000    24119600.264    98765817.554        -245.447          46.000  
G03  24787798.073   130260722.420       -2128.761          50.000    24787800.328   101501825.022       -1658.900          46.000  
E26  26736629.770   140501927.055       -1503.434          48.000    26736632.064   107657330.299       -1152.123          51.000  
G06  25133147.611   132075634.971        1274.426          46.000    25133150.281   102916097.385         992.928          44.000  
R11  26529791.634   141767158.888       -2763.033          47.000    26529797.010   110263318.959       -2149.163          44.000  
R12  24883232.652   132921871.721         974.497          50.000    24883235.586   103383807.964         758.088          47.000  
R01  26368879.529   140956716.127       -3262.750          35.000    26368889.485   109632931.594       -2538.141          39.000  
S31  42150735.555   221503594.370        -899.633          43.000  
E13  29157213.723   153222107.338       -3764.500          44.000    29157225.813   117403958.832       -2884.464          50.000  
G07  26190100.321   137630014.114        2953.086          46.000    26190105.881   107244264.281        2301.012          44.000  
G04  24254052.742   127455891.595       -2593.414          47.000    24254052.659    99316258.866       -2020.740          47.000  
E30  31258476.940   164264443.785        1115.092          42.000    31258493.604   125865034.207         854.306          45.000  
G16  28933098.671   152044455.550         681.923          37.000                                                                  
E08  30535026.613   160462562.595       -3110.605          38.000    30535035.333   122951834.431       -2383.119          45.000  
G17                                                                  27561961.017                1      -2915.626          26.000  
> 2024 04 08 15 37 30.0110000  0 26                     
S33  43108817.729   226538367.5981       -896.621          43.000  
G19  27373219.936   143847182.869       -2623.901          45.000                                                                  
E07  27150144.889   142674959.819       -1880.079          48.000    27150149.591   109322391.347       -1440.583          50.000  
G02  28242815.966   148416741.975       -4943.968          42.000                                                                  
R13  26100187.571   139373661.605        2930.800          38.000    26100198.070   108401776.134        2279.378          37.000  
R24  26845267.561                3      -5368.025          25.000    26845233.688                3      -4174.143          20.000  
R17  23784522.236   127275750.046       -3461.873          52.000    23784520.434    98992123.859       -2692.623          48.000  
R02  23813201.388   127071794.282       -1879.830          52.000    23813202.514    98833654.849       -1462.155          48.000  
R03  24611110.393   131745254.848         499.673          52.000    24611109.730   102468586.080         388.564          49.000  
R18  24190224.603   129129051.656         358.197          52.000    24190227.390   100433545.280         278.589          49.000  
E33  28761742.302   151143992.274        1035.805          44.000    28761747.002   115811692.269         793.640          50.000  
G09  24121413.636   126758911.917        -322.113          47.000    24121415.624    98773249.871        -251.031          47.000  
G03  24799964.726   130324658.515       -2134.858          50.000    24799966.867   101551645.306       -1663.563          46.000  
E26  26745240.842   140547183.726       -1514.702          47.000    26745244.201   107692007.438       -1160.653          51.000  
G06  25125907.255   132037584.761        1261.104          46.000    25125909.779   102886447.901         982.729          44.000  
R11  26545355.469   141850323.090       -2782.299          47.000    26545360.884   110328002.031       -2164.105          44.000  
R12  24877804.815   132892884.985         956.716          49.000    24877808.505   103361262.817         744.205          47.000  
R01  26387183.806   141054549.086       -3260.457          39.000    26387191.032   109709023.684       -2535.366          39.000  
S31  42155857.336   221530510.278        -896.396          43.000  
E13  29178710.468   153335071.132       -3767.569          44.000    29178722.392   117490515.171       -2886.856          50.000  
G07  26173247.920   137541455.534        2949.547          47.000    26173252.730   107175257.899        2298.380          43.000  
G04  24268866.292   127533738.138       -2597.528          48.000    24268866.440    99376918.454       -2024.054          48.000  
E30  31252110.530   164230987.379        1114.153          42.000    31252127.257   125839398.980         853.775          46.000  
G16  28929211.564   152024029.532         679.102          39.000                                                                  
E08  30552769.223   160555792.886       -3106.122          40.000    30552777.087   123023270.365       -2379.940          46.000  
G17                                                                  27583332.360                1      -2914.810          28.000  
> 2024 04 08 15 38 00.0110000  0 26                     
S33  43113934.560   226565256.581        -896.776          43.000  
G19  27388223.665   143926027.190       -2632.838          44.000                                                                  
E07  27160889.322   142731420.194       -1884.446          49.000    27160893.439   109365653.171       -1443.844          50.000  
G02  28271038.686   148565049.787       -4943.749          42.000                                                                  
R13  26083734.180   139285801.917        2926.665          37.000    26083745.781   108333441.301        2276.164          39.000  
R24  26875343.342                3      -5370.899          16.000                                                                  
R17  23803989.187   127379921.722       -3483.314          52.000    23803987.255    99073146.106       -2709.192          49.000  
R02  23823780.770   127128246.702       -1884.149          52.000    23823781.928    98877562.235       -1465.418          47.000  
R03  24608324.119   131730339.842         494.344          52.000    24608324.400   102456985.572         384.421          50.000  
R18  24188285.370   129118697.615         331.628          52.000    24188288.193   100425492.163         257.843          50.000  
E33  28755856.439   151113062.704        1025.676          44.000    28755861.183   115787993.018         785.867          49.000  
G09  24123279.344   126768713.719        -331.897          48.000    24123281.494    98780887.687        -258.533          47.000  
G03  24812176.485   130388835.061       -2143.978          50.000    24812179.906   101601652.952       -1670.680          46.000  
G17  27604680.824                3      -3741.906          28.000    27604690.353                       -2914.858          25.000  
E26  26753927.075   140592831.771       -1528.893          47.000    26753930.720   107726984.471       -1171.482          51.000  
G06  25118752.617   131999986.774        1245.096          47.000    25118755.560   102857150.823         970.033          45.000  
R11  26561036.839   141934119.336       -2804.582          46.000    26561042.880   110393176.716       -2181.294          46.000  
R12  24872489.384   132864491.384         935.811          49.000    24872493.424   103339178.979         727.701          47.000  
R01  26405476.561   141152337.751       -3259.601          37.000    26405485.441   109785081.270       -2535.305          40.000  
S31  42160973.055   221557394.767        -896.475          44.000  
E13  29200235.122   153448185.263       -3773.664          44.000    29200247.720   117577186.673       -2891.564          50.000  
G07  26156426.546   137453058.386        2943.045          48.000    26156431.010   107106377.299        2293.417          43.000  
G04  24283713.977   127611764.012       -2604.481          47.000    24283714.159    99437717.794       -2029.538          47.000  
E30  31245757.531   164197608.441        1110.618          41.000    31245775.123   125813823.150         851.005          46.000  
G16  28925354.814   152003757.535         672.914          38.000                                                                  
E08  30570494.997   160648948.361       -3104.679          39.000    30570503.908   123094649.023       -2379.013          45.000  
> 2024 04 08 15 38 30.0110000  0 26                     
S33  43119053.044   226592154.084        -896.862          43.000  
G19  27403279.761   144005148.193       -2641.918          45.000                                                                  
E07  27171658.868   142788014.909       -1888.705          48.000    27171663.181   109409017.926       -1447.176          50.000  
G02  28299260.748   148713354.704       -4943.646          43.000                                                                  
R13  26067306.905   139198080.747        2921.302          37.000    26067316.862   108265214.183        2272.569          38.000  
R24  26905502.169                3      -5366.981          15.000                                                                  
R17  23823576.714   127484738.769       -3504.608          52.000    23823575.565    99154670.341       -2725.793          48.000  
R02  23834385.201   127184835.415       -1888.562          52.000    23834386.524    98921575.645       -1468.909          48.000  
R03  24605569.097   131715590.918         488.822          52.000    24605568.799   102445514.226         380.198          49.000  
R18  24186496.540   129109148.325         304.871          52.000    24186498.963   100418064.940         237.140          49.000  
E33  28750030.282   151082444.642        1015.254          44.000    28750034.795   115764532.444         777.897          49.000  
G09  24125202.356   126778818.500        -341.888          49.000    24125203.666    98788761.581        -266.473          46.000  
G03  24824443.015   130453292.723       -2153.287          50.000    24824445.872   101651879.647       -1677.872          46.000  
E26  26762695.464   140638911.175       -1543.186          47.000    26762699.640   107762292.049       -1182.484          51.000  
G06  25111692.581   131962883.580        1228.429          47.000    25111695.639   102828239.275         957.039          45.000  
R11  26576843.809   142018586.468       -2826.802          45.000    26576848.791   110458873.222       -2198.585          45.000  
R12  24867293.556   132836735.076         914.493          50.000    24867296.705   103317590.877         711.094          46.000  
R01  26423768.844   141250122.744       -3259.156          39.000    26423777.235   109861136.048       -2535.837          36.000  
S31  42166091.226   221584286.936        -896.584          43.000  
E13  29221797.020   153561488.132       -3779.906          45.000    29221808.666   117664002.812       -2896.381          49.000  
G07  26139643.868   137364865.697        2936.254          47.000    26139647.885   107037656.021        2288.106          43.000  
G04  24298603.659   127690007.683       -2611.767          47.000    24298603.372    99498686.838       -2035.165          47.000  
E30  31239430.544   164164349.257        1106.545          42.000    31239446.065   125788339.055         847.877          46.000  
G16  28921534.589   151983682.714         665.912          38.000                                                                  
E08  30588214.897   160742068.664       -3103.486          39.000    30588224.130   123166000.699       -2378.030          45.000  
G17                                                                  27626066.366                1      -2917.251          25.000  
> 2024 04 08 15 39 00.0110000  0 26                     
S33  43124173.995   226619064.147        -897.557          42.000  
G19  27418389.632   144084548.173       -2651.501          45.000                                                                  
E07  27182454.434   142844747.950       -1893.557          48.000    27182459.367   109452488.680       -1450.855          51.000  
G02  28327482.853   148861659.316       -4943.524          41.000                                                                  
R13  26050905.913   139110507.479        2916.550          35.000    26050916.646   108197102.128        2268.427          38.000  
R24  26935681.593                3      -5377.206          14.000                                                                  
R17  23843284.891   127590202.348       -3526.289          52.000    23843284.431    99236697.450       -2742.646          48.000  
R02  23845016.610   127241564.510       -1893.427          52.000    23845018.041    98965698.249       -1472.786          48.000  
R03  24602846.121   131701011.521         482.979          53.000    24602844.644   102434174.746         375.676          50.000  
R18  24184859.735   129100410.394         277.594          52.000    24184861.748   100411268.785         215.912          49.000  
E33  28744264.281   151052144.731        1004.614          44.000    28744268.922   115741315.664         769.696          49.000  
G09  24127184.075   126789230.376        -352.209          50.000    24127184.426    98796874.740        -274.524          45.000  
G03  24836763.248   130518037.059       -2163.059          50.000    24836766.727   101702329.757       -1685.535          46.000  
E26  26771547.392   140685426.778       -1557.870          47.000    26771551.516   107797933.847       -1193.684          51.000  
G06  25104727.518   131926282.572        1211.490          47.000    25104730.015   102799719.056         943.865          45.000  
R11  26592776.290   142103727.373       -2849.170          42.000    26592781.865   110525093.781       -2216.064          45.000  
R12  24862218.102   132809624.450         892.755          50.000    24862221.660   103296504.941         694.342          47.000  
R01  26442061.556   141347909.641       -3259.488          42.000    26442070.152   109937192.201       -2535.360          37.000  
S31  42171211.146   221611193.245        -897.289          43.000  
E13  29243393.388   153674983.166       -3786.487          43.000    29243406.139   117750966.167       -2901.295          49.000  
G07  26122901.475   137276885.657        2929.010          47.000    26122905.914   106969100.448        2282.283          43.000  
G04  24313534.722   127768472.411       -2619.348          47.000    24313535.010    99559828.121       -2041.012          47.000  
E30  31233124.089   164131216.683        1102.071          41.000    31233140.640   125762951.994         844.509          45.000  
G16  28917753.064   151963812.193         659.100          37.000                                                                  
E08  30605929.987   160835158.380       -3102.679          39.000    30605938.657   123237328.906       -2377.400          45.000  
G17                                                                  27647442.986                3      -2909.954          22.000  
> 2024 04 08 15 39 30.0110000  0 26                     
S33  43129294.421   226645973.077        -897.341          43.000  
G19  27433549.040   144164208.617       -2659.771          44.000                                                                  
E07  27193272.960   142901602.516       -1897.109          48.000    27193278.585   109496052.531       -1453.697          51.000  
G02  28355701.298   149009945.435       -4942.549          38.000                                                                  
R13  26034531.482   139023070.693        2911.802          38.000    26034542.384   108129096.168        2264.797          39.000  
R24  26965788.225                3      -5370.530          22.000                                                                  
R17  23863110.118   127696292.566       -3546.767          51.000    23863109.720    99319211.946       -2758.545          47.000  
R02  23855671.131   127298417.526       -1897.119          51.000    23855672.655    99009917.217       -1475.630          49.000  
R03  24600151.536   131686585.553         478.259          53.000    24600149.616   102422954.601         371.987          50.000  
R18  24183372.154   129092469.440         251.337          52.000    24183374.937   100405092.504         195.508          49.000  
E33  28738556.288   151022148.858         994.793          43.000    28738561.039   115718331.848         762.156          49.000  
G09  24129220.836   126799932.738        -361.530          50.000    24129220.913    98805214.267        -281.763          45.000  
G03  24849135.364   130583052.913       -2171.777          50.000    24849138.954   101752991.430       -1692.305          46.000  
E26  26780479.196   140732362.628       -1571.601          47.000    26780483.381   107833897.642       -1204.226          52.000  
G06  25097855.803   131890170.418        1195.594          48.000    25097858.493   102771579.727         931.536          45.000  
R11  26608832.320   142189524.003       -2870.866          42.000    26608838.010   110591824.302       -2232.808          45.000  
R12  24857262.087   132783146.888         871.963          51.000    24857265.401   103275911.406         678.272          48.000  
R01  26460352.873   141445682.480       -3258.801          42.000    26460361.214   110013237.425       -2534.477          39.000  
S31  42176331.003   221638097.615        -897.047          43.000  
E13  29265025.353   153788652.935       -3791.886          45.000    29265037.097   117838063.407       -2905.439          48.000  
G07  26106197.114   137189105.620        2922.441          46.000    26106201.364   106900700.717        2277.487          42.000  
G04  24328504.644   127847140.816       -2625.627          46.000    24328505.125    99621128.127       -2046.127          47.000  
E30  31226840.199   164098197.031        1098.634          40.000    31226857.231   125737651.449         841.703          45.000  
G16  28914008.301   151944132.976         653.086          39.000                                                                  
E08  30623635.464   160928201.173       -3100.678          39.000    30623644.291   123308621.211       -2375.711          45.000  
G17                                                                  27668831.217                3      -2924.316          22.000  
> 2024 04 08 15 40 00.0110000  0 26                     
S33  43134414.632   226672880.200        -896.989          42.000  
G19  27448757.302   144244128.133       -2668.490          45.000                                                                  
E07  27204116.149   142958578.774       -1901.409          48.000    27204120.830   109539709.626       -1456.847          51.000  
G02  28383916.445   149158211.524       -4941.813          34.000                                                                  
R13  26018184.519   138935775.951        2907.115          39.000    26018194.363   108061200.725        2260.976          38.000  
R24  26995885.720                3      -5375.650          16.000                                                                  
R17  23883051.619   127803006.680       -3567.598          51.000    23883051.986    99402211.672       -2774.837          47.000  
R02  23866348.287   127355394.492       -1901.565          52.000    23866350.465    99054232.539       -1478.963          49.000  
R03  24597483.664   131672313.358         473.025          52.000    24597483.652   102411854.048         367.932          50.000  
R18  24182033.850   129085328.435         224.481          52.000    24182037.017   100399538.392         174.536          49.000  
E33  28732906.528   150992459.805         984.350          43.000    28732911.501   115695583.139         754.262          49.000  
G09  24131312.518   126810925.869        -371.454          49.000    24131312.326    98813780.363        -289.282          45.000  
G03  24861559.184   130648341.933       -2181.132          49.000    24861562.388   101803865.947       -1699.575          45.000  
E26  26789491.991   140779719.659       -1585.707          48.000    26789495.091   107870184.151       -1215.029          52.000  
G06  25091077.335   131854550.606        1178.931          48.000    25091080.779   102743824.060         918.698          46.000  
R11  26625010.162   142275974.953       -2892.663          41.000    26625016.010   110659063.789       -2249.837          45.000  
R12  24852423.433   132757307.005         850.446          50.000    24852427.783   103255813.834         661.582          48.000  
R01  26478642.036   141543442.656       -3258.695          44.000    26478650.499   110089272.877       -2534.573          40.000  
S31  42181450.681   221665000.123        -896.595          44.000  
E13  29286687.853   153902496.921       -3797.985          43.000    29286701.370   117925294.149       -2910.046          48.000  
G07  26089531.113   137101529.366        2915.645          47.000    26089536.270   106832459.784        2271.752          43.000  
G04  24343513.226   127926012.334       -2632.651          46.000    24343513.935    99682586.400       -2051.482          47.000  
E30  31220578.628   164065293.440        1094.671          41.000    31220595.367   125712439.854         838.811          45.000  
G16  28910301.118   151924648.644         645.898          39.000                                                                  
E08  30641330.645   161021197.805       -3099.926          37.000    30641341.638   123379878.107       -2374.657          45.000  
G17                                                                  27690205.445                3      -2919.391          17.000  
> 2024 04 08 15 40 30.0110000  0 26                     
S33  43139535.899   226699790.758        -896.905          43.000  
G19  27464016.024   144324308.835       -2676.906          45.000                                                                  
E07  27214982.043   143015680.595       -1905.333          48.000    27214987.088   109583462.956       -1459.953          51.000  
G02  28412129.082                       -4940.593          30.000                                                                  
R13  26001864.943   138848632.780        2902.251          39.000    26001875.188   107993423.157        2257.327          38.000  
R24  27025961.857                3      -5367.512          20.000                                                                  
R17  23903111.385   127910345.672       -3588.314          51.000    23903111.074    99485697.418       -2790.827          48.000  
R02  23877049.756   127412500.084       -1905.598          53.000    23877051.927    99098647.967       -1482.087          49.000  
R03  24594847.592   131658198.999         467.908          53.000    24594846.255   102400876.278         363.901          49.000  
R18  24180847.229   129078993.421         197.760          52.000    24180849.452   100394611.164         153.833          48.000  
E33  28727316.917   150963084.135         974.168          44.000    28727321.679   115673074.527         746.337          50.000  
G09  24133459.881   126822213.800        -381.116          49.000    24133460.385    98822576.159        -296.838          45.000  
G03  24874035.929   130713909.632       -2190.282          49.000    24874039.940   101854957.602       -1706.644          46.000  
E26  26798584.600   140827502.554       -1599.718          48.000    26798587.743   107906796.993       -1225.816          52.000  
G06  25084393.764   131819430.428        1162.503          48.000    25084397.749   102716457.716         905.673          46.000  
R11  26641313.574   142363083.234       -2914.314          41.000    26641317.973   110726814.491       -2266.719          47.000  
R12  24847707.345   132732112.907         829.093          50.000    24847711.302   103236218.569         644.813          48.000  
R01  26496928.693   141641195.263       -3258.328          45.000    26496938.084   110165302.531       -2534.026          41.000  
S31  42186570.941   221691906.559        -897.019          44.000  
E13  29308386.661   154016518.380       -3803.549          44.000    29308399.384   118012660.856       -2914.466          49.000  
G07  26072906.011   137014164.956        2908.795          46.000    26072911.898   106764383.889        2266.401          44.000  
G04  24358561.537   128005090.183       -2639.255          46.000    24358561.963    99744205.441       -2056.559          47.000  
E30  31214340.420   164032512.893        1090.508          41.000    31214357.042   125687322.520         835.657          46.000  
G16  28906632.055   151905366.605         639.522          39.000                                                                  
E08  30659019.278   161114152.560       -3097.686          37.000    30659030.617   123451102.955       -2373.613          45.000  
G17                                                                  27711600.155                3      -2926.626          17.000  
> 2024 04 08 15 41 00.0110000  0 25                     
S33  43144655.524   226726695.972        -896.895          42.000  
G19  27479320.705   144404738.963       -2685.310          45.000                                                                  
E07  27225870.739   143072898.110       -1909.354          49.000    27225875.286   109627304.919       -1462.925          51.000  
G02  28440334.408                       -4940.449          26.000                                                                  
R13  25985572.920   138761636.428        2897.103          38.000    25985583.249   107925759.781        2253.223          39.000  
R17  23923285.765   128018296.794       -3608.771          52.000    23923284.780    99569659.276       -2806.701          48.000  
R02  23887773.246   127469724.497       -1909.668          52.000    23887775.446    99143155.774       -1485.395          48.000  
R03  24592239.020   131644233.180         462.878          52.000    24592237.385   102390014.014         360.147          49.000  
R18  24179809.625   129073457.092         170.990          51.000    24179812.236   100390305.132         132.965          48.000  
E33  28721785.384   150934014.556         963.708          44.000    28721789.615   115650800.468         738.391          49.000  
G09  24135662.280   126833786.726        -390.601          49.000    24135662.844    98831594.021        -304.370          45.000  
G03  24886565.258   130779747.659       -2199.421          50.000    24886568.037   101906259.885       -1713.905          45.000  
E26  26807756.380   140875702.220       -1613.643          48.000    26807759.899   107943729.169       -1236.483          52.000  
G06  25077804.208   131784803.376        1145.646          47.000    25077807.840   102689475.603         892.811          45.000  
R11  26657734.973   142450837.505       -2936.291          40.000    26657740.102   110795067.644       -2283.600          47.000  
R12  24843110.548   132707558.934         807.503          50.000    24843114.377   103217121.123         628.092          48.000  
R01  26515211.767   141738931.636       -3257.568          42.000    26515220.730   110241319.510       -2533.400          40.000  
S31  42191689.786   221718807.995        -896.757          44.000  
E13  29330115.750   154130706.788       -3809.197          44.000    29330129.176   118100155.466       -2918.768          49.000  
G07  26056320.115   136927006.331        2901.701          46.000    26056325.616   106696468.340        2260.992          43.000  
G04  24373647.248   128084363.760       -2645.885          48.000    24373647.388    99805976.999       -2061.746          47.000  
E30  31208124.463   163999848.421        1086.506          41.000    31208140.737   125662294.135         832.635          46.000  
G16  28902999.679   151886280.052         632.667          38.000                                                                  
E08  30676698.993   161207056.149       -3096.230          39.000    30676709.399   123522288.576       -2372.416          45.000  
G17                                                                  27733002.008                3      -2923.332          22.000  
> 2024 04 08 15 41 30.0110000  0 23                     
S33  43149771.118   226753579.902        -895.364          43.000  
G19  27494670.567   144485400.339       -2692.154          45.000                                                                  
E07  27236777.671   143130214.322       -1911.769          49.000    27236781.979   109671222.513       -1464.864          51.000  
R13  25969306.149   138674775.284        2893.273          39.000    25969315.404   107858201.600        2249.720          37.000  
R17  23943569.345   128126839.815       -3627.602          52.000    23943569.089    99654081.470       -2821.381          49.000  
R02  23898516.218   127527050.763       -1912.189          53.000    23898518.282    99187742.826       -1487.293          50.000  
R03  24589654.624   131630398.520         459.250          52.000    24589653.617   102379253.763         357.214          49.000  
R18  24178919.501   129068704.518         145.618          51.000    24178922.069   100386608.688         113.281          48.000  
E33  28716308.520   150905236.800         954.774          43.000    28716313.209   115628749.997         731.564          49.000  
G09  24137915.171   126845627.836        -398.950          48.000    24137916.616    98840820.887        -310.785          45.000  
G03  24899142.235   130845840.648       -2207.118          50.000    24899145.176   101957760.860       -1719.946          45.000  
E26  26817005.128   140924302.476       -1626.338          48.000    26817008.114   107980968.300       -1246.138          51.000  
G06  25071306.893   131750655.825        1130.518          47.000    25071309.304   102662867.146         881.035          45.000  
R11  26674274.430   142539218.786       -2956.307          38.000    26674280.280   110863808.487       -2299.184          47.000  
R12  24838632.793   132683632.182         787.387          51.000    24838635.733   103198511.536         612.388          48.000  
R01  26533489.579   141836635.537       -3256.028          42.000    26533498.393   110317311.225       -2532.550          39.000  
S31  42196804.555   221745687.548        -895.370          43.000  
E13  29351873.451   154245044.531       -3813.265          43.000    29351887.108   118187764.514       -2921.896          48.000  
G07  26039770.857   136840040.880        2895.958          46.000    26039776.536   106628703.334        2256.513          43.000  
G04  24388766.481   128163815.523       -2650.987          47.000    24388766.638    99867887.394       -2065.536          46.000  
E30  31201928.088   163967286.153        1084.183          41.000    31201944.094   125637344.067         830.731          46.000  
G16  28899401.519   151867375.811         627.164          38.000                                                                  
E08  30694365.818   161299892.180       -3093.050          39.000    30694375.548   123593422.414       -2370.095          45.000  
> 2024 04 08 15 42 00.0110000  0 24                     
S33  43154882.809   226780440.297        -895.366          43.000  
G19  27510063.287   144566287.488       -2700.198          46.000                                                                  
E07  27247702.499   143187625.622       -1915.537          49.000    27247706.983   109715212.965       -1467.692          51.000  
R13  25953065.560   138588051.203        2888.112          39.000    25953074.343   107790749.945        2246.624          38.000  
R17  23963962.225   128235967.900       -3647.554          52.000    23963962.469    99738958.704       -2836.933          49.000  
R02  23909277.344   127584475.639       -1916.053          52.000    23909279.757    99232406.617       -1490.290          48.000  
R03  24587094.078   131616691.875         454.546          52.000    24587092.823   102368593.094         353.510          49.000  
R18  24178176.094   129064734.645         119.061          51.000    24178178.887   100383521.006          92.584          48.000  
E33  28710887.490   150876749.840         944.360          43.000    28710892.147   115606922.366         723.559          49.000  
G09  24140218.951   126857733.648        -408.118          49.000    24140219.938    98850254.005        -318.005          45.000  
G03  24911767.826   130912186.496       -2216.126          50.000    24911770.061   102009458.872       -1726.908          45.000  
E26  26826329.419   140973300.410       -1640.156          48.000    26826331.893   108018512.166       -1256.811          51.000  
G06  25064900.364   131716987.426        1114.208          47.000    25064901.460   102636632.077         868.096          45.000  
R11  26690929.678   142628222.245       -2977.035          38.000    26690935.969   110933033.171       -2315.724          48.000  
R12  24834271.116   132660333.197         765.822          51.000    24834275.086   103180390.211         595.628          49.000  
R01  26551760.305   141934304.803       -3255.279          43.000    26551768.490   110393275.957       -2531.793          38.000  
R19  27067294.440                3       2854.711          11.000    27064036.998                3       2055.080          26.000  
S31  42201914.830   221772544.043        -895.120          44.000  
E13  29373660.127   154359527.348       -3818.742          43.000    29373672.845   118275484.727       -2926.028          48.000  
G07  26023258.427   136753268.762        2888.946          46.000    26023263.613   106561088.978        2250.997          42.000  
G04  24403918.510   128243441.166       -2657.294          48.000    24403918.781    99929933.298       -2070.625          46.000  
E30  31195750.879   163934825.505        1080.099          41.000    31195766.869   125612471.885         827.569          46.000  
G16  28895838.514   151848653.435         621.217          37.000                                                                  
E08  30712019.886   161392657.485       -3091.250          40.000    30712028.729   123664502.083       -2368.625          46.000  
> 2024 04 08 15 42 30.0110000  0 24                     
S33  43159989.671   226807277.957        -894.109          42.000  
G19  27525497.864   144647399.024       -2707.353          46.000                                                                  
E07  27258646.142   143245132.248       -1918.298          49.000    27258650.366   109759276.450       -1469.814          51.000  
R13  25936851.500   138501470.015        2883.535          39.000    25936860.449   107723409.480        2242.905          40.000  
R17  23984464.475   128345678.416       -3666.498          53.000    23984464.316    99824288.999       -2851.660          49.000  
R02  23920057.830   127641999.621       -1919.051          52.000    23920059.990    99277147.411       -1492.450          50.000  
R03  24584556.299   131603113.447         450.657          50.000    24584555.798   102358032.134         350.636          48.000  
R18  24177579.403   129061549.913          93.250          52.000    24177581.683   100381043.981          72.546          48.000  
E33  28705522.495   150848556.553         935.093          44.000    28705526.959   115585319.761         716.504          48.000  
G09  24142573.066   126870104.496        -416.541          49.000    24142573.651    98859893.641        -324.652          45.000  
G03  24924440.524   130978786.954       -2224.016          49.000    24924443.068   102061355.278       -1733.106          44.000  
E26  26835728.253   141022697.003       -1652.978          47.000    26835731.813   108056361.483       -1266.600          51.000  
G06  25058584.518   131683801.787        1098.253          47.000    25058586.483   102610773.161         855.924          45.000  
R11  26707700.803   142717846.925       -2997.529          39.000    26707707.691   111002741.046       -2331.359          48.000  
R12  24830027.078   132637666.352         745.106          50.000    24830030.841   103162760.557         579.655          47.000  
R01  26570024.362   142031940.651       -3253.749          42.000    26570033.846   110469214.773       -2530.673          38.000  
R19  27049265.525                        2628.778          30.000    27049270.994                        2043.073          30.000  
S31  42207021.591   221799377.437        -893.795          44.000  
E13  29395473.587   154474154.787       -3823.119          44.000    29395486.461   118363315.738       -2929.390          49.000  
G07  26006783.773   136666694.341        2882.617          46.000    26006788.415   106493628.660        2246.257          42.000  
G04  24419103.919   128323240.260       -2662.665          48.000    24419103.980    99992114.360       -2074.824          46.000  
E30  31189593.944   163902469.688        1076.890          42.000    31189609.456   125587679.999         825.134          46.000  
G16  28892310.761   151830117.133         614.761          37.000                                                                  
E08  30729659.498   161485352.928       -3088.408          39.000    30729668.793   123735528.199       -2366.434          46.000  
> 2024 04 08 15 43 00.0110000  0 24                     
S33  43165090.340   226834080.928        -892.643          43.000  
G19  27540973.350   144728719.790       -2714.139          46.000                                                                  
E07  27269604.245   143302721.204       -1921.012          49.000    27269609.581   109803403.025       -1471.977          52.000  
R13  25920662.137   138415023.857        2879.331          38.000    25920671.987   107656174.047        2239.273          41.000  
R17  24005071.920   128455955.201       -3685.309          52.000    24005073.274    99910059.698       -2866.321          49.000  
R02  23930854.326   127699609.979       -1921.809          52.000    23930856.340    99321955.466       -1494.746          49.000  
R03  24582041.870   131589650.992         446.892          51.000    24582041.184   102347561.388         347.479          49.000  
R18  24177127.490   129059139.375          67.419          52.000    24177129.873   100379169.121          52.478          48.000  
E33  28700211.131   150820646.581         925.509          43.000    28700216.124   115563934.222         709.132          49.000  
G09  24144975.693   126882727.498        -424.908          49.000    24144975.615    98869729.754        -330.927          45.000  
G03  24937160.770   131045630.587       -2232.114          49.000    24937163.962   102113441.146       -1739.406          46.000  
E26  26845202.345   141072479.986       -1665.993          47.000    26845205.423   108094506.841       -1276.479          51.000  
G06  25052359.347   131651089.205        1082.480          47.000    25052362.033   102585282.862         843.466          45.000  
R11  26724585.963   142808078.023       -3018.053          41.000    26724593.248   111072920.651       -2347.287          47.000  
R12  24825898.123   132615622.651         724.309          49.000    24825902.680   103145615.556         563.232          47.000  
R01  26588281.504   142129531.144       -3252.180          43.000    26588291.264   110545118.252       -2529.332          38.000  
R19  27034560.661                        2616.028          29.000    27034562.939                        2034.650          26.000  
S31  42212120.884   221826176.067        -892.658          43.000  
E13  29417311.598   154588913.174       -3827.369          44.000    29417324.469   118451247.075       -2932.696          49.000  
G07  25990345.137   136580308.405        2876.202          47.000    25990349.262   106426315.205        2241.349          42.000  
G04  24434319.508   128403199.200       -2667.941          47.000    24434319.463   100054419.976       -2078.990          46.000  
E30  31183455.561   163870208.647        1073.752          43.000    31183469.761   125562960.760         822.738          46.000  
G16  28888816.675   151811756.961         608.936          36.000                                                                  
E08  30747284.594   161577966.070       -3085.714          39.000    30747292.726   123806491.265       -2364.506          46.000  
> 2024 04 08 15 43 30.0110000  0 24                     
S33  43170182.726   226860841.800        -891.143          43.000  
G19  27556485.831   144810239.824       -2720.393          45.000                                                                  
E07  27280577.240   143360383.830       -1923.106          49.000    27280582.733   109847586.036       -1473.442          52.000  
R13  25904497.450   138328709.522        2875.348          38.000    25904508.313   107589041.094        2236.576          41.000  
R17  24025783.221   128566786.358       -3703.436          51.000    24025784.591    99996261.552       -2880.316          49.000  
R02  23941665.711   127757298.206       -1924.030          53.000    23941667.367    99366824.015       -1496.386          50.000  
R03  24579547.342   131576295.538         443.587          52.000    24579546.439   102337173.818         344.985          49.000  
R18  24176819.739   129057496.478          42.151          51.000    24176822.661   100377891.318          32.745          48.000  
E33  28694951.951   150793013.764         916.597          42.000    28694957.803   115542761.056         702.428          49.000  
G09  24147424.029   126895594.081        -432.837          49.000    24147424.719    98879755.679        -337.280          45.000  
G03  24949925.313   131112710.199       -2239.703          49.000    24949928.575   102165710.897       -1745.261          45.000  
E26  26854747.393   141122641.340       -1678.097          47.000    26854750.839   108132942.115       -1285.827          51.000  
G06  25046222.980   131618844.272        1067.104          47.000    25046226.193   102560156.975         831.626          45.000  
R11  26741583.178   142898905.264       -3037.516          41.000    26741590.210   111143563.980       -2362.262          46.000  
R12  24821887.867   132594197.446         704.172          49.000    24821892.079   103128951.646         547.537          46.000  
R01  26606529.375   142227068.947       -3250.228          43.000    26606537.545   110620980.774       -2527.594          39.000  
R19  27019926.674                        2603.156          28.000    27019924.872                1       2024.201          27.000  
S31  42217212.658   221852932.818        -891.101          43.000  
E13  29439172.934   154703793.102       -3831.074          44.000    29439185.563   118539271.586       -2935.522          49.000  
G07  25973941.375   136494106.303        2870.513          48.000    25973944.241   106359145.011        2236.895          41.000  
G04  24449563.928   128483308.621       -2672.551          47.000    24449563.971   100116842.852       -2082.537          47.000  
E30  31177332.738   163838036.747        1071.213          42.000    31177347.515   125538309.822         820.732          46.000  
G16  28885355.681   151793568.104         603.888          36.000                                                                  
E08  30764890.798   161670488.738       -3082.448          39.000    30764899.247   123877384.987       -2361.790          46.000  
> 2024 04 08 15 44 00.0110000  0 24                     
S33  43175264.724   226887548.644        -889.037          42.000  
G19  27572034.008   144891944.797       -2726.182          45.000                                                                  
E07  27291561.769   143418107.647       -1924.679          49.000    27291567.262   109891815.943       -1474.796          52.000  
R13  25888356.337   138242519.761        2871.375          38.000    25888366.402   107522005.043        2233.307          39.000  
R17  24046595.399   128678155.990       -3720.886          52.000    24046596.800   100082882.236       -2893.963          50.000  
R02  23952488.520   127815051.858       -1925.838          52.000    23952490.279    99411743.481       -1497.877          50.000  
R03  24577070.435   131563034.382         440.770          51.000    24577068.323   102326859.625         342.796          48.000  
R18  24176653.747   129056610.816          17.291          52.000    24176656.235   100377202.462          13.385          47.000  
E33  28689744.870   150765648.227         907.869          42.000    28689750.198   115521792.686         695.840          49.000  
G09  24149916.096   126908691.808        -439.996          49.000    24149916.764    98889961.708        -342.926          45.000  
G03  24962733.780   131180014.823       -2246.910          49.000    24962736.069   102218155.958       -1750.950          45.000  
E26  26864362.689   141173169.258       -1689.954          47.000    26864365.976   108171658.260       -1294.949          51.000  
G06  25040174.702   131587057.743        1052.190          47.000    25040177.240   102535388.260         820.139          45.000  
R11  26758688.885   142990314.497       -3056.481          39.000    26758695.833   111214659.893       -2377.089          45.000  
R12  24817992.523   132573381.944         684.048          51.000    24817993.831   103112761.916         532.102          45.000  
R01  26624763.882   142324542.637       -3247.697          42.000    26624771.882   110696793.403       -2525.822          39.000  
R19  27005366.282                        2590.613          29.000    27005379.996                        2014.911          29.000  
S31  42222294.345   221879635.618        -888.788          44.000  
E13  29461053.994   154818781.473       -3834.437          43.000    29461067.946   118627379.139       -2938.007          49.000  
G07  25957570.491   136408079.866        2864.973          47.000    25957573.802   106292111.694        2232.398          41.000  
G04  24464833.988   128563555.432       -2676.905          46.000    24464834.469   100179372.780       -2085.820          47.000  
E30  31171225.145   163805944.545        1068.980          42.000    31171240.236   125513719.925         818.899          45.000  
G16  28881925.117   151775540.784         598.705          37.000                                                                  
E08  30782477.444   161762909.003       -3078.573          38.000    30782486.371   123948200.278       -2358.939          45.000  
> 2024 04 08 15 44 30.0110000  0 24                     
S33  43180334.995   226914190.506        -886.847          43.000  
G19  27587614.986   144973821.336       -2732.093          45.000                                                                  
E07  27302555.634   143475881.363       -1926.651          49.000    27302560.995   109936084.091       -1476.224          52.000  
R13  25872237.855   138156448.513        2866.678          38.000    25872247.582   107455061.187        2229.773          40.000  
R17  24067505.846   128790049.578       -3738.482          52.000    24067507.250   100169910.409       -2907.745          49.000  
R02  23963321.946   127872860.229       -1927.907          53.000    23963323.518    99456705.466       -1499.477          50.000  
R03  24574607.717   131549856.974         437.769          50.000    24574607.124   102316610.545         340.446          48.000  
R18  24176628.631   129056473.052          -8.002          52.000    24176630.372   100377095.329          -6.207          48.000  
E33  28684586.660   150738541.237         899.306          43.000    28684592.218   115501022.445         689.011          49.000  
G09  24152450.380   126922009.509        -447.589          49.000    24152450.250    98900339.162        -348.724          45.000  
G03  24975582.151   131247534.685       -2254.329          50.000    24975585.189   102270768.755       -1756.744          46.000  
E26  26874045.747   141224053.134       -1702.032          48.000    26874048.659   108210647.151       -1304.161          51.000  
G06  25034211.602   131555721.546        1037.035          47.000    25034213.915   102510970.469         808.173          46.000  
R11  26775901.524   143082292.709       -3075.539          40.000    26775908.617   111286198.357       -2391.950          44.000  
R12  24814208.551   132553168.947         663.674          51.000    24814211.647   103097040.820         516.403          47.000  
R01  26642984.445   142421941.857       -3245.440          39.000    26642993.964   110772548.053       -2524.129          40.000  
R19  26990873.468                        2578.473          27.000    26990884.558   112297834.3181       2005.658          31.000  
S31  42227362.362   221906273.628        -886.586          44.000  
E13  29482954.522   154933866.233       -3837.761          44.000    29482968.179   118715560.574       -2940.624          49.000  
G07  25941231.327   136322221.253        2859.087          46.000    25941234.838   106225209.155        2227.585          40.000  
G04  24480128.374   128643927.677       -2681.232          46.000    24480129.178   100242000.452       -2089.189          48.000  
E30  31165130.724   163773923.751        1066.244          41.000    31165146.835   125489184.695         817.007          45.000  
G16  28878523.622   151757667.592         593.254          35.000                                                                  
E08  30800043.014   161855216.171       -3075.176          36.000    30800052.420   124018928.865       -2356.206          46.000  
