     3.00           OBSERVATION DATA    M: Mixed            RINEX VERSION / TYPE
CONVBIN 2.4.3                           20240408 164442 UTC PGM / RUN BY / DATE 
format: u-blox UBX                                          COMMENT             
log: data/2024-04-08/20240408163000.ubx                     COMMENT             
AQUI00CHL                                                   MARKER NAME         
                                                            MARKER NUMBER       
                                                            MARKER TYPE         
                                                            OBSERVER / AGENCY   
UNKNOWN             UBLOX-ZED-F9P                           REC # / TYPE / VERS 
UNKNOWN             TWIVSP6037L                             ANT # / TYPE        
  1713381.0000 -5047934.0000 -3490983.0000                  APPROX POSITION XYZ 
        0.0000        0.0000        0.0000                  ANTENNA: DELTA H/E/N
G    8 C1C L1C D1C S1C C2L L2L D2L S2L                      SYS / # / OBS TYPES 
R    8 C1C L1C D1C S1C C2C L2C D2C S2C                      SYS / # / OBS TYPES 
E    8 C1C L1C D1C S1C C7Q L7Q D7Q S7Q                      SYS / # / OBS TYPES 
S    4 C1C L1C D1C S1C                                      SYS / # / OBS TYPES 
  2024    04    08    16    30   00.4920000     GPS         TIME OF FIRST OBS   
  2024    04    08    16    44   30.4920000     GPS         TIME OF LAST OBS    
                                                            END OF HEADER       
> 2024 04 08 16 30 00.4920000  0 25                     
S33  37316866.923   196101437.5091       -821.645          43.000  
E07  22047930.967   115862622.6991      -2090.940          48.000    22047938.014    88777867.2571      -1602.199          52.000  
G16  22473856.617   118100961.8431       -310.941          35.000                                                                  
R13  18335376.932    97910120.4901       1736.163          43.000    18335381.530    76152383.9021       1350.116          42.000  
R04  20954360.925                3       1620.751          10.000                                                                  
R17  20000163.825   107024727.4761      -4830.238          45.000    20000171.022    83241289.2481      -3756.712          43.000  
R02  18710606.189    99843333.2071      -2191.633          52.000    18710608.369    77655954.9771      -1704.596          48.000  
R03  18130021.251    97051482.6491        114.531          51.000    18130020.086    75484542.9401         89.055          50.000  
R18  18489529.597    98698329.6721      -2371.808          51.000    18489533.998    76765199.6331      -1844.678          48.000  
E33  22182755.236   116571182.2931       -206.156          48.000    22182759.946    89320838.2261       -157.915          51.000  
G09  18262109.050    95968048.6191      -1115.724          50.000    18262109.571    74780368.0741       -869.454          46.000  
G03  20051617.109   105371862.0971      -3077.740          47.000    20051624.680    82107891.6341      -2398.306          45.000  
G11  20933848.360   110008085.4801       1521.624          40.000    20933849.876    85720620.7271       1185.632          39.000  
E26  21749537.622   114294546.3811      -2807.269          48.000    21749543.547    87576340.1561      -2151.030          51.000  
G06  18621460.057    97856480.7151       -690.262          47.000    18621464.565    76251820.4511       -537.856          48.000  
R12  18722589.467   100012837.2501      -1567.336          50.000    18722590.338    77787895.8961      -1219.174          47.000  
R19  19780097.923   105810163.8411        811.119          39.000    19780098.716    82296809.6241        631.063          44.000  
E19  24761804.765   130124194.0401        910.105          36.000    24761815.133    99705588.9161        697.299          38.000  
S31  36363842.718   191093248.2541       -821.649          44.000  
E13  25236667.019   132619256.3561      -4014.028          38.000    25236695.510   101617293.7851      -3075.791          39.000  
G07  18386530.155    96622047.7041       1814.270          48.000    18386531.162    75289794.3071       1413.770          44.000  
G30  20943491.158   110058895.4331       2785.310          43.000    20943501.705    85760501.8411       2170.602          36.000  
G04  19662723.148   103328256.9951      -2995.847          45.000    19662725.636    80515495.0721      -2334.415          44.000  
E30  24442022.305   128443790.1591        448.989          42.000    24442034.555    98418055.1701        343.924          46.000  
E27  24868720.482   130686100.8631       1717.759          43.000    24868740.457   100136215.1101       1316.215          46.000  
> 2024 04 08 16 30 30.4920000  0 25                     
S33  37321556.545   196126081.274        -822.054          43.000  
E07  22059872.419   115925372.834       -2092.793          47.000    22059879.249    88825948.473       -1603.594          52.000  
G16  22475671.663   118110500.788        -325.755          34.000                                                                  
R13  18325678.250    97858332.311        1715.961          43.000    18325683.082    76112104.338        1334.692          41.000  
R17  20027257.640   107169712.269       -4836.056          40.000    20027265.922    83354054.405       -3761.547          41.000  
R02  18722936.804    99909132.018       -2195.539          52.000    18722940.132    77707131.685       -1707.610          48.000  
R03  18129388.895    97048105.749         110.087          48.000    18129389.404    75481916.488          85.569          50.000  
R18  18502926.493    98769841.335       -2396.210          51.000    18502930.739    76820819.650       -1863.708          48.000  
E33  22183972.469   116577579.383        -220.884          48.000    22183977.038    89325739.873        -169.198          51.000  
G09  18268496.934    96001618.323       -1122.731          49.000    18268498.174    74806526.261        -875.021          46.000  
G03  20069214.747   105464336.278       -3087.795          47.000    20069221.976    82179949.158       -2406.081          44.000  
G11  20925201.686   109962646.991        1506.961          41.000    20925204.461    85685214.169        1174.586          41.000  
E26  21765594.343   114378927.400       -2818.670          47.000    21765600.741    87640995.582       -2159.695          51.000  
G06  18625460.870    97877501.323        -711.679          47.000    18625464.843    76268200.089        -554.535          48.000  
R12  18731462.913   100060244.904       -1593.799          49.000    18731465.343    77824768.453       -1239.548          47.000  
R19  19775616.572   105786193.874         786.250          37.000    19775617.223    82278166.332         611.509          44.000  
E19  24756616.210   130096924.900         906.525          37.000    24756625.751    99684694.488         695.189          37.000  
S31  36368532.044   191117890.210        -821.927          44.000  
E13  25259582.926   132739677.796       -4014.382          36.000    25259610.962   101709564.849       -3075.820          35.000  
G07  18376217.911    96567855.456        1797.858          48.000    18376218.200    75247566.673        1400.830          44.000  
G30  20927606.621   109975426.428        2778.688          44.000    20927617.340    85695461.496        2165.252          37.000  
G04  19679832.645   103418166.228       -2998.601          45.000    19679835.369    80585554.087       -2336.579          45.000  
E30  24439490.016   128430475.773         438.430          43.000    24439501.179    98407853.313         336.004          46.000  
E27  24858913.408   130634567.024        1717.537          43.000    24858933.750   100096728.575        1315.921          46.000  
R04                                                                  20947668.903                3       1591.393          11.000  
> 2024 04 08 16 31 00.4920000  0 24                     
S33  37326247.635   196150731.596        -822.149          43.000  
E07  22071823.640   115988174.598       -2094.428          47.000    22071830.023    88874069.235       -1604.875          53.000  
G16  22477566.529   118120450.625        -339.201          35.000                                                                  
R13  18316093.201    97807147.131        1696.014          43.000    18316097.464    76072293.789        1318.903          42.000  
R17  20054382.817   107314870.531       -4841.664          43.000    20054393.594    83466954.366       -3765.647          43.000  
R02  18735289.321    99975051.297       -2199.773          51.000    18735292.715    77758402.151       -1710.860          46.000  
R03  18128782.247    97044856.698         105.870          49.000    18128782.288    75479389.479          82.292          50.000  
R18  18516460.450    98842082.593       -2420.532          52.000    18516464.057    76877007.179       -1882.635          48.000  
E33  22185273.519   116584416.923        -235.453          48.000    22185278.328    89330979.007        -180.598          50.000  
G09  18274924.792    96035395.639       -1129.690          50.000    18274926.272    74832846.211        -880.381          47.000  
G03  20086869.202   105557110.514       -3097.689          48.000    20086876.371    82252240.483       -2413.766          44.000  
G11  20916638.221   109917650.178        1492.184          42.000    20916642.574    85650151.824        1162.717          42.000  
E26  21781716.329   114463648.003       -2829.955          47.000    21781722.706    87705911.217       -2168.304          51.000  
G06  18629582.876    97899160.297        -732.914          47.000    18629586.388    76285077.163        -571.037          48.000  
R12  18740486.410   100108445.381       -1620.128          50.000    18740488.814    77862257.676       -1260.185          47.000  
R19  19771274.145   105762968.239         761.436          38.000    19771275.182    82260102.006         592.250          43.000  
E19  24751444.719   130069752.993         903.932          38.000    24751454.701    99663874.630         692.642          37.000  
S31  36373222.313   191142539.059        -822.141          43.000  
E13  25282499.384   132860103.372       -4015.494          32.000    25282526.798   101801839.046       -3075.706          33.000  
G07  18365999.437    96514157.959        1781.342          49.000    18365999.833    75205724.565        1387.878          44.000  
G30  20911760.987   109892158.547        2771.989          45.000    20911772.702    85630577.920        2160.078          38.000  
G04  19696956.227   103508155.088       -3001.335          45.000    19696958.150    80655675.171       -2338.623          43.000  
E30  24437014.690   128417475.118         427.745          40.000    24437027.104    98397891.824         327.854          46.000  
E27  24849107.716   130583040.276        1717.138          42.000    24849127.869   100057247.463        1315.762          46.000  
> 2024 04 08 16 31 30.4920000  0 24                     
S33  37330940.921   196175394.790        -822.477          44.000  
E07  22083784.461   116051033.110       -2096.265          46.000    22083791.639    88922233.474       -1606.242          52.000  
G16  22479536.993   118130818.248        -352.848          33.000                                                                  
R13  18306622.649    97756573.786        1675.470          43.000    18306626.329    76032959.072        1303.363          42.000  
R17  20081543.174   107460203.819       -4847.379          42.000    20081553.962    83579990.459       -3770.014          42.000  
R02  18747666.593   100041097.040       -2203.773          52.000    18747669.670    77809770.963       -1713.966          45.000  
R03  18128200.668    97041741.261         101.500          50.000    18128200.203    75476966.389          78.973          50.000  
R18  18530131.048    98915056.036       -2444.659          52.000    18530134.309    76933764.189       -1901.434          48.000  
E33  22186659.923   116591701.181        -250.286          48.000    22186664.348    89336560.427        -191.821          50.000  
G09  18281393.455    96069385.387       -1136.548          50.000    18281394.618    74859331.696        -885.503          47.000  
G03  20104581.757   105650190.148       -3108.024          47.000    20104589.263    82324769.801       -2421.680          44.000  
G11  20908161.873   109873102.949        1477.385          44.000    20908165.332    85615439.740        1151.227          42.000  
E26  21797903.686   114548712.350       -2841.332          47.000    21797910.116    87771090.244       -2177.064          51.000  
G06  18633826.568    97921463.279        -754.194          48.000    18633829.867    76302456.107        -587.803          48.000  
R12  18749658.520   100157443.717       -1646.616          49.000    18749661.853    77900367.454       -1280.703          47.000  
R19  19767073.301   105740494.863         736.593          36.000    19767074.197    82242622.784         572.788          43.000  
E19  24746293.411   130042683.709         900.300          36.000    24746303.316    99643133.371         690.046          39.000  
S31  36377915.199   191167200.546        -822.131          43.000  
E13  25305414.191                1      -4014.460          27.000    25305445.065                       -3076.730          31.000  
G07  18355876.642    96460963.021        1764.709          49.000    18355877.354    75164274.057        1375.024          45.000  
G30  20895955.304   109809099.763        2765.131          44.000    20895965.878    85565857.214        2154.401          37.000  
G04  19714096.761   103598228.381       -3004.087          45.000    19714099.888    80725862.024       -2340.802          44.000  
E30  24434598.019   128404795.260         417.190          36.000    24434614.520    98388176.191         319.644          47.000  
E27  24839304.535   130531528.303        1716.701          42.000    24839324.689   100017777.676        1315.392          45.000  
> 2024 04 08 16 32 00.4920000  0 24                     
S33  37335635.919   196200066.072        -822.584          43.000  
E07  22095755.942   116113943.652       -2098.102          47.000    22095763.108    88970437.587       -1607.676          52.000  
G16  22481584.171   118141600.731        -366.640          32.000                                                                  
R13  18297266.437    97706612.393        1654.645          43.000    18297270.134    75994100.321        1287.091          42.000  
R17  20108735.662   107605702.945       -4852.922          46.000    20108746.089    83693155.511       -3774.492          44.000  
R02  18760067.169   100107265.567       -2207.922          53.000    18760068.563    77861235.305       -1717.312          45.000  
R03  18127643.512    97038756.070          97.082          51.000    18127641.929    75474644.554          75.641          49.000  
R18  18543936.806    98988754.472       -2468.890          51.000    18543939.896    76991085.073       -1920.239          47.000  
E33  22188130.102   116599428.563        -265.088          49.000    22188134.822    89342481.372        -203.157          50.000  
G09  18287900.923    96103582.520       -1143.579          50.000    18287901.666    74885978.807        -891.193          46.000  
G03  20122351.336   105743570.639       -3117.814          47.000    20122359.282    82397533.528       -2429.462          44.000  
G11  20899770.502   109829003.338        1462.121          42.000    20899772.467    85581076.479        1139.547          41.000  
E26  21814155.876   114634114.703       -2852.521          47.000    21814161.371    87836528.253       -2185.686          51.000  
G06  18638192.227    97944406.098        -775.540          48.000    18638195.226    76320333.599        -604.412          47.000  
R12  18758979.586   100207234.925       -1673.152          50.000    18758983.078    77939093.913       -1301.404          46.000  
R19  19763012.846   105718771.450         710.852          37.000    19763014.180    82225726.805         553.363          44.000  
E19  24741159.695   130015712.294         897.600          35.000    24741170.911    99622467.135         687.676          39.000  
S31  36382610.031   191191870.014        -822.573          44.000  
G07  18345848.862    96408268.683        1747.876          49.000    18345849.415    75123213.611        1361.908          44.000  
G30  20880187.768   109726248.220        2758.030          44.000    20880198.825    85501298.017        2149.073          37.000  
G04  19731252.123   103688381.007       -3006.594          45.000    19731254.742    80796110.731       -2342.940          43.000  
E30  24432247.940   128392433.697         407.055          36.000    24432262.160    98378704.324         311.558          47.000  
E27  24829504.674   130480028.967        1716.143          43.000    24829524.303    99978317.564        1315.019          46.000  
E13                                                                  25328362.735                       -3075.972          27.000  
> 2024 04 08 16 32 30.4920000  0 24                     
S33  37340332.012   196224746.069        -823.057          43.000  
E07  22107736.982   116176906.883       -2099.822          47.000    22107744.886    89018682.076       -1608.970          53.000  
G16  22483718.895   118152800.777        -380.539          36.000                                                                  
R13  18288025.783    97657267.968        1634.198          43.000    18288029.570    75955721.432        1271.027          43.000  
R17  20135956.757   107751364.599       -4858.374          45.000    20135966.685    83806446.876       -3778.551          44.000  
R02  18772490.749   100173558.195       -2212.086          52.000    18772492.337    77912796.137       -1720.350          46.000  
R03  18127110.081    97035901.506          92.834          51.000    18127109.749    75472424.336          72.192          50.000  
R18  18557878.303    99063175.972       -2492.865          51.000    18557882.528    77048968.280       -1939.075          48.000  
E33  22189685.636   116607600.809        -280.030          49.000    22189689.906    89348743.179        -214.549          50.000  
G09  18294447.142    96137987.404       -1150.421          50.000    18294448.581    74912787.796        -896.454          46.000  
G03  20140179.304   105837252.770       -3127.983          47.000    20140185.314    82470532.330       -2437.394          42.000  
G11  20891463.644   109785354.700        1447.110          44.000    20891465.205    85547064.578        1127.745          41.000  
E26  21830472.140   114719854.710       -2863.812          47.000    21830477.560    87902224.979       -2194.392          51.000  
G06  18642680.014    97967989.855        -797.177          48.000    18642683.452    76338710.504        -620.980          48.000  
R12  18768448.446   100257819.228       -1699.673          47.000    18768452.535    77978437.196       -1321.939          46.000  
R19  19759090.381   105697800.705         686.419          35.000    19759093.940    82209416.231         533.752          44.000  
E19  24736047.138   129988839.620         893.833          37.000    24736057.051    99601876.550         684.952          40.000  
S31  36387306.174   191216549.456        -822.983          43.000  
G07  18335916.943    96356078.293        1731.067          48.000    18335917.965    75082545.856        1348.999          44.000  
G30  20864461.275   109643607.359        2751.051          43.000    20864473.064    85436902.939        2143.473          37.000  
G04  19748423.126   103778613.257       -3009.273          46.000    19748425.041    80866421.433       -2344.776          42.000  
E30  24429958.051   128380392.887         395.654          37.000    24429971.061    98369478.273         303.371          47.000  
E27  24819707.097   130428545.397        1715.651          42.000    24819727.133    99938869.520        1314.581          46.000  
E13                                                                  25351282.786                       -3076.522          27.000  
> 2024 04 08 16 33 00.4920000  0 24                     
S33  37345030.308   196249434.885        -823.251          43.000  
E07  22119728.271   116239920.746       -2101.382          45.000    22119736.043    89066965.367       -1610.115          52.000  
G16  22485931.890   118164417.848        -394.084          37.000                                                                  
R13  18278900.875    97608542.324        1613.843          42.000    18278904.622    75917823.814        1255.101          43.000  
R17  20163205.807   107897182.681       -4862.941          46.000    20163217.731    83919859.941       -3782.167          45.000  
R02  18784936.758   100239974.028       -2216.008          52.000    18784939.935    77964452.805       -1723.493          48.000  
R03  18126601.339    97033176.887          88.685          51.000    18126600.583    75470305.167          69.081          50.000  
R18  18571954.024    99138315.815       -2516.595          51.000    18571958.144    77107410.225       -1957.379          48.000  
E33  22191324.828   116616216.966        -294.645          49.000    22191329.758    89355345.130        -225.765          50.000  
G09  18301033.505    96172597.680       -1157.086          49.000    18301034.627    74939756.807        -901.715          46.000  
G03  20158063.825   105931234.628       -3137.763          48.000    20158070.429    82543764.685       -2445.177          43.000  
G11  20883242.566   109742157.683        1432.337          42.000    20883245.830    85513404.599        1116.232          42.000  
E26  21846851.196   114805929.199       -2874.716          47.000    21846856.911    87968177.980       -2202.716          50.000  
G06  18647288.898    97992212.845        -818.104          47.000    18647292.616    76357585.511        -637.472          47.000  
R12  18778067.107   100309194.268       -1725.738          49.000    18778069.671    78018395.543       -1342.286          47.000  
R19  19755311.191   105677582.860         661.807          36.000    19755314.359    82193691.259         514.317          44.000  
E19  24730951.792   129962063.920         890.756          38.000    24730961.482    99581360.229         682.757          39.000  
S31  36392003.730   191241236.487        -823.053          42.000  
G07  18326081.950    96304392.507        1714.307          49.000    18326082.801    75042271.285        1335.889          45.000  
G30  20848774.889   109561177.939        2744.013          42.000    20848785.194    85372672.643        2138.274          36.000  
G04  19765608.666   103868922.710       -3011.709          46.000    19765610.898    80936792.285       -2346.584          42.000  
E30  24427727.177   128368672.843         385.501          36.000    24427740.649    98360498.050         295.160          47.000  
E27  24809912.680   130377078.059        1715.164          42.000    24809932.521    99899433.880        1314.404          46.000  
E13                                                                  25374200.626                       -3075.413          25.000  
> 2024 04 08 16 33 30.4920000  0 25                     
S33  37349729.785   196274129.390        -823.620          43.000  
E07  22131728.262   116302983.198       -2103.299          45.000    22131736.450    89115285.860       -1611.587          53.000  
G16  22488223.980   118176451.962        -408.562          36.000                                                                  
R13  18269891.777    97560437.690        1592.913          42.000    18269896.013    75880409.207        1238.865          43.000  
R04  20897448.599                3       1588.133          10.000                                                                  
R17  20190483.617   108043150.727       -4868.371          44.000    20190496.339    84033389.578       -3786.492          44.000  
R02  18797405.569   100306511.801       -2220.303          52.000    18797410.162    78016204.289       -1726.973          48.000  
R03  18126117.418    97030580.180          84.110          53.000    18126114.753    75468285.525          65.453          49.000  
R18  18586163.769    99214169.260       -2540.735          50.000    18586168.377    77166407.173       -1976.074          48.000  
E33  22193049.717   116625276.013        -309.659          49.000    22193053.692    89362286.462        -237.303          51.000  
G09  18307657.722    96207411.005       -1164.148          49.000    18307659.396    74966884.031        -907.019          46.000  
G03  20176005.101   106025514.300       -3147.935          48.000    20176011.296    82617229.077       -2453.119          43.000  
G11  20875109.191   109699412.910        1416.837          43.000    20875112.177    85480097.010        1103.990          43.000  
E26  21863294.209   114892335.104       -2886.028          47.000    21863299.779    88034384.936       -2211.364          51.000  
G06  18652020.017    98017073.472        -839.668          47.000    18652023.507    76376957.367        -654.172          47.000  
R12  18787833.084   100361357.570       -1752.224          50.000    18787835.752    78058966.969       -1362.926          47.000  
R19  19751672.810   105658118.403         635.998          35.000    19751675.495    82178552.241         494.789          43.000  
E19  24725874.812   129935383.043         887.776          39.000    24725884.638    99560916.611         680.060          40.000  
S31  36396703.151   191265929.801        -823.414          44.000  
G07  18316341.632    96253211.509        1697.235          48.000    18316343.617    75002390.080        1322.528          45.000  
G30  20833128.919   109478960.682        2736.787          43.000    20833141.164    85308607.703        2132.474          38.000  
G04  19782808.407   103959306.940       -3014.403          46.000    19782809.938    81007221.481       -2349.026          42.000  
E30  24425557.972   128357273.452         374.333          37.000    24425571.498    98351763.530         286.902          46.000  
E27  24800122.108   130325627.383        1714.449          43.000    24800141.868    99860011.052        1313.694          47.000  
E13                                                                  25397115.280                3      -3076.454          22.000  
> 2024 04 08 16 34 00.4920000  0 24                     
S33  37354428.649   196298825.071        -823.075          43.000  
E07  22143737.505   116366088.542       -2104.174          45.000    22143745.123    89163639.224       -1612.266          53.000  
G16  22490589.343   118188898.949        -421.681          34.000                                                                  
R13  18260999.711    97512952.659        1572.595          43.000    18261003.600    75843476.485        1223.168          43.000  
R17  20217788.880   108189259.245       -4872.568          46.000    20217801.457    84147028.535       -3789.747          44.000  
R02  18809896.679   100373166.684       -2223.841          52.000    18809900.313    78068046.867       -1729.622          47.000  
R03  18125654.821    97028107.041          80.382          51.000    18125652.478    75466361.980          62.566          50.000  
R18  18600506.547    99290727.943       -2563.693          51.000    18600510.545    77225952.647       -1993.958          48.000  
E33  22194857.043   116634773.349        -323.837          49.000    22194861.295    89369563.590        -248.115          51.000  
G09  18314319.847    96242421.361       -1170.300          48.000    18314321.925    74994164.824        -912.036          46.000  
G03  20194001.267   106120086.199       -3157.242          48.000    20194007.435    82690921.194       -2460.106          42.000  
G11  20867060.463   109657117.422        1402.235          43.000    20867064.092    85447139.519        1092.721          43.000  
E26  21879797.649   114979065.702       -2896.362          46.000    21879804.002    88100840.676       -2219.229          50.000  
G06  18656871.055    98042566.396        -860.361          46.000    18656874.475    76396821.927        -670.412          46.000  
R12  18797743.683   100414302.862       -1777.795          49.000    18797747.801    78100146.581       -1382.713          48.000  
R19  19748172.828   105639403.730         611.294          37.000    19748176.724    82163996.388         475.441          43.000  
E19  24720813.833   129908791.400         885.108          38.000    24720824.871    99540541.325         677.990          41.000  
S31  36401402.881   191290624.295        -822.967          44.000  
G07  18306698.085    96202532.657        1680.878          48.000    18306699.240    74962900.133        1309.869          44.000  
G30  20817524.117   109396952.866        2730.043          45.000    20817534.775    85244705.860        2127.323          38.000  
G04  19800021.816   104049760.047       -3016.332          47.000    19800022.914    81077704.264       -2350.172          42.000  
E30  24423450.541   128346191.078         364.210          39.000    24423462.433    98343271.919         279.038          46.000  
E27  24790333.640   130274190.293        1714.454          42.000    24790353.242    99820598.608        1313.725          47.000  
E13                                                                  25420030.156                3      -3075.243          26.000  
> 2024 04 08 16 34 30.4920000  0 24                     
S33  37359127.809   196323515.023        -822.698          44.000  
E07  22155752.683   116429229.464       -2105.189          46.000    22155759.996    89212019.865       -1613.081          52.000  
G16  22493035.947   118201753.297        -435.062          35.000                                                                  
R13  18252222.502    97466084.064        1551.957          42.000    18252227.183    75807023.231        1207.375          44.000  
R17  20245118.365   108335496.890       -4876.617          49.000    20245130.029    84260767.853       -3792.719          44.000  
R02  18822408.257   100439932.284       -2227.208          50.000    18822412.440    78119975.588       -1732.255          47.000  
R03  18125214.249    97025750.097          76.691          51.000    18125212.652    75464528.788          59.613          50.000  
R18  18614978.559    99367981.755       -2586.573          50.000    18614983.615    77286038.766       -2011.768          48.000  
E33  22196745.581   116644702.613        -338.041          49.000    22196750.812    89377171.716        -259.059          51.000  
G09  18321018.637    96277621.109       -1176.459          49.000    18321020.477    75021593.188        -916.705          46.000  
G03  20212051.969   106214943.199       -3166.512          48.000    20212059.246    82764835.465       -2467.350          43.000  
G11  20859096.287   109615266.500        1387.572          44.000    20859099.798    85414528.473        1081.272          43.000  
E26  21896361.699   115066112.592       -2906.789          44.000    21896368.794    88167538.750       -2227.165          51.000  
G06  18661841.527    98068684.572        -880.910          47.000    18661844.129    76417173.707        -686.479          45.000  
R12  18807800.579   100468022.182       -1803.318          49.000    18807804.474    78141928.241       -1402.708          49.000  
R19  19744815.500   105621433.497         586.837          38.000    19744816.693    82150019.517         456.480          42.000  
E19  24715769.002   129882281.946         882.154          39.000    24715780.345    99520229.014         676.073          42.000  
S31  36406100.107   191315313.192        -822.696          43.000  
G07  18297148.918    96152351.225        1664.569          48.000    18297149.815    74923797.761        1297.034          44.000  
G30  20801957.462   109315149.836        2723.450          44.000    20801967.752    85180963.677        2121.933          39.000  
G04  19817245.805   104140274.229       -3017.993          46.000    19817248.900    81148234.677       -2351.745          45.000  
E30  24421399.987   128335420.326         353.922          35.000    24421412.314    98335019.100         271.139          46.000  
E27  24780546.566   130222761.949        1714.189          43.000    24780566.344    99781192.868        1313.515          47.000  
E13                                                                  25442939.493                3      -3072.945          23.000  
> 2024 04 08 16 35 00.4920000  0 24                     
S33  37363824.625   196348197.055        -822.833          44.000  
E07  22167774.871   116492403.088       -2106.738          46.000    22167781.846    89260425.537       -1614.351          53.000  
G16  22495559.585   118215013.949        -449.369          35.000                                                                  
R13  18243561.370    97419833.277        1530.925          42.000    18243566.188    75771050.513        1190.678          44.000  
R17  20272469.295   108481856.093       -4880.985          50.000    20272481.294    84374601.727       -3796.426          45.000  
R02  18834939.658   100506806.083       -2231.339          50.000    18834944.550    78171988.416       -1735.683          48.000  
R03  18124795.055    97023507.150          72.404          51.000    18124793.961    75462784.264          56.229          50.000  
R18  18629580.448    99445924.802       -2610.044          51.000    18629585.334    77346660.987       -2030.098          49.000  
E33  22198717.029   116655061.933        -352.870          49.000    22198721.800    89385109.346        -270.431          51.000  
G09  18327753.019    96313007.094       -1182.867          50.000    18327753.453    75049166.639        -921.777          46.000  
G03  20230156.683   106310082.355       -3176.532          47.000    20230163.631    82838969.598       -2475.282          43.000  
G11  20851216.768   109573859.913        1372.432          44.000    20851220.321    85382263.636        1069.550          44.000  
E26  21912987.128   115153471.700       -2917.602          46.000    21912992.945    88234476.064       -2235.549          51.000  
G06  18666930.341    98095425.357        -902.000          47.000    18666933.197    76438010.657        -702.878          46.000  
R12  18817999.226   100522511.901       -1829.615          47.000    18818003.832    78184309.116       -1422.880          48.000  
R19  19741595.629   105604206.434         561.035          38.000    19741595.708    82136620.721         436.599          43.000  
E19  24710739.071   129855851.725         879.522          38.000    24710750.798    99499977.446         673.824          42.000  
S31  36410797.273   191339993.296        -822.947          44.000  
G07  18287694.301    96102666.636        1647.620          48.000    18287695.561    74885082.526        1283.636          45.000  
G30  20786428.983   109233551.452        2716.073          44.000    20786440.248    85117380.937        2116.204          39.000  
G04  19834481.383   104230846.289       -3020.564          46.000    19834483.769    81218810.155       -2353.555          44.000  
E30  24419406.730   128324960.205         343.171          36.000    24419421.932    98327004.245         262.942          45.000  
E27  24770763.530   130171341.934        1713.468          45.000    24770781.696    99741793.488        1312.805          48.000  
E13                                                                  25465843.983                3      -3077.548          21.000  
> 2024 04 08 16 35 30.4920000  0 24                     
S33  37368520.986   196372876.507        -822.961          43.000  
E07  22179804.500   116555615.139       -2107.765          47.000    22179810.664    89308860.668       -1615.119          53.000  
G16  22498162.725   118228688.134        -463.552          35.000                                                                  
R13  18235017.115    97374210.204        1510.019          42.000    18235021.275    75735566.003        1174.486          43.000  
R17  20299843.802   108628339.056       -4885.090          49.000    20299855.931    84488531.825       -3799.514          46.000  
R02  18847494.183   100573795.025       -2235.243          50.000    18847498.003    78224090.801       -1738.517          48.000  
R03  18124398.506    97021384.920          68.388          52.000    18124397.697    75461133.637          53.221          50.000  
R18  18644312.218    99524560.199       -2632.923          51.000    18644316.409    77407821.713       -2047.889          48.000  
E33  22200771.023   116665858.014        -367.485          48.000    22200776.066    89393381.640        -281.536          50.000  
G09  18334523.227    96348584.677       -1189.429          50.000    18334523.808    75076889.394        -926.868          45.000  
G03  20248315.628   106405509.534       -3185.780          46.000    20248323.688    82913328.120       -2482.476          43.000  
G11  20843422.817   109532905.985        1357.190          42.000    20843426.495    85350351.521        1057.675          44.000  
E26  21929671.773   115241147.662       -2927.795          46.000    21929677.475    88301656.167       -2243.565          51.000  
G06  18672138.185    98122794.796        -922.940          47.000    18672141.846    76459337.447        -719.260          47.000  
R12  18828345.854   100577777.385       -1855.390          48.000    18828349.331    78227293.343       -1443.019          48.000  
R19  19738514.928   105587731.081         536.287          38.000    19738516.533    82123806.534         417.202          42.000  
E19  24705726.300   129829506.631         876.547          39.000    24705737.157    99479791.085         671.571          42.000  
S31  36415493.567   191364672.408        -822.839          44.000  
G07  18278335.919    96053487.440        1630.540          48.000    18278337.020    74846761.113        1270.573          45.000  
G30  20770941.042   109152166.262        2708.979          44.000    20770952.083    85053964.265        2111.091          39.000  
G04  19851728.916   104321481.596       -3022.763          46.000    19851731.631    81289434.943       -2355.123          44.000  
E30  24417480.252   128314818.410         332.435          39.000    24417491.437    98319233.291         254.881          44.000  
E27  24760981.112   130119938.534        1712.860          45.000    24760999.834    99702406.823        1312.484          48.000  
E13                                                                  25488745.643                3      -3075.499          18.000  
> 2024 04 08 16 36 00.4920000  0 25                     
S33  37373215.895   196397548.656        -822.633          43.000  
E07  22191839.784   116618859.569       -2108.947          47.000    22191845.747    89357320.606       -1615.879          53.000  
G16  22500842.335   118242771.499        -476.596          34.000                                                                  
R13  18226590.891    97329212.658        1489.121          42.000    18226594.261    75700567.975        1158.201          43.000  
R04  20855086.089                3       1571.706          11.000    20851711.172                3       1550.446          11.000  
R17  20327239.889   108774935.289       -4888.712          50.000    20327252.127    84602550.028       -3802.130          46.000  
R02  18860068.785   100640894.224       -2238.779          51.000    18860072.887    78276278.954       -1741.223          49.000  
R03  18124023.757    97019377.894          64.696          51.000    18124022.345    75459572.635          50.291          49.000  
R18  18659171.423    99603879.121       -2655.556          51.000    18659175.690    77469514.028       -2065.374          48.000  
E33  22202907.619   116677085.717        -381.664          48.000    22202912.668    89401984.661        -292.405          50.000  
G09  18341328.560    96384347.479       -1195.404          50.000    18341329.538    75104756.481        -931.427          46.000  
G03  20266529.018   106501218.679       -3195.138          47.000    20266537.810    82987906.380       -2489.714          45.000  
G11  20835715.552   109492401.300        1342.415          43.000    20835718.854    85318789.471        1046.044          44.000  
E26  21946413.786   115329133.313       -2938.241          45.000    21946420.412    88369073.546       -2251.380          51.000  
G06  18677465.084    98150786.967        -943.569          48.000    18677468.965    76481149.482        -735.276          47.000  
R12  18838835.776   100633811.734       -1880.794          48.000    18838839.696    78270875.596       -1462.851          50.000  
R19  19735573.508   105572002.911         510.813          35.000    19735576.638    82111573.517         397.692          43.000  
E19  24700727.163   129803240.718         873.692          38.000    24700738.354    99459665.386         669.648          41.000  
S31  36420187.984   191389342.731        -822.410          44.000  
G07  18269072.616    96004809.957        1613.945          48.000    18269073.656    74808830.664        1257.609          45.000  
G30  20755493.911   109070990.972        2702.072          44.000    20755504.559    84990711.203        2105.471          40.000  
G04  19868986.008   104412173.762       -3024.361          46.000    19868990.808    81360104.027       -2356.439          45.000  
E30  24415609.364   128304990.709         322.182          38.000    24415622.097    98311703.061         246.758          44.000  
E27  24751201.553   130068548.119        1712.446          44.000    24751220.498    99663030.131        1312.220          48.000  
E13                                                                  25511646.993                3      -3077.179          19.000  
> 2024 04 08 16 36 30.4920000  0 25                     
S33  37377910.277   196422219.934        -822.853          43.000  
E07  22203880.636   116682142.276       -2110.375          46.000    22203888.067    89405809.899       -1616.986          52.000  
G16  22503598.629   118257271.582        -490.398          33.000                                                                  
R13  18218283.470    97284850.731        1467.809          42.000    18218287.288    75666064.351        1141.409          44.000  
R17  20354657.534   108921647.025       -4892.573          48.000    20354669.559    84716658.044       -3805.246          46.000  
R02  18872664.981   100708110.299       -2242.792          50.000    18872669.516    78328558.006       -1744.422          48.000  
R03  18123671.847    97017492.976          60.435          51.000    18123669.707    75458106.576          47.113          49.000  
R18  18674159.063    99683884.587       -2678.609          51.000    18674164.018    77531740.350       -2083.247          49.000  
E33  22205128.300   116688751.987        -396.479          49.000    22205133.170    89410923.733        -303.780          51.000  
G09  18348170.376    96420301.218       -1201.978          50.000    18348171.944    75132772.349        -936.578          46.000  
G03  20284797.337   106597215.793       -3204.851          47.000    20284805.538    83062709.036       -2497.483          43.000  
G11  20828094.863   109452354.379        1326.901          42.000    20828098.312    85287584.084        1034.048          44.000  
E26  21963215.600   115417433.458       -2948.763          44.000    21963223.610    88436731.909       -2259.468          51.000  
G06  18682912.303    98179408.077        -964.704          48.000    18682915.197    76503451.573        -751.858          46.000  
R12  18849470.197   100690620.460       -1906.695          49.000    18849475.314    78315060.118       -1483.004          50.000  
R19  19732775.068   105557030.074         486.111          38.000    19732778.124    82099928.020         378.052          43.000  
E19  24695744.704   129777059.742         870.867          38.000    24695756.159    99439604.812         667.457          41.000  
S31  36424882.840   191414012.210        -822.883          44.000  
G07  18259907.014    95956642.755        1596.702          48.000    18259908.087    74771297.814        1244.181          45.000  
G30  20740087.592   108990034.288        2694.634          44.000    20740098.265    84927628.437        2099.840          39.000  
G04  19886256.412   104502928.446       -3026.476          46.000    19886260.545    81430821.848       -2358.453          44.000  
E30  24413800.871   128295484.990         310.982          39.000    24413812.861    98304419.532         238.514          44.000  
E27  24741425.589   130017179.227        1711.688          44.000    24741444.997    99623669.925        1311.534          48.000  
E13                                                                  25534534.093                3      -3071.827          16.000  
R04                                                                  20846173.858                3       1542.439          12.000  
> 2024 04 08 16 37 00.4920000  0 25                     
S33  37382605.756   196446895.009        -822.853          43.000  
E07  22215931.137   116745468.980       -2111.805          46.000    22215938.780    89454332.906       -1618.226          52.000  
G16  22506438.280   118272195.798        -504.840          31.000                                                                  
R13  18210096.558    97241134.155        1446.099          43.000    18210100.133    75632062.659        1124.773          44.000  
R17  20382097.366   109068475.830       -4896.394          47.000    20382109.046    84830857.131       -3808.347          47.000  
R02  18885285.214   100775450.084       -2246.990          50.000    18885288.286    78380933.275       -1747.751          47.000  
R03  18123343.569    97015736.425          56.201          51.000    18123341.791    75456740.390          43.658          49.000  
R18  18689275.852    99764579.468       -2701.514          49.000    18689280.229    77594502.874       -2101.266          48.000  
E33  22207433.763   116700863.439        -411.402          48.000    22207438.127    89420203.895        -315.231          51.000  
G09  18355049.300    96456451.211       -1208.490          49.000    18355050.819    75160941.140        -941.730          46.000  
G03  20303120.568   106693506.608       -3214.903          46.000    20303128.205    83137740.526       -2505.166          42.000  
G11  20820564.274   109412773.426        1311.076          43.000    20820566.601    85256741.807        1021.881          44.000  
E26  21980080.077   115506052.645       -2959.459          44.000    21980087.565    88504634.721       -2267.735          51.000  
G06  18688479.565    98208663.924        -985.968          49.000    18688482.514    76526248.269        -768.322          46.000  
R12  18860252.846   100748208.397       -1932.854          51.000    18860255.149    78359850.684       -1503.310          50.000  
R19  19730118.680   105542820.583         460.676          38.000    19730121.863    82088876.170         358.356          43.000  
E19  24690781.170   129750969.811         867.887          39.000    24690791.681    99419613.998         665.009          41.000  
S31  36429578.261   191438687.282        -822.835          43.000  
G07  18250839.049    95908994.024        1579.357          48.000    18250840.673    74734168.973        1230.603          45.000  
G30  20724724.876   108909304.643        2686.981          45.000    20724735.190    84864722.629        2093.820          40.000  
G04  19903540.123   104593750.983       -3028.805          46.000    19903543.311    81501592.512       -2360.183          44.000  
E30  24412054.075   128286308.865         300.168          36.000    24412067.305    98297388.560         230.002          44.000  
E27  24731656.262   129965840.018        1710.463          45.000    24731674.348    99584332.449        1310.590          47.000  
E13                                                                  25557414.799                3      -3072.307          10.000  
R04                                                                  21139308.760                3       1542.853          13.000  
> 2024 04 08 16 37 30.4920000  0 24                     
S33  37387302.817   196471577.616        -823.022          43.000  
E07  22227990.898   116808841.085       -2113.386          47.000    22227998.401    89502890.681       -1619.401          52.000  
G16  22509358.907   118287547.243        -519.074          35.000                                                                  
R13  18202032.085    97198068.776        1424.308          42.000    18202035.829    75598567.499        1107.971          44.000  
R04  20831986.793                3       1548.957          12.000                                                                  
R17  20409556.203   109215419.157       -4900.173          45.000    20409570.577    84945145.276       -3811.188          47.000  
R02  18897928.421   100842915.619       -2251.302          49.000    18897931.526    78433406.363       -1751.058          47.000  
R03  18123040.316    97014110.590          51.762          52.000    18123038.156    75455475.837          40.233          49.000  
R18  18704521.954    99845962.348       -2724.479          50.000    18704526.556    77657800.485       -2118.961          50.000  
E33  22209823.517   116713422.257        -426.333          49.000    22209827.616    89429826.844        -326.666          51.000  
G09  18361965.434    96492798.481       -1215.070          49.000    18361967.185    75189263.669        -946.759          46.000  
G03  20321499.760   106790092.433       -3224.677          45.000    20321507.111    83213001.884       -2512.397          41.000  
G11  20813121.267   109373662.317        1295.478          42.000    20813123.325    85226265.679        1009.524          44.000  
E26  21997005.546   115594991.026       -2970.042          45.000    21997012.160    88572782.091       -2275.833          51.000  
G06  18694167.290    98238555.953       -1007.280          47.000    18694170.223    76549540.686        -784.765          46.000  
R12  18871178.624   100806576.240       -1958.727          49.000    18871182.031    78405247.825       -1523.513          50.000  
R19  19727607.201   105529378.360         435.125          40.000    19727607.445    82078421.066         338.297          43.000  
E19  24685834.446   129724972.195         864.735          40.000    24685843.961    99399693.893         662.775          40.000  
S31  36434274.597   191463367.870        -823.106          44.000  
G07  18241871.804    95861867.569        1561.968          48.000    18241872.320    74697447.084        1217.298          45.000  
G30  20709406.734   108828806.107        2679.190          45.000    20709416.426    84801996.840        2087.974          41.000  
G04  19920836.626   104684642.355       -3031.185          47.000    19920839.617    81572416.815       -2361.948          44.000  
E30  24410371.043   128277465.454         288.761          37.000    24410383.705    98290612.523         221.579          43.000  
E27  24721891.836   129914534.291        1709.236          44.000    24721910.746    99545020.637        1309.800          46.000  
> 2024 04 08 16 38 00.4920000  0 23                     
S33  37392002.388   196496273.582        -823.493          43.000  
E07  22240060.224   116872265.613       -2115.036          47.000    22240067.769    89551488.610       -1620.517          52.000  
G16  22512365.632   118303334.066        -533.259          38.000                                                                  
R13  18194091.080    97155665.620        1402.460          43.000    18194094.380    75565587.375        1090.907          43.000  
R17  20437037.437   109362480.056       -4903.961          40.000    20437053.509    85059524.774       -3814.133          47.000  
R02  18910597.002   100910515.308       -2255.483          51.000    18910599.476    78485983.740       -1754.222          47.000  
R03  18122761.977    97012623.085          47.333          51.000    18122760.236    75454318.858          36.798          50.000  
R18  18719897.505    99928037.178       -2747.224          50.000    18719901.660    77721636.267       -2136.741          49.000  
E33  22212299.277   116726436.443        -441.359          48.000    22212304.077    89439798.688        -338.149          51.000  
G09  18368921.160    96529349.800       -1221.771          49.000    18368922.841    75217745.172        -952.020          46.000  
G03  20339937.606   106886980.333       -3234.669          47.000    20339944.149    83288498.710       -2520.541          41.000  
G11  20805769.808   109335030.681        1279.778          41.000    20805771.053    85196163.139         997.221          43.000  
E26  22013991.423   115684254.461       -2980.851          45.000    22013998.613    88641178.546       -2283.985          51.000  
G06  18699977.472    98269091.281       -1028.379          47.000    18699981.287    76573334.427        -801.448          46.000  
R12  18882252.125   100865730.251       -1984.868          49.000    18882255.376    78451256.427       -1543.608          50.000  
R19  19725238.862   105516710.999         409.327          39.000    19725239.714    82068568.674         318.317          44.000  
E19  24680905.330   129699074.063         861.896          39.000    24680915.545    99379850.023         660.548          41.000  
S31  36438974.337   191488063.574        -823.399          43.000  
G07  18233004.146    95815272.858        1544.336          47.000    18233005.583    74661139.571        1203.393          45.000  
G30  20694133.086   108748548.444        2671.313          44.000    20694143.068    84739458.779        2081.829          41.000  
G04  19938147.705   104775609.353       -3033.498          48.000    19938150.873    81643300.057       -2363.722          45.000  
E30  24408754.431   128268963.668         277.768          39.000    24408765.198    98284098.264         212.915          42.000  
E27  24712136.240   129863271.632        1708.170          43.000    24712154.439    99505741.799        1308.888          44.000  
> 2024 04 08 16 38 30.4920000  0 24                     
S33  37396703.636   196520977.360        -823.735          43.000  
E07  22252138.555   116935734.786       -2116.608          47.000    22252145.274    89600120.766       -1621.677          52.000  
G16  22515452.091   118319550.596        -547.731          36.000                                                                  
R13  18186273.450    97113920.574        1380.500          42.000    18186277.243    75533119.075        1073.774          44.000  
R04  20814666.079                3       1550.367          11.000                                                                  
R17  20464540.367   109509646.488       -4907.229          42.000    20464556.564    85173986.446       -3816.747          47.000  
R02  18923288.408   100978242.283       -2259.764          49.000    18923293.020    78538660.151       -1757.645          49.000  
R03  18122508.811    97011266.798          42.932          53.000    18122507.418    75453263.974          33.441          50.000  
R18  18735400.034   100010793.154       -2769.903          51.000    18735405.149    77786001.852       -2154.423          49.000  
E33  22214861.806   116739899.065        -456.377          48.000    22214865.949    89450114.133        -349.611          50.000  
G09  18375913.574    96566097.046       -1228.308          48.000    18375915.298    75246379.339        -957.013          46.000  
G03  20358430.136   106984162.468       -3244.184          44.000    20358439.152    83364224.734       -2527.736          42.000  
G11  20798508.369   109296873.212        1263.842          41.000    20798510.529    85166430.120         984.900          43.000  
E26  22031038.633   115773833.965       -2991.402          46.000    22031044.881    88709817.192       -2292.012          51.000  
G06  18705909.514    98300262.244       -1049.728          47.000    18705913.795    76597623.414        -817.941          47.000  
R12  18893471.833   100925661.728       -2010.809          50.000    18893474.625    78497869.729       -1563.816          50.000  
R19  19723013.963   105504813.306         383.595          40.000    19723016.894    82059314.869         298.546          46.000  
E19  24675994.036   129673267.446         858.412          38.000    24676004.867    99360076.261         657.761          41.000  
S31  36443675.263   191512766.231        -823.614          44.000  
G07  18224238.084    95769204.610        1526.782          48.000    18224239.169    74625242.286        1189.685          45.000  
G30  20678905.392   108668526.598        2663.234          44.000    20678915.438    84677104.481        2075.494          41.000  
G04  19955470.510   104866643.857       -3035.581          47.000    19955472.983    81714235.923       -2365.590          44.000  
E30  24407198.677   128260797.596         266.536          38.000    24407211.369    98277841.201         204.295          43.000  
E27  24702388.910   129812046.791        1706.606          43.000    24702407.068    99466491.926        1307.800          46.000  
> 2024 04 08 16 39 00.4920000  0 24                     
S33  37401405.960   196545686.954        -823.766          43.000  
E07  22264224.372   116999247.842       -2117.733          46.000    22264231.528    89648786.560       -1622.698          52.000  
G16  22518618.947   118336197.577        -562.400          36.000                                                                  
R13  18178579.183    97072836.530        1358.267          42.000    18178582.933    75501164.930        1056.393          43.000  
R04  21106568.554                3       1538.353          14.000    20802585.879                3       1535.651          10.000  
R17  20492061.590   109656913.926       -4910.403          43.000    20492077.143    85288526.651       -3819.098          46.000  
R02  18936003.715   101046096.377       -2263.793          50.000    18936008.193    78591435.423       -1760.683          48.000  
R03  18122279.880    97010042.003          38.738          51.000    18122278.309    75452311.366          30.163          50.000  
R18  18751030.368   100094226.403       -2792.247          50.000    18751035.133    77850894.233       -2171.686          49.000  
E33  22217508.587   116753810.109        -471.024          48.000    22217513.059    89460773.205        -361.061          50.000  
G09  18382943.821    96603039.137       -1234.534          49.000    18382945.518    75275165.335        -962.128          46.000  
G03  20376979.991   107081638.036       -3253.851          45.000    20376989.481    83440179.451       -2535.538          43.000  
G11  20791336.631   109259191.617        1248.179          41.000    20791340.718    85137067.901         972.618          44.000  
E26  22048144.584   115863727.557       -3001.603          46.000    22048151.367    88778696.502       -2299.848          51.000  
G06  18711962.105    98332067.933       -1070.541          47.000    18711966.379    76622407.013        -834.340          47.000  
R12  18904835.408   100986368.845       -2036.328          50.000    18904839.765    78545086.328       -1583.837          49.000  
R19  19720934.112   105493685.408         358.127          39.000    19720936.283    82050659.856         278.418          45.000  
E19  24671100.295   129647551.707         855.960          38.000    24671111.452    99340372.141         655.739          42.000  
S31  36448376.866   191537474.332        -823.662          44.000  
G07  18215572.715    95723664.266        1509.214          48.000    18215572.689    74589756.344        1176.042          44.000  
G30  20663722.599   108588742.463        2655.670          45.000    20663733.219    84614935.425        2069.253          42.000  
G04  19972806.530   104957744.788       -3037.623          47.000    19972809.441    81785223.525       -2367.124          44.000  
E30  24405708.892   128252968.269         255.388          37.000    24405721.446    98271842.229         195.676          43.000  
E27  24692648.608   129760861.386        1705.595          43.000    24692666.334    99427272.303        1306.879          46.000  
> 2024 04 08 16 39 30.4920000  0 23                     
S33  37406108.504   196570398.037        -824.149          44.000  
E07  22276319.113   117062799.010       -2119.206          47.000    22276324.928    89697481.515       -1623.770          52.000  
G16  22521868.754   118353270.266        -576.581          35.000                                                                  
R13  18171009.086    97032411.759        1336.197          42.000    18171012.154    75469723.539        1039.238          43.000  
R17  20519600.724   109804272.178       -4913.524          44.000    20519615.818    85403137.485       -3821.703          47.000  
R02  18948743.445   101114072.682       -2268.274          50.000    18948746.882    78644305.813       -1764.200          49.000  
R03  18122073.989    97008943.199          34.288          51.000    18122073.288    75451456.735          26.733          50.000  
R18  18766784.752   100178328.030       -2814.714          48.000    18766790.381    77916306.404       -2189.277          48.000  
E33  22220240.460   116768164.670        -486.103          48.000    22220245.348    89471772.090        -372.505          51.000  
G09  18390009.508    96640169.971       -1241.034          48.000    18390011.264    75304098.437        -966.986          46.000  
G03  20395583.662   107179401.174       -3263.951          42.000    20395593.333    83516358.202       -2543.243          43.000  
G11  20784256.778   109221982.589        1232.138          42.000    20784260.032    85108073.895         960.001          42.000  
E26  22065309.047   115953928.191       -3012.052          46.000    22065316.370    88847811.068       -2307.921          51.000  
G06  18718135.087    98364502.620       -1092.068          49.000    18718137.971    76647680.726        -850.788          46.000  
R12  18916345.675   101047844.694       -2062.351          50.000    18916348.920    78592900.872       -1603.937          50.000  
R19  19718996.662   105483324.154         332.511          38.000    19718999.131    82042601.137         258.673          45.000  
E19  24666222.791   129621921.226         852.651          38.000    24666233.290    99320733.306         653.215          41.000  
S31  36453079.121   191562184.444        -824.188          43.000  
G07  18207005.945    95678648.557        1491.422          47.000    18207006.705    74554679.203        1162.273          44.000  
G30  20648584.927   108509193.043        2647.440          44.000    20648595.261    84552949.189        2063.086          42.000  
G04  19990153.520   105048906.018       -3039.950          46.000    19990157.262    81856258.105       -2368.857          45.000  
E30  24404281.409   128245471.558         243.934          37.000    24404294.568    98266098.165         187.073          41.000  
E27  24682914.678   129709712.097        1704.015          43.000    24682932.513    99388080.368        1305.677          46.000  
> 2024 04 08 16 40 00.4920000  0 24                     
S33  37410811.047   196595111.320        -823.638          43.000  
E07  22288419.246   117126389.755       -2120.183          47.000    22288425.809    89746206.839       -1624.613          52.000  
G16  22525198.424   118370771.856        -590.516          34.000                                                                  
R13  18163563.256    96992651.775        1314.126          42.000    18163566.784    75438799.171        1022.104          43.000  
R17  20547155.939   109951718.989       -4916.208          46.000    20547170.909    85517817.173       -3823.635          46.000  
R02  18961504.615   101182173.829       -2271.957          50.000    18961509.415    78697273.282       -1767.211          49.000  
R03  18121892.896    97007972.898          30.284          52.000    18121892.487    75450702.074          23.448          50.000  
R18  18782665.029   100263096.334       -2836.489          49.000    18782669.925    77982237.144       -2206.216          47.000  
E33  22223057.399   116782965.025        -500.728          49.000    22223061.591    89483112.567        -383.613          51.000  
G09  18397111.345    96677490.784       -1247.150          48.000    18397113.691    75333179.559        -971.765          46.000  
G03  20414241.773   107277453.319       -3273.244          43.000    20414251.216    83592762.158       -2550.536          42.000  
G11  20777267.347   109185250.066        1216.580          42.000    20777268.577    85079451.157         947.989          41.000  
E26  22082532.706   116044436.221       -3021.944          46.000    22082539.685    88917161.151       -2315.549          51.000  
G06  18724427.055    98397567.686       -1112.572          48.000    18724430.412    76673445.687        -866.977          47.000  
R12  18927997.912   101110090.039       -2087.551          50.000    18928001.047    78641313.876       -1623.755          50.000  
R19  19717204.267   105473732.276         306.964          39.000    19717205.567    82035140.760         238.697          45.000  
E19  24661361.868   129596377.423         850.383          38.000    24661372.810    99301160.893         651.342          42.000  
S31  36457782.127   191586897.573        -823.821          44.000  
G07  18198540.161    95634161.448        1474.088          48.000    18198540.831    74520013.976        1148.773          44.000  
G30  20633492.107   108429882.433        2639.691          45.000    20633502.894    84491149.103        2056.974          43.000  
G04  20007513.152   105140128.757       -3041.807          46.000    20007516.385    81927340.602       -2369.897          44.000  
E30  24402919.755   128238311.028         233.526          36.000    24402931.500    98260611.564         178.612          40.000  
E27  24673189.053   129658603.049        1702.986          43.000    24673206.566    99348919.218        1304.979          46.000  
R04                                                                  21085000.190                3       1525.581          12.000  
> 2024 04 08 16 40 30.4920000  0 25                     
S33  37415514.360   196619828.039        -824.011          43.000  
E07  22300527.402   117190019.445       -2121.520          47.000    22300534.231    89794961.974       -1625.589          52.000  
G16  22528610.604   118388703.154        -605.320          35.000                                                                  
R13  18156242.299    96953559.795        1292.003          42.000    18156245.955    75408394.398        1004.764          43.000  
R17  20574725.813   110099249.401       -4919.007          46.000    20574742.118    85632561.961       -3825.855          48.000  
R02  18974291.201   101250399.932       -2276.146          50.000    18974295.764    78750337.899       -1770.359          50.000  
R03  18121735.155    97007131.110          26.055          50.000    18121734.954    75450047.329          20.177          50.000  
R18  18798669.579   100348527.565       -2858.614          48.000    18798674.001    78048683.470       -2223.350          46.000  
E33  22225957.860   116798211.239        -515.500          48.000    22225962.806    89494794.697        -395.109          51.000  
G09  18404249.130    96715000.492       -1253.241          48.000    18404251.490    75362407.865        -976.593          46.000  
G03  20432956.957   107375793.687       -3282.767          44.000    20432965.450    83669390.692       -2558.088          42.000  
G11  20770368.898   109148995.758        1200.561          42.000    20770369.583    85051201.077         935.822          42.000  
E26  22099814.082   116135249.595       -3032.053          46.000    22099821.333    88986745.224       -2323.269          52.000  
G06  18730839.099    98431262.389       -1133.447          47.000    18730842.439    76699701.202        -883.197          47.000  
R12  18939793.406   101173102.906       -2113.151          50.000    18939797.035    78690323.763       -1643.381          48.000  
R19  19715555.191   105464910.615         281.397          39.000    19715556.094    82028279.498         218.760          45.000  
E19  24656518.096   129570919.517         847.150          39.000    24656528.710    99281654.278         649.441          43.000  
S31  36462485.256   191611612.955        -823.797          44.000  
G07  18190175.728    95590204.557        1456.512          48.000    18190175.765    74485761.885        1134.960          45.000  
G30  20618445.743   108350812.631        2631.815          44.000    20618455.871    84429536.616        2050.696          42.000  
G04  20024883.293   105231411.945       -3043.698          45.000    20024886.631    81998470.228       -2371.700          44.000  
E30  24401620.051   128231487.473         222.244          35.000    24401634.487    98255383.282         170.023          42.000  
E27  24663471.280   129607535.888        1701.783          43.000    24663489.013    99309790.194        1303.704          47.000  
R04                                                                  21081561.896                3       1511.667          12.000  
R14                                                                  21154926.232                1       2756.886          27.000  
> 2024 04 08 16 41 00.4920000  0 24                     
S33  37420216.650   196644536.520        -823.480          43.000  
E07  22312640.543   117253677.179       -2122.303          46.000    22312647.807    89843738.611       -1626.169          52.000  
G16  22532103.589   118407054.799        -618.492          37.000                                                                  
R13  18149045.530    96915128.329        1270.246          43.000    18149049.240    75378503.323         987.674          44.000  
R17  20602309.406   110246848.355       -4920.949          47.000    20602325.992    85747359.966       -3827.370          48.000  
R02  18987098.467   101318740.877       -2279.956          51.000    18987103.589    78803491.847       -1773.263          50.000  
R03  18121600.144    97006407.590          22.185          51.000    18121599.511    75449484.583          17.266          50.000  
R18  18814795.202   100434607.402       -2880.010          49.000    18814799.758    78115634.247       -2239.996          48.000  
E33  22228941.856   116813893.231        -529.867          47.000    22228947.040    89506810.694        -406.016          51.000  
G09  18411421.053    96752687.891       -1259.015          49.000    18411422.317    75391774.646        -981.146          45.000  
G03  20451724.412   107474411.255       -3291.809          46.000    20451732.247    83746235.261       -2565.077          42.000  
G11  20763559.511   109113211.183        1184.910          41.000    20763559.525    85023317.046         923.354          42.000  
E26  22117150.811   116226356.177       -3041.517          46.000    22117158.675    89056553.946       -2330.529          52.000  
G06  18737368.402    98465575.642       -1153.827          47.000    18737372.292    76726438.751        -899.225          47.000  
R12  18951729.931   101236871.052       -2138.014          50.000    18951735.502    78739921.179       -1662.899          49.000  
R19  19714047.487   105456849.921         256.118          38.000    19714050.028    82022010.040         199.183          46.000  
E19  24651688.580   129545536.801         844.927          40.000    24651698.174    99262205.311         647.357          43.000  
S31  36467186.888   191636320.425        -823.302          44.000  
G07  18181910.216    95546769.046        1439.170          47.000    18181911.006    74451916.081        1121.532          45.000  
G30  20603442.963   108271975.403        2624.132          43.000    20603452.830    84368105.344        2044.705          42.000  
G04  20042264.243   105322744.394       -3045.216          46.000    20042266.917    82069638.233       -2372.813          44.000  
E30  24400383.792   128224991.861         211.231          35.000    24400396.998    98250406.243         161.781          41.000  
E27  24653758.736   129556502.212        1700.749          42.000    24653777.680    99270686.829        1303.152          47.000  
R14                                                                  21134961.321                3       2756.994          26.000  
> 2024 04 08 16 41 30.4920000  0 25                     
S33  37424918.119   196669243.485        -823.694          43.000  
E07  22324760.429   117317368.924       -2123.647          46.000    22324768.087    89892541.329       -1627.299          52.000  
G16  22535676.642   118425833.957        -633.224          37.000                                                                  
R13  18141974.483    96877366.683        1247.379          42.000    18141978.046    75349133.202         970.367          44.000  
R04  20764072.503                3       1518.696          12.000                                                                  
R17  20629906.512   110394518.152       -4923.534          45.000    20629921.999    85862213.099       -3829.271          46.000  
R02  18999927.199   101387203.289       -2284.277          49.000    18999932.710    78856740.280       -1776.577          49.000  
R03  18121489.353    97005808.972          17.729          52.000    18121487.643    75449019.009          13.694          49.000  
R18  18831043.967   100521338.730       -2901.938          49.000    18831047.897    78183091.741       -2257.183          48.000  
E33  22232011.025   116830017.655        -544.940          48.000    22232015.572    89519165.708        -417.574          51.000  
G09  18418627.920    96790558.659       -1265.497          49.000    18418628.515    75421284.311        -986.127          45.000  
G03  20470544.705   107573311.889       -3301.578          46.000    20470552.479    83823300.394       -2572.580          42.000  
G11  20756839.748   109077904.686        1168.937          41.000    20756841.300    84995805.547         910.672          42.000  
E26  22134544.642   116317760.713       -3051.984          46.000    22134552.636    89126590.965       -2338.437          52.000  
G06  18744017.020    98500513.355       -1175.169          47.000    18744020.453    76753662.841        -915.786          47.000  
R12  18963811.082   101301399.604       -2163.698          51.000    18963815.370    78790110.038       -1682.926          49.000  
R19  19712684.351   105449557.625         230.197          38.000    19712687.319    82016338.253         179.002          46.000  
E19  24646872.590   129520235.065         841.987          40.000    24646883.030    99242818.355         645.070          43.000  
S31  36471888.400   191661026.556        -823.657          44.000  
G07  18173744.647    95503863.197        1421.170          47.000    18173745.849    74418483.027        1107.389          45.000  
G30  20588486.046   108193379.444        2615.688          42.000    20588496.027    84306862.096        2038.050          42.000  
G04  20059654.539   105414131.843       -3047.253          45.000    20059658.718    82140849.079       -2374.301          45.000  
E30  24399213.387   128218832.082         199.862          35.000    24399224.982    98245686.412         152.961          40.000  
E27  24644056.357   129505510.495        1698.815          43.000    24644073.856    99231615.589        1301.732          47.000  
R14                                                                  21114966.081                3       2758.020          22.000  
> 2024 04 08 16 42 00.4920000  0 25                     
S33  37429620.632   196693955.422        -823.764          44.000  
E07  22336888.506   117381100.134       -2125.088          47.000    22336896.066    89941374.273       -1628.328          52.000  
G16  22539332.876   118445047.553        -647.990          38.000                                                                  
R13  18135030.170    96840284.949        1224.750          42.000    18135033.786    75320291.953         952.414          44.000  
R04  20754465.190                3       1506.000          11.000                                                                  
R17  20657517.486   110542259.973       -4926.023          46.000    20657532.681    85977122.249       -3831.301          46.000  
R02  19012782.691   101455794.158       -2288.571          50.000    19012786.259    78910088.659       -1780.085          50.000  
R03  18121402.572    97005341.660          13.255          53.000    18121400.924    75448655.550          10.289          50.000  
R18  18847414.087   100608723.781       -2923.744          50.000    18847418.281    78251057.667       -2274.009          47.000  
E33  22235164.650   116846590.735        -559.944          47.000    22235169.497    89531864.480        -429.089          51.000  
G09  18425870.630    96828617.953       -1271.881          49.000    18425871.378    75450940.856        -991.180          46.000  
G03  20489419.340   107672500.843       -3311.066          46.000    20489428.804    83900590.136       -2580.088          44.000  
G11  20750212.402   109043084.130        1152.439          39.000    20750215.465    84968672.653         898.207          42.000  
E26  22151995.672   116409467.264       -3061.984          46.000    22152003.588    89196859.419       -2346.256          51.000  
G06  18750784.871    98536080.611       -1196.210          48.000    18750787.750    76781377.531        -932.201          46.000  
R12  18976034.040   101366692.705       -2189.221          50.000    18976037.154    78840893.545       -1702.787          48.000  
R19  19711466.118   105443040.682         204.046          38.000    19711467.825    82011269.523         158.843          44.000  
E19  24642073.018   129495019.980         838.871          38.000    24642084.558    99223497.849         642.804          43.000  
S31  36476590.767   191685737.567        -823.865          44.000  
G07  18165682.134    95461494.872        1403.203          47.000    18165683.581    74385468.811        1093.295          45.000  
G30  20573576.692   108115032.731        2607.572          42.000    20573586.782    84245813.049        2031.833          42.000  
G04  20077055.761   105505579.422       -3049.316          44.000    20077061.084    82212106.800       -2376.059          45.000  
E30  24398102.707   128213015.006         187.815          34.000    24398118.736    98241229.297         143.883          41.000  
E27  24634362.560   129454568.611        1697.052          44.000    24634379.475    99192582.533        1300.380          47.000  
R14                                                                  21095055.566                1       2757.212          27.000  
> 2024 04 08 16 42 30.4920000  0 24                     
S33  37434324.894   196718674.155        -824.179          44.000  
E07  22349024.434   117444873.489       -2126.757          47.000    22349031.496    89990239.492       -1629.441          51.000  
G16  22543072.754   118464699.602        -662.223          40.000                                                                  
R13  18128214.376    96803889.054        1201.974          42.000    18128217.907    75291984.083         934.623          44.000  
R17  20685140.020   110690072.569       -4928.159          44.000    20685155.183    86092086.441       -3833.060          45.000  
R02  19025660.648   101524517.321       -2293.094          50.000    19025665.086    78963539.891       -1783.468          49.000  
R03  18121339.807    97005009.253           8.733          52.000    18121338.848    75448397.009           6.811          51.000  
R18  18863906.270   100696761.861       -2945.521          49.000    18863911.865    78319531.538       -2290.945          48.000  
E33  22238404.462   116863615.793        -575.100          47.000    22238409.335    89544909.579        -440.685          51.000  
G09  18433149.684    96866868.058       -1278.241          49.000    18433150.628    75480746.093        -996.051          45.000  
G03  20508350.081   107771980.661       -3320.876          45.000    20508358.365    83978106.537       -2587.369          43.000  
G11  20743680.862   109008754.427        1135.846          41.000    20743683.947    84941922.272         885.247          43.000  
E26  22169505.512   116501477.248       -3072.027          46.000    22169513.378    89267360.337       -2354.038          52.000  
G06  18757672.935    98572279.918       -1217.148          48.000    18757676.734    76809584.682        -948.548          47.000  
R14  21075085.311                3       3545.763          25.000    21075106.389                        2757.534          28.000  
R12  18988400.197   101432751.790       -2214.872          51.000    18988403.314    78892272.783       -1722.684          48.000  
R19  19710394.547   105437303.741         178.223          39.000    19710396.401    82006807.496         138.626          45.000  
E19  24637292.316   129469893.955         836.010          38.000    24637303.357    99204245.569         640.434          42.000  
S31  36481294.386   191710455.753        -824.247          44.000  
G07  18157723.411    95419668.972        1385.143          48.000    18157724.366    74352877.245        1079.512          45.000  
G30  20558716.711   108036940.677        2598.809          42.000    20558726.730    84184962.417        2024.995          42.000  
G04  20094469.915   105597089.499       -3051.488          45.000    20094473.321    82283413.201       -2377.932          44.000  
E30  24397066.432   128207545.084         176.406          38.000    24397076.454    98237038.161         135.333          40.000  
E27  24624679.298   129403681.720        1695.256          45.000    24624694.914    99153591.581        1298.958          46.000  
> 2024 04 08 16 43 00.4920000  0 24                     
S33  37439030.603   196743403.117        -824.253          44.000  
E07  22361168.407   117508690.954       -2127.898          47.000    22361175.573    90039138.539       -1630.452          51.000  
G16  22546896.637   118484793.424        -677.174          38.000                                                                  
R13  18121528.009    96768184.923        1178.784          42.000    18121531.321    75264214.256         916.629          44.000  
R17  20712776.596   110837954.164       -4930.340          44.000    20712790.407    86207104.354       -3834.765          43.000  
R02  19038564.497   101593375.020       -2297.469          50.000    19038569.137    79017095.733       -1786.847          49.000  
R03  18121303.714    97004814.755           4.216          53.000    18121302.267    75448245.735           3.233          50.000  
R18  18880521.226   100785451.900       -2967.123          50.000    18880526.415    78388512.465       -2307.723          48.000  
E33  22241730.978   116881095.495        -590.121          47.000    22241735.727    89558303.069        -452.259          52.000  
G09  18440464.721    96905310.659       -1284.576          49.000    18440465.810    75510701.356       -1000.940          46.000  
G03  20527336.198   107871753.132       -3330.587          45.000    20527343.980    84055850.987       -2595.287          41.000  
G11  20737243.658   108974919.952        1119.693          40.000    20737245.134    84915557.730         872.465          43.000  
E26  22187073.105   116593791.327       -3082.075          47.000    22187079.975    89338094.275       -2361.642          51.000  
G06  18764682.044    98609113.013       -1238.204          47.000    18764686.069    76838285.707        -964.934          47.000  
R14  21055147.362                1       3544.366          31.000    21055156.761                        2756.401          31.000  
R12  19000910.417   101499577.715       -2240.205          51.000    19000914.069    78944248.496       -1742.395          48.000  
R19  19709469.053   105432349.868         151.928          39.000    19709470.746    82002954.461         118.292          45.000  
E19  24632528.353   129444859.222         833.114          38.000    24632538.901    99185063.214         638.497          42.000  
S31  36486000.242   191735183.941        -824.355          43.000  
G07  18149868.691    95378389.513        1366.954          49.000    18149869.112    74320711.473        1064.999          45.000  
G30  20543904.913   107959107.747        2590.323          42.000    20543914.780    84124313.729        2018.192          42.000  
G04  20111895.757   105688663.699       -3053.432          45.000    20111900.730    82354769.586       -2379.200          44.000  
E30  24396091.256   128202426.074         164.909          38.000    24396103.432    98233115.960         126.162          41.000  
E27  24615006.177   129352854.261        1693.130          44.000    24615022.943    99114646.186        1297.468          47.000  
> 2024 04 08 16 43 30.4920000  0 24                     
S33  37443736.816   196768134.831        -824.235          44.000  
E07  22373319.954   117572545.724       -2128.912          47.000    22373326.829    90088066.163       -1631.246          51.000  
G16  22550802.893   118505323.602        -691.404          37.000                                                                  
R13  18114969.495    96733168.961        1155.791          41.000    18114974.413    75236979.682         899.128          44.000  
R17  20740422.894   110985893.592       -4931.876          45.000    20740437.819    86322167.256       -3835.950          42.000  
R02  19051493.159   101662361.654       -2301.389          49.000    19051497.250    79070751.916       -1789.984          49.000  
R03  18121290.775    97004751.294           0.233          51.000    18121289.652    75448196.388           0.122          49.000  
R18  18897256.991   100874783.324       -2988.172          50.000    18897261.866    78457992.300       -2324.072          48.000  
E33  22245142.279   116899023.624        -604.757          47.000    22245147.305    89572040.140        -463.415          51.000  
G09  18447815.058    96943938.603       -1290.430          49.000    18447816.421    75540801.023       -1005.640          45.000  
G03  20546376.881   107971811.214       -3339.726          45.000    20546384.658    84133818.032       -2602.649          42.000  
G11  20730898.152   108941576.026        1103.628          39.000    20730899.110    84889575.514         860.131          42.000  
E26  22204695.797   116686401.231       -3091.708          47.000    22204703.242    89409054.898       -2369.027          51.000  
G06  18771810.486    98646572.700       -1258.806          47.000    18771814.976    76867474.959        -980.976          47.000  
R14  21035194.783   112129491.5191       3544.311          36.000    21035207.303    87211699.7921       2757.115          33.000  
R12  19013562.849   101567162.078       -2265.214          52.000    19013565.709    78996814.095       -1761.803          48.000  
R19  19708687.873   105428173.434         126.494          38.000    19708689.726    81999706.114          98.523          45.000  
E19  24627780.824   129419908.702         830.477          39.000    24627791.301    99165945.412         636.325          43.000  
S31  36490706.569   191759914.931        -824.003          43.000  
G07  18142116.263    95337651.884        1349.176          49.000    18142116.755    74288967.933        1051.177          45.000  
G30  20529142.918   107881529.845        2581.861          44.000    20529152.276    84063863.735        2011.786          42.000  
G04  20129333.577   105780294.956       -3055.096          45.000    20129335.982    82426170.446       -2380.427          42.000  
E30  24395182.360   128197652.675         153.550          38.000    24395195.066    98229458.568         117.683          41.000  
E27  24605344.311   129302081.830        1691.723          44.000    24605360.620    99075742.923        1296.409          46.000  
> 2024 04 08 16 44 00.4920000  0 24                     
S33  37448442.487   196792864.664        -824.234          44.000  
E07  22385475.878   117636431.094       -2129.961          47.000    22385483.714    90137017.246       -1632.134          51.000  
G16  22554791.599   118526284.545        -706.053          40.000                                                                  
R13  18108539.912    96698838.167        1132.996          41.000    18108544.632    75210278.055         881.107          44.000  
R17  20768078.458   111133880.288       -4933.599          47.000    20768093.933    86437266.877       -3837.200          42.000  
R02  19064444.928   101731471.138       -2305.729          48.000    19064449.976    79124503.638       -1793.311          50.000  
R03  18121301.822    97004813.638          -4.101          51.000    18121301.658    75448244.865          -3.211          51.000  
R18  18914109.459   100964746.239       -3009.164          49.000    18914114.651    78527963.229       -2340.463          48.000  
E33  22248637.682   116917394.147        -619.688          47.000    22248643.163    89586116.218        -474.972          51.000  
G09  18455199.447    96982744.893       -1296.411          48.000    18455200.596    75571039.650       -1010.065          44.000  
G03  20565470.632   108072148.057       -3349.196          45.000    20565479.097    84212002.221       -2609.641          41.000  
G11  20724644.669   108908718.370        1087.297          39.000    20724646.334    84863972.218         847.060          42.000  
E26  22222374.299   116779299.021       -3101.391          47.000    22222381.092    89480236.093       -2376.352          51.000  
G06  18779057.308    98684651.981       -1279.435          47.000    18779060.981    76897147.024        -996.906          47.000  
R14  21015241.037   112023162.001        3544.332          41.000    21015259.827    87128998.837        2756.337          37.000  
R12  19026355.497   101635496.905       -2290.233          52.000    19026358.739    79049963.368       -1781.300          48.000  
R19  19708050.691   105424768.605         100.325          36.000    19708051.708    81997057.877          78.221          44.000  
E19  24623048.043   129395035.924         827.681          40.000    24623058.148    99146887.149         634.167          43.000  
S31  36495412.412   191784643.742        -824.672          42.000  
G07  18134466.441    95297451.561        1331.116          48.000    18134467.291    74257643.066        1037.244          45.000  
G30  20514427.661   107804202.807        2573.389          44.000    20514437.469    84003609.236        2005.184          42.000  
G04  20146779.654   105871976.231       -3056.788          45.000    20146783.095    82497610.310       -2382.120          41.000  
E30  24394339.919   128193219.952         141.965          39.000    24394350.820    98226062.086         109.013          42.000  
E27  24595692.036   129251360.167        1689.709          44.000    24595707.596    99036878.629        1294.671          45.000  
> 2024 04 08 16 44 30.4920000  0 25                     
S33  37453148.125   196817593.042        -824.007          44.000  
E07  22397640.335   117700349.251       -2130.894          48.000    22397647.032    90185993.423       -1632.843          51.000  
G16  22558863.465   118547679.748        -719.985          40.000                                                                  
R13  18102240.891    96665197.972        1109.764          41.000    18102244.667    75184113.505         863.274          44.000  
R17  20795742.229   111281912.338       -4934.869          47.000    20795757.467    86552401.791       -3838.314          42.000  
R02  19077418.773   101800706.819       -2309.824          47.000    19077423.801    79178353.512       -1796.571          49.000  
R03  18121337.248    97005004.129          -8.369          51.000    18121337.564    75448393.018          -6.495          50.000  
R18  18931080.105   101055339.145       -3030.179          48.000    18931085.010    78598424.163       -2356.711          47.000  
E33  22252218.646   116936209.840        -634.467          47.000    22252223.793    89600533.367        -486.226          51.000  
G09  18462618.035    97021731.338       -1302.509          48.000    18462619.493    75601418.686       -1014.990          44.000  
G03  20584618.780   108172765.508       -3358.436          44.000    20584626.216    84290405.100       -2617.077          41.000  
G11  20718485.329   108876351.379        1070.870          41.000    20718488.952    84838751.228         834.516          44.000  
E26  22240107.777   116872485.461       -3110.809          48.000    22240115.004    89551638.458       -2383.641          52.000  
G06  18786421.774    98723352.600       -1300.166          48.000    18786425.887    76927303.278       -1013.384          47.000  
R14  20995292.046   111916842.287        3543.995          45.000    20995315.096    87046305.526        2756.339          39.000  
R12  19039287.434   101704582.858       -2315.168          51.000    19039291.692    79103696.856       -1800.653          48.000  
R19  19707556.932   105422139.627          74.447          36.000    19707561.102    81995013.105          58.306          45.000  
E19  24618329.581   129370242.690         825.318          39.000    24618340.212    99127889.880         632.247          43.000  
S31  36500117.819   191809371.983        -824.216          43.000  
G07  18126919.694    95257792.802        1313.048          49.000    18126920.457    74226740.203        1023.236          46.000  
G30  20499761.777   107727131.450        2564.960          45.000    20499770.002    83943553.917        1998.644          41.000  
G04  20164235.896   105963709.452       -3058.499          45.000    20164239.822    82569090.603       -2383.236          43.000  
E30  24393560.674   128189131.658         130.565          36.000    24393572.843    98222929.568         100.153          42.000  
E27  24586049.871   129200693.906        1687.939          43.000    24586066.267    98998056.756        1293.355          45.000  
R04                                                                  21013471.901                3       1493.648          12.000  
