     3.00           OBSERVATION DATA    M: Mixed            RINEX VERSION / TYPE
CONVBIN 2.4.3                           20240408 182942 UTC PGM / RUN BY / DATE 
format: u-blox UBX                                          COMMENT             
log: data/2024-04-08/20240408181500.ubx                     COMMENT             
AQUI00CHL                                                   MARKER NAME         
                                                            MARKER NUMBER       
                                                            MARKER TYPE         
                                                            OBSERVER / AGENCY   
UNKNOWN             UBLOX-ZED-F9P                           REC # / TYPE / VERS 
UNKNOWN             TWIVSP6037L                             ANT # / TYPE        
  1713381.0000 -5047934.0000 -3490983.0000                  APPROX POSITION XYZ 
        0.0000        0.0000        0.0000                  ANTENNA: DELTA H/E/N
G    8 C1C L1C D1C S1C C2L L2L D2L S2L                      SYS / # / OBS TYPES 
R    8 C1C L1C D1C S1C C2C L2C D2C S2C                      SYS / # / OBS TYPES 
E    8 C1C L1C D1C S1C C7Q L7Q D7Q S7Q                      SYS / # / OBS TYPES 
S    4 C1C L1C D1C S1C                                      SYS / # / OBS TYPES 
  2024    04    08    18    15   00.4950000     GPS         TIME OF FIRST OBS   
  2024    04    08    18    29   30.4960000     GPS         TIME OF LAST OBS    
                                                            END OF HEADER       
> 2024 04 08 18 15 00.4950000  0 26                     
S33  38299919.398   201267346.7301       -820.478          44.000  
E07  24677509.582   129681106.4171      -2306.235          34.000    24677524.161    99366039.3211      -1766.885          47.000  
G20  20067532.522   105455643.0501       1251.161          47.000                                                                  
E12  25383894.614   133393250.0141       -514.653          40.000    25383901.646   102210453.7061       -394.294          42.000  
R13  19341404.845   103282278.7411      -3444.715          42.000    19341405.496    80330736.8631      -2679.114          42.000  
R04  19212872.883   102884220.3521       1327.350          52.000    19212870.680    80021056.9661       1032.367          49.000  
R02  21937016.502   117059914.9371      -3423.387          45.000    21937031.830    91046586.9311      -2662.824          44.000  
R03  18690171.737   100050005.4961      -1348.495          52.000    18690170.430    77816726.0181      -1048.830          50.000  
E33  24206638.723   127206656.3141      -2955.774          46.000    24206650.183    97470069.2511      -2264.798          49.000  
G09  20288510.508   106616829.3841      -2212.150          46.000    20288512.858    83078111.3991      -1723.941          43.000  
G05  23091807.258                1       2568.871          26.000    23091833.645                        2001.204          29.000  
G11  21313916.294   112005315.2451      -2196.776          47.000    21313921.311    87276893.0901      -1711.738          46.000  
E26  25980234.352   136526725.7751      -3764.655          42.000    25980256.956   104611312.3311      -2884.526          43.000  
G06  21710367.358   114088555.9691      -3879.574          39.000    21710384.174    88900129.5731      -3022.894          38.000  
R14  18192400.681    96976141.3341       1225.628          54.000    18192405.510    75425832.0401        953.278          52.000  
R15  21630022.681   115584296.4171       3585.381          44.000    21630043.956    89899015.0301       2788.786          46.000  
R19  21811286.338                3      -3746.417          21.000    21811303.370                1      -2908.301          32.000  
E19  23932659.412   125767073.6571        559.824          43.000    23932664.785    96367035.2301        428.991          46.000  
S31  37346996.833   196259702.6351       -820.720          44.000  
G14  21707735.751   114074910.2741       2614.321          43.000    21707752.433    88889654.7451       2037.207          44.000  
G07  18584203.773    97660856.0511      -2125.453          48.000    18584203.191    76099261.6071      -1656.271          45.000  
G30  18985021.264    99767223.9161        142.765          50.000    18985024.241    77741054.0421        111.253          44.000  
G04  23421919.748   123083002.5911      -3241.081          39.000    23421930.218    95908824.5321      -2525.190          35.000  
E21  24940687.682   131064284.3411       2071.672          44.000    24940709.885   100425997.3681       1587.191          49.000  
E30  25462759.000   133807850.3771      -2221.262          39.000    25462768.010   102528193.7991      -1702.281          46.000  
E27  23399265.429   122964237.9301        267.112          46.000    23399274.266    94219509.7061        204.736          50.000  
> 2024 04 08 18 15 30.4950000  0 26                     
S33  38304605.712   201291972.272        -820.900          44.000  
E07  24690685.884   129750323.580       -2308.164          38.000    24690696.224    99419075.769       -1768.424          48.000  
G20  20060432.599   105418330.918        1236.576          48.000                                                                  
E12  25386874.685   133408911.337        -529.190          40.000    25386881.659   102222453.954        -405.527          42.000  
R13  19360814.596   103385927.197       -3464.966          41.000    19360815.656    80411352.327       -2694.824          41.000  
R04  19205451.730   102844479.674        1322.333          51.000    19205449.630    79990147.688        1028.461          48.000  
R02  21956287.294   117162743.768       -3431.452          47.000    21956301.135    91126564.490       -2668.829          43.000  
R03  18697763.868   100090646.016       -1360.549          53.000    18697762.873    77848335.289       -1058.187          50.000  
E33  24223539.539   127295465.482       -2964.535          47.000    24223550.436    97538117.483       -2271.526          49.000  
G09  20301155.827   106683283.220       -2217.677          46.000    20301158.913    83129893.557       -1727.963          43.000  
G05  23077154.139   121271393.7151       2564.637          29.000    23077180.132                        1998.418          28.000  
G11  21326502.356   112071457.424       -2212.384          47.000    21326508.132    87328432.278       -1723.951          45.000  
E26  26001720.847   136639637.551       -3762.625          42.000    26001743.322   104697829.371       -2883.067          43.000  
G06  21732532.607   114205031.375       -3885.339          40.000    21732550.177    88990888.637       -3027.233          38.000  
R14  18185571.118    96939738.036        1201.516          53.000    18185576.783    75397518.489         934.410          52.000  
R15  21609908.558   115476811.402        3580.420          45.000    21609929.709    89815415.170        2784.733          45.000  
R19  21832287.313                3      -3752.138          23.000    21832310.306    90835012.4591      -2918.061          33.000  
E19  23929465.789   125750296.363         558.808          43.000    23929472.091    96354180.016         428.289          46.000  
S31  37351684.098   196284334.741        -821.448          43.000  
G14  21692822.180   113996540.754        2610.478          44.000    21692838.509    88828588.314        2034.156          44.000  
G07  18596383.972    97724867.323       -2141.498          47.000    18596384.262    76149140.562       -1668.831          46.000  
G30  18984251.905    99763181.711         126.848          50.000    18984255.262    77737904.347          98.883          45.000  
G04  23440427.623   123180261.244       -3242.304          39.000    23440438.148    95984610.211       -2526.642          36.000  
E21  24928870.318   131002187.499        2068.472          43.000    24928892.582   100378417.251        1584.852          48.000  
E30  25475477.753   133874685.808       -2233.891          40.000    25475485.981   102579405.433       -1711.667          45.000  
E27  23397778.135   122956425.385         253.941          46.000    23397787.428    94213523.582         194.557          50.000  
> 2024 04 08 18 16 00.4950000  0 26                     
S33  38309292.960   201316604.954        -821.579          44.000  
E07  24703864.713   129819597.538       -2310.787          36.000    24703878.476    99472155.750       -1770.328          48.000  
G20  20053415.184   105381455.725        1221.609          48.000                                                                  
E12  25389937.858   133425009.089        -544.106          40.000    25389944.775   102234788.571        -416.937          42.000  
R13  19380336.571   103490176.813       -3485.162          41.000    19380338.796    80492435.382       -2710.827          42.000  
R04  19198056.876   102804882.948        1317.163          50.000    19198055.523    79959350.327        1024.506          49.000  
R02  21975600.293   117265804.560       -3439.602          46.000    21975614.160    91206722.436       -2674.993          42.000  
R03  18705421.505   100131643.210       -1372.731          51.000    18705421.835    77880221.985       -1067.746          51.000  
E33  24240488.811   127384534.535       -2973.548          47.000    24240500.063    97606364.868       -2278.441          48.000  
G09  20313831.736   106749897.883       -2223.394          45.000    20313836.005    83181801.065       -1732.842          43.000  
G05  23062519.297                        2561.891          27.000    23062546.521                1       1996.033          27.000  
G11  21339178.231   112138065.256       -2228.201          47.000    21339183.518    87380334.263       -1736.214          45.000  
E26  26023193.922   136752481.293       -3760.626          42.000    26023216.992   104784294.297       -2881.501          43.000  
G06  21754728.532   114321668.297       -3890.818          38.000    21754747.141    89081773.555       -3032.004          39.000  
R14  18178876.675    96904056.558        1177.069          53.000    18178882.366    75369766.334         915.542          51.000  
R15  21589824.125   115369480.286        3574.957          47.000    21589844.532    89731934.973        2780.499          45.000  
R19  21853361.718                3      -3761.892          26.000    21853376.736    90922659.885       -2926.569          29.000  
E19  23926276.893   125733546.237         557.815          41.000    23926284.741    96341345.651         427.237          46.000  
S31  37356372.951   196308975.088        -821.836          43.000  
G14  21677929.358   113918283.209        2606.624          44.000    21677945.711    88767609.126        2031.210          43.000  
G07  18608656.640    97789356.372       -2157.834          48.000    18608655.693    76199391.783       -1681.453          46.000  
G30  18983573.377    99759615.467         110.766          50.000    18983576.933    77735125.567          86.174          45.000  
G04  23458944.004   123277563.153       -3243.640          39.000    23458954.264    96060429.644       -2528.670          35.000  
E21  24917069.536   130940179.124        2065.303          43.000    24917092.019   100330904.948        1582.385          48.000  
E30  25488266.223   133941889.699       -2246.612          41.000    25488274.421   102630899.402       -1721.395          45.000  
E27  23396365.997   122949005.483         240.580          45.000    23396375.319    94207838.296         184.173          50.000  
> 2024 04 08 18 16 30.4950000  0 26                     
S33  38313982.351   201341247.742        -821.347          43.000  
E07  24717060.514   129888930.585       -2311.939          37.000    24717072.056    99525281.012       -1771.454          48.000  
G20  20046481.039   105345021.198        1207.113          46.000                                                                  
E12  25393084.394   133441545.085        -558.550          40.000    25393091.530   102247459.045        -428.062          42.000  
R13  19399971.527   103595025.613       -3504.889          42.000    19399974.080    80573984.456       -2725.982          42.000  
R04  19190690.364   102765434.320        1312.537          50.000    19190688.527    79928668.162        1020.813          48.000  
R02  21994957.483   117369099.265       -3446.973          46.000    21994972.698    91287062.340       -2681.149          42.000  
R03  18713146.904   100173000.753       -1384.510          51.000    18713147.146    77912388.907       -1076.839          50.000  
E33  24257487.930   127473863.344       -2981.776          47.000    24257499.334    97674811.271       -2284.708          48.000  
G09  20326539.241   106816675.600       -2228.474          45.000    20326542.905    83233835.599       -1736.405          43.000  
G05  23047910.002   121117707.287        2558.055          29.000    23047929.985                        1993.332          27.000  
G11  21351941.742   112205138.292       -2243.430          47.000    21351947.826    87432598.785       -1748.230          45.000  
E26  26044653.870   136865257.010       -3757.958          41.000    26044677.450   104870707.107       -2879.390          43.000  
G06  21776955.040   114438465.403       -3895.854          38.000    21776972.224    89172783.261       -3035.642          37.000  
R14  18172318.176    96869100.996        1153.078          52.000    18172324.584    75342578.803         896.904          51.000  
R15  21569769.419   115262308.880        3569.781          48.000    21569789.970    89648579.042        2776.437          46.000  
R19  21874494.603                3      -3772.892          25.000    21874503.230    91010555.946       -2933.807          33.000  
E19  23923095.411   125716824.892         557.198          41.000    23923102.425    96328533.327         426.898          46.000  
S31  37361063.878   196333623.972        -821.747          44.000  
G14  21663059.948   113840142.609        2602.775          45.000    21663075.221    88706721.045        2028.203          43.000  
G07  18621019.612    97854322.662       -2173.248          48.000    18621018.569    76250014.880       -1693.526          46.000  
G30  18982985.232    99756526.836          95.024          50.000    18982989.483    77732718.954          74.114          46.000  
G04  23477469.395   123374910.414       -3245.299          39.000    23477479.285    96136284.354       -2528.658          35.000  
E21  24905288.726   130878263.168        2062.429          45.000    24905309.369   100283463.421        1580.300          49.000  
E30  25501125.324   134009462.867       -2258.351          41.000    25501133.131   102682676.336       -1730.432          45.000  
E27  23395029.947   122941981.121         227.693          45.000    23395038.672    94202456.088         174.416          50.000  
> 2024 04 08 18 17 00.4950000  0 26                     
S33  38318673.175   201365897.936        -821.600          44.000  
E07  24730266.340   129958322.167       -2314.036          39.000    24730276.946    99578451.091       -1772.809          47.000  
G20  20039631.897   105309029.170        1192.561          47.000                                                                  
E12  25396314.447   133458518.420        -572.837          40.000    25396321.042   102260464.572        -438.933          42.000  
R13  19419718.061   103700469.170       -3524.286          42.000    19419720.419    80655996.161       -2741.351          41.000  
R04  19183350.579   102726134.520        1307.731          50.000    19183349.650    79898101.767        1017.137          48.000  
R02  22014359.912   117472626.683       -3454.672          48.000    22014373.836    91367583.205       -2686.885          40.000  
R03  18720941.934   100214719.095       -1396.454          52.000    18720940.361    77944836.471       -1086.057          50.000  
E33  24274534.569   127563448.926       -2990.194          47.000    24274546.919    97743454.412       -2291.190          48.000  
G09  20339277.757   106883615.679       -2233.852          45.000    20339281.966    83285996.645       -1740.364          43.000  
G05  23033318.272   121041015.902        2555.172          29.000    23033333.304                        1990.721          28.000  
G11  21364793.147   112272673.324       -2258.552          45.000    21364798.932    87485223.302       -1760.100          44.000  
E26  26066101.232   136977961.876       -3755.562          42.000    26066124.489   104957065.591       -2877.485          44.000  
G06  21799211.504   114555418.258       -3900.510          39.000    21799229.578    89263914.394       -3039.786          38.000  
R14  18165897.725    96834872.778        1128.940          52.000    18165903.046    75315956.984         878.071          50.000  
R15  21549744.153   115155299.519        3564.510          47.000    21549765.402    89565349.161        2772.351          46.000  
R19  21895683.315                1      -3782.560          27.000    21895689.491                       -2941.940          29.000  
E19  23919919.416   125700131.504         556.335          42.000    23919925.566    96315742.436         426.271          46.000  
S31  37365755.973   196358282.043        -821.703          44.000  
G14  21648211.760   113762120.992        2599.014          45.000    21648228.221    88645925.700        2025.126          43.000  
G07  18633472.288    97919763.485       -2189.063          49.000    18633472.227    76301007.748       -1705.842          47.000  
G30  18982488.248    99753914.564          79.472          50.000    18982491.968    77730683.531          61.883          46.000  
G04  23496001.889   123472302.208       -3247.058          38.000    23496011.044                       -2529.666          29.000  
E21  24893523.366   130816440.608        2059.355          45.000    24893544.635   100236093.461        1578.009          49.000  
E30  25514052.700   134077403.320       -2270.693          40.000    25514061.480   102734734.711       -1739.818          45.000  
E27  23393767.785   122935352.422         214.647          45.000    23393777.259    94197377.079         164.339          50.000  
> 2024 04 08 18 17 30.4950000  0 26                     
S33  38323364.080   201390548.953        -821.331          43.000  
E07  24743481.058   130027764.542       -2315.317          39.000    24743491.485    99631660.086       -1774.084          47.000  
G20  20032866.527   105273473.778        1178.181          48.000                                                                  
E12  25399625.705   133475921.010        -586.800          40.000    25399633.043   102273799.093        -449.794          43.000  
R13  19439573.743   103806495.276       -3543.482          42.000    19439575.255    80738460.920       -2756.110          39.000  
R04  19176038.068   102686977.332        1303.210          50.000    19176037.267    79867646.319        1013.654          50.000  
R02  22033804.687   117576378.630       -3461.583          50.000    22033817.567    91448278.689       -2692.283          41.000  
R03  18728800.357   100256790.947       -1407.867          52.000    18728799.484    77977558.985       -1094.965          50.000  
E33  24291628.451   127653281.145       -2998.066          45.000    24291641.803    97812286.529       -2297.049          47.000  
G09  20352045.456   106950710.317       -2238.611          45.000    20352049.161    83338278.172       -1744.571          43.000  
G05  23018743.414   120964420.384        2551.996          29.000    23018758.327                1       1988.449          27.000  
G11  21377730.711   112340659.912       -2273.377          45.000    21377735.488    87538199.677       -1771.493          43.000  
E26  26087531.742   137090585.809       -3752.282          42.000    26087555.587   105043362.089       -2875.140          43.000  
G06  21821495.203   114672515.529       -3905.100          38.000    21821514.368    89355158.032       -3043.114          40.000  
R14  18159611.489    96801365.753        1105.325          52.000    18159617.194    75289896.091         859.623          50.000  
R15  21529748.079   115048447.759        3559.449          47.000    21529769.206    89482241.891        2768.503          44.000  
R19  21916924.426                       -3791.929          26.000    21916932.711                       -2949.316          30.000  
E19  23916746.026   125683457.994         555.825          41.000    23916752.522    96302966.805         425.883          46.000  
S31  37370448.175   196382939.589        -821.757          44.000  
G14  21633385.477   113684213.309        2595.443          44.000    21633402.123    88585219.115        2022.295          44.000  
G07  18646013.803    97985668.325       -2204.131          50.000    18646013.385    76352362.207       -1717.437          47.000  
G30  18982080.265    99751770.237          64.155          50.000    18982082.915    77729012.716          50.031          45.000  
G04  23514542.058   123569730.742       -3247.612          39.000    23514547.839                       -2530.560          29.000  
E21  24881775.254   130754705.296        2056.861          45.000    24881796.096   100188790.355        1576.028          49.000  
E30  25527049.867   134145701.783       -2282.274          41.000    25527058.655   102787067.417       -1748.690          46.000  
E27  23392580.697   122929112.301         202.092          45.000    23392589.640    94192595.811         154.646          50.000  
> 2024 04 08 18 18 00.4950000  0 26                     
S33  38328054.972   201415199.291        -822.723          43.000  
E07  24756704.516   130097257.564       -2318.276          38.000    24756715.652    99684907.870       -1776.199          46.000  
G20  20026184.253   105238356.607        1162.126          48.000                                                                  
E12  25403018.931   133493752.241        -602.508          40.000    25403026.467   102287462.031        -461.620          44.000  
R13  19459538.056   103913099.868       -3564.386          42.000    19459538.040    80821375.555       -2772.595          37.000  
R04  19168752.820   102647964.553        1297.081          51.000    19168752.263    79837303.192        1008.732          49.000  
R02  22053289.346   117680354.606       -3470.683          49.000    22053303.232    91529148.488       -2699.380          42.000  
R03  18736726.422   100299217.067       -1421.205          52.000    18736725.529    78010557.057       -1105.458          50.000  
E33  24308771.014   127743357.406       -3007.634          45.000    24308783.356    97881305.627       -2304.657          48.000  
G09  20364842.783   107017959.226       -2245.292          46.000    20364846.845    83390679.877       -1749.543          43.000  
G05  23004192.393                        2547.663          28.000    23004208.035                3       1985.876          25.000  
G11  21390752.979   112409095.174       -2289.677          45.000    21390758.922    87591525.642       -1784.176          44.000  
E26  26108946.039   137203126.441       -3750.987          40.000    26108970.741   105129594.746       -2874.096          42.000  
G06  21843804.980   114789753.342       -3911.080          38.000    21843824.604    89446511.163       -3047.817          38.000  
R14  18153460.864    96768581.729        1079.629          52.000    18153466.673    75264397.525         839.689          51.000  
R15  21509782.480   114941756.549        3552.532          48.000    21509803.940    89399259.444        2763.050          44.000  
R19  21938208.075                3      -3802.694          25.000    21938230.496                       -2958.492          30.000  
E19  23913577.066   125666803.463         553.847          41.000    23913583.068    96290205.722         424.488          46.000  
S31  37375140.531   196407596.950        -822.950          44.000  
G14  21618581.760   113606421.966        2590.032          44.000    21618597.900    88524603.174        2018.383          43.000  
G07  18658643.080    98052034.614       -2220.887          49.000    18658642.343    76404076.227       -1730.733          47.000  
G30  18981761.377    99750092.923          47.079          50.000    18981763.598    77727705.819          36.765          45.000  
G04  23533089.377   123667195.590       -3250.728          42.000    23533097.354    96364038.217       -2532.604          32.000  
E21  24870043.593   130693058.668        2052.347          45.000    24870064.526   100141555.197        1572.564          49.000  
E30  25540115.029   134214356.619       -2295.466          42.000    25540122.885   102839673.170       -1758.845          45.000  
E27  23391467.086   122923261.273         187.589          45.000    23391475.551    94188112.657         143.715          49.000  
> 2024 04 08 18 18 30.4950000  0 26                     
S33  38332747.947   201439860.478        -821.848          43.000  
E07  24769940.401   130166812.985       -2319.345          38.000    24769951.795    99738203.497       -1777.059          46.000  
G20  20019587.377   105203691.009        1148.362          48.000                                                                  
E12  25406495.629   133512023.302        -615.965          39.000    25406503.080   102301461.971        -472.215          43.000  
R13  19479611.141   104020290.528       -3582.538          41.000    19479611.461    80904746.028       -2786.035          38.000  
R04  19161497.266   102609109.630        1292.792          51.000    19161496.480    79807082.836        1005.487          50.000  
R02  22072818.910   117784565.759       -3477.325          47.000    22072832.648    91610201.228       -2704.572          44.000  
R03  18744721.010   100342010.804       -1432.262          52.000    18744719.924    78043841.034       -1113.964          50.000  
E33  24325959.377   127833686.933       -3015.069          43.000    24325973.134    97950518.759       -2310.065          48.000  
G09  20377671.776   107085374.069       -2249.724          46.000    20377675.195    83443210.891       -1753.057          43.000  
G05  22989661.232                        2544.677          27.000    22989661.825                3       1973.058          20.000  
G11  21403862.976   112477988.128       -2303.686          46.000    21403868.514    87645208.244       -1795.137          44.000  
E26  26130347.935   137315593.292       -3747.518          37.000    26130372.531   105215770.859       -2871.408          41.000  
G06  21866142.967   114907139.687       -3915.140          37.000    21866163.156    89537980.020       -3050.754          38.000  
R14  18147448.716    96736534.550        1056.235          52.000    18147454.049    75239472.088         821.551          50.000  
R15  21489850.473   114835241.110        3547.763          48.000    21489871.472    89316413.760        2759.498          44.000  
R19  21959573.887                3      -3807.337          17.000    21959587.560                3      -2963.376          23.000  
E19  23910413.644   125650179.418         553.866          41.000    23910419.611    96277467.992         424.539          46.000  
S31  37379834.930   196432266.080        -822.207          43.000  
G14  21603802.849   113528761.361        2586.849          44.000    21603819.550    88464089.143        2015.569          44.000  
G07  18671361.027    98118871.323       -2235.463          48.000    18671360.810    76456156.803       -1741.866          47.000  
G30  18981533.427    99748893.663          32.349          50.000    18981535.595    77726771.438          25.219          45.000  
G04  23551644.493   123764708.237       -3250.716          40.000    23551652.378    96440021.964       -2533.307          36.000  
E21  24858331.483   130631513.987        2050.153          45.000    24858352.531   100094398.163        1570.846          49.000  
E30  25553248.820   134283378.079       -2306.587          41.000    25553257.342   102892559.812       -1767.286          46.000  
E27  23390429.639   122917811.617         175.287          45.000    23390438.360    94183937.100         134.337          49.000  
> 2024 04 08 18 19 00.4950000  0 26                     
S33  38337440.937   201464522.328        -821.863          43.000  
E07  24783185.873   130236421.169       -2321.057          39.000    24783198.103    99791539.541       -1778.542          46.000  
G20  20013074.912   105169469.445        1133.328          48.000                                                                  
E12  25410054.127   133530724.158        -630.537          39.000    25410061.790   102315791.280        -483.044          44.000  
R13  19499791.559   104128053.762       -3601.650          40.000    19499792.314    80988561.904       -2801.040          39.000  
R04  19154268.764   102570404.420        1287.825          51.000    19154268.395    79776978.877        1001.630          50.000  
R02  22092389.633   117889001.922       -3484.758          47.000    22092404.737    91691428.932       -2710.479          45.000  
R03  18752782.070   100385163.230       -1444.330          52.000    18752781.243    78077404.001       -1123.341          51.000  
E33  24343194.753   127924257.672       -3023.098          43.000    24343208.607    98019916.743       -2316.204          48.000  
G09  20390529.809   107152945.040       -2254.804          45.000    20390533.345    83495863.564       -1756.871          43.000  
G11  21417058.771   112547326.403       -2318.585          47.000    21417064.596    87699237.845       -1806.576          45.000  
E26  26151733.066   137427974.355       -3744.923          36.000    26151756.765   105301881.258       -2869.084          37.000  
G06  21888507.146   115024661.239       -3919.720          39.000    21888527.759    89629554.240       -3054.168          37.000  
R14  18141573.583    96705215.570        1031.865          52.000    18141577.731    75215113.049         802.479          49.000  
R15  21469949.744   114728895.097        3542.083          48.000    21469970.126    89233699.903        2754.746          45.000  
R19  21980981.871                3      -3824.041          19.000    21981006.908                3      -2979.701          18.000  
E19  23907253.394   125633575.705         553.211          41.000    23907260.089    96264745.858         423.980          46.000  
S31  37384529.088   196456935.276        -822.224          43.000  
G14  21589048.801   113451224.538        2582.626          45.000    21589063.304    88403671.525        2012.364          43.000  
G07  18684166.775    98186166.100       -2250.665          48.000    18684165.984    76508594.319       -1753.815          46.000  
G30  18981393.721    99748162.094          16.835          50.000    18981396.350    77726201.463          13.234          45.000  
G04  23570207.817   123862258.939       -3251.955          39.000    23570220.574    96516035.243       -2534.314          39.000  
E21  24846636.873   130570063.206        2046.864          44.000    24846658.368   100047313.085        1568.386          49.000  
E30  25566449.916   134352754.961       -2318.514          41.000    25566459.132   102945718.840       -1776.303          46.000  
E27  23389467.706   122912754.328         162.063          45.000    23389476.013    94180062.160         124.224          49.000  
G05                                                                  22975146.275                        1980.156          27.000  
> 2024 04 08 18 19 30.4950000  0 26                     
S33  38342135.265   201489191.869        -822.473          44.000  
E07  24796445.193   130306089.034       -2323.162          39.000    24796455.107    99844921.284       -1780.066          46.000  
G20  20006648.890   105135700.522        1118.018          48.000                                                                  
E12  25413695.486   133549861.193        -645.198          39.000    25413703.368   102330454.803        -494.701          44.000  
R13  19520079.606   104236391.906       -3620.680          40.000    19520080.179    81072824.983       -2816.331          36.000  
R04  19147071.250   102531857.882        1282.140          51.000    19147070.375    79746998.354         997.203          50.000  
R02  22112004.248   117993669.833       -3492.799          46.000    22112019.802    91772836.863       -2716.522          44.000  
R03  18760911.367   100428682.394       -1456.881          52.000    18760912.088    78111252.219       -1133.170          51.000  
E33  24360477.438   128015074.112       -3031.323          44.000    24360490.303    98089502.967       -2322.569          48.000  
G09  20403418.048   107220679.078       -2260.479          45.000    20403421.510    83548643.313       -1761.709          42.000  
G11  21430338.798   112617114.113       -2333.786          47.000    21430346.092    87753617.664       -1818.592          47.000  
E26  26173104.831   137540274.340       -3741.985          34.000    26173127.555   105387929.558       -2867.632          37.000  
G06  21910896.966   115142321.161       -3924.476          36.000    21910918.493    89721236.390       -3057.774          36.000  
R14  18135836.661    96674634.086        1007.045          53.000    18135840.531    75191327.577         783.176          49.000  
R15  21450082.638   114622728.363        3535.757          49.000    21450102.743    89151125.512        2750.066          46.000  
R19  22002442.695                3      -3826.818          21.000    22002466.211                3      -2978.675          24.000  
E19  23904098.487   125616998.769         551.926          41.000    23904105.231    96252044.219         423.087          46.000  
S31  37389225.334   196481612.107        -822.955          43.000  
G14  21574318.396   113373821.042        2577.799          44.000    21574333.641    88343357.808        2008.636          43.000  
G07  18697060.715    98253923.413       -2266.354          49.000    18697059.929    76561392.269       -1765.957          47.000  
G30  18981344.446    99747904.427           0.646          50.000    18981347.649    77726000.767           0.524          46.000  
G04  23588779.555   123959854.459       -3253.709          38.000    23588792.914    96592083.444       -2535.663          39.000  
E21  24834961.753   130508714.790        2042.963          44.000    24834983.484   100000306.469        1565.547          49.000  
E30  25579720.287   134422492.721       -2330.772          41.000    25579729.939   102999154.342       -1785.747          46.000  
E27  23388580.975   122908096.962         148.583          45.000    23388590.371    94176493.658         113.781          50.000  
G05                                                                  22960650.357                3       1977.940          25.000  
> 2024 04 08 18 20 00.4950000  0 26                     
S33  38346831.186   201513868.497        -822.341          44.000  
E07  24809713.159   130375816.066       -2325.363          39.000    24809724.079    99898348.415       -1781.648          46.000  
G20  20000309.086   105102385.542        1103.054          47.000                                                                  
E12  25417420.781   133569433.513        -659.625          40.000    25417427.841   102345451.834        -505.542          44.000  
R13  19540474.378   104345300.343       -3639.447          40.000    19540474.935    81157531.578       -2831.041          39.000  
R04  19139902.405   102493471.033        1276.960          51.000    19139902.063    79717142.027         993.176          51.000  
R02  22131662.020   118098568.249       -3500.336          46.000    22131678.746    91854424.100       -2722.590          45.000  
R03  18769110.485   100472568.815       -1468.959          52.000    18769110.316    78145386.077       -1142.507          50.000  
E33  24377805.859   128106133.271       -3039.258          44.000    24377818.627    98159275.184       -2328.795          47.000  
G09  20416339.265   107288575.550       -2265.856          46.000    20416342.946    83601549.592       -1765.659          43.000  
G11  21443704.394   112687348.004       -2348.291          48.000    21443711.426    87808345.120       -1830.069          46.000  
E26  26194458.187   137652490.582       -3739.219          32.000    26194480.483   105473913.611       -2864.623          33.000  
G06  21933315.057   115260115.412       -3928.756          39.000    21933335.999    89813023.036       -3061.125          37.000  
R14  18130237.614    96644790.975         982.543          52.000    18130242.901    75168116.384         764.169          50.000  
R15  21430249.834   114516744.052        3529.760          51.000    21430270.365    89068693.013        2745.341          47.000  
R19  22023950.922                3      -3840.236          25.000    22023975.220                3      -2986.234          24.000  
E19  23900948.999   125600447.692         551.283          41.000    23900955.894    96239362.416         422.466          47.000  
S31  37393922.534   196506295.871        -822.772          44.000  
G14  21559613.773   113296553.017        2573.401          45.000    21559629.628    88283149.667        2005.281          43.000  
G07  18710042.334    98322140.059       -2281.563          49.000    18710041.479    76614548.131       -1777.790          47.000  
G30  18981384.662    99748119.256         -15.003          48.000    18981388.936    77726168.266         -11.701          46.000  
G04  23607359.619   124057494.095       -3255.368          38.000    23607372.427    96668166.046       -2537.017          38.000  
E21  24823307.831   130447469.915        2039.889          45.000    24823327.929    99953379.146        1562.894          48.000  
E30  25593060.259   134492589.286       -2342.550          42.000    25593068.350   103052864.820       -1794.892          45.000  
E27  23387769.872   122903839.547         135.288          44.000    23387779.801    94173231.630         103.626          50.000  
G05                                                                  22946171.977                3       1973.622          22.000  
> 2024 04 08 18 20 30.4950000  0 26                     
S33  38351526.867   201538543.749        -822.469          44.000  
E07  24822989.480   130445594.301       -2326.785          38.000    24823003.046    99951814.748       -1782.814          46.000  
G20  19994054.017   105069518.320        1088.170          48.000                                                                  
E12  25421226.116   133589432.560        -673.801          39.000    25421233.203   102360775.885        -516.252          44.000  
R13  19560974.403   104454766.997       -3658.093          39.000    19560975.087    81242672.339       -2845.061          41.000  
R04  19132761.892   102455237.456        1271.918          52.000    19132761.533    79687404.890         989.257          50.000  
R02  22151363.268   118203688.550       -3507.623          48.000    22151378.949    91936183.910       -2728.317          44.000  
R03  18777375.543   100516815.011       -1480.848          52.000    18777375.524    78179799.746       -1151.746          50.000  
E33  24395179.382   128197424.697       -3046.781          45.000    24395190.960    98229225.363       -2334.627          47.000  
G09  20429289.737   107356626.362       -2270.946          46.000    20429292.715    83654576.135       -1769.558          44.000  
G11  21457152.417   112758017.271       -2362.831          48.000    21457158.414    87863411.883       -1841.175          45.000  
E26  26215795.381                       -3736.215          30.000    26215817.114   105559825.704       -2862.679          33.000  
G06  21955753.023   115378032.121       -3932.390          37.000    21955775.520    89904905.239       -3063.949          37.000  
R14  18124776.923    96615679.709         958.164          52.000    18124781.861    75145474.427         745.280          50.000  
R15  21410450.052   114410937.218        3524.049          51.000    21410470.742    88986398.577        2740.969          47.000  
R19  22045513.040                3      -3839.089          14.000    22045557.715                3      -2998.639          24.000  
E19  23897802.122   125583914.247         550.997          41.000    23897809.660    96226694.097         422.111          47.000  
S31  37398619.204   196530977.376        -822.569          43.000  
G14  21544934.590   113219415.151        2569.052          45.000    21544949.821    88223042.944        2001.930          42.000  
G07  18723108.581    98390805.629       -2296.160          49.000    18723107.788    76668053.794       -1789.185          47.000  
G30  18981513.710    99748797.899         -30.292          49.000    18981517.789    77726697.166         -23.579          46.000  
G04  23625946.421   124155169.616       -3256.580          37.000    23625959.486    96744276.568       -2537.137          38.000  
E21  24811671.465   130386322.140        2036.698          45.000    24811691.357    99906526.208        1560.503          48.000  
E30  25606465.620   134563035.145       -2353.803          42.000    25606473.574   103106842.920       -1803.684          45.000  
E27  23387035.370   122899974.705         122.416          45.000    23387044.730    94170270.392          93.710          50.000  
G05                                                                  22931705.378                3       1971.566          26.000  
> 2024 04 08 18 21 00.4950000  0 26                     
S33  38356224.029   201563225.619        -822.607          44.000  
E07  24836278.934   130515434.152       -2328.580          38.000    24836293.715   100005328.293       -1784.402          46.000  
G20  19987887.184   105037110.976        1072.811          48.000                                                                  
E12  25425113.995   133609868.354        -688.202          38.000    25425121.580   102376434.574        -527.372          44.000  
R13  19581578.892   104564797.998       -3676.868          38.000    19581580.982    81328252.016       -2859.845          41.000  
R04  19125652.979   102417169.744        1266.485          52.000    19125653.133    79657796.788         985.039          50.000  
R02  22171107.209   118309040.933       -3515.278          50.000    22171121.012    92018124.153       -2733.712          41.000  
R03  18785710.163   100561432.741       -1493.191          52.000    18785710.816    78214502.396       -1161.330          50.000  
E33  24412597.856   128288956.296       -3054.728          46.000    24412608.776    98299359.575       -2340.671          46.000  
G09  20442269.882   107424841.767       -2276.211          46.000    20442273.617    83707730.950       -1773.600          44.000  
G11  21470684.475   112829129.495       -2377.448          47.000    21470691.713    87918823.775       -1852.458          46.000  
E26  26237112.330                       -3732.242          26.000    26237137.104   105645671.941       -2860.418          32.000  
G06  21978217.297   115496078.200       -3936.721          39.000    21978239.970    89996888.211       -3067.161          37.000  
R14  18119454.115    96587312.466         933.372          51.000    18119459.934    75123411.141         726.111          50.000  
R15  21390685.269   114305321.749        3517.611          50.000    21390706.216    88904252.963        2735.841          47.000  
R19  22067119.834                3      -3831.463          15.000    22067175.124                3      -3006.773          20.000  
E19  23894662.407   125567408.425         550.007          41.000    23894668.416    96214046.913         421.555          47.000  
S31  37403317.057   196555667.201        -822.906          44.000  
G14  21530282.343   113142420.526        2564.251          45.000    21530297.283    88163047.789        1998.229          42.000  
G07  18736261.955    98459927.568       -2311.461          49.000    18736261.239    76721915.054       -1801.090          47.000  
G30  18981733.139    99749949.966         -46.102          50.000    18981736.499    77727594.941         -35.921          45.000  
G04  23644542.888   124252891.155       -3257.867          37.000    23644556.139    96820423.061       -2538.396          40.000  
E21  24800056.071   130325283.400        2032.967          46.000    24800075.938    99859756.836        1557.705          49.000  
E30  25619938.039   134633839.155       -2365.836          42.000    25619947.176   103161095.454       -1812.714          45.000  
E27  23386376.000   122896513.369         108.978          45.000    23386385.301    94167618.336          83.422          50.000  
G05                                                                  22917284.581                        1967.680          27.000  
> 2024 04 08 18 21 30.4950000  0 25                     
S33  38360921.153   201587909.172        -822.739          43.000  
E07  24849580.111   130585328.485       -2330.966          40.000    24849594.462   100058883.524       -1785.978          45.000  
G20  19981806.333   105005158.129        1057.297          49.000                                                                  
E12  25429084.426   133630732.885        -702.882          38.000    25429092.047   102392421.776        -538.525          44.000  
R13  19602287.612   104675381.912       -3695.552          39.000    19602289.456    81414261.713       -2874.274          41.000  
R04  19118574.056   102379262.267        1260.717          51.000    19118574.028    79628313.302         980.609          50.000  
R02  22190892.134   118414617.300       -3523.169          50.000    22190905.989    92100238.688       -2740.240          40.000  
R03  18794113.224   100606415.634       -1505.635          52.000    18794113.195    78249489.076       -1171.096          50.000  
E33  24430058.957   128380718.346       -3062.624          45.000    24430071.117    98369670.325       -2346.640          46.000  
G09  20455280.571   107493214.563       -2281.910          45.000    20455284.808    83761008.420       -1778.116          44.000  
G11  21484299.000   112900674.687       -2392.258          47.000    21484306.066    87974573.022       -1864.192          45.000  
E26  26258413.108                1      -3729.966          26.000    26258438.416                       -2858.593          31.000  
G06  22000704.787   115614242.585       -3941.307          39.000    22000727.474    90088963.389       -3070.936          38.000  
R14  18114270.682    96559683.355         908.506          51.000    18114277.165    75101921.966         706.619          51.000  
R15  21370956.076   114199893.321        3510.993          49.000    21370977.379    88822252.896        2730.793          48.000  
E19  23891524.638   125550922.388         549.097          41.000    23891531.079    96201414.918         420.840          47.000  
S31  37408015.971   196580358.072        -823.234          44.000  
G14  21515657.110   113065564.514        2559.443          45.000    21515672.004    88103160.699        1994.281          44.000  
G07  18749500.717    98529495.783       -2326.546          49.000    18749500.121    76776124.074       -1812.880          47.000  
G30  18982040.877    99751567.383         -61.799          49.000    18982044.119    77728855.317         -48.231          45.000  
G04  23663147.406   124350651.426       -3259.710          37.000    23663160.578    96896599.671       -2539.769          41.000  
E21  24788460.872   130264348.077        2029.188          46.000    24788479.921    99813066.672        1554.939          49.000  
E30  25633477.232   134704992.494       -2377.745          42.000    25633486.824   103215615.677       -1821.854          43.000  
E27  23385793.816   122893448.873          95.417          46.000    23385801.995    94165270.317          73.121          50.000  
G05                                                                  22902882.443                        1964.968          30.000  
> 2024 04 08 18 22 00.4950000  0 26                     
S33  38365619.936   201612602.511        -823.505          44.000  
E07  24862892.921   130655286.953       -2332.962          39.000    24862906.720   100112487.993       -1787.503          45.000  
G20  19975814.744   104973671.406        1041.754          49.000                                                                  
E12  25433136.909   133652035.486        -717.659          38.000    25433145.780   102408744.650        -549.774          44.000  
R13  19623101.011   104786524.163       -3714.270          40.000    19623103.052    81500705.681       -2888.638          42.000  
R04  19111527.651   102341526.523        1255.005          52.000    19111526.895    79598963.390         976.093          49.000  
R02  22210720.897   118520427.291       -3530.865          49.000    22210734.587    92182534.899       -2745.965          40.000  
R03  18802587.250   100651774.584       -1518.195          53.000    18802586.518    78284768.234       -1180.779          50.000  
E33  24447566.545   128472718.214       -3070.554          45.000    24447578.014    98440163.343       -2352.741          46.000  
G09  20468323.903   107561754.452       -2287.640          45.000    20468327.153    83814416.057       -1782.369          43.000  
G11  21497997.900   112972659.737       -2406.812          47.000    21498004.776    88030665.043       -1875.352          46.000  
E26  26279700.478                       -3727.411          27.000    26279723.082                       -2855.740          31.000  
G06  22023215.272   115732531.440       -3945.067          38.000    22023237.436    90181135.525       -3073.593          37.000  
R14  18109229.496    96532804.013         883.489          52.000    18109234.422    75081015.913         687.164          51.000  
R15  21351264.141   114094665.237        3504.311          49.000    21351285.951    88740408.701        2725.613          49.000  
E19  23888393.517   125534465.578         548.154          42.000    23888399.143    96188805.317         419.864          47.000  
S31  37412716.831   196605058.562        -823.539          45.000  
G14  21501060.240   112988859.611        2554.318          46.000    21501074.509    88043391.317        1990.376          44.000  
G07  18762825.255    98599517.797       -2341.434          49.000    18762824.542    76830686.725       -1824.559          47.000  
G30  18982438.996    99753659.100         -77.594          49.000    18982441.789    77730485.281         -60.486          45.000  
G04  23681759.636   124448460.042       -3261.040          38.000    23681773.806    96972813.948       -2540.900          41.000  
E21  24776886.019   130203527.490        2025.453          46.000    24776905.184    99766464.447        1551.901          48.000  
E30  25647086.082   134776503.377       -2389.535          42.000    25647094.772   103270409.881       -1830.979          44.000  
E27  23385288.341   122890791.481          81.794          45.000    23385296.008    94163234.260          62.682          50.000  
G05                                                                  22888492.360                        1961.771          28.000  
R19                                                                  22110514.168                3      -3017.303          19.000  
> 2024 04 08 18 22 30.4950000  0 25                     
S33  38370320.387   201637305.469        -823.826          43.000  
E07  24876218.915   130725310.033       -2335.385          40.000    24876231.531   100166141.891       -1789.448          44.000  
G20  19969912.450   104942652.859        1026.061          49.000                                                                  
E12  25437274.951   133673775.870        -732.436          39.000    25437283.210   102425402.924        -561.034          44.000  
R13  19644018.626   104898221.455       -3732.539          39.000    19644020.642    81587581.384       -2903.251          42.000  
R04  19104513.010   102303964.582        1249.010          51.000    19104511.337    79569748.651         971.410          50.000  
R02  22230593.803   118626470.649       -3538.806          50.000    22230607.396    92265012.615       -2752.478          41.000  
R03  18811130.684   100697510.560       -1530.934          52.000    18811130.626    78320340.661       -1190.831          49.000  
E33  24465119.074   128564953.640       -3078.616          44.000    24465130.396    98510836.822       -2358.938          46.000  
G09  20481399.053   107630461.584       -2293.259          44.000    20481401.864    83867954.024       -1786.748          44.000  
G11  21511779.698   113045082.072       -2421.526          48.000    21511785.984    88087097.779       -1886.888          45.000  
G06  22045748.780   115850941.247       -3949.068          36.000    22045771.097    90273402.075       -3077.271          39.000  
R14  18104327.760    96506676.113         858.228          52.000    18104332.402    75060694.315         667.479          50.000  
R15  21331610.419   113989641.070        3497.139          49.000    21331631.922    88658723.124        2719.978          48.000  
E19  23885266.817   125518037.929         546.815          41.000    23885272.606    96176218.041         418.963          46.000  
S31  37417418.886   196629769.299        -824.011          44.000  
G14  21486491.856   112912308.738        2548.980          44.000    21486506.376    87983741.972        1986.001          44.000  
G07  18776235.207    98669991.085       -2356.690          48.000    18776234.862    76885601.027       -1836.440          46.000  
G30  18982927.429    99756224.572         -93.574          50.000    18982930.308    77732484.399         -73.124          45.000  
G04  23700381.330   124546317.054       -3262.967          38.000    23700395.270    97049065.959       -2542.465          40.000  
E21  24765334.383   130142823.514        2021.282          46.000    24765353.080    99719951.563        1548.806          48.000  
E30  25660762.695   134848370.525       -2401.535          43.000    25660770.751   103325477.045       -1840.288          45.000  
E27  23384860.770   122888542.018          68.071          46.000    23384867.802    94161510.772          52.081          50.000  
E26                                                                  26300990.294                       -2853.845          27.000  
G05                                                                  22874130.062                        1958.178          29.000  
> 2024 04 08 18 23 00.4950000  0 25                     
S33  38375022.317   201662012.491        -823.784          44.000  
E07  24889555.875   130795391.634       -2337.120          41.000    24889568.068   100219840.657       -1790.905          43.000  
G20  19964098.369   104912098.025        1010.554          49.000                                                                  
E12  25441493.981   133695947.593        -746.321          38.000    25441502.115   102442391.754        -572.052          44.000  
R13  19665037.134   105010463.168       -3750.847          39.000    19665039.372    81674880.528       -2917.123          41.000  
R04  19097530.495   102266572.450        1243.371          51.000    19097528.658    79540665.993         967.089          50.000  
R02  22250509.122   118732740.608       -3546.277          50.000    22250523.036    92347666.610       -2758.081          41.000  
R03  18819744.374   100743618.599       -1543.294          52.000    18819743.562    78356202.443       -1200.475          49.000  
E33  24482714.666   128657416.238       -3085.851          44.000    24482725.859    98581684.355       -2364.617          46.000  
G09  20494504.160   107699329.946       -2298.307          45.000    20494506.809    83921617.614       -1790.778          44.000  
G11  21525642.778   113117932.883       -2435.629          47.000    21525649.342    88143864.427       -1897.949          45.000  
G06  22068302.974   115969462.617       -3952.660          34.000    22068326.879    90365755.449       -3079.864          39.000  
R14  18099566.258    96481295.209         833.343          52.000    18099571.251    75040953.712         648.165          51.000  
R15  21311994.566   113884818.426        3490.445          49.000    21312015.230    88577194.304        2714.781          48.000  
E19  23882145.652   125501633.078         546.323          42.000    23882150.551    96163648.204         418.576          46.000  
S31  37422121.555   196654483.548        -824.060          44.000  
G14  21471952.838   112835908.675        2543.881          44.000    21471966.785    87924210.113        1982.481          43.000  
G07  18789730.290    98740907.020       -2371.375          49.000    18789729.799    76940860.205       -1847.703          47.000  
G30  18983504.996    99759256.993        -108.985          49.000    18983507.019    77734847.359         -84.987          45.000  
G04  23719011.451   124644216.397       -3264.244          38.000    23719024.492    97125350.926       -2543.552          40.000  
E21  24753804.113   130082231.824        2017.712          46.000    24753822.352    99673524.698        1545.925          48.000  
E30  25674505.119   134920586.416       -2413.140          44.000    25674512.619   103380811.442       -1849.087          44.000  
E27  23384508.773   122886695.057          54.687          46.000    23384516.228    94160095.692          41.876          51.000  
E26                                                                  26322236.576                3      -2845.379          23.000  
G05                                                                  22859792.343                        1955.356          30.000  
> 2024 04 08 18 23 30.4950000  0 25                     
S33  38379726.513   201686733.394        -824.303          43.000  
E07  24902906.431   130865543.768       -2339.459          41.000    24902917.166   100273593.451       -1792.894          42.000  
G20  19958374.499   104882020.655         994.600          49.000                                                                  
E12  25445797.430   133718561.859        -760.935          38.000    25445805.156   102459719.632        -583.108          44.000  
R13  19686159.534   105123256.900       -3768.918          40.000    19686162.401    81762608.998       -2931.315          40.000  
R04  19090582.277   102229364.072        1237.169          52.000    19090579.951    79511726.276         962.268          50.000  
R02  22270468.844   118839248.764       -3554.254          48.000    22270483.006    92430505.864       -2764.374          41.000  
R03  18828430.097   100790111.677       -1556.209          52.000    18828428.891    78392363.695       -1210.364          49.000  
E33  24500354.766   128750115.390       -3093.862          43.000    24500366.734    98652713.114       -2370.674          47.000  
G09  20507642.022   107768371.367       -2304.234          44.000    20507645.132    83975416.069       -1795.529          44.000  
G11  21539589.836   113191221.163       -2450.235          47.000    21539596.341    88200971.923       -1909.207          46.000  
G06  22090881.700                       -3956.685          31.000    22090903.887    90458202.129       -3082.989          39.000  
R14  18094947.264    96456674.624         808.003          52.000    18094952.428    75021804.478         628.483          51.000  
R15  21292417.486   113780212.149        3483.209          46.000    21292439.573    88495833.811        2709.271          48.000  
E19  23879030.465   125485262.546         545.133          42.000    23879035.242    96151104.664         417.771          45.000  
S31  37426827.803   196679212.954        -824.484          44.000  
G14  21457445.155   112759673.900        2538.275          44.000    21457459.490    87864807.072        1978.014          44.000  
G07  18803311.469    98812274.816       -2386.377          49.000    18803310.887    76996471.516       -1859.535          47.000  
G30  18984172.990    99762767.357        -124.965          50.000    18984175.219    77737582.755         -97.371          45.000  
G04  23737651.127   124742169.633       -3266.020          37.000    23737665.055    97201677.892       -2544.933          40.000  
E21  24742296.802   130021765.820        2013.514          45.000    24742315.452    99627194.141        1542.755          48.000  
E30  25688315.927   134993161.306       -2425.252          44.000    25688322.688   103436420.896       -1858.365          43.000  
E27  23384234.932   122885262.953          40.792          45.000    23384243.576    94158998.495          31.286          51.000  
E26                                                                  26343471.505                3      -2840.713          22.000  
G05                                                                  22845485.793                        1951.229          31.000  
> 2024 04 08 18 24 00.4950000  0 25                     
S33  38384434.133   201711471.623        -825.176          44.000  
G05  22831238.555                3       2497.843          27.000    22831204.683    93489949.9071       1947.004          32.000  
E07  24916269.940   130935767.958       -2342.337          41.000    24916281.097   100327401.481       -1794.897          42.000  
G20  19952742.368   104852424.102         978.157          49.000                                                                  
E12  25450184.684   133741619.631        -776.376          39.000    25450192.831   102477387.334        -594.826          44.000  
R13  19707385.499   105236600.136       -3787.683          41.000    19707388.152    81850764.889       -2945.884          42.000  
R04  19083668.414   102192342.716        1230.523          52.000    19083666.638    79482932.009         957.073          50.000  
R02  22290473.222   118945996.010       -3562.598          48.000    22290488.204    92513531.030       -2770.794          41.000  
R03  18837187.426   100836992.191       -1569.471          52.000    18837187.057    78428826.291       -1220.761          50.000  
E33  24518039.982   128843050.150       -3102.167          42.000    24518052.650    98723922.394       -2376.908          47.000  
G09  20520813.747   107837587.390       -2310.594          44.000    20520816.939    84029350.561       -1800.626          45.000  
G11  21553618.984   113264945.608       -2465.376          45.000    21553625.620    88258419.301       -1920.754          45.000  
G06  22113477.618                       -3960.607          26.000    22113503.754    90550740.449       -3086.383          39.000  
R14  18090472.475    96432817.437         782.135          53.000    18090476.698    75003248.977         608.294          51.000  
R15  21272882.755   113675827.212        3475.488          46.000    21272904.936    88414645.540        2703.298          47.000  
E19  23875921.030   125468927.731         543.576          42.000    23875926.806    96138588.487         416.524          45.000  
S31  37431536.714   196703958.146        -825.443          44.000  
G14  21442969.214   112683608.692        2532.700          43.000    21442984.933    87805536.185        1973.090          46.000  
G07  18816978.205    98884093.396       -2401.884          50.000    18816977.193    77052434.064       -1871.447          47.000  
G30  18984931.575    99766756.348        -141.371          50.000    18984934.728    77740691.125        -110.374          45.000  
G04  23756301.631   124840178.246       -3268.379          38.000    23756315.029    97278048.054       -2546.544          38.000  
E21  24730814.283   129961428.694        2008.678          45.000    24730833.296    99580962.335        1539.097          48.000  
E30  25702194.043   135066095.162       -2437.477          43.000    25702201.830   103492305.410       -1867.708          44.000  
E27  23384042.464   122884247.787          26.513          46.000    23384050.491    94158220.756          20.196          51.000  
E26                                                                  26364688.096                3      -2845.488          23.000  
> 2024 04 08 18 24 30.4950000  0 25                     
S33  38389144.176   201736223.106        -824.962          44.000  
E07  24929645.573   131006061.875       -2344.386          41.000    24929656.944   100381262.910       -1796.177          40.000  
G20  19947201.963   104823307.459         962.710          49.000                                                                  
E12  25454657.101   133765117.898        -790.410          40.000    25454664.556   102495392.553        -605.593          44.000  
R13  19728712.553   105350485.947       -3804.966          43.000    19728714.942    81939342.818       -2959.582          42.000  
R04  19076789.071   102155507.557        1224.989          50.000    19076787.744    79454282.561         952.741          50.000  
R02  22310522.356   119052979.492       -3569.702          48.000    22310537.936    92596739.928       -2776.520          44.000  
R03  18846017.103   100884258.744       -1581.681          52.000    18846017.077    78465589.132       -1230.185          50.000  
E33  24535768.838   128936215.577       -3109.106          42.000    24535782.041    98795308.444       -2382.213          47.000  
G09  20534017.647   107906975.438       -2315.616          44.000    20534020.898    84083419.107       -1804.294          44.000  
G11  21567730.484   113339100.878       -2478.858          46.000    21567737.421    88316202.331       -1931.475          46.000  
G06  22136099.793   116325732.380       -3964.513          32.000    22136124.685    90643365.684       -3088.400          38.000  
R14  18086139.917    96409722.481         757.330          53.000    18086144.398    74985286.340         589.095          51.000  
R15  21253391.760   113571664.422        3468.531          48.000    21253411.932    88333630.116        2697.766          47.000  
E19  23872818.777   125452625.406         543.246          42.000    23872824.461    96126097.213         416.020          45.000  
S31  37436248.154   196728717.890        -825.253          44.000  
G14  21428526.816   112607713.285        2527.222          45.000    21428540.807    87746397.597        1969.145          44.000  
G07  18830728.851    98956357.465       -2415.979          49.000    18830728.981    77108743.763       -1882.518          47.000  
G30  18985781.455    99771220.667        -156.512          50.000    18985784.098    77744169.841        -122.016          44.000  
G04  23774962.361   124938239.637       -3269.067          38.000    23774974.544    97354459.314       -2547.258          36.000  
E21  24719356.073   129901219.579        2005.023          45.000    24719375.259    99534828.609        1536.345          49.000  
E30  25716141.608   135139383.970       -2448.790          43.000    25716148.228   103548461.903       -1876.362          44.000  
E27  23383928.020   122883647.574          13.351          46.000    23383935.867    94157760.960          10.245          51.000  
E26                                                                  26385883.087                3      -2845.278          20.000  
G05                                                                  22816945.628                        1943.693          30.000  
> 2024 04 08 18 25 00.4950000  0 25                     
S33  38393856.122   201760984.089        -825.802          43.000  
G05  22802727.736                        2489.394          29.000    22802719.437                        1939.425          30.000  
E07  24943032.972   131076422.775       -2346.853          39.000    24943045.130   100435175.652       -1798.496          39.000  
G20  19941752.675   104794669.822         946.107          49.000                                                                  
E12  25459211.974   133789053.178        -805.545          40.000    25459219.577   102513732.610        -617.091          44.000  
R13  19750140.198   105464907.530       -3823.485          43.000    19750142.058    82028337.382       -2973.710          41.000  
R04  19069945.593   102118857.856        1218.261          51.000    19069942.728    79425777.345         947.460          49.000  
R02  22330615.010   119160195.553       -3578.070          48.000    22330630.712    92680129.765       -2782.916          43.000  
R03  18854918.990   100931909.608       -1595.138          52.000    18854918.443    78502650.879       -1240.683          50.000  
E33  24553540.815   129029606.409       -3117.129          42.000    24553554.471    98866867.188       -2388.395          48.000  
G09  20547253.378   107976532.681       -2321.876          43.000    20547256.819    84137619.517       -1809.207          44.000  
G11  21581922.239   113413681.223       -2493.317          45.000    21581929.869    88374316.641       -1942.872          46.000  
G06  22158740.462   116444707.680       -3967.777          31.000    22158766.247    90736072.794       -3091.791          38.000  
R14  18081948.840    96387387.993         731.376          52.000    18081954.251    74967915.179         568.845          51.000  
R15  21233941.050   113467724.402        3460.546          47.000    21233960.554    88252788.003        2691.570          47.000  
E19  23869722.381   125436352.785         541.635          42.000    23869727.886    96113628.674         415.057          45.000  
S31  37440961.675   196753486.582        -826.197          44.000  
G14  21414116.558   112531987.658        2520.993          46.000    21414130.456    87687391.267        1964.219          45.000  
G07  18844564.297    99029061.857       -2431.286          49.000    18844564.117    77165396.552       -1894.375          47.000  
G30  18986720.525    99776156.565        -172.849          50.000    18986722.708    77748016.049        -134.670          44.000  
G04  23793632.707   125036350.842       -3271.615          38.000    23793644.069    97430909.329       -2549.671          35.000  
E21  24707922.976   129841137.269        2000.317          46.000    24707941.626    99488792.056        1532.673          49.000  
E30  25730154.464   135213023.282       -2461.017          43.000    25730160.849   103604886.961       -1885.437          43.000  
E27  23383891.039   122883459.969          -0.970          45.000    23383900.110    94157617.335          -0.710          51.000  
E26                                                                  26407063.561                3      -2838.871          25.000  
> 2024 04 08 18 25 30.4960000  0 25                     
S33  38398571.920   201785764.710        -826.458          44.000  
G05  22788526.892                        2484.297          29.000    22788518.637    93315175.065        1935.964          32.000  
E07  24956438.637   131146860.699       -2349.304          40.000    24956450.583   100489147.432       -1799.972          40.000  
G20  19936395.790   104766519.515         930.094          49.000                                                                  
E12  25463851.501   133813433.361        -820.209          40.000    25463858.385   102532413.565        -628.465          44.000  
R13  19771669.829   105579871.780       -3841.089          43.000    19771669.783    82117754.065       -2987.488          39.000  
R04  19063136.861   102082402.056        1211.821          50.000    19063134.479    79397422.953         942.540          49.000  
R02  22350753.119   119267655.066       -3585.816          47.000    22350769.390    92763708.941       -2789.021          44.000  
R03  18863894.472   100979954.662       -1608.046          52.000    18863892.990    78540019.206       -1250.742          50.000  
E33  24571357.449   129123230.895       -3124.549          41.000    24571371.206    98938604.976       -2394.160          47.000  
G09  20560524.964   108046269.047       -2327.436          46.000    20560527.691    84191959.472       -1813.433          44.000  
G11  21596196.481   113488693.950       -2507.603          45.000    21596203.988    88432767.835       -1954.062          45.000  
G06  22181403.797   116563795.953       -3970.984          35.000    22181427.561    90828868.021       -3094.252          36.000  
R14  18077903.890    96365822.743         705.818          52.000    18077908.207    74951142.339         549.049          51.000  
R15  21214532.197   113364014.452        3452.882          46.000    21214552.114    88172124.907        2685.630          46.000  
E19  23866632.346   125420116.389         540.695          42.000    23866638.379    96101187.932         414.087          45.000  
S31  37445678.532   196778274.095        -826.570          43.000  
G14  21399739.976   112456439.560        2515.059          46.000    21399753.903    87628523.276        1959.798          45.000  
G07  18858484.846    99102213.822       -2445.604          48.000    18858484.573    77222398.082       -1905.788          47.000  
G30  18987750.268    99781570.976        -188.517          50.000    18987752.639    77752235.116        -146.972          44.000  
G04  23812314.948   125134522.606       -3273.164          41.000    23812326.413    97507406.580       -2550.514          36.000  
E21  24696513.847   129781188.996        1995.795          45.000    24696533.424    99442858.202        1529.319          49.000  
E30  25744234.385   135287021.639       -2472.489          42.000    25744242.816   103661587.172       -1894.542          44.000  
E27  23383936.138   122883693.142         -14.960          45.000    23383944.561    94157796.113         -11.371          51.000  
E26                                                                  26428223.602                3      -2845.282          21.000  
> 2024 04 08 18 26 00.4960000  0 25                     
S33  38403289.945   201810558.031        -826.450          43.000  
G05  22774350.297   119680208.3411       2479.529          31.000    22774349.586                        1931.659          31.000  
E07  24969854.012   131217368.658       -2351.615          38.000    24969867.041   100543172.837       -1801.873          39.000  
G20  19931131.266   104738857.591         913.789          49.000                                                                  
E12  25468574.820   133838253.903        -834.698          40.000    25468581.530   102551431.921        -639.578          44.000  
R13  19793297.764   105695364.743       -3858.668          43.000    19793297.706    82207582.025       -3001.270          40.000  
R04  19056365.252   102046142.102        1205.348          50.000    19056363.662    79369220.893         937.408          50.000  
R02  22370934.764   119375347.985       -3593.761          48.000    22370951.147    92847469.675       -2795.041          43.000  
R03  18872942.519   101028389.570       -1621.160          53.000    18872941.484    78577690.751       -1260.814          50.000  
E33  24589216.383   129217078.133       -3132.041          41.000    24589229.466    99010513.412       -2399.910          46.000  
G09  20573828.324   108116177.597       -2333.156          46.000    20573831.258    84246433.620       -1818.211          45.000  
G11  21610552.053   113564128.820       -2521.726          46.000    21610558.515    88491547.997       -1965.061          43.000  
G06  22204087.401   116682983.446       -3974.516          35.000    22204109.496    90921740.661       -3097.313          35.000  
R14  18074001.954    96345026.564         680.280          52.000    18074007.696    74934967.646         529.125          51.000  
R15  21195169.630   113260542.580        3445.076          47.000    21195188.809    88091646.994        2679.523          46.000  
E19  23863549.585   125403915.040         539.355          42.000    23863554.985    96088774.029         413.201          45.000  
S31  37450398.006   196803076.394        -827.046          44.000  
G14  21385397.936   112381074.520        2509.053          46.000    21385412.149    87569797.917        1955.093          45.000  
G07  18872488.731    99175803.511       -2460.425          48.000    18872488.051    77279740.680       -1917.005          47.000  
G30  18988870.949    99787460.417        -204.333          50.000    18988873.572    77756824.335        -159.123          44.000  
G04  23831005.683   125232745.951       -3275.281          39.000    23831018.645    97583944.046       -2551.978          39.000  
E21  24685133.729   129721378.141        1991.411          46.000    24685151.468    99397029.630        1525.864          49.000  
E30  25758381.193   135361370.201       -2484.140          42.000    25758390.577   103718555.705       -1903.427          44.000  
E27  23384059.878   122884345.240         -28.787          45.000    23384068.622    94158295.902         -22.073          52.000  
E26                                                                  26449371.185                3      -2838.064          20.000  
> 2024 04 08 18 26 30.4960000  0 24                     
S33  38408010.573   201835364.573        -827.410          44.000  
G05  22760206.216                        2474.384          32.000    22760207.524                        1927.857          31.000  
E07  24983285.329   131287947.379       -2353.999          38.000    24983297.001   100597252.476       -1803.788          38.000  
G20  19925959.979   104711683.639         897.444          49.000                                                                  
E12  25473381.991   133863513.231        -849.360          41.000    25473388.124   102570786.475        -650.898          44.000  
R13  19815024.176   105811384.303       -3876.332          44.000    19815024.236    82297819.442       -3014.881          40.000  
R04  19049630.651   102010077.014        1198.690          51.000    19049628.667    79341170.384         932.403          50.000  
R02  22391160.881   119483275.119       -3601.581          48.000    22391177.334    92931412.592       -2801.300          42.000  
R03  18882063.744   101077215.074       -1634.208          52.000    18882063.090    78615666.084       -1270.904          50.000  
E33  24607117.114   129311146.924       -3139.628          41.000    24607130.440    99082591.619       -2405.549          46.000  
G09  20587164.456   108186258.862       -2338.877          46.000    20587166.998    84301042.346       -1822.650          44.000  
G11  21624987.228   113639983.579       -2535.554          47.000    21624993.071    88550655.341       -1975.895          43.000  
G06  22226784.636   116802268.798       -3978.361          34.000    22226808.511    91014689.565       -3099.437          33.000  
R14  18070243.909    96324998.351         654.592          52.000    18070250.484    74919390.281         509.197          52.000  
R15  21175848.972   113157306.978        3437.034          46.000    21175870.461    88011352.893        2673.250          47.000  
E19  23860472.354   125387745.797         538.285          42.000    23860477.982    96076384.731         412.459          45.000  
S31  37455119.549   196827890.486        -827.296          42.000  
G14  21371090.757   112305890.919        2502.944          46.000    21371105.175    87511213.941        1950.354          46.000  
G07  18886574.856    99249828.823       -2474.825          48.000    18886574.794    77337422.770       -1928.571          47.000  
G30  18990081.332    99793822.283        -220.139          50.000    18990084.307    77761781.713        -171.685          44.000  
G04  23849707.226   125331022.093       -3276.748          36.000    23849720.621    97660522.697       -2553.170          38.000  
E21  24673776.787   129661702.493        1986.771          46.000    24673794.890    99351304.640        1522.202          49.000  
E30  25772595.342   135436068.068       -2495.905          42.000    25772605.328   103775791.868       -1912.419          45.000  
E27  23384264.347   122885414.972         -42.912          45.000    23384272.203    94159115.666         -32.908          52.000  
> 2024 04 08 18 27 00.4960000  0 24                     
S33  38412733.024   201860179.377        -827.220          45.000  
G05  22746093.200                1       2468.964          30.000    22746094.785                        1924.451          30.000  
E07  24996729.405   131358592.612       -2356.347          40.000    24996740.160   100651383.180       -1805.368          38.000  
G20  19920881.615   104684994.798         881.416          49.000                                                                  
E12  25478269.291   133889206.359        -863.482          39.000    25478277.453   102590473.476        -661.934          44.000  
R13  19836848.087   105927921.536       -3893.523          42.000    19836848.834    82388459.608       -3028.265          39.000  
R04  19042931.620   101974204.423        1192.345          51.000    19042929.519    79313269.570         927.398          49.000  
R02  22411429.566   119591432.310       -3609.156          47.000    22411447.250    93015534.430       -2807.215          43.000  
R03  18891257.294   101126427.759       -1646.949          53.000    18891255.861    78653942.562       -1281.038          50.000  
E33  24625057.818   129405430.594       -3146.525          40.000    24625072.276    99154834.484       -2410.874          45.000  
G09  20600533.082   108256508.598       -2344.637          46.000    20600535.688    84355782.322       -1826.979          45.000  
G11  21639500.212   113716251.130       -2549.177          47.000    21639505.962    88610084.344       -1986.540          43.000  
G06  22249500.127   116921644.222       -3981.013          35.000    22249526.460    91107708.713       -3102.383          35.000  
R14  18066630.701    96305735.255         629.209          52.000    18066636.235    74904408.018         489.371          51.000  
R15  21156573.634   113054306.486        3429.219          47.000    21156594.462    87931241.723        2667.153          46.000  
E19  23857401.080   125371604.123         537.349          43.000    23857406.315    96064016.575         411.771          45.000  
S31  37459844.224   196852713.461        -827.620          43.000  
G14  21356817.289   112230887.307        2497.004          45.000    21356831.759    87452770.218        1945.769          46.000  
G07  18900742.765    99324282.804       -2489.121          47.000    18900742.679    77395438.851       -1939.484          47.000  
G30  18991381.346    99800651.474        -235.584          50.000    18991383.823    77767103.217        -183.670          44.000  
G04  23868417.558   125429346.738       -3278.414          38.000    23868431.379    97737139.150       -2554.902          36.000  
E21  24662445.358   129602159.478        1982.305          46.000    24662463.612    99305681.293        1518.898          49.000  
E30  25786876.141   135511109.469       -2507.199          44.000    25786884.969   103833291.222       -1920.986          44.000  
E27  23384546.713   122886898.517         -56.569          47.000    23384554.297    94160252.517         -43.273          52.000  
> 2024 04 08 18 27 30.4960000  0 24                     
S33  38417455.371   201884997.161        -827.160          44.000  
G05  22732012.139   119457502.6581       2464.697          33.000    22732009.320    93083776.106        1921.075          33.000  
E07  25010185.791   131429299.586       -2357.872          39.000    25010195.594   100705561.035       -1806.874          39.000  
G20  19915894.847   104658787.871         865.555          49.000                                                                  
E12  25483240.813   133915327.844        -877.681          39.000    25483247.928   102610488.627        -672.467          44.000  
R13  19858767.125   106044967.255       -3909.686          42.000    19858767.274    82479495.190       -3041.166          40.000  
R04  19036267.563   101938521.059        1186.458          50.000    19036266.565    79285515.971         922.686          51.000  
R02  22431739.909   119699813.222       -3616.370          48.000    22431756.890    93099830.306       -2812.769          43.000  
R03  18900521.438   101176023.016       -1659.355          52.000    18900521.343    78692516.555       -1290.593          50.000  
E33  24643039.706   129499921.717       -3152.885          40.000    24643054.589    99227236.299       -2415.923          46.000  
G09  20613931.932   108326921.847       -2349.707          47.000    20613934.825    84410649.737       -1831.083          45.000  
G11  21654090.973   113792923.655       -2562.440          48.000    21654097.061    88669828.843       -1996.384          43.000  
G06  22272235.837   117041101.165       -3983.142          39.000    22272260.491    91200791.303       -3103.286          34.000  
R14  18063158.893    96287233.366         604.099          52.000    18063164.834    74890017.774         469.886          51.000  
R15  21137341.897   112951539.510        3421.763          47.000    21137363.271    87851312.182        2661.478          46.000  
E19  23854333.216   125355484.980         536.979          43.000    23854338.532    96051665.635         411.476          45.000  
S31  37464568.219   196877539.414        -827.545          43.000  
G14  21342577.831   112156061.476        2491.387          45.000    21342591.508    87394464.992        1941.462          46.000  
G07  18914990.132    99399158.097       -2502.709          47.000    18914990.415    77453783.251       -1950.158          47.000  
G30  18992768.647    99807942.057        -250.623          50.000    18992771.128    77772784.264        -195.338          45.000  
G04  23887136.583   125527714.903       -3279.611          35.000    23887151.003    97813789.502       -2555.498          37.000  
E21  24651137.853   129542745.758        1978.559          45.000    24651157.509    99260156.999        1515.895          50.000  
E30  25801220.108   135586487.732       -2518.124          43.000    25801229.317   103891048.687       -1929.406          46.000  
E27  23384906.411   122888791.408         -69.884          46.000    23384914.195    94161703.039         -53.482          52.000  
> 2024 04 08 18 28 00.4960000  0 24                     
S33  38422178.031   201909812.207        -827.022          43.000  
G05  22717950.196   119383640.0661       2459.863          34.000    22717949.334                        1916.309          31.000  
E07  25023653.128   131500062.502       -2359.811          40.000    25023662.413   100759781.863       -1807.961          41.000  
G20  19910999.118   104633058.580         849.595          49.000                                                                  
E12  25488292.719   133941871.097        -891.884          40.000    25488299.791   102630826.982        -683.317          44.000  
R13  19880778.782   106162511.167       -3926.527          42.000    19880779.676    82570918.244       -3054.022          38.000  
R04  19029639.040   101903023.250        1180.143          51.000    19029637.893    79257906.664         917.868          50.000  
R02  22452090.790   119808411.495       -3623.647          48.000    22452107.783    93184295.216       -2818.416          44.000  
R03  18909857.345   101225996.257       -1672.085          53.000    18909856.085    78731384.591       -1300.460          49.000  
E33  24661060.133   129594612.012       -3159.562          42.000    24661073.564    99299790.718       -2421.021          45.000  
G09  20627360.483   108397492.761       -2355.096          47.000    20627363.671    84465640.016       -1835.079          45.000  
G11  21668757.295   113869992.265       -2575.617          47.000    21668762.618    88729881.983       -2006.710          42.000  
G06  22294982.240   117160630.159       -3985.320          39.000    22295006.219    91293930.198       -3105.458          34.000  
R14  18059830.562    96269487.317         578.815          53.000    18059835.404    74876215.434         450.281          51.000  
R15  21118154.026   112849003.304        3413.868          48.000    21118174.099    87771562.169        2655.263          47.000  
E19  23851269.082   125339382.297         536.280          43.000    23851274.412    96039327.305         411.282          45.000  
S31  37469291.564   196902361.693        -827.457          44.000  
G14  21328371.577   112081410.319        2485.433          45.000    21328385.756    87336295.923        1936.614          45.000  
G07  18929318.027    99474445.960       -2516.513          48.000    18929317.491    77512449.102       -1960.767          47.000  
G30  18994242.211    99815687.261        -265.794          50.000    18994245.409    77778819.589        -207.146          45.000  
G04  23905862.925   125626120.601       -3280.677          36.000    23905876.056    97890469.031       -2555.950          36.000  
E21  24639855.235   129483457.149        1974.163          45.000    24639874.712    99214728.560        1512.607          50.000  
E30  25815625.917   135662195.410       -2529.009          42.000    25815635.935   103949058.549       -1937.940          46.000  
E27  23385343.460   122891088.220         -83.330          46.000    23385351.359    94163463.036         -63.789          52.000  
> 2024 04 08 18 28 30.4960000  0 24                     
S33  38426899.056   201934623.820        -827.332          43.000  
G05  22703918.370                        2455.597          30.000    22703915.893                        1912.842          28.000  
E07  25037125.686   131570881.983       -2361.827          35.000    25037138.918   100814046.030       -1809.690          41.000  
G20  19906194.630   104607809.189         833.355          49.000                                                                  
E12  25493423.551   133968835.959        -906.118          40.000    25493431.190   102651488.355        -694.278          45.000  
R13  19902883.332   106280549.788       -3942.880          41.000    19902885.468    82662726.100       -3066.664          40.000  
R04  19023045.223   101867713.322        1173.592          52.000    19023043.503    79230443.485         912.840          50.000  
R02  22472483.863   119917227.260       -3631.051          47.000    22472500.969    93268929.262       -2824.141          45.000  
R03  18919263.819   101276348.845       -1684.965          53.000    18919262.112    78770547.664       -1310.532          49.000  
E33  24679116.094   129689499.494       -3166.460          41.000    24679130.809    99372496.238       -2426.180          45.000  
G09  20640820.345   108468221.866       -2360.547          48.000    20640822.729    84520753.541       -1839.360          45.000  
G11  21683497.913   113947454.523       -2588.945          47.000    21683504.335    88790241.905       -2017.241          43.000  
G06  22317740.341   117280228.211       -3987.657          38.000    22317764.939    91387122.927       -3107.417          35.000  
R14  18056644.415    96252499.274         553.385          53.000    18056648.637    74863002.650         430.343          51.000  
R15  21099009.161   112746701.635        3405.803          46.000    21099030.073    87691994.676        2649.150          47.000  
E19  23848207.994   125323296.140         535.799          43.000    23848213.379    96027001.669         410.528          45.000  
S31  37474014.567   196927181.314        -827.661          44.000  
G14  21314199.451   112006937.082        2479.135          46.000    21314212.474    87278265.459        1932.049          44.000  
G07  18943723.476    99550144.283       -2530.308          48.000    18943722.499    77571434.804       -1971.697          47.000  
G30  18995802.566    99823886.661        -281.158          50.000    18995805.536    77785208.827        -218.991          45.000  
G04  23924595.578   125724564.131       -3282.186          35.000    23924609.119    97967178.060       -2557.623          34.000  
E21  24628597.255   129424295.754        1969.661          45.000    24628616.073    99169397.582        1509.261          49.000  
E30  25830096.388   135738231.461       -2540.127          43.000    25830104.979   104007320.021       -1946.243          46.000  
E27  23385857.237   122893789.869         -97.021          46.000    23385865.529    94165533.245         -74.360          52.000  
> 2024 04 08 18 29 00.4960000  0 24                     
S33  38431620.873   201959437.119        -827.475          43.000  
G05  22689915.033   119236298.5221       2449.304          33.000    22689916.015    92911426.280        1908.777          31.000  
E07  25050614.628   131641763.426       -2363.991          33.000    25050626.921   100868357.640       -1811.673          41.000  
G20  19901481.972   104583046.500         816.934          49.000                                                                  
E12  25498634.756   133996226.971        -920.586          39.000    25498643.432   102672476.289        -705.432          45.000  
R13  19925081.020   106399083.856       -3959.601          40.000    19925083.688    82754919.274       -3079.522          42.000  
R04  19016488.067   101832598.704        1166.896          52.000    19016485.763    79203132.212         907.545          49.000  
R02  22492917.869   120026264.986       -3638.739          48.000    22492934.566    93353735.975       -2829.816          43.000  
R03  18928741.652   101327086.922       -1698.090          52.000    18928740.616    78810010.555       -1320.728          49.000  
E33  24697210.309   129784586.993       -3173.120          40.000    24697225.471    99445354.954       -2431.417          45.000  
G09  20654310.300   108539114.379       -2366.199          47.000    20654313.639    84575994.395       -1843.815          45.000  
G11  21698313.540   114025312.690       -2602.104          47.000    21698320.024    88850910.330       -2027.646          44.000  
G06  22340513.990   117399896.968       -3990.906          37.000    22340537.007    91480370.873       -3109.528          36.000  
R14  18053600.432    96236275.366         527.634          52.000    18053604.819    74850384.195         410.374          51.000  
R15  21079909.685   112644643.253        3397.523          47.000    21079930.155    87612616.468        2642.629          46.000  
E19  23845150.739   125307231.546         534.781          43.000    23845156.305    96014692.543         409.756          45.000  
S31  37478737.693   196952002.983        -827.996          43.000  
G14  21300062.809   111932649.769        2472.768          47.000    21300075.726    87220379.886        1926.711          44.000  
G07  18958206.791    99626255.623       -2544.287          49.000    18958205.543    77630742.356       -1982.569          47.000  
G30  18997450.266    99832544.467        -296.545          50.000    18997452.013    77791955.258        -231.011          44.000  
G04  23943337.738                       -3284.552          33.000    23943350.899    98043920.615       -2558.526          34.000  
E21  24617365.124   129365268.428        1964.859          45.000    24617382.829    99124169.336        1505.637          49.000  
E30  25844629.692   135814599.534       -2551.566          44.000    25844637.255   104065835.882       -1955.125          46.000  
E27  23386449.407   122896902.017        -111.002          46.000    23386457.619    94167917.992         -85.008          52.000  
> 2024 04 08 18 29 30.4960000  0 24                     
S33  38436344.867   201984260.589        -827.916          44.000  
G05  22675941.772                        2443.274          30.000    22675944.327                3       1904.942          27.000  
E07  25064115.905   131712715.180       -2366.310          35.000    25064128.929   100922723.251       -1813.342          41.000  
G20  19896863.793   104558780.616         800.321          48.000                                                                  
E12  25503929.612   134024051.956        -935.062          39.000    25503938.144   102693796.718        -716.291          45.000  
R13  19947372.426   106518117.777       -3976.464          39.000    19947373.947    82847501.189       -3092.856          40.000  
R04  19009969.173   101797689.870        1159.927          52.000    19009966.606    79175980.988         902.232          49.000  
R02  22513395.196   120135532.861       -3646.295          47.000    22513411.468    93438721.696       -2835.852          43.000  
R03  18938294.191   101378220.225       -1711.240          53.000    18938293.355    78849780.837       -1331.041          50.000  
E33  24715345.246   129879880.526       -3180.268          39.000    24715359.225    99518371.510       -2436.591          45.000  
G09  20667833.098   108610178.810       -2371.981          48.000    20667836.913    84631369.219       -1848.282          45.000  
G11  21713206.799   114103572.348       -2615.595          46.000    21713213.140    88911891.574       -2038.050          44.000  
G06  22363300.507   117519641.494       -3993.440          34.000    22363325.257    91573677.789       -3111.002          36.000  
R14  18050702.295    96220825.211         501.859          52.000    18050706.186    74838367.546         390.292          51.000  
R15  21060857.927   112542840.193        3388.863          48.000    21060878.292    87533436.860        2635.885          45.000  
E19  23842098.997   125291196.704         533.662          43.000    23842105.044    96002406.217         409.125          45.000  
S31  37483463.249   196976834.010        -828.083          43.000  
G14  21285962.992   111858559.621        2466.115          45.000    21285975.203    87162647.936        1921.514          43.000  
G07  18972770.210    99702785.818       -2558.131          48.000    18972768.547    77690376.266       -1993.281          46.000  
G30  18999186.062    99841668.174        -312.020          50.000    18999187.985    77799064.733        -243.042          44.000  
G04  23962087.119                       -3285.614          32.000    23962102.298    98120703.285       -2560.195          34.000  
E21  24606160.073   129306385.277        1960.307          46.000    24606177.348    99079051.565        1501.925          49.000  
E30  25859225.468   135891306.401       -2562.726          42.000    25859233.666   104124611.327       -1963.615          46.000  
E27  23387122.310   122900433.548        -124.965          47.000    23387129.448    94170624.074         -95.672          52.000  
