     3.00           OBSERVATION DATA    M: Mixed            RINEX VERSION / TYPE
CONVBIN 2.4.3                           20240408 232942 UTC PGM / RUN BY / DATE 
format: u-blox UBX                                          COMMENT             
log: data/2024-04-08/20240408231500.ubx                     COMMENT             
AQUI00CHL                                                   MARKER NAME         
                                                            MARKER NUMBER       
                                                            MARKER TYPE         
                                                            OBSERVER / AGENCY   
UNKNOWN             UBLOX-ZED-F9P                           REC # / TYPE / VERS 
UNKNOWN             TWIVSP6037L                             ANT # / TYPE        
  1713381.0000 -5047934.0000 -3490983.0000                  APPROX POSITION XYZ 
        0.0000        0.0000        0.0000                  ANTENNA: DELTA H/E/N
G    8 C1C L1C D1C S1C C2L L2L D2L S2L                      SYS / # / OBS TYPES 
R    8 C1C L1C D1C S1C C2C L2C D2C S2C                      SYS / # / OBS TYPES 
E    8 C1C L1C D1C S1C C7Q L7Q D7Q S7Q                      SYS / # / OBS TYPES 
S    4 C1C L1C D1C S1C                                      SYS / # / OBS TYPES 
  2024    04    08    23    15   00.0040000     GPS         TIME OF FIRST OBS   
  2024    04    08    23    29   30.0050000     GPS         TIME OF LAST OBS    
                                                            END OF HEADER       
> 2024 04 08 23 15 00.0040000  0 23                     
S33  41044312.644   215689324.4041       -798.164          44.000  
G24  23021162.698   120977134.8281       1081.348          47.000    23021160.426    94267979.8651        842.667          47.000  
E09  28084353.727   147584203.2021       1681.651          34.000    28084354.331   113084107.4811       1288.881          38.000  
G15  22029662.955   115766638.9631      -1537.860          48.000    22029658.840    90207832.9331      -1198.389          45.000  
R06  21404016.652   114215974.2311      -1945.367          43.000                                                                  
R07  23091183.251   123608950.0431       1822.035          48.000    23091178.539    96140280.1241       1417.180          47.000  
R05  23978557.138   128178941.3911      -5229.691          48.000    23978567.929    99694728.4891      -4067.408          44.000  
R16  21617013.749   115474704.0271      -1663.795          51.000    21617010.254    89813852.2591      -1294.087          49.000  
R09  22857279.070   122056868.9841        866.220          50.000    22857276.525    94933201.1071        673.715          50.000  
G19  22537091.875   118433630.3761      -1264.606          49.000                                                                  
G13  22337617.962   117385180.7751      -3180.969          50.000                                                                  
G17  23368004.351   122800132.3211      -2562.062          47.000    23367999.124    95688632.0481      -1996.458          41.000  
E31  26664150.056   140121345.3581        780.668          46.000    26664153.645   107365765.0951        598.215          50.000  
G12  23675352.159   124415106.0681       1125.493          47.000    23675349.288    96947007.7961        876.890          44.000  
R17  23856312.055   127659998.3421      -1167.641          48.000    23856306.353    99291065.2391       -908.038          46.000  
R15  24223070.107   129441141.6711      -3333.511          45.000    24223065.689   100676660.6341      -2592.618          43.000  
R18  23415603.826   124994325.9251       1847.758          49.000    23415602.244    97217774.1261       1437.108          45.000  
E19  26411836.155   138795308.2711      -3270.875          44.000    26411836.644   106349728.0331      -2506.348          45.000  
S31  40092066.321   210685233.6181       -797.781          44.000  
E21  27351990.943   143736091.1471      -2929.160          43.000    27351991.881   110135650.4961      -2244.481          50.000  
G22  23871733.558   125447183.1571      -3721.139          45.000                                                                  
E04  25016102.840   131460547.8571       -444.340          48.000    25016102.377   100729618.4331       -340.446          52.000  
G14                                                                  26213355.758                3      -3055.851          20.000  
> 2024 04 08 23 15 30.0040000  0 23                     
S33  41048870.833   215713276.270        -798.976          44.000  
G24  23015002.955   120944763.460        1076.606          47.000    23015000.405    94242755.478         838.964          47.000  
E09  28074772.628   147533848.086        1674.802          36.000    28074772.602   113045523.767        1283.726          38.000  
G15  22038495.573   115813053.676       -1556.604          48.000    22038490.837    90244000.206       -1212.976          45.000  
R06  21415025.849   114274722.794       -1971.805          43.000                                                                  
R07  23081032.491   123554611.839        1800.285          48.000    23081027.648    96098017.136        1400.238          48.000  
R05  24007922.020   128335905.587       -5234.794          48.000    24007932.946    99816811.062       -4071.298          46.000  
R16  21626374.329   115524702.825       -1669.421          51.000    21626370.672    89852740.219       -1298.412          49.000  
R09  22852430.603   122030979.956         859.620          50.000    22852428.082    94913065.328         668.534          50.000  
G19  22544370.719   118471880.053       -1285.490          49.000                                                                  
G13  22355821.060   117480838.984       -3196.461          50.000                                                                  
G17  23382684.802   122877277.370       -2581.127          46.000    23382678.372    95748745.085       -2011.396          41.000  
E31  26659712.751   140098032.587         773.404          45.000    26659717.897   107347902.241         592.639          50.000  
G12  23668956.778   124381499.486        1114.969          47.000    23668953.941    96920821.021         868.864          43.000  
R17  23862931.639   127695414.887       -1193.448          50.000    23862925.208    99318611.495        -928.197          46.000  
R15  24241783.572   129541133.446       -3333.052          45.000    24241777.949   100754432.073       -2592.196          40.000  
R18  23405265.468   124939137.354        1831.354          50.000    23405263.218    97174849.820        1424.377          46.000  
E19  26430533.338   138893568.166       -3279.976          42.000    26430535.238   106425017.956       -2513.153          45.000  
S31  40096622.746   210709178.460        -798.743          44.000  
E21  27368717.010   143823985.006       -2930.222          44.000    27368717.680   110202997.744       -2245.373          50.000  
G22  23892989.976   125558887.050       -3725.834          45.000                                                                  
E04  25018679.168   131474085.656        -458.288          49.000    25018678.346   100739991.571        -351.122          51.000  
G14                                                                  26235752.081                3      -3057.850          26.000  
> 2024 04 08 23 16 00.0040000  0 24                     
S33  41053431.443   215737245.350        -799.359          44.000  
G24  23008868.217   120912526.302        1072.243          47.000    23008866.190    94217635.661         835.408          47.000  
E09  28065226.681   147483688.567        1668.546          36.000    28065226.581   113007089.871        1278.527          38.000  
G15  22047434.026   115860026.923       -1575.189          48.000    22047430.087    90280602.719       -1227.472          45.000  
R06  21426184.505   114334268.346       -1998.193          42.000                                                                  
R07  23071001.887   123500920.568        1778.741          47.000    23070997.710    96056257.328        1383.407          48.000  
R05  24037312.822   128493012.775       -5239.314          47.000    24037324.625    99939004.803       -4075.073          45.000  
R16  21635765.332   115574867.082       -1675.062          51.000    21635760.868    89891756.874       -1302.752          49.000  
R09  22847618.641   122005284.691         853.104          50.000    22847615.959    94893080.285         663.470          49.000  
G19  22551767.406   118510749.945       -1306.128          49.000                                                                  
G13  22374111.583   117576956.096       -3211.602          50.000                                                                  
G17  23397473.243   122954991.769       -2600.103          45.000    23397468.221    95809301.782       -2025.986          42.000  
E31  26655317.534   140074928.862         766.422          46.000    26655321.372   107330199.545         587.318          51.000  
G12  23662619.886   124348200.496        1104.778          47.000    23662617.328    96894873.944         860.743          44.000  
R17  23869691.846   127731597.295       -1219.028          48.000    23869686.550    99346753.377        -948.163          46.000  
R15  24260491.711   129641105.034       -3332.115          44.000    24260487.925   100832187.727       -2591.708          43.000  
R18  23395019.471   124884438.663        1814.997          51.000    23395014.813    97132306.498        1411.648          43.000  
E19  26449279.675   138992083.944       -3288.398          42.000    26449282.401   106500503.970       -2519.756          46.000  
S31  40101182.138   210733139.745        -799.085          45.000  
E21  27385447.829   143911906.744       -2931.354          43.000    27385448.653   110270366.393       -2246.132          50.000  
G22  23914271.916   125670725.537       -3730.302          45.000                                                                  
E04  25021333.507   131488034.401        -472.034          49.000    25021333.238   100750679.599        -361.673          52.000  
E26                                                                  29567953.307                1       1145.766          28.000  
G14                                                                  26258137.577                3      -3047.587          21.000  
> 2024 04 08 23 16 30.0040000  0 24                     
S33  41057995.538   215761228.811        -799.737          44.000  
G24  23002759.202   120880423.017        1067.819          47.000    23002756.974    94192620.159         832.043          47.000  
E09  28055718.857   147433724.705        1662.469          35.000    28055719.736   112968805.966        1273.863          39.000  
G15  22056478.547   115907556.152       -1593.597          48.000    22056474.771    90317638.462       -1241.815          46.000  
R06  21437491.687   114394607.232       -2024.430          41.000                                                                  
R07  23061093.576   123447878.252        1757.125          48.000    23061089.738    96015002.226        1366.715          48.000  
R05  24066729.434   128650257.035       -5243.623          47.000    24066740.712   100061305.150       -4078.394          45.000  
R16  21645186.341   115625194.109       -1680.219          50.000    21645181.809    89930900.131       -1306.929          48.000  
R09  22842842.510   121979780.619         846.979          50.000    22842839.558    94873243.907         658.778          49.000  
G19  22559281.904   118550237.892       -1326.591          48.000                                                                  
G13  22392488.847   117673529.409       -3226.738          50.000                                                                  
G17  23412369.014   123033272.071       -2618.736          45.000    23412363.894    95870299.498       -2041.036          41.000  
E31  26650960.580   140052032.229         759.616          46.000    26650964.189   107312655.532         582.172          51.000  
G12  23656341.281   124315207.265        1094.720          47.000    23656338.617    96869165.072         852.953          44.000  
R17  23876597.076   127768543.828       -1244.333          48.000    23876590.160    99375489.594        -967.836          46.000  
R15  24279195.986   129741054.653       -3331.335          44.000    24279191.723   100909926.306       -2591.004          44.000  
R18  23384864.328   124830232.522        1798.622          51.000    23384860.620    97090146.203        1398.775          45.000  
E19  26468075.465   139090852.772       -3296.413          42.000    26468077.820   106576183.842       -2525.931          46.000  
S31  40105744.858   210757115.089        -799.529          45.000  
E21  27402183.534   143999853.867       -2932.031          43.000    27402184.924   110337754.455       -2246.593          51.000  
G22  23935579.341   125782695.314       -3734.497          45.000                                                                  
E04  25024066.242   131502393.071        -485.537          49.000    25024065.573   100761681.708        -372.052          52.000  
E26                                                                  29559413.506                        1145.719          26.000  
G14                                                                  26280528.556                3      -3051.399          22.000  
> 2024 04 08 23 17 00.0040000  0 23                     
S33  41062561.532   215785223.553        -800.151          44.000  
G24  22996675.884   120848451.735        1063.135          47.000    22996672.762    94167707.511         828.469          47.000  
E09  28046246.842   147383954.968        1655.596          35.000    28046248.660   112930670.762        1268.515          39.000  
G15  22065628.498   115955637.791       -1612.177          48.000    22065624.618    90355104.622       -1256.232          46.000  
R06  21448945.998   114455734.167       -2050.720          41.000                                                                  
R07  23051307.338   123395484.325        1735.458          48.000    23051301.515    95974251.441        1349.684          48.000  
R05  24096169.644   128807630.465       -5248.019          47.000    24096181.456   100183706.003       -4082.030          45.000  
R16  21654636.840   115675679.195       -1685.634          50.000    21654633.081    89970166.384       -1311.165          49.000  
R09  22838100.775   121954463.643         840.579          51.000    22838098.146    94853553.038         653.837          49.000  
G19  22566913.065   118590340.306       -1347.183          48.000                                                                  
G13  22410951.947   117770553.793       -3241.801          49.000                                                                  
G17  23427372.750   123112112.947       -2637.618          45.000    23427366.893    95931733.966       -2055.308          41.000  
E31  26646642.092   140029339.162         752.834          46.000    26646645.897   107295267.523         576.873          51.000  
G12  23650120.167   124282516.688        1084.324          47.000    23650117.481    96843692.049         845.206          44.000  
R17  23883643.376   127806251.683       -1269.866          46.000    23883637.401    99404817.947        -987.694          46.000  
R15  24297894.956   129840978.526       -3330.736          45.000    24297891.395   100987644.914       -2590.524          43.000  
R18  23374802.073   124776519.793        1781.904          51.000    23374799.410    97048369.739        1386.077          46.000  
E19  26486917.798   139189869.921       -3304.823          43.000    26486920.269   106652054.008       -2532.346          46.000  
S31  40110308.805   210781102.313        -799.873          44.000  
E21  27418924.156   144087822.097       -2932.711          43.000    27418923.701   110405158.739       -2247.177          50.000  
G22  23956910.089   125894791.168       -3738.844          45.000                                                                  
E04  25026876.332   131517159.038        -499.243          49.000    25026875.323   100772995.912        -382.530          52.000  
E26                                                                  29550874.648                3       1146.358          23.000  
> 2024 04 08 23 17 30.0040000  0 23                     
S33  41067129.465   215809227.540        -800.243          45.000  
G24  22990616.819   120816611.322        1059.000          48.000    22990614.066    94142896.858         825.091          48.000  
E09  28036812.141   147334378.551        1649.291          36.000    28036814.596   112892683.682        1263.717          41.000  
G15  22074882.332   116004268.338       -1630.212          49.000    22074878.124    90392998.570       -1270.514          44.000  
R06  21460548.270   114517644.391       -2076.988          40.000                                                                  
R07  23041641.562   123343739.825        1713.967          48.000    23041635.565    95934005.773        1332.942          49.000  
R05  24125632.740   128965126.950       -5251.938          47.000    24125644.940   100306202.528       -4084.989          44.000  
R16  21664116.920   115726319.091       -1690.541          51.000    21664113.445    90009552.974       -1314.882          48.000  
R09  22833394.719   121929330.704         834.709          52.000    22833391.569    94834005.347         649.248          49.000  
G19  22574660.648   118631054.049       -1367.336          48.000                                                                  
G13  22429499.798   117868024.866       -3256.535          49.000                                                                  
G17  23442481.810   123191509.922       -2655.959          45.000    23442474.872    95993601.749       -2069.447          40.000  
E31  26642362.359   140006846.962         746.387          47.000    26642365.689   107278033.397         571.945          51.000  
G12  23643956.168   124250126.270        1074.556          45.000    23643953.622    96818452.926         837.403          45.000  
R17  23890832.003   127844718.015       -1294.851          45.000    23890826.031    99434736.189       -1007.151          45.000  
R15  24316589.580   129940874.220       -3329.520          44.000    24316585.784   101065341.539       -2589.602          45.000  
R18  23364834.519   124723302.427        1765.568          52.000    23364828.953    97006978.530        1373.275          45.000  
E19  26505806.594   139289131.821       -3312.829          43.000    26505809.914   106728111.681       -2538.221          47.000  
S31  40114875.631   210805099.177        -800.005          44.000  
E21  27435666.029   144175808.231       -2933.132          42.000    27435667.571   110472576.679       -2247.492          50.000  
G22  23978263.335   126007008.485       -3742.523          44.000                                                                  
E04  25029763.524   131532330.487        -512.494          49.000    25029762.328   100784620.781        -392.652          52.000  
E26                                                                  29542334.366                3       1145.656          24.000  
> 2024 04 08 23 18 00.0040000  0 24                     
S33  41071697.905   215833234.930        -800.649          44.000  
G24  22984581.792   120784897.672        1054.915          48.000    22984579.454    94118184.968         821.742          48.000  
E09  28027414.877   147284991.686        1642.706          37.000    28027416.339   112854841.840        1258.756          42.000  
G15  22084240.085   116053441.885       -1648.450          49.000    22084235.649    90431315.579       -1284.619          44.000  
R06  21472295.352   114580330.542       -2102.780          42.000                                                                  
R07  23032093.475   123292642.190        1692.146          45.000    23032089.571    95894263.223        1316.149          49.000  
R05  24155118.416   129122736.236       -5255.694          47.000    24155129.789   100428786.837       -4087.707          44.000  
R16  21673624.650   115777107.223       -1695.791          51.000    21673620.957    90049054.872       -1318.946          48.000  
R09  22828721.027   121904375.830         828.501          51.000    22828718.018    94814596.133         644.393          48.000  
R19  25018918.830                3       3087.067          31.000                                                                  
G19  22582522.617   118672372.985       -1387.742          47.000                                                                  
G13  22448131.515   117965935.688       -3271.323          49.000                                                                  
G17  23457694.706   123271455.620       -2674.329          43.000    23457689.957    96055897.142       -2083.762          41.000  
E31  26638118.346   139984549.909         739.571          46.000    26638122.524   107260948.784         566.828          51.000  
G12  23637848.678   124218030.287        1064.609          46.000    23637846.050    96793443.262         829.617          45.000  
R17  23898160.766   127883937.454       -1320.174          47.000    23898154.939    99465240.212       -1026.821          45.000  
R15  24335277.082   130040735.895       -3328.457          44.000    24335273.628   101143011.732       -2588.814          46.000  
R18  23354956.745   124670578.967        1748.876          52.000    23354953.579    96965971.473        1360.081          47.000  
E19  26524741.211   139388631.448       -3320.840          43.000    26524744.102   106804351.522       -2544.550          47.000  
S31  40119442.404   210829098.621        -800.321          45.000  
E21  27452408.257   144263805.837       -2933.700          38.000    27452412.592   110540003.430       -2247.992          50.000  
G22  23999639.330   126119340.371       -3746.619          43.000                                                                  
E04  25032727.042   131547902.554        -526.051          49.000    25032725.358   100796552.619        -403.146          52.000  
E26                                                                  29533790.558                        1147.193          27.000  
> 2024 04 08 23 18 30.0040000  0 24                     
S33  41076268.757   215857255.578        -801.317          44.000  
E26  29525242.419   155156173.9161       1496.374          28.000    29525246.711   118885939.2281       1146.619          32.000  
G24  22978572.727   120753321.512        1049.988          47.000    22978570.652    94093580.212         817.936          48.000  
E09  28018055.291   147235805.358        1636.073          38.000    28018056.478   112817153.698        1253.055          42.000  
G15  22093702.102   116103166.851       -1667.163          49.000    22093697.801    90470062.295       -1299.249          44.000  
R06  21484190.542   114643799.873       -2128.863          41.000                                                                  
R07  23022671.313   123242204.229        1669.686          47.000    23022667.049    95855033.758        1298.686          48.000  
R05  24184624.345   129280464.009       -5260.060          44.000    24184637.054   100551463.238       -4091.187          44.000  
R16  21683162.038   115828051.688       -1701.284          52.000    21683157.279    90088678.376       -1323.182          49.000  
R09  22824082.166   121879606.860         822.015          51.000    22824079.470    94795331.533         639.326          49.000  
R19  25001593.836   133741715.5481       3087.720          37.000    25001599.671   104021423.6753       2401.477          40.000  
G19  22590501.643   118714305.856       -1408.520          48.000                                                                  
G13  22466848.925   118064293.932       -3286.548          50.000                                                                  
G17  23473014.244   123351957.168       -2693.002          44.000    23473008.205    96118625.715       -2098.403          41.000  
E31  26633913.532   139962456.999         732.376          46.000    26633917.950   107244020.612         561.171          50.000  
G12  23631798.905   124186238.092        1053.957          48.000    23631796.578    96768670.293         821.448          45.000  
R17  23905632.728   127923919.084       -1345.969          46.000    23905627.142    99496337.077       -1046.834          45.000  
R15  24353959.787   130140573.037       -3327.852          42.000    24353957.291   101220662.797       -2588.487          47.000  
R18  23345174.183   124618363.235        1731.515          52.000    23345172.264    96925359.346        1346.761          47.000  
E19  26543722.441   139488376.529       -3329.507          43.000    26543725.267   106880779.425       -2551.134          47.000  
S31  40124011.770   210853111.110        -801.147          44.000  
E21  27469161.483   144351823.329       -2934.773          42.000    27469162.349   110607445.446       -2248.854          51.000  
G22  24021038.650   126231794.189       -3750.982          44.000                                                                  
E04  25035768.157   131563885.147        -540.184          49.000    25035766.640   100808799.041        -413.884          51.000  
> 2024 04 08 23 19 00.0040000  0 24                     
S33  41080843.824   215881298.440        -801.787          45.000  
E26  29516698.964                        1496.390          30.000    29516703.659                        1146.927          32.000  
G24  22972592.306   120721894.440        1045.007          47.000    22972590.029    94069091.602         814.342          47.000  
E09  28008735.643   147186831.465        1628.922          38.000    28008737.129   112779628.295        1248.138          43.000  
G15  22103270.878   116153452.673       -1685.541          48.000    22103266.856    90509246.019       -1313.397          45.000  
R06  21496232.427   114708060.263       -2155.223          40.000                                                                  
R07  23013375.398   123192439.752        1647.679          47.000    23013370.130    95816328.089        1281.483          48.000  
R05  24214154.137   129438316.665       -5263.524          41.000    24214166.670   100674236.841       -4093.893          43.000  
R16  21692729.457   115879162.058       -1706.311          51.000    21692725.459    90128430.917       -1327.198          49.000  
R09  22819481.099   121855034.076         815.907          52.000    22819477.279    94776219.497         634.524          49.000  
R19  24984270.801   133649078.724        3087.989          41.000    24984278.648   103949373.730        2401.697          43.000  
G19  22598601.112   118756862.316       -1428.850          48.000                                                                  
G13  22485651.983   118163107.624       -3301.379          49.000                                                                  
G17  23488440.605   123433022.941       -2711.456          43.000    23488433.870    96181793.852       -2112.764          40.000  
E31  26629750.621   139940578.171         725.832          46.000    26629754.235   107227256.454         556.118          50.000  
G12  23625809.222   124154759.810        1044.124          48.000    23625806.742    96744141.933         813.507          43.000  
R17  23913247.974   127964673.445       -1371.403          45.000    23913241.166    99528034.964       -1066.650          44.000  
R15  24372640.938   130240395.633       -3326.973          42.000    24372638.172   101298302.573       -2587.682          47.000  
R18  23335490.110   124566669.601        1714.424          51.000    23335487.869    96885153.316        1333.437          47.000  
E19  26562752.506   139588376.216       -3337.602          44.000    26562754.438   106957402.449       -2557.256          46.000  
S31  40128585.643   210877146.390        -801.512          44.000  
E21  27485916.166   144439870.071       -2935.365          41.000    27485916.961   110674909.825       -2249.174          51.000  
G22  24042463.411   126344378.324       -3754.983          44.000                                                                  
E04  25038889.749   131580289.026        -553.796          49.000    25038888.204   100821368.262        -424.328          51.000  
> 2024 04 08 23 19 30.0040000  0 24                     
S33  41085420.951   215905352.625        -802.056          44.000  
E26  29508155.865                        1496.136          28.000    29508161.251   118817149.874        1146.404          37.000  
G24  22966638.184   120690605.557        1040.480          47.000    22966635.637    94044710.709         810.910          47.000  
E09  27999454.994   147138059.476        1622.627          39.000    27999455.963   112742257.594        1243.176          43.000  
G15  22112944.501   116204286.201       -1703.479          49.000    22112939.962    90548856.520       -1327.423          46.000  
R06  21508420.058   114773097.379       -2180.426          39.000                                                                  
R07  23004204.020   123143339.662        1625.597          48.000    23004197.729    95778139.160        1264.536          47.000  
R05  24243703.360   129596277.210       -5267.109          34.000    24243716.840   100797094.289       -4096.402          42.000  
R16  21702325.806   115930424.746       -1711.181          50.000    21702322.678    90168301.909       -1330.914          49.000  
R09  22814913.671   121830644.433         809.969          50.000    22814910.204    94757249.885         630.039          49.000  
R19  24966950.503   133556438.924        3088.172          40.000    24966959.720   103877321.433        2401.563          43.000  
G19  22606815.222   118800029.241       -1449.010          47.000                                                                  
G13  22504540.007   118262362.825       -3315.813          49.000                                                                  
G17  23503970.969   123514638.518       -2729.527          44.000    23503965.973    96245390.377       -2126.899          43.000  
E31  26625625.497   139918900.867         719.200          46.000    26625629.005   107210646.732         551.154          49.000  
G12  23619876.437   124123583.126        1034.428          48.000    23619872.754    96719848.550         805.712          43.000  
R17  23921007.411   128006187.955       -1396.445          47.000    23920999.451    99560324.039       -1086.033          42.000  
R15  24391317.552   130340191.214       -3326.007          44.000    24391313.167   101375921.396       -2586.858          46.000  
R18  23325901.671   124515490.012        1697.415          50.000    23325900.601    96845347.004        1320.316          49.000  
E19  26581827.361   139688616.881       -3345.433          44.000    26581829.524   107034210.128       -2563.317          46.000  
S31  40133161.325   210901192.578        -801.460          45.000  
E21  27502674.376   144527932.956       -2935.561          41.000    27502674.532   110742386.583       -2249.381          50.000  
G22  24063909.808   126457078.888       -3758.635          45.000                                                                  
E04  25042088.711   131597102.595        -567.286          48.000    25042087.254   100834251.406        -434.733          51.000  
> 2024 04 08 23 20 00.0040000  0 24                     
S33  41089999.181   215929411.095        -802.231          44.000  
E26  29499610.728   155021519.284        1496.663          33.000    29499618.003   118782752.005        1146.452          40.000  
G24  22960708.940   120659450.268        1036.027          47.000    22960706.607    94020433.900         807.209          47.000  
E09  27990210.792   147089485.040        1615.480          39.000    27990212.459   112705038.292        1237.973          43.000  
G15  22122720.710   116255660.610       -1721.710          49.000    22122716.073    90588888.484       -1341.589          45.000  
R06  21520751.608   114838902.719       -2206.418          39.000                                                                  
R07  22995155.752   123094900.604        1603.311          47.000    22995148.233    95740464.427        1247.068          46.000  
R05  24273273.598   129754335.846       -5270.383          41.000    24273284.718   100920027.968       -4099.136          41.000  
R16  21711948.861   115981832.710       -1716.114          50.000    21711946.285    90208285.930       -1334.859          50.000  
R09  22810378.594   121806430.963         803.951          50.000    22810376.190    94738417.289         625.332          49.000  
R19  24949630.781   133463793.890        3087.720          39.000    24949640.683   103805265.061        2401.563          44.000  
G19  22615144.329   118843799.825       -1469.331          47.000                                                                  
G13  22523510.230   118362051.792       -3330.485          49.000                                                                  
G17  23519605.314   123596795.996       -2747.994          44.000    23519598.933    96309409.211       -2141.251          41.000  
E31  26621537.200   139897418.793         712.602          46.000    26621540.892   107194186.575         545.967          49.000  
G12  23614000.347   124092702.145        1024.108          50.000    23613996.698    96695785.560         798.113          43.000  
R17  23928905.723   128048456.235       -1421.792          46.000    23928898.072    99593199.365       -1105.725          43.000  
R15  24409985.317   130439953.563       -3325.134          42.000    24409981.606   101453514.355       -2586.216          46.000  
R18  23316410.265   124464822.637        1680.066          50.000    23316408.197    96805939.098        1306.761          47.000  
E19  26600946.878   139789091.206       -3353.181          43.000    26600949.505   107111196.818       -2569.373          46.000  
S31  40137737.709   210925243.239        -802.014          44.000  
E21  27519433.454   144616005.087       -2936.139          40.000    27519434.128   110809870.429       -2249.801          50.000  
G22  24085375.870   126569887.663       -3762.335          45.000                                                                  
E04  25045365.234   131614320.365        -581.007          48.000    25045363.750   100847444.236        -445.098          51.000  
> 2024 04 08 23 20 30.0050000  0 24                     
S33  41094579.033   215953476.041        -802.250          45.000  
E26  29491072.259   154976624.404        1496.005          37.000    29491074.312   118748352.395        1146.553          42.000  
G24  22954806.419   120628430.157        1031.499          48.000    22954803.662    93996262.420         803.737          46.000  
E09  27981005.540   147041109.460        1608.765          39.000    27981007.017   112667971.349        1232.831          44.000  
G15  22132600.414   116307578.036       -1739.630          48.000    22132595.702    90629343.588       -1355.604          45.000  
R06  21533228.192   114905477.620       -2231.812          40.000                                                                  
R07  22986230.417   123047125.468        1581.260          46.000    22986222.531    95703306.040        1229.711          46.000  
R05  24302861.345   129912494.261       -5273.267          43.000    24302871.182   101043039.458       -4101.664          40.000  
R16  21721601.351   116033387.918       -1720.921          52.000    21721597.212    90248384.455       -1338.519          50.000  
R09  22805877.614   121782393.041         798.195          51.000    22805874.789    94719721.251         620.890          49.000  
R19  24932310.100   133371146.191        3087.804          37.000    24932319.870   103733206.677        2401.864          43.000  
G19  22623588.484   118888176.354       -1489.313          46.000                                                                  
G13  22542563.489   118462177.009       -3344.771          49.000                                                                  
G17  23535342.142   123679497.325       -2765.706          44.000    23535337.018    96373851.813       -2155.037          43.000  
E31  26617485.985   139876132.165         706.042          46.000    26617489.757   107177876.179         541.011          49.000  
G12  23608179.453   124062116.447        1014.263          49.000    23608176.362    96671952.722         790.604          43.000  
R17  23936946.358   128091480.995       -1446.739          46.000    23936938.839    99626663.102       -1125.276          44.000  
R15  24428648.698   130539686.943       -3324.085          42.000    24428645.618   101531084.782       -2585.341          45.000  
R18  23307014.405   124414671.077        1662.780          50.000    23307013.240    96766932.399        1293.265          47.000  
E19  26620112.274   139889802.128       -3361.059          44.000    26620113.972   107188364.796       -2575.344          46.000  
S31  40142315.786   210949299.944        -802.101          43.000  
E21  27536195.166   144704089.755       -2936.407          40.000    27536195.209   110877363.868       -2249.901          49.000  
G22  24106864.845   126682808.232       -3765.908          46.000                                                                  
E04  25048719.485   131631944.636        -594.474          48.000    25048717.662   100860948.556        -455.481          51.000  
> 2024 04 08 23 21 00.0050000  0 24                     
S33  41099159.839   215977550.692        -802.703          44.000  
E26  29482527.952   154931736.432        1495.809          37.000    29482532.394   118713958.127        1146.492          45.000  
G24  22948930.570   120597552.936        1026.870          47.000    22948928.022    93972202.297         800.162          46.000  
E09  27971839.576   146992941.814        1602.413          40.000    27971841.016   112631063.801        1227.644          44.000  
G15  22142583.625   116360038.404       -1757.685          49.000    22142578.674    90670221.764       -1369.641          46.000  
R06  21545849.028   114972819.497       -2257.529          41.000                                                                  
R07  22977430.637   123000024.913        1558.882          47.000    22977425.429    95666672.361        1212.453          47.000  
R05  24332464.926   130070742.632       -5276.623          43.000    24332475.991   101166120.852       -4103.709          36.000  
R16  21731280.494   116085090.274       -1725.837          52.000    21731276.161    90288597.450       -1342.303          50.000  
R09  22801410.455   121758536.236         792.220          51.000    22801406.428    94701166.089         616.135          49.000  
R19  24914992.288   133278510.494        3087.622          38.000    24915001.765   103661157.614        2401.630          44.000  
G19  22632148.439   118933159.457       -1509.617          46.000                                                                  
G13  22561698.284   118562734.540       -3359.223          48.000                                                                  
G17  23551182.453   123762739.063       -2783.632          45.000    23551176.639    96438715.519       -2169.107          43.000  
E31  26613472.573   139855046.302         699.559          47.000    26613477.249   107161719.610         535.945          49.000  
G12  23602415.621   124031832.393        1004.544          48.000    23602413.525    96648354.897         782.534          43.000  
R17  23945127.153   128135263.110       -1472.021          45.000    23945121.515    99660715.942       -1145.076          42.000  
R15  24447306.916   130639389.088       -3323.177          43.000    24447302.497   101608630.888       -2584.399          42.000  
R18  23297717.790   124365047.158        1645.393          50.000    23297716.868    96728336.132        1279.693          48.000  
E19  26639320.435   139990745.919       -3368.463          43.000    26639323.176   107265711.190       -2581.215          46.000  
S31  40146895.592   210973366.645        -802.278          45.000  
E21  27552960.037   144792184.484       -2936.924          41.000    27552959.588   110944865.028       -2250.194          50.000  
G22  24128372.497   126795835.440       -3769.328          46.000                                                                  
E04  25052151.172   131649979.045        -607.764          49.000    25052149.755   100874767.145        -465.727          52.000  
> 2024 04 08 23 21 30.0050000  0 25                     
S33  41103742.467   216001632.214        -802.747          45.000  
E26  29473985.798   154886853.334        1496.059          40.000    29473990.804   118679567.635        1146.224          46.000  
G24  22943081.916   120566816.398        1022.212          48.000    22943079.108    93948251.784         796.409          47.000  
E09  27962711.775   146944979.633        1595.494          41.000    27962713.754   112594313.628        1222.419          44.000  
G15  22152669.301   116413040.109       -1775.630          48.000    22152665.079    90711521.759       -1383.699          46.000  
R06  21558612.238   115040925.667       -2282.778          41.000                                                                  
R07  22968757.512   122953597.707        1536.257          45.000    22968753.403    95630562.356        1194.938          47.000  
R05  24362085.016   130229079.180       -5279.166          43.000    24362097.893   101289270.813       -4105.827          39.000  
R16  21740986.089   116136937.868       -1730.592          51.000    21740982.375    90328923.383       -1346.003          50.000  
R09  22796975.428   121734856.169         786.438          50.000    22796971.142    94682748.352         611.708          47.000  
R19  24897677.208   133185885.718        3087.416          39.000    24897685.808   103589117.044        2401.263          45.000  
G19  22640823.637   118978747.046       -1529.725          46.000                                                                  
G13  22580916.349   118663723.298       -3373.373          49.000                                                                  
G17  23567124.745   123846519.313       -2801.812          45.000    23567119.047    96503998.834       -2183.167          41.000  
E31  26609499.157   139834157.578         693.075          47.000    26609501.774   107145714.102         531.060          49.000  
G12  23596708.960   124001846.199         994.509          47.000    23596706.909    96624989.193         775.061          44.000  
R17  23953449.687   128179801.360       -1497.148          46.000    23953444.956    99695356.729       -1164.340          44.000  
R15  24465961.295   130739060.679       -3321.834          44.000    24465954.853   101686153.260       -2583.625          44.000  
R18  23288521.773   124315950.745        1627.787          50.000    23288519.153    96690150.097        1266.084          47.000  
E19  26658574.201   140091921.897       -3376.175          43.000    26658576.013   107343235.491       -2587.007          46.000  
S31  40151476.588   210997439.896        -802.268          44.000  
E21  27569722.960   144880288.693       -2937.066          38.000    27569725.314   111012373.441       -2250.268          50.000  
G22  24149902.008   126908968.937       -3772.835          46.000                                                                  
E04  25055660.294   131668422.119        -621.503          48.000    25055659.320   100888898.849        -476.240          52.000  
G06                                                                  26542269.493                3       1258.469          25.000  
> 2024 04 08 23 22 00.0050000  0 25                     
S33  41108325.555   216025716.108        -802.927          45.000  
E26  29465445.946   154841971.759        1495.816          42.000    29465449.939   118645178.270        1146.128          46.000  
G24  22937258.632   120536216.474        1017.419          48.000    22937256.581    93924407.732         792.733          47.000  
E09  27953623.706   146897219.139        1588.290          42.000    27953625.099   112557718.028        1217.164          45.000  
G15  22162856.894   116466576.244       -1793.684          48.000    22162852.859    90753238.201       -1397.694          46.000  
R06  21571516.857   115109788.041       -2308.258          39.000                                                                  
R07  22960209.417   122907841.471        1513.707          46.000    22960205.296    95594974.170        1177.387          47.000  
R05  24391720.037   130387494.321       -5282.155          43.000    24391734.022   101412481.884       -4107.971          41.000  
R16  21750717.899   116188923.866       -1735.422          51.000    21750714.079    90369356.957       -1349.778          50.000  
R09  22792572.294   121711346.757         780.519          51.000    22792568.965    94664463.384         607.104          49.000  
R19  24880363.601   133093270.224        3086.845          38.000    24880371.397   103517083.729        2400.849          44.000  
G19  22649612.506   119024932.764       -1549.668          45.000                                                                  
G13  22600214.175   118765135.551       -3387.686          49.000                                                                  
G17  23583169.113   123930830.408       -2819.466          47.000    23583163.208    96569695.788       -2196.868          42.000  
E31  26605560.090   139813460.259         686.592          47.000    26605563.679   107129855.225         526.067          49.000  
G12  23591058.097   123972152.482         984.626          48.000    23591056.075    96601851.342         767.363          43.000  
R17  23961913.431   128225089.586       -1522.189          45.000    23961906.318    99730581.001       -1184.102          41.000  
R15  24484606.348   130838695.766       -3320.998          46.000    24484600.486   101763647.150       -2582.839          39.000  
R18  23279422.570   124267380.310        1610.021          50.000    23279418.762    96652373.187        1252.359          46.000  
E19  26677870.838   140193323.357       -3383.934          44.000    26677872.169   107420932.559       -2592.867          45.000  
S31  40156057.684   211021515.520        -802.896          44.000  
E21  27586491.520   144968396.123       -2937.271          41.000    27586490.958   111079884.356       -2250.536          49.000  
G22  24171448.714   127022200.881       -3776.368          46.000                                                                  
E04  25059246.819   131687268.886        -635.077          48.000    25059246.109   100903339.868        -486.662          52.000  
G06                                                                  26533044.617                        1258.002          27.000  
> 2024 04 08 23 22 30.0050000  0 25                     
S33  41112909.262   216049802.153        -803.020          44.000  
E26  29456907.061   154797094.636        1495.751          43.000    29456909.726   118610792.338        1146.044          44.000  
G24  22931462.449   120505755.673        1012.919          48.000    22931459.769    93900672.088         789.371          46.000  
E09  27944573.601   146849663.010        1581.869          41.000    27944575.647   112521279.014        1211.805          45.000  
G15  22173146.437   116520647.314       -1811.379          48.000    22173142.452    90795371.475       -1411.409          46.000  
R06  21584563.091   115179405.039       -2333.289          41.000                                                                  
R07  22951789.294   122862760.150        1491.451          47.000    22951782.717    95559910.989        1160.094          46.000  
R05  24421370.171   130545985.133       -5284.247          46.000    24421384.021   101535751.966       -4110.166          39.000  
R16  21760475.373   116241048.737       -1739.882          50.000    21760471.458    90409898.554       -1353.212          49.000  
R09  22788201.446   121688008.131         775.051          50.000    22788199.136    94646311.207         602.755          51.000  
R19  24863052.053   133000669.265        3086.216          38.000    24863060.261   103445061.684        2400.512          45.000  
G19  22658514.489   119071716.898       -1569.549          45.000                                                                  
G13  22619593.596   118866970.562       -3401.554          49.000                                                                  
G17  23599314.093   124015671.302       -2836.908          48.000    23599308.086    96635805.654       -2210.787          43.000  
E31  26601658.837   139792954.967         680.295          48.000    26601661.515   107114143.518         521.359          50.000  
G12  23585463.982   123942751.957         975.100          48.000    23585461.164    96578941.968         759.700          44.000  
R17  23970515.405   128271128.512       -1547.217          44.000    23970511.332    99766389.034       -1203.421          44.000  
R15  24503243.140   130938295.167       -3319.406          41.000    24503239.361   101841113.405       -2581.647          43.000  
R18  23270422.838   124219341.171        1592.264          50.000    23270420.828    96615009.495        1238.496          46.000  
E19  26697209.919   140294949.576       -3391.232          44.000    26697211.135   107498801.858       -2598.567          46.000  
S31  40160639.473   211045593.616        -802.577          45.000  
E21  27603257.476   145056506.978       -2937.062          39.000    27603258.357   111147397.881       -2250.590          50.000  
G22  24193013.720   127135530.740       -3779.347          43.000                                                                  
E04  25062909.872   131706520.841        -648.542          48.000    25062909.299   100918091.365        -496.999          52.000  
G06                                                                  26523829.495                        1258.019          27.000  
> 2024 04 08 23 23 00.0050000  0 25                     
S33  41117492.842   216073889.617        -803.393          44.000  
E26  29448368.378   154752221.624        1495.394          43.000    29448370.202   118576409.514        1145.796          44.000  
G24  22925692.075   120475433.027        1008.071          48.000    22925689.086    93877044.071         785.516          46.000  
E09  27935563.770   146802310.566        1574.626          43.000    27935564.266   112484996.039        1206.611          45.000  
G15  22183536.307   116575249.894       -1829.165          48.000    22183533.371    90837918.925       -1425.307          46.000  
R06  21597749.646   115249771.791       -2358.317          41.000                                                                  
R07  22943495.408   122818354.419        1468.639          50.000    22943487.725    95525373.256        1142.157          47.000  
R05  24451033.923   130704545.194       -5286.838          46.000    24451045.734   101659075.800       -4111.805          41.000  
R16  21770259.980   116293308.765       -1744.473          52.000    21770254.411    90450545.288       -1356.809          49.000  
R09  22783861.177   121664837.292         769.292          50.000    22783859.887    94628289.539         598.331          50.000  
R19  24845743.322   132908085.005        3085.647          37.000    24845750.962   103373052.638        2399.907          45.000  
G19  22667531.450   119119096.124       -1589.536          46.000                                                                  
G13  22639051.452   118969224.140       -3415.611          49.000                                                                  
G17  23615558.771   124101037.329       -2854.614          48.000    23615553.240    96702324.607       -2224.176          44.000  
E31  26597792.572   139772639.052         673.742          47.000    26597795.646   107098576.927         516.290          50.000  
G12  23579924.331   123913641.871         965.335          48.000    23579921.931    96556258.933         752.219          43.000  
R17  23979259.530   128317915.520       -1572.458          45.000    23979254.543    99802778.860       -1222.946          43.000  
R15  24521873.870   131037856.764       -3318.309          41.000    24521870.977   101918550.203       -2580.947          41.000  
R18  23261523.150   124171834.880        1574.321          51.000    23261522.700    96578060.258        1224.428          47.000  
E19  26716590.580   140396796.999       -3398.860          43.000    26716592.102   107576840.633       -2604.218          45.000  
S31  40165221.104   211069672.036        -802.765          44.000  
G06  26514606.627                1       1613.969          30.000    26514610.828   108572883.4441       1257.565          31.000  
E21  27620025.477   145144618.063       -2937.322          39.000    27620025.081   111214911.571       -2250.651          49.000  
G22  24214597.568   127248954.564       -3782.661          44.000                                                                  
E04  25066650.508   131726176.119        -662.262          47.000    25066649.668   100933151.885        -507.310          52.000  
> 2024 04 08 23 23 30.0050000  0 25                     
S33  41122077.432   216097981.443        -803.647          45.000  
E26  29439830.139   154707359.141        1494.953          43.000    29439833.116   118542034.797        1145.496          46.000  
G24  22919949.162   120445254.269        1003.102          48.000    22919946.186    93853528.208         781.528          46.000  
E09  27926592.654   146755167.756        1567.514          42.000    27926593.295   112448873.717        1201.111          45.000  
G15  22194028.697   116630387.235       -1847.217          48.000    22194025.537    90880883.058       -1439.380          46.000  
R06  21611076.837   115320890.273       -2383.394          40.000                                                                  
R07  22935326.771   122774631.653        1445.718          48.000    22935320.078    95491366.689        1124.296          47.000  
R05  24480709.298   130863174.707       -5289.121          44.000    24480722.149   101782453.657       -4113.678          41.000  
R16  21780068.775   116345707.817       -1749.344          51.000    21780064.135    90491300.088       -1360.667          50.000  
R09  22779555.094   121641837.851         763.379          51.000    22779552.029    94610401.196         593.748          50.000  
R19  24828439.877   132815526.147        3084.568          36.000    24828447.916   103301063.396        2398.848          46.000  
G19  22676660.587   119167074.109       -1609.656          46.000                                                                  
G13  22658589.798   119071898.618       -3429.852          48.000                                                                  
G17  23631904.071   124186930.471       -2872.292          48.000    23631898.208    96769254.339       -2237.959          44.000  
E31  26593962.386   139752516.404         667.123          46.000    26593966.448   107083158.436         511.164          50.000  
G12  23574440.434   123884826.411         955.115          47.000    23574437.858    96533805.468         744.340          44.000  
R17  23988144.478   128365453.994       -1597.489          46.000    23988137.419    99839753.268       -1242.463          44.000  
R15  24540502.103   131137384.812       -3317.428          42.000    24540497.424   101995961.032       -2580.295          41.000  
R18  23252725.249   124124869.866        1556.031          51.000    23252722.219    96541532.021        1210.316          46.000  
E19  26736013.711   140498868.509       -3406.368          43.000    26736015.531   107655051.115       -2610.248          45.000  
S31  40169803.993   211093755.356        -803.005          44.000  
G06  26505391.643                1       1613.056          31.000    26505397.370   108535161.059        1256.731          35.000  
E21  27636794.699   145232732.831       -2937.523          41.000    27636792.769   111282428.049       -2250.863          49.000  
G22  24236200.063   127362474.732       -3785.900          45.000                                                                  
E04  25070468.763   131746239.461        -675.958          48.000    25070467.645   100948525.117        -518.020          52.000  
> 2024 04 08 23 24 00.0050000  0 26                     
S33  41126663.603   216122083.150        -803.525          44.000  
E26  29431296.287   154662514.947        1494.584          41.000    29431298.946   118507674.026        1145.241          45.000  
G24  22914234.948   120415226.559         998.473          47.000    22914231.787    93830130.023         778.099          46.000  
E09  27917662.886   146708242.003        1560.692          42.000    27917663.642   112412917.697        1195.746          46.000  
G15  22204623.576   116686064.192       -1864.813          49.000    22204620.155    90924267.653       -1453.101          46.000  
R06  21624545.630   115392763.757       -2408.496          41.000                                                                  
R07  22927286.870   122731600.621        1422.818          48.000    22927281.619    95457898.118        1106.619          47.000  
R05  24510397.404   131021875.441       -5291.200          43.000    24510411.415   101905886.935       -4115.607          41.000  
R16  21789904.379   116398250.350       -1753.780          51.000    21789900.277    90532166.516       -1363.990          50.000  
R09  22775281.523   121619014.892         757.867          51.000    22775277.128    94592650.109         589.491          49.000  
R19  24811142.185   132723002.705        3083.402          37.000    24811150.318   103229101.677        2398.320          44.000  
G19  22685905.155   119215655.460       -1629.252          46.000                                                                  
G13  22678209.481   119174997.922       -3443.701          49.000                                                                  
G17  23648349.286   124273354.464       -2889.508          47.000    23648344.634    96836597.734       -2251.634          45.000  
E31  26590170.550   139732592.460         661.008          46.000    26590174.582   107067892.192         506.292          50.000  
G12  23569015.237   123856311.428         945.529          49.000    23569011.050    96511586.152         736.835          43.000  
R17  23997168.929   128413749.867       -1622.302          43.000    23997161.595    99877316.705       -1261.862          44.000  
R15  24559123.862   131236885.199       -3316.401          41.000    24559116.736   102073350.192       -2579.152          39.000  
R18  23244030.431   124078456.006        1537.951          52.000    23244027.954    96505432.484        1196.182          46.000  
E19  26755480.540   140601168.221       -3413.743          43.000    26755482.903   107733436.433       -2615.773          45.000  
S31  40174389.019   211117848.822        -803.486          44.000  
G06  26496182.692   139238402.7571       1612.474          34.000    26496190.282   108497463.491        1256.227          40.000  
E21  27653563.098   145320856.139       -2937.336          40.000    27653561.835   111349951.104       -2250.840          49.000  
G22  24257820.528   127476095.675       -3789.030          43.000                                                                  
E04  25074365.813   131766717.059        -689.433          48.000    25074364.509   100964215.743        -528.330          52.000  
E13                                                                  29701613.033                3        294.425          25.000  
> 2024 04 08 23 24 30.0050000  0 25                     
S33  41131252.390   216146195.811        -803.975          44.000  
E26  29422767.216   154617692.006        1493.590          42.000    29422768.883   118473329.544        1144.432          44.000  
G24  22908549.929   120385352.234         993.187          47.000    22908546.741    93806851.379         773.809          46.000  
E09  27908775.387   146661535.833        1553.275          43.000    27908775.616   112377129.933        1190.106          46.000  
G15  22215321.813   116742280.124       -1882.953          49.000    22215317.670    90968072.225       -1467.273          45.000  
R06  21638156.614   115465390.474       -2433.837          41.000                                                                  
R07  22919377.050   122689265.130        1399.526          48.000    22919372.406    95424970.541        1088.493          47.000  
R05  24540099.161   131180643.997       -5293.384          42.000    24540113.455   102029372.928       -4117.171          41.000  
R16  21799767.793   116450936.743       -1758.750          51.000    21799763.525    90573144.856       -1367.929          50.000  
R09  22771040.680   121596368.382         751.888          52.000    22771036.351    94575036.268         584.736          49.000  
R19  24793850.229   132630520.216        3081.762          38.000    24793860.860   103157171.803        2396.946          43.000  
G19  22695265.428   119264840.030       -1649.563          47.000                                                                  
G13  22697910.044   119278520.829       -3457.929          50.000                                                                  
G17  23664895.818   124360308.001       -2907.364          47.000    23664890.647    96904353.736       -2265.480          45.000  
E31  26586417.134   139712867.752         654.160          46.000    26586420.860   107052778.585         501.283          50.000  
G12  23563646.377   123828097.122         935.337          49.000    23563642.017    96489601.126         728.872          44.000  
R17  24006332.727   128462803.028       -1647.721          41.000    24006329.494    99915469.176       -1281.615          45.000  
R15  24577738.457   131336358.599       -3315.427          42.000    24577730.794   102150718.368       -2578.822          39.000  
R18  23235439.511   124032598.195        1519.205          51.000    23235438.307    96469765.412        1181.549          47.000  
E19  26774991.077   140703695.719       -3421.390          42.000    26774993.904   107811996.275       -2621.695          46.000  
S31  40178975.766   211141953.570        -803.561          44.000  
G06  26486986.689   139190059.361        1610.656          38.000    26486990.883   108459793.786        1254.908          43.000  
E21  27670335.308   145408988.053       -2937.738          42.000    27670333.000   111417480.763       -2251.148          49.000  
G22  24279462.714   127589816.295       -3792.457          44.000                                                                  
E04  25078341.833   131787610.239        -703.365          48.000    25078340.554   100980224.794        -538.941          52.000  
> 2024 04 08 23 25 00.0050000  0 25                     
S33  41135842.364   216170317.158        -804.191          44.000  
E26  29414240.218   154572888.822        1493.187          41.000    29414242.896   118439000.222        1144.037          45.000  
G24  22902893.688   120355629.238         988.274          46.000    22902891.107    93783690.626         770.089          47.000  
E09  27899928.790   146615047.402        1545.876          43.000    27899929.297   112341509.003        1184.526          46.000  
G15  22226121.370   116799030.799       -1900.604          49.000    22226117.089    91012293.497       -1481.030          45.000  
R06  21651906.674   115538763.950       -2457.889          40.000                                                                  
R07  22911598.723   122647624.481        1376.441          49.000    22911593.646    95392583.409        1070.581          46.000  
R05  24569811.975   131339472.977       -5295.208          44.000    24569825.897   102152905.948       -4118.361          40.000  
R16  21809656.487   116503762.127       -1763.122          51.000    21809652.101    90614231.293       -1371.395          50.000  
R09  22766832.241   121573893.945         746.298          52.000    22766828.456    94557556.249         580.475          50.000  
R19  24776570.017   132538079.192        3080.683          40.000    24776578.711   103085274.166        2396.043          44.000  
G19  22704739.070   119314623.474       -1669.473          47.000                                                                  
G13  22717689.130   119382461.816       -3471.636          49.000                                                                  
G17  23681542.485   124447785.153       -2924.654          47.000    23681537.004    96972517.769       -2278.927          45.000  
E31  26582700.765   139693338.339         647.792          47.000    26582704.399   107037814.662         496.344          50.000  
G12  23558333.796   123800180.048         925.669          49.000    23558329.158    96467847.712         721.206          44.000  
R17  24015641.905   128512609.444       -1672.795          43.000    24015637.315    99954207.452       -1300.984          45.000  
R15  24596345.731   131435801.450       -3314.508          40.000    24596340.780   102228062.773       -2577.812          41.000  
R18  23226952.846   123987296.913        1500.744          50.000    23226950.782    96434531.195        1167.303          46.000  
E19  26794544.341   140806446.084       -3428.697          43.000    26794546.822   107890726.906       -2627.253          46.000  
S31  40183564.420   211166065.746        -803.916          43.000  
G06  26477793.247   139141751.002        1609.725          40.000    26477797.025   108422151.408        1254.234          44.000  
E21  27687105.936   145497124.245       -2937.866          41.000    27687105.053   111485013.697       -2251.186          49.000  
G22  24301121.865   127703631.212       -3795.329          45.000                                                                  
E04  25082395.879   131808915.857        -717.071          48.000    25082394.932   100996549.875        -549.502          52.000  
> 2024 04 08 23 25 30.0050000  0 25                     
S33  41140432.392   216194438.198        -804.180          45.000  
E26  29405715.928   154528099.646        1492.648          41.000    29405719.636   118404681.586        1143.616          46.000  
G24  22897265.129   120326051.200         983.419          46.000    22897262.791    93760642.841         766.451          46.000  
E09  27891123.492   146568770.535        1538.792          44.000    27891122.619   112306050.175        1179.100          46.000  
G15  22237020.309   116856307.186       -1918.079          49.000    22237016.361    91056924.403       -1494.440          45.000  
R06  21665795.022   115612873.865       -2482.812          41.000                                                                  
R07  22903949.115   122606673.397        1353.455          50.000    22903943.701    95360732.628        1052.672          46.000  
R05  24599532.524   131498350.194       -5296.811          41.000    24599547.890   102276476.500       -4119.671          43.000  
R16  21819569.192   116556717.961       -1767.475          51.000    21819565.380    90655419.179       -1374.691          50.000  
R09  22762653.510   121551583.251         740.920          51.000    22762651.016    94540203.624         576.226          51.000  
R19  24759297.049   132445676.197        3079.307          41.000    24759304.245   103013406.133        2395.013          44.000  
G19  22714324.119   119364997.048       -1689.005          46.000                                                                  
G13  22737546.451   119486811.117       -3485.258          50.000                                                                  
G17  23698286.864   124535775.703       -2941.541          46.000    23698281.574    97041081.835       -2292.120          45.000  
E31  26579020.639   139673996.038         641.614          48.000    26579023.422   107022994.097         491.520          50.000  
G12  23553075.459   123772552.287         915.947          48.000    23553072.366    96446319.739         713.730          44.000  
R17  24025087.440   128563160.392       -1697.693          41.000    24025083.358    99993524.867       -1320.350          44.000  
R15  24614948.406   131535205.546       -3313.004          43.000    24614944.115   102305377.101       -2576.573          42.000  
R18  23218569.556   123942548.081        1482.245          50.000    23218566.773    96399726.645        1152.849          45.000  
E19  26814138.347   140909409.886       -3435.885          43.000    26814140.521   107969621.061       -2632.492          46.000  
S31  40188152.487   211190177.431        -803.891          43.000  
G06  26468605.891   139093472.865        1608.686          42.000    26468609.094   108384532.577        1253.487          43.000  
E21  27703876.683   145585256.040       -2937.806          41.000    27703875.720   111552543.259       -2251.084          49.000  
G22  24322795.523   127817530.900       -3798.186          43.000                                                                  
E04  25086526.854   131830626.489        -730.498          48.000    25086526.365   101013185.296        -559.728          53.000  
> 2024 04 08 23 26 00.0050000  0 26                     
S33  41145021.462   216218553.162        -803.764          44.000  
E26  29397195.408   154483322.080        1492.268          42.000    29397198.161   118370371.829        1143.267          45.000  
G24  22891663.520   120296615.177         978.645          46.000    22891661.225    93737705.706         762.695          46.000  
E09  27882355.738   146522702.459        1532.064          44.000    27882356.081   112270751.374        1173.744          46.000  
G15  22248018.792   116914103.776       -1935.260          48.000    22248014.445    91101960.667       -1508.051          44.000  
R06  21679819.666   115687712.752       -2506.844          41.000                                                                  
R07  22896428.584   122566410.577        1330.574          50.000    22896422.699    95329417.118        1034.834          47.000  
R05  24629262.481   131657267.012       -5297.921          44.000    24629277.470   102400077.912       -4120.755          42.000  
R16  21829506.239   116609798.698       -1771.516          52.000    21829501.630    90696704.200       -1377.814          50.000  
R09  22758504.913   121529431.070         735.680          51.000    22758501.902    94522974.250         572.223          49.000  
R19  24742029.333   132353310.819        3078.057          40.000    24742035.611   102941567.346        2394.051          43.000  
G19  22724021.088   119415954.998       -1708.515          47.000                                                                  
G13  22757479.337   119591562.209       -3498.487          50.000                                                                  
G17  23715126.675   124624272.849       -2958.486          46.000    23715121.243    97110040.692       -2305.312          45.000  
E31  26575374.277   139654836.097         635.616          47.000    26575377.169   107008313.250         486.925          49.000  
G12  23547871.697   123745208.834         906.613          48.000    23547868.981    96425013.308         706.315          44.000  
R17  24034673.773   128614450.790       -1722.180          44.000    24034668.555   100033417.384       -1339.348          45.000  
R15  24633542.848   131634566.615       -3311.789          42.000    24633538.769   102382657.908       -2575.554          44.000  
R18  23210290.537   123898351.145        1463.848          51.000    23210286.769    96365351.325        1138.442          45.000  
E19  26833771.470   141012581.232       -3442.794          43.000    26833773.608   108048674.244       -2637.825          46.000  
S31  40192739.912   211214284.500        -803.848          44.000  
G06  26459424.421   139045223.440        1607.790          42.000    26459428.131   108346936.084        1252.715          42.000  
E21  27720646.086   145673378.243       -2937.312          42.000    27720644.324   111620065.490       -2250.723          48.000  
G22  24344483.623   127931509.282       -3800.855          43.000                                                                  
E04  25090734.067   131852738.173        -744.037          47.000    25090733.881   101030128.003        -570.024          53.000  
G25                                                                  25796899.959                3       1273.699          21.000  
> 2024 04 08 23 26 30.0050000  0 26                     
S33  41149609.880   216242666.481        -804.089          45.000  
E26  29388678.543   154438560.118        1491.493          43.000    29388680.103   118336074.028        1142.929          44.000  
G24  22886089.807   120267324.600         973.805          46.000    22886087.258    93714881.900         758.818          46.000  
E09  27873629.280   146476846.850        1524.763          43.000    27873629.964   112235615.327        1168.374          46.000  
G15  22259115.730   116972421.296       -1952.692          48.000    22259111.384    91147402.878       -1521.741          44.000  
R06  21693980.992   115763280.056       -2530.949          41.000                                                                  
R07  22889035.863   122526840.364        1307.109          50.000    22889030.137    95298640.295        1016.777          46.000  
R05  24658998.699   131816221.524       -5299.231          41.000    24659012.435   102523708.588       -4121.503          38.000  
R16  21839467.292   116663005.353       -1775.844          53.000    21839462.411    90738087.154       -1381.153          50.000  
R09  22754385.851   121507438.401         730.222          50.000    22754382.345    94505868.964         568.022          50.000  
R19  24724769.817   132260989.731        3076.233          40.000    24724776.352   102869763.001        2392.643          44.000  
G19  22733829.654   119467498.349       -1728.091          47.000                                                                  
G13  22777489.044   119696714.860       -3512.033          49.000                                                                  
G17  23732064.047   124713276.993       -2975.281          46.000    23732058.549    97179394.533       -2318.558          44.000  
E31  26571763.674   139635860.045         629.196          48.000    26571766.140   106993773.313         482.102          49.000  
G12  23542723.213   123718151.623         896.931          48.000    23542719.818    96403929.885         699.003          44.000  
R17  24044397.191   128666481.887       -1746.982          44.000    24044391.322   100073886.045       -1358.834          45.000  
R15  24652129.257   131733886.316       -3310.064          42.000    24652124.585   102459906.614       -2574.697          43.000  
R18  23202114.384   123854712.190        1445.043          50.000    23202113.116    96331410.000        1123.945          47.000  
E19  26853443.515   141115960.747       -3449.648          43.000    26853445.840   108127886.944       -2643.273          45.000  
S31  40197327.024   211238388.585        -803.554          44.000  
G25  25787580.486                1       1628.138          26.000    25787593.389                3       1267.213          19.000  
G06  26450249.123   138997007.697        1606.177          42.000    26450251.337   108309365.821        1251.551          42.000  
E21  27737411.599   145761491.999       -2937.194          41.000    27737411.737   111687581.262       -2250.592          48.000  
G22  24366186.758   128045566.761       -3803.510          42.000                                                                  
E04  25095018.249   131875253.187        -757.445          47.000    25095018.278   101047379.770        -580.397          52.000  
> 2024 04 08 23 27 00.0050000  0 26                     
S33  41154197.713   216266775.957        -803.615          44.000  
E26  29380161.759   154393815.226        1490.999          41.000    29380165.294   118301789.312        1142.407          45.000  
G24  22880543.699   120238180.322         968.706          46.000    22880541.399    93692172.106         754.752          46.000  
E09  27864943.206   146431204.720        1517.632          43.000    27864944.043   112200642.875        1162.904          46.000  
G15  22270311.615   117031258.123       -1970.123          48.000    22270307.484    91193249.739       -1535.150          44.000  
R06  21708279.066   115839572.102       -2555.335          40.000                                                                  
R07  22881773.674   122487965.463        1284.022          51.000    22881768.061    95268404.305         998.741          46.000  
R05  24688741.028   131975208.822       -5300.449          37.000    24688754.824   102647364.826       -4122.182          39.000  
R16  21849450.743   116716336.529       -1779.910          52.000    21849446.260    90779566.989       -1384.483          50.000  
R09  22750296.258   121485604.197         724.903          50.000    22750292.841    94488886.906         563.948          50.000  
R19  24707519.955   132168716.520        3074.797          40.000    24707526.684   102797995.881        2391.602          44.000  
G19  22743749.206   119519625.656       -1747.471          47.000                                                                  
G13  22797574.595   119802266.877       -3525.205          49.000                                                                  
G17  23749097.590   124802784.997       -2992.074          46.000    23749091.426    97249141.047       -2331.507          45.000  
E31  26568186.847   139617066.899         623.192          48.000    26568189.596   106979373.521         477.525          49.000  
G12  23537629.016   123691379.910         887.442          49.000    23537625.522    96383068.941         691.506          44.000  
R17  24054258.626   128719252.602       -1771.687          42.000    24054252.958   100114929.842       -1377.776          46.000  
R15  24670706.844   131833164.310       -3308.599          40.000    24670703.141   102537122.833       -2573.627          43.000  
R18  23194045.231   123811634.511        1426.170          49.000    23194042.281    96297905.231        1109.324          46.000  
E19  26873155.840   141219546.270       -3456.377          43.000    26873157.772   108207257.485       -2648.589          45.000  
S31  40201913.081   211262489.417        -803.572          45.000  
G25  25778298.682   135465865.9201       1623.172          29.000    25778305.572                3       1269.607          21.000  
G06  26441080.630   138948828.030        1605.042          42.000    26441082.212   108271823.674        1250.609          40.000  
E21  27754178.039   145849595.960       -2936.781          42.000    27754176.287   111755089.498       -2250.246          46.000  
G22  24387906.159   128159700.886       -3805.771          45.000                                                                  
E04  25099379.316   131898171.346        -770.927          47.000    25099379.262   101064940.418        -590.657          52.000  
> 2024 04 08 23 27 30.0050000  0 26                     
S33  41158785.945   216290887.797        -803.840          45.000  
E26  29371651.548   154349095.109        1490.088          41.000    29371655.557   118267523.586        1141.846          47.000  
G24  22875027.116   120209189.444         963.727          47.000    22875024.649    93669581.859         750.886          47.000  
E09  27856299.007   146385783.321        1510.322          42.000    27856300.707   112165839.566        1157.052          46.000  
G15  22281607.532   117090618.662       -1987.494          48.000    22281604.236    91239504.643       -1548.615          45.000  
R06  21722712.308   115916591.950       -2579.395          41.000                                                                  
R07  22874642.660   122449793.764        1260.570          51.000    22874637.640    95238715.256         980.327          47.000  
R05  24718488.202   132134230.945       -5301.375          35.000    24718503.168   102771048.259       -4123.271          39.000  
R16  21859457.992   116769797.283       -1784.304          51.000    21859454.511    90821147.577       -1387.628          50.000  
R09  22746238.714   121463933.319         719.625          51.000    22746234.645    94472031.871         559.607          49.000  
R19  24690280.799   132076501.304        3072.964          40.000    24690287.101   102726273.872        2389.991          43.000  
G19  22753780.479   119572341.230       -1767.197          46.000                                                                  
G13  22817738.085   119908221.643       -3538.547          49.000                                                                  
G17  23766225.994   124892799.714       -3008.898          45.000    23766220.517    97319282.359       -2344.679          44.000  
E31  26564646.788   139598461.868         616.852          49.000    26564649.008   106965117.857         472.691          49.000  
G12  23532590.031   123664898.724         877.729          49.000    23532586.185    96362434.375         684.027          45.000  
R17  24064259.574   128772767.306       -1796.325          46.000    24064255.361   100156552.416       -1397.069          47.000  
R15  24689275.934                3      -3308.585          31.000    24689274.789   102614310.989       -2572.462          43.000  
R18  23186080.836   123769127.610        1407.181          48.000    23186080.090    96264844.386        1094.658          47.000  
E19  26892907.186   141323341.748       -3463.307          43.000    26892909.576   108286788.877       -2653.824          45.000  
S31  40206499.634   211286591.840        -803.487          44.000  
G25  25769047.483                        1618.533          30.000    25769063.254                3       1260.843          25.000  
G06  26431921.126   138900693.017        1603.729          42.000    26431922.024   108234316.289        1249.585          40.000  
E21  27770942.147   145937694.860       -2936.626          42.000    27770942.045   111822593.900       -2250.108          48.000  
G22  24409641.178   128273915.641       -3808.333          43.000                                                                  
E04  25103818.332   131921498.546        -784.507          47.000    25103818.223   101082814.509        -601.092          52.000  
> 2024 04 08 23 28 00.0050000  0 26                     
S33  41163373.184   216314994.389        -803.276          45.000  
E26  29363145.197   154304395.113        1489.595          42.000    29363148.965   118233273.209        1141.469          47.000  
G24  22869538.991   120180346.748         959.126          48.000    22869536.244    93647107.073         747.333          46.000  
E09  27847696.382   146340577.605        1503.483          43.000    27847698.383   112131201.510        1151.899          46.000  
G15  22293001.904   117150494.830       -2004.285          49.000    22292998.917    91286161.353       -1561.761          45.000  
R06  21737279.824   115994329.730       -2603.246          40.000                                                                  
R07  22867643.142   122412321.315        1237.502          50.000    22867636.861    95209570.045         962.517          47.000  
R05  24748223.588                1      -5301.771          30.000    24748256.019   102894750.462       -4123.694          35.000  
R16  21869488.604   116823379.622       -1788.009          51.000    21869485.366    90862822.763       -1390.651          51.000  
R09  22742209.990   121442418.049         714.703          51.000    22742206.638    94455297.880         555.836          50.000  
R19  24673051.696   131984341.706        3070.862          40.000    24673057.005   102654595.049        2388.616          43.000  
G19  22763921.611   119625637.303       -1786.281          46.000                                                                  
G13  22837974.649   120014570.260       -3551.302          48.000                                                                  
G17  23783450.714   124983312.245       -3025.311          46.000    23783444.722    97389811.630       -2357.474          44.000  
E31  26561140.915   139580037.821         611.259          49.000    26561143.099   106951000.859         468.245          50.000  
G12  23527604.282   123638701.107         868.594          49.000    23527600.230    96342020.788         676.749          44.000  
R17  24074398.937   128827018.704       -1820.571          46.000    24074393.905   100198747.999       -1416.034          47.000  
R15  24707842.292   132031205.1901      -3306.166          37.000    24707837.671   102691465.837       -2571.273          42.000  
R18  23178226.431   123727188.455        1388.577          50.000    23178220.734    96232225.066        1080.010          44.000  
E19  26912697.431   141427339.161       -3470.000          43.000    26912699.864   108366475.008       -2658.728          45.000  
S31  40211085.288   211310689.754        -803.143          44.000  
G25  25759821.789   135368764.297        1613.535          33.000    25759835.569                        1257.037          27.000  
G06  26422767.987   138852598.869        1602.582          41.000    26422769.860   108196840.753        1248.552          42.000  
E21  27787704.396   146025781.252       -2935.883          42.000    27787704.771   111890088.635       -2249.528          48.000  
G22  24431388.861   128388202.708       -3810.855          42.000                                                                  
E04  25108333.587   131945228.404        -797.529          47.000    25108333.864   101100997.128        -611.027          52.000  
> 2024 04 08 23 28 30.0050000  0 26                     
S33  41167958.776   216339092.291        -803.087          45.000  
E26  29354642.906   154259712.916        1489.299          42.000    29354645.724   118199036.515        1141.133          47.000  
G24  22864078.561   120151649.452         954.130          49.000    22864075.280    93624745.577         743.478          47.000  
E09  27839134.482   146295584.959        1496.219          42.000    27839136.666   112096726.700        1146.545          47.000  
G15  22304493.342   117210881.208       -2021.362          49.000    22304490.945    91333215.625       -1575.140          46.000  
R06  21751980.890   116072778.225       -2627.002          40.000                                                                  
R07  22860771.561   122375546.582        1214.286          49.000    22860767.069    95180967.485         944.341          47.000  
R05  24777995.216                1      -5302.187          29.000    24778011.225   103018464.579       -4123.689          33.000  
R16  21879541.001   116877078.515       -1791.861          52.000    21879537.941    90904588.586       -1393.667          50.000  
R09  22738208.825   121421053.217         709.638          51.000    22738206.551    94438680.867         551.994          50.000  
R19  24655833.910   131892237.738        3069.195          40.000    24655839.394   102582959.587        2387.143          44.000  
G19  22774173.094   119679508.506       -1805.338          46.000                                                                  
G13  22858286.214   120121306.522       -3564.171          48.000                                                                  
G17  23800767.796   125074315.391       -3041.482          46.000    23800761.265    97460723.192       -2370.111          44.000  
E31  26557667.978   139561790.110         605.376          49.000    26557670.649   106937018.969         463.993          50.000  
G12  23522671.997   123612782.538         859.318          49.000    23522667.643    96321824.639         669.641          44.000  
R17  24084672.308   128882001.318       -1844.869          45.000    24084667.304   100241512.278       -1434.836          44.000  
R15  24726395.078   132130356.742       -3304.635          38.000    24726392.729   102768583.680       -2569.926          43.000  
R18  23170475.474   123685816.618        1369.556          50.000    23170471.551    96200047.047        1065.257          46.000  
E19  26932524.768   141531532.600       -3476.310          43.000    26932527.615   108446311.317       -2663.655          46.000  
S31  40215669.185   211334778.524        -802.694          45.000  
G25  25750624.916   135320435.968        1608.801          33.000    25750630.598                        1253.111          25.000  
G06  26413622.079   138804544.262        1601.240          42.000    26413624.007   108159396.020        1247.532          38.000  
E21  27804464.122   146113850.015       -2935.101          42.000    27804462.932   111957569.913       -2249.060          47.000  
G22  24453150.023   128502556.103       -3812.710          40.000                                                                  
E04  25112926.017   131969356.986        -810.872          48.000    25112925.507   101119485.260        -621.264          52.000  
> 2024 04 08 23 29 00.0050000  0 26                     
S33  41172542.748   216363179.955        -802.962          45.000  
E26  29346143.281   154215049.752        1488.398          43.000    29346146.400   118164814.363        1140.433          47.000  
G24  22858645.325   120123098.078         949.272          48.000    22858642.077    93602497.797         739.618          47.000  
E09  27830613.483   146250806.047        1489.308          42.000    27830615.340   112062415.662        1140.906          47.000  
G15  22316081.780   117271775.705       -2038.336          49.000    22316078.005    91380665.820       -1588.190          46.000  
R06  21766814.835   116151933.420       -2650.489          41.000                                                                  
R07  22854032.654   122339471.149        1190.781          50.000    22854027.115    95152908.840         926.144          47.000  
R05  24807759.681                1      -5302.911          28.000    24807776.071                3      -4129.522          19.000  
R16  21889615.306   116930892.093       -1795.734          52.000    21889610.964    90946443.562       -1396.742          49.000  
R09  22734235.498   121399837.651         704.632          51.000    22734232.686    94422179.980         547.945          50.000  
R19  24638626.350   131800193.081        3067.150          39.000    24638632.312   102511370.215        2385.479          45.000  
G19  22784533.879   119733952.550       -1824.437          47.000                                                                  
G13  22878670.931   120228427.270       -3577.076          49.000                                                                  
G17  23818178.166   125165806.572       -3057.620          45.000    23818171.678    97532015.038       -2382.825          43.000  
E31  26554228.612   139543717.309         599.425          49.000    26554231.424   106923171.126         459.382          51.000  
G12  23517792.759   123587141.800         849.950          49.000    23517789.073    96301844.983         662.326          44.000  
R17  24095083.079   128937713.320       -1869.346          46.000    24095077.342   100284843.815       -1453.878          44.000  
R15  24744939.999   132229460.195       -3302.400          38.000    24744937.039   102845664.118       -2568.601          42.000  
R18  23162830.837   123645014.898        1350.534          50.000    23162828.675    96168312.396        1050.618          48.000  
E19  26952389.232   141635919.832       -3482.841          43.000    26952392.178   108526296.109       -2668.669          46.000  
S31  40220251.058   211358857.125        -802.338          44.000  
G25  25741452.793   135272253.699        1603.801          33.000    25741470.043                        1250.030          31.000  
G06  26404486.221   138756531.275        1599.770          42.000    26404486.524   108121983.708        1246.265          38.000  
E21  27821217.571   146201899.476       -2934.657          41.000    27821218.773   112025036.383       -2248.667          48.000  
G22  24474923.099   128616973.228       -3814.959          40.000                                                                  
E04  25117593.354   131993883.647        -824.218          48.000    25117592.721   101138278.423        -631.527          52.000  
> 2024 04 08 23 29 30.0050000  0 26                     
S33  41177126.191   216387269.324        -802.867          44.000  
E26  29337650.578   154170419.498        1487.228          42.000    29337652.698   118130617.412        1139.598          46.000  
G24  22853242.080   120094706.064         943.962          48.000    22853239.036    93580374.164         735.519          47.000  
E09  27822135.195   146206254.464        1481.346          42.000    27822137.508   112028278.779        1135.222          47.000  
G15  22327767.842   117333188.758       -2055.511          48.000    22327764.660    91428520.109       -1601.642          45.000  
R06  21781782.136   116231804.503       -2674.303          40.000                                                                  
R07  22847427.409   122304109.682        1166.989          51.000    22847421.666    95125405.515         907.820          48.000  
R05  24837531.394                       -5303.230          26.000                                                                  
R16  21899713.581   116984831.360       -1799.896          52.000    21899707.959    90988396.369       -1399.902          49.000  
R09  22730292.840   121378782.450         699.223          52.000    22730289.325    94405803.780         544.051          50.000  
R19  24621432.393   131708224.104        3064.619          38.000    24621438.731   102439839.700        2383.458          44.000  
G19  22795005.002   119788980.173       -1843.745          46.000                                                                  
G13  22899130.352   120335942.189       -3590.244          48.000                                                                  
G17  23835683.382   125257794.859       -3074.279          44.000    23835676.304    97603694.220       -2395.668          44.000  
E31  26550825.085   139525830.940         593.230          49.000    26550827.611   106909466.108         454.700          51.000  
G12  23512968.415   123561790.558         840.408          48.000    23512964.933    96282090.869         654.931          44.000  
R17  24105633.059   128994165.740       -1893.851          45.000    24105625.636   100328751.296       -1473.192          43.000  
R15  24763480.153   132328527.465       -3301.366          41.000    24763476.810   102922716.428       -2567.656          44.000  
R18  23155296.526   123604799.330        1330.891          48.000    23155294.383    96137033.701        1035.116          46.000  
E19  26972292.451   141740510.984       -3489.566          42.000    26972295.049   108606437.160       -2673.736          45.000  
S31  40224833.250   211382936.927        -802.399          44.000  
G25  25732315.061   135224229.480        1597.896          36.000    25732326.765                        1245.279          30.000  
G06  26395359.123   138708574.751        1597.708          39.000    26395360.531   108084615.371        1244.822          40.000  
E21  27837973.673   146289940.729       -2934.444          43.000    27837972.656   112092496.530       -2248.431          48.000  
G22  24496709.811   128731464.250       -3817.645          38.000                                                                  
E04  25122338.790   132018820.581        -837.983          48.000    25122337.944   101157385.934        -642.061          52.000  
