     3.00           OBSERVATION DATA    M: Mixed            RINEX VERSION / TYPE
CONVBIN 2.4.3                           20240408 174442 UTC PGM / RUN BY / DATE 
format: u-blox UBX                                          COMMENT             
log: data/2024-04-08/20240408173000.ubx                     COMMENT             
AQUI00CHL                                                   MARKER NAME         
                                                            MARKER NUMBER       
                                                            MARKER TYPE         
                                                            OBSERVER / AGENCY   
UNKNOWN             UBLOX-ZED-F9P                           REC # / TYPE / VERS 
UNKNOWN             TWIVSP6037L                             ANT # / TYPE        
  1713381.0000 -5047934.0000 -3490983.0000                  APPROX POSITION XYZ 
        0.0000        0.0000        0.0000                  ANTENNA: DELTA H/E/N
G    8 C1C L1C D1C S1C C2L L2L D2L S2L                      SYS / # / OBS TYPES 
R    8 C1C L1C D1C S1C C2C L2C D2C S2C                      SYS / # / OBS TYPES 
E    8 C1C L1C D1C S1C C7Q L7Q D7Q S7Q                      SYS / # / OBS TYPES 
S    4 C1C L1C D1C S1C                                      SYS / # / OBS TYPES 
  2024    04    08    17    30   00.4940000     GPS         TIME OF FIRST OBS   
  2024    04    08    17    44   30.4940000     GPS         TIME OF LAST OBS    
                                                            END OF HEADER       
> 2024 04 08 17 30 00.4940000  0 26                     
S33  37879072.817   199055810.4621       -815.460          44.000  
G16  23284682.591   122361835.5301      -2074.340          30.000                                                                  
E07  23523220.294   123615281.2551      -2197.739          44.000    23523229.446    94718206.5631      -1683.972          52.000  
G20  20984602.603   110274836.1361       2209.198          43.000                                                                  
R13  18124369.366    96783378.1881      -1257.364          42.000    18124370.981    75276035.9931       -978.029          44.000  
R04  19945693.561   106808399.5891       1519.165          47.000    19945695.284    83073185.5141       1181.676          47.000  
R02  20371270.374   108704881.8321      -2780.811          48.000    20371277.799    84548253.4951      -2162.862          43.000  
R03  18240154.179    97641026.0031       -501.072          52.000    18240152.139    75943075.9011       -389.744          49.000  
R18  20864445.669   111375606.7971      -4320.633          35.000    20864461.256    86625610.2051      -3360.778          42.000  
E33  22927945.569   120487148.1661      -1944.798          47.000    22927953.209    92321373.7541      -1490.219          51.000  
G09  19265881.617   101242892.4481      -1771.464          49.000    19265884.870    78890631.3421      -1380.303          46.000  
G03  22528233.450   118386344.1001      -4075.194          41.000    22528254.642    92248989.2981      -3175.459          40.000  
G11  20582483.392   108161646.3041       -589.872          47.000    20582486.009    84281835.6801       -459.658          45.000  
E26  24035727.311   126308390.8161      -3710.904          45.000    24035743.296    96781709.8311      -2843.448          47.000  
G06  19915814.668   104658301.9171      -2958.141          46.000    19915822.557    81551924.9831      -2305.212          43.000  
R14  19286161.102   102806425.0051       2935.755          50.000    19286173.379    79960475.6371       2283.298          49.000  
R12  20740872.399   110794111.4721      -4197.687          49.000    20740878.595    86173321.9751      -3264.846          47.000  
R19  20264698.702   108402424.5601      -2205.768          40.000    20264701.791    84313003.3631      -1715.847          44.000  
E19  24240129.556   127382813.9361        650.232          38.000    24240138.615    97605060.9361        498.268          43.000  
S31  36926063.900   194047707.8971       -815.502          42.000  
G07  17900007.455    94065376.0031       -469.512          48.000    17900007.890    73297587.1391       -365.781          46.000  
G30  19417331.119   102038992.1781       1518.818          46.000    19417337.108    79511254.0671       1183.434          45.000  
G04  21780767.215   114458695.2191      -3151.185          37.000    21780770.709    89188613.5011      -2455.522          34.000  
E30  24619845.093   129378284.6521      -1033.699          41.000    24619855.829    99134104.8871       -792.024          47.000  
E27  23802421.516   125082784.7881       1234.114          46.000    23802433.293    95842798.2781        945.584          50.000  
E12                                                                  25442723.687                         548.352          31.000  
> 2024 04 08 17 30 30.4940000  0 26                     
S33  37883728.834   199080275.497        -815.911          44.000  
G16  23296561.610                       -2089.198          29.000                                                                  
E07  23535769.424   123681225.316       -2199.010          43.000    23535777.919    94768735.034       -1684.915          52.000  
G20  20972011.693   110208669.320        2201.711          43.000                                                                  
R13  18131508.743    96821503.395       -1284.856          42.000    18131511.389    75305688.949        -999.447          44.000  
R04  19937183.343   106762831.525        1518.311          46.000    19937185.772    83037743.709        1180.894          47.000  
R02  20386920.130   108788398.023       -2787.542          47.000    20386929.483    84613210.356       -2168.004          44.000  
R03  18242981.180    97656165.632        -508.605          52.000    18242980.830    75954851.198        -395.764          50.000  
R18  20888762.024                3      -4338.722          18.000    20888766.986    86726523.811       -3366.920          41.000  
E33  22939086.798   120545696.949       -1958.746          47.000    22939094.824    92366235.679       -1500.877          51.000  
G09  19276007.816   101296107.177       -1776.723          49.000    19276011.346    78932097.349       -1384.601          46.000  
G03  22551515.875   118508694.026       -4081.554          41.000    22551537.637    92344326.168       -3180.846          40.000  
G11  20585905.466   108179630.324        -609.441          46.000    20585908.470    84295849.118        -475.020          45.000  
E26  24056922.821   126419773.817       -3715.042          45.000    24056939.847    96867054.516       -2846.560          48.000  
G06  19932745.563   104747269.950       -2973.462          47.000    19932753.613    81621250.503       -2317.076          45.000  
R14  19269677.011   102718550.447        2921.993          52.000    19269687.440    79892129.160        2272.486          49.000  
R12  20764490.285   110920276.035       -4213.637          50.000    20764496.861    86271449.892       -3277.380          47.000  
R19  20277133.327   108468944.999       -2228.895          40.000    20277138.967    84364741.287       -1733.718          47.000  
E19  24236421.170   127363327.417         648.170          38.000    24236430.329    97590129.770         496.940          43.000  
S31  36930720.033   194072176.452        -815.942          43.000  
G07  17902745.763    94079763.604        -490.073          48.000    17902745.429    73308798.300        -381.906          46.000  
G30  19408701.217   101993642.048        1504.178          46.000    19408707.412    79475916.400        1171.905          45.000  
G04  21798759.644   114553241.633       -3152.325          37.000    21798766.337    89262286.004       -2457.093          33.000  
E30  24625785.594   129409503.200       -1047.935          41.000    24625796.744    99158025.701        -802.969          47.000  
E27  23795399.318   125045888.000        1225.231          45.000    23795412.030    95814526.885         938.790          51.000  
E12                                                                  25438671.820                         538.163          31.000  
> 2024 04 08 17 31 00.4940000  0 26                     
S33  37888386.829   199104753.582        -816.053          44.000  
G16  23308525.078                3      -2104.103          26.000                                                                  
E07  23548325.497   123747205.696       -2199.831          44.000    23548333.360    94819291.357       -1685.630          51.000  
G20  20959461.968   110142722.938        2194.676          42.000                                                                  
R13  18138803.364    96860453.628       -1311.959          42.000    18138805.192    75335983.613       -1020.353          44.000  
R04  19928677.676   106717286.010        1517.896          46.000    19928680.119    83002319.540        1180.518          47.000  
R02  20402608.038   108872117.729       -2793.941          45.000    20402618.589    84678325.444       -2173.267          43.000  
R03  18245851.135    97671534.120        -516.012          53.000    18245851.343    75966804.448        -401.405          49.000  
R18  20913100.748   111635519.1531      -4335.915          39.000    20913116.336    86827612.385       -3372.760          39.000  
E33  22950307.341   120604659.613       -1972.302          47.000    22950314.887    92411414.734       -1511.231          51.000  
G09  19286164.830   101349477.634       -1781.531          49.000    19286167.488    78973684.664       -1388.229          46.000  
G03  22574836.712   118631239.538       -4087.961          43.000    22574858.164    92439815.446       -3185.182          39.000  
G11  20589439.444   108198202.513        -628.903          46.000    20589443.247    84310320.888        -489.948          46.000  
E26  24078141.506   126531275.764       -3718.640          44.000    24078158.818    96952490.313       -2849.300          48.000  
G06  19949762.454   104836693.682       -2988.271          47.000    19949770.574    81690931.071       -2328.541          44.000  
R14  19253268.226   102631089.579        2908.478          51.000    19253279.075    79824104.401        2262.231          49.000  
R12  20788197.786   111046914.561       -4229.060          50.000    20788203.973    86369946.469       -3289.202          48.000  
R19  20289697.221   108536150.374       -2251.297          41.000    20289703.185    84417011.973       -1751.273          46.000  
E19  24232723.447   127343894.551         646.841          38.000    24232732.601    97575239.727         495.725          43.000  
S31  36935378.682   194096657.584        -816.045          41.000  
G07  17905600.135    94094765.730        -510.260          49.000    17905599.850    73320488.317        -397.578          46.000  
G30  19400153.930   101948727.858        1489.936          47.000    19400161.189    79440918.482        1160.974          46.000  
G04  21816756.634   114647824.667       -3153.289          35.000    21816766.034    89335986.882       -2457.395          34.000  
E30  24631807.584   129441143.292       -1061.581          39.000    24631817.180    99182269.534        -813.357          45.000  
E27  23788428.342   125009249.961        1217.047          46.000    23788439.887    95786453.780         932.453          50.000  
E12                                                                  25434694.231   102414956.498         529.333          31.000  
> 2024 04 08 17 31 30.4940000  0 27                     
S33  37893048.154   199129247.316        -816.720          45.000  
G16  23320584.670                       -2118.711          28.000                                                                  
E07  23560887.238   123813226.400       -2201.539          43.000    23560896.848    94869878.581       -1686.901          51.000  
G20  20946955.344   110077003.342        2186.652          43.000                                                                  
R13  18146252.471    96900231.949       -1339.865          43.000    18146254.823    75366922.336       -1042.092          45.000  
R04  19920177.518   106671767.566        1516.658          45.000    19920180.276    82966916.415        1179.780          47.000  
R02  20418335.877   108956045.459       -2801.300          47.000    20418345.511    84743602.366       -2178.579          39.000  
R03  18248766.978    97687136.417        -524.192          52.000    18248766.738    75978939.543        -407.649          50.000  
R18  20937494.645   111765715.859       -4344.594          34.000    20937507.210    86928875.393       -3378.342          40.000  
E33  22961607.529   120664038.863       -1986.356          47.000    22961614.322    92456912.987       -1522.078          51.000  
G09  19296351.017   101403007.405       -1787.150          48.000    19296353.698    79015396.133       -1392.630          46.000  
G03  22598195.340   118753982.974       -4094.866          44.000    22598216.282    92535458.991       -3190.488          39.000  
G11  20593086.244   108217366.534        -648.832          46.000    20593090.142    84325253.832        -505.621          47.000  
E26  24099384.354   126642898.449       -3722.810          44.000    24099399.837    97038018.606       -2852.551          47.000  
G06  19966866.499   104926574.056       -3003.762          47.000    19966873.655    81760967.507       -2340.556          43.000  
R14  19236939.204   102544050.241        2894.113          51.000    19236950.874    79756407.513        2250.984          49.000  
R12  20811993.485   111174026.953       -4245.154          51.000    20811999.169    86468811.617       -3301.533          47.000  
R19  20302389.204   108604041.585       -2274.735          41.000    20302394.982    84469816.065       -1768.945          46.000  
E19  24229035.488   127324518.973         644.675          37.000    24229045.243    97560393.571         494.282          43.000  
S31  36940040.281   194121154.955        -816.838          41.000  
G07  17908572.908    94110385.717        -530.938          49.000    17908572.546    73332659.765        -413.809          46.000  
G30  19391691.032   101904254.724        1474.734          47.000    19391697.295    79406264.198        1149.270          45.000  
G04  21834762.954   114742448.152       -3154.900          38.000    21834770.767    89409719.375       -2458.952          33.000  
E30  24637908.904   129473208.792       -1076.237          40.000    24637918.168    99206839.329        -824.513          45.000  
E27  23781505.942   124972876.449        1207.956          46.000    23781518.386    95758583.373         925.522          51.000  
E21                                                                  25986656.953                1       1579.608          25.000  
E12                                                                  25430790.482                         518.248          30.000  
> 2024 04 08 17 32 00.4940000  0 27                     
S33  37897712.304   199153758.027        -817.431          44.000  
G16  23332717.196                3      -2133.494          27.000                                                                  
E07  23573458.193   123879288.458       -2202.740          43.000    23573468.365    94920497.479       -1687.887          52.000  
G20  20934493.368   110011513.819        2178.569          42.000                                                                  
R13  18153856.715    96940838.117       -1367.539          42.000    18153859.109    75398504.933       -1063.512          45.000  
R04  19911683.602   106626278.220        1515.474          46.000    19911685.305    82931535.874        1178.749          48.000  
R02  20434105.007   109040182.963       -2808.172          48.000    20434113.397    84809042.458       -2184.409          40.000  
R03  18251725.891    97702975.283        -532.020          53.000    18251725.333    75991258.661        -413.736          51.000  
R18  20961924.633   111896162.5491      -4351.112          39.000    20961938.732    87030309.743       -3384.122          40.000  
E33  22972985.905   120723834.345       -2000.234          47.000    22972992.927    92502730.154       -1532.615          51.000  
G09  19306567.791   101456697.343       -1792.443          49.000    19306570.498    79057232.415       -1396.686          47.000  
G03  22621590.588   118876923.792       -4101.461          41.000    22621612.260    92631256.333       -3195.920          40.000  
G11  20596845.841   108237123.028        -668.617          46.000    20596849.643    84340648.420        -520.911          46.000  
E26  24120648.847   126754640.560       -3726.934          45.000    24120664.854    97123638.446       -2855.602          48.000  
G06  19984057.470   105016909.131       -3018.711          47.000    19984065.512    81831358.214       -2352.318          46.000  
R14  19220690.634   102457437.589        2879.850          50.000    19220702.062    79689042.487        2239.866          50.000  
R12  20835877.635   111301609.995       -4260.718          51.000    20835883.582    86568042.849       -3313.898          48.000  
R19  20315208.393   108672616.299       -2297.494          41.000    20315212.822    84523151.731       -1786.674          45.000  
E19  24225360.376   127305200.987         642.953          38.000    24225369.289    97545591.539         492.740          43.000  
S31  36944705.477   194145669.159        -817.060          42.000  
G07  17911662.729    94126624.006        -551.735          48.000    17911662.372    73345313.037        -429.873          47.000  
G30  19383312.306   101860224.715        1460.220          47.000    19383318.519    79371955.199        1138.008          46.000  
G04  21852774.755   114837112.936       -3156.018          36.000    21852786.795    89483483.953       -2459.488          32.000  
E30  24644091.513   129505700.569       -1090.198          41.000    24644101.169    99231735.749        -835.258          44.000  
E27  23774634.409   124936770.240        1199.094          45.000    23774647.651    95730917.792         918.691          51.000  
E21                                                                  25974881.463                        1581.683          27.000  
E12                                                                  25426959.471                         509.046          28.000  
> 2024 04 08 17 32 30.4940000  0 27                     
S33  37902376.920   199178273.202        -816.991          43.000  
G16  23344949.517                1      -2147.708          29.000                                                                  
E07  23586034.377   123945379.332       -2203.400          42.000    23586044.998    94971138.455       -1688.317          51.000  
G20  20922072.809   109946244.231        2172.226          41.000                                                                  
R13  18161612.917    96982258.343       -1393.872          41.000    18161615.690    75430720.681       -1084.295          45.000  
R04  19903192.885   106580805.641        1515.512          48.000    19903192.487    82896168.486        1178.821          46.000  
R02  20449909.344   109124517.874       -2814.325          48.000    20449917.772    84874636.041       -2188.999          40.000  
R03  18254727.208    97719038.924        -538.998          53.000    18254725.288    76003752.604        -419.373          50.000  
R18  20986394.828   112026782.372       -4357.491          40.000    20986410.075    87131901.796       -3389.070          40.000  
E33  22984441.244   120784032.187       -2013.098          47.000    22984448.513    92548855.657       -1542.523          51.000  
G09  19316812.007   101510534.644       -1796.913          48.000    19316815.799    79099183.520       -1400.262          47.000  
G03  22645020.254   119000047.818       -4107.179          39.000    22645042.867    92727196.440       -3200.085          41.000  
G11  20600715.651   108257459.051        -687.353          45.000    20600719.611    84356494.577        -535.608          45.000  
E26  24141932.755   126866487.412       -3729.787          46.000    24141949.498    97209338.527       -2857.879          48.000  
G06  20001331.847   105107683.307       -3033.022          47.000    20001339.780    81902091.085       -2363.347          45.000  
R14  19204522.106   102371243.513        2866.306          53.000    19204531.868    79622003.021        2229.331          50.000  
R12  20859845.753   111429647.099       -4275.312          51.000    20859852.378    86667627.212       -3325.214          47.000  
R19  20328153.306   108741858.822       -2318.693          41.000    20328157.356    84577006.853       -1803.579          44.000  
E19  24221693.394   127285927.418         642.043          40.000    24221701.290    97530823.587         491.807          43.000  
S31  36949371.584   194170187.745        -816.943          44.000  
G07  17914868.382    94143467.471        -571.338          48.000    17914867.965    73358437.817        -445.245          47.000  
G30  19375015.119   101816626.369        1446.173          47.000    19375022.143    79337982.576        1126.787          45.000  
G04  21870797.464   114931806.436       -3156.764          40.000    21870807.387                       -2459.540          30.000  
E30  24650350.016   129538606.036       -1103.628          38.000    24650362.688    99256949.146        -845.531          44.000  
E27  23767813.080   124900920.558        1190.865          46.000    23767824.662    95703448.782         912.401          50.000  
E21                                                                  25963093.618                        1583.564          27.000  
E12                                                                  25423200.397                         499.361          29.000  
> 2024 04 08 17 33 00.4940000  0 27                     
S33  37907041.024   199202780.451        -816.976          44.000  
G16  23357251.376   122743097.0011      -2162.504          28.000                                                                  
E07  23598613.245   124011486.846       -2203.991          42.000    23598624.918    95021792.199       -1688.841          51.000  
G20  20909692.013   109881184.773        2164.778          41.000                                                                  
R13  18169519.563    97024479.657       -1420.916          41.000    18169522.451    75463559.484       -1104.985          45.000  
R04  19894701.125   106535338.083        1515.234          46.000    19894701.053    82860804.934        1178.597          46.000  
R02  20465748.800   109209038.491       -2820.635          49.000    20465754.558    84940374.108       -2194.063          39.000  
R03  18257767.751    97735316.105        -546.396          52.000    18257765.888    76016412.584        -425.087          50.000  
R18  21010901.072   112157587.771       -4363.429          41.000    21010914.016    87233638.320       -3393.656          40.000  
E33  22995970.377   120844619.066       -2026.218          47.000    22995977.718    92595279.230       -1552.613          50.000  
G09  19327082.575   101564507.048       -1801.832          48.000    19327085.878    79141239.881       -1403.921          47.000  
G03  22668482.112   119123341.312       -4112.720          40.000    22668506.039    92823268.623       -3204.863          41.000  
G11  20604693.150   108278362.080        -706.463          47.000    20604696.765    84372782.542        -550.523          44.000  
E26  24163234.447   126978424.701       -3732.916          46.000    24163250.919    97295107.882       -2860.251          48.000  
G06  20018685.770   105198881.493       -3047.135          46.000    20018694.277    81973154.350       -2374.597          45.000  
R14  19188429.042   102285459.282        2852.390          51.000    19188438.608    79555282.302        2218.599          50.000  
R12  20883897.231   111558121.722       -4289.987          51.000    20883903.458    86767551.918       -3336.628          48.000  
R19  20341219.543   108811753.502       -2340.672          40.000    20341223.597    84631369.180       -1820.658          45.000  
E19  24218031.352   127266686.228         640.511          39.000    24218039.638    97516080.382         490.994          43.000  
S31  36954036.016   194194698.758        -817.208          44.000  
G07  17918186.073    94160902.791        -591.317          47.000    17918185.910    73372023.809        -460.752          47.000  
G30  19366799.410   101773448.644        1431.878          48.000    19366805.212    79304337.733        1115.898          45.000  
G04  21888820.059   115026516.353       -3157.513          38.000    21888814.222                1      -2460.498          27.000  
E30  24656689.778   129571912.939       -1117.322          39.000    24656700.942    99282470.087        -855.914          45.000  
E27  23761038.948   124865317.126        1182.393          47.000    23761049.072    95676168.412         905.968          49.000  
E21                                                                  25951288.113                        1585.719          28.000  
E12                                                                  25419512.644                         490.157          30.000  
> 2024 04 08 17 33 30.4940000  0 27                     
S33  37911704.615   199227288.474        -816.990          43.000  
G16  23369635.785   122808181.869       -2176.646          33.000                                                                  
E07  23611199.713   124077619.109       -2204.750          42.000    23611209.674    95072464.874       -1689.422          51.000  
G20  20897353.012   109816345.500        2157.441          40.000                                                                  
R13  18177577.483    97067508.849       -1447.935          41.000    18177580.487    75497026.635       -1126.150          45.000  
R04  19886213.401   106489884.475        1514.807          46.000    19886213.247    82825452.231        1178.163          47.000  
R02  20481623.853   109293753.507       -2827.197          47.000    20481630.906    85006263.343       -2198.825          40.000  
R03  18260849.928    97751816.287        -553.764          52.000    18260848.937    76029246.066        -430.831          50.000  
R18  21035441.104   112288582.018       -4369.508          44.000    21035455.346    87335521.651       -3398.692          41.000  
E33  23007573.995   120905601.489       -2039.302          46.000    23007582.766    92642005.919       -1562.562          50.000  
G09  19337380.613   101618622.220       -1806.350          47.000    19337383.762    79183407.509       -1407.629          47.000  
G03  22691978.194   119246810.658       -4118.602          39.000    22692001.983    92919477.779       -3209.105          40.000  
G11  20608781.130   108299839.604        -725.574          47.000    20608783.899    84389518.169        -565.180          44.000  
E26  24184552.819   127090458.157       -3736.088          43.000    24184571.144    97380950.918       -2862.565          48.000  
G06  20036122.129   105290508.567       -3061.536          45.000    20036129.408    82044551.812       -2385.509          44.000  
R14  19172414.279   102200096.840        2838.342          50.000    19172423.841    79488889.677        2207.501          49.000  
R12  20908030.860   111687037.814       -4304.617          52.000    20908036.331    86867819.933       -3347.957          47.000  
R19  20354408.511   108882305.328       -2362.864          39.000    20354413.184    84686242.663       -1837.639          45.000  
E19  24214377.530   127247484.216         639.389          40.000    24214385.876    97501367.222         489.964          43.000  
S31  36958700.348   194219209.647        -817.128          43.000  
G07  17921617.741    94178937.388        -611.172          48.000    17921617.903    73386076.748        -476.338          47.000  
G30  19358664.875   101730700.529        1417.631          48.000    19358670.551    79271027.641        1104.636          45.000  
G04  21906847.563   115121250.517       -3158.551          38.000    21906863.740                       -2460.516          28.000  
E30  24663105.157   129605629.098       -1130.729          37.000    24663117.484    99308304.655        -866.310          43.000  
E27  23754311.516   124829969.556        1174.070          46.000    23754322.620    95649084.092         899.487          50.000  
E21                                                                  25939465.631                        1587.873          30.000  
E12                                                                  25415899.293   102339269.315         480.531          34.000  
> 2024 04 08 17 34 00.4940000  0 27                     
S33  37916369.057   199251799.428        -817.080          43.000  
G16  23382103.216                       -2191.310          31.000                                                                  
E07  23623788.381   124143779.651       -2205.960          42.000    23623799.462    95123159.232       -1690.296          51.000  
G20  20885058.167   109751732.714        2149.637          42.000                                                                  
E12  25412341.198                1        614.277          26.000    25412353.494   102325000.741         470.898          33.000  
R13  18185787.091    97111348.296       -1474.706          41.000    18185790.068    75531124.002       -1147.072          45.000  
R04  19877726.556   106444449.484        1514.192          44.000    19877728.858    82790113.972        1177.705          48.000  
R02  20497538.188   109378666.904       -2833.953          48.000    20497545.833    85072306.844       -2204.298          43.000  
R03  18263974.311    97768544.355        -561.516          53.000    18263974.343    76042256.771        -436.800          51.000  
R18  21060016.865   112419764.100       -4376.041          45.000    21060031.644    87437551.111       -3403.694          41.000  
E33  23019254.833   120966981.738       -2052.644          46.000    23019263.005    92689037.398       -1572.769          50.000  
G09  19347706.153   101672883.569       -1811.276          47.000    19347709.187    79225689.030       -1411.460          47.000  
G03  22715508.311   119370457.750       -4124.338          41.000    22715531.461    93015825.530       -3213.910          41.000  
G11  20612978.078   108321894.691        -744.898          47.000    20612981.287    84406703.901        -580.412          45.000  
E26  24205891.501   127202589.178       -3739.463          44.000    24205910.125    97466868.669       -2865.189          49.000  
G06  20053640.219   105382564.998       -3075.790          47.000    20053648.122    82116283.889       -2396.675          43.000  
R14  19156482.057   102115164.423        2823.749          52.000    19156491.094    79422831.455        2196.265          50.000  
R12  20932246.604   111816394.774       -4319.350          51.000    20932252.613    86968430.907       -3359.465          47.000  
R19  20367720.114   108953515.151       -2384.617          40.000    20367725.601    84741627.874       -1854.794          46.000  
E19  24210731.653   127228325.110         637.788          40.000    24210739.582    97486686.924         488.691          43.000  
S31  36963365.457   194243723.905        -817.243          42.000  
G07  17925164.095    94197573.955        -631.340          48.000    17925164.225    73400598.748        -491.888          47.000  
G30  19350612.805   101688386.644        1403.075          48.000    19350618.529    79238055.889        1093.409          45.000  
G04  21924880.077   115216012.337       -3158.984          38.000    21924893.499    89778785.6141      -2461.481          32.000  
E21  25927605.009                1       2074.994          27.000    25927630.076   104399814.5111       1589.644          33.000  
E30  24669601.672   129639757.987       -1144.538          40.000    24669610.398    99334455.396        -876.964          42.000  
E27  23747634.049   124794883.198        1164.997          45.000    23747645.773    95622199.959         892.753          50.000  
> 2024 04 08 17 34 30.4940000  0 27                     
S33  37921034.920   199276318.454        -817.354          43.000  
G16  23394652.540   122939655.732       -2205.137          31.000                                                                  
E07  23636387.061   124209973.989       -2206.894          43.000    23636396.091    95173879.500       -1691.077          51.000  
G20  20872807.036   109687353.947        2142.402          42.000                                                                  
E12  25408883.515                3        601.851          25.000    25408883.363   102311029.657         460.475          32.000  
R13  18194149.654    97156002.630       -1501.761          40.000    18194152.499    75565855.165       -1168.285          45.000  
R04  19869247.244   106399038.998        1513.252          46.000    19869249.825    82754794.814        1176.989          48.000  
R02  20513487.472   109463784.817       -2840.555          46.000    20513496.079    85138509.470       -2209.249          42.000  
R03  18267143.467    97785507.462        -569.238          51.000    18267143.039    76055450.261        -442.787          50.000  
R18  21084627.109   112551134.741       -4381.868          45.000    21084643.219    87539727.163       -3408.115          42.000  
E33  23031012.623   121028763.842       -2065.889          47.000    23031020.087    92736376.804       -1583.120          50.000  
G09  19358060.515   101727296.363       -1816.335          48.000    19358064.075    79268088.589       -1415.359          47.000  
G03  22739071.657   119494286.462       -4130.482          41.000    22739096.069    93112314.765       -3218.503          40.000  
G11  20617285.240   108344532.357        -764.279          46.000    20617288.927    84424343.545        -595.500          46.000  
E26  24227248.634   127314820.997       -3742.689          44.000    24227267.805    97552863.647       -2867.665          49.000  
G06  20071239.615   105475053.340       -3089.892          45.000    20071247.936    82188352.511       -2407.857          43.000  
R14  19140630.330   102030671.246        2809.100          51.000    19140640.136    79357114.882        2184.998          50.000  
R12  20956545.371   111946194.215       -4333.891          51.000    20956551.911    87069386.030       -3370.799          46.000  
R19  20381155.373   109025384.621       -2406.669          41.000    20381160.473    84797526.173       -1871.695          45.000  
E19  24207094.162   127209213.440         636.302          40.000    24207102.731    97472042.959         487.706          43.000  
S31  36968032.136   194268247.300        -817.479          44.000  
G07  17928826.211    94216817.354        -651.380          49.000    17928825.967    73415593.622        -507.695          47.000  
G30  19342643.879   101646513.414        1388.404          48.000    19342649.778    79205427.565        1081.869          45.000  
G04  21942919.707   115310807.218       -3160.449          38.000    21942928.993                       -2462.500          29.000  
E21  25915752.964                1       2076.665          30.000    25915780.711   104352102.893        1591.250          35.000  
E30  24676174.586   129674304.907       -1158.341          39.000    24676185.061    99360926.471        -887.555          41.000  
E27  23741007.303   124760065.259        1156.266          44.000    23741020.082    95595521.515         885.914          50.000  
> 2024 04 08 17 35 00.4940000  0 27                     
S33  37925702.492   199300845.705        -817.508          43.000  
G16  23407288.035   123006047.300       -2220.308          29.000                                                                  
E07  23648988.298   124276201.193       -2208.154          43.000    23648998.523    95224624.969       -1691.954          51.000  
G20  20860600.614   109623210.793        2134.104          43.000                                                                  
R13  18202664.489    97201469.878       -1529.176          41.000    18202667.008    75601218.585       -1189.291          45.000  
R04  19860773.219   106353652.964        1512.540          48.000    19860774.405    82719494.698        1176.309          48.000  
R02  20529476.399   109549106.724       -2847.380          46.000    20529486.539    85204870.779       -2214.719          43.000  
R03  18270356.505    97802705.580        -577.194          51.000    18270355.486    76068826.572        -448.941          50.000  
R18  21109272.122   112682688.045       -4388.068          46.000    21109288.756    87642045.246       -3412.955          42.000  
E33  23042845.777   121090945.503       -2079.442          47.000    23042852.689    92784022.348       -1593.343          50.000  
G09  19368444.245   101781859.512       -1821.378          48.000    19368447.039    79310605.271       -1419.268          48.000  
G03  22762670.358   119618294.166       -4136.490          43.000    22762693.919    93208943.417       -3223.090          39.000  
G11  20621703.424   108367751.104        -783.581          46.000    20621707.796    84442436.005        -610.606          46.000  
E26  24248624.653   127427150.456       -3745.896          43.000    24248643.873    97638933.462       -2870.213          48.000  
G06  20088921.406   105567969.514       -3104.134          43.000    20088930.244    82260754.458       -2418.873          43.000  
R14  19124862.256   101946620.261        2794.385          52.000    19124872.164    79291742.227        2173.438          50.000  
R12  20980926.084   112076431.236       -4348.380          50.000    20980931.961    87170681.483       -3382.284          45.000  
R19  20394713.876   109097909.679       -2428.385          41.000    20394717.894    84853934.354       -1888.763          44.000  
E19  24203466.400   127190147.846         634.541          40.000    24203474.948    97457434.348         486.425          43.000  
S31  36972699.791   194292777.994        -817.778          44.000  
G07  17932602.831    94236665.986        -671.739          48.000    17932602.457    73431060.078        -523.424          47.000  
G30  19334759.538   101605080.938        1373.793          48.000    19334765.515    79173142.670        1070.419          45.000  
G04  21960965.033   115405634.063       -3161.401          38.000    21960971.856                       -2463.403          27.000  
E21  25903892.487   136125877.0551       2079.286          33.000    25903919.345   104304339.524        1593.071          37.000  
E30  24682828.628   129709268.726       -1172.352          39.000    24682837.990    99387716.962        -898.261          40.000  
E27  23734433.673   124725516.577        1147.148          45.000    23734445.482    95569049.371         878.959          50.000  
E12                                                                  25405487.090   102297355.929         450.961          33.000  
> 2024 04 08 17 35 30.4940000  0 27                     
S33  37930371.966   199325383.133        -818.433          44.000  
G16  23420004.006   123072876.000       -2233.453          29.000                                                                  
E07  23661597.204   124342463.881       -2209.023          42.000    23661608.152    95275397.608       -1692.755          51.000  
G20  20848440.806   109559308.154        2126.274          43.000                                                                  
E12  25402163.499                3        574.893          25.000    25402165.797   102283982.480         440.563          33.000  
R13  18211331.469    97247750.724       -1556.074          41.000    18211333.865    75637214.818       -1210.508          44.000  
R04  19852302.791   106308294.654        1511.593          49.000    19852304.043    82684216.147        1175.630          47.000  
R02  20545506.086   109634635.727       -2854.414          47.000    20545512.701    85271393.211       -2220.062          43.000  
R03  18273613.844    97820142.629        -585.154          52.000    18273612.535    76082388.698        -455.093          50.000  
R18  21133951.920   112814421.844       -4394.102          45.000    21133967.352    87744503.753       -3417.526          42.000  
E33  23054755.000   121153527.877       -2092.543          47.000    23054761.912    92831974.936       -1603.434          50.000  
G09  19378856.836   101836575.281       -1826.253          48.000    19378858.654    79353240.905       -1423.046          46.000  
G03  22786303.567   119742481.806       -4142.479          39.000    22786326.163    93305712.325       -3227.549          36.000  
G11  20626233.507   108391552.972        -802.995          46.000    20626237.099    84460982.799        -625.733          45.000  
E26  24270020.341   127539577.919       -3748.925          43.000    24270038.632    97725078.343       -2872.660          48.000  
G06  20106684.526   105661312.943       -3118.617          44.000    20106692.996    82333489.341       -2429.989          43.000  
R14  19109178.092   101863018.337        2779.376          53.000    19109188.150    79226718.817        2161.688          49.000  
R12  21005388.466   112207104.004       -4362.872          51.000    21005394.218    87272315.828       -3393.415          46.000  
R19  20408393.929   109171089.690       -2449.913          39.000    20408398.927    84910851.949       -1905.569          45.000  
E19  24199847.100   127171130.596         633.240          40.000    24199856.265    97442862.772         485.236          44.000  
S31  36977370.407   194317319.033        -817.866          44.000  
G07  17936495.605    94257121.332        -691.877          49.000    17936495.244    73446999.332        -539.028          47.000  
G30  19326960.098   101564092.738        1358.882          49.000    19326965.047    79141203.958        1058.971          45.000  
G04  21979016.382   115500495.446       -3162.775          39.000    21979017.982                1      -2465.137          30.000  
E21  25892016.095   136063478.886        2081.273          35.000    25892044.912   104256527.634        1594.680          40.000  
E30  24689561.478   129744651.845       -1186.341          39.000    24689571.929    99414828.765        -908.959          41.000  
E27  23727910.653   124691241.413        1137.832          44.000    23727923.289    95542786.794         872.011          50.000  
> 2024 04 08 17 36 00.4940000  0 27                     
S33  37935042.726   199349927.288        -817.705          44.000  
G16  23432803.122   123140137.204       -2249.242          28.000                                                                  
E07  23674212.103   124408758.578       -2210.125          42.000    23674223.390    95326194.783       -1693.504          50.000  
G20  20836326.466   109495644.589        2118.265          44.000                                                                  
E12  25398916.184                3        563.019          25.000    25398919.493   102270907.230         430.610          33.000  
R13  18220149.098    97294840.616       -1583.023          40.000    18220150.973    75673840.291       -1231.217          44.000  
R04  19843834.788   106262961.408        1510.931          48.000    19843837.839    82648957.065        1175.122          47.000  
R02  20561573.070   109720368.973       -2861.035          47.000    20561581.640    85338074.447       -2225.227          46.000  
R03  18276915.682    97837816.462        -592.812          51.000    18276914.177    76096135.029        -461.133          50.000  
R18  21158660.888   112946327.841       -4399.373          44.000    21158679.481    87847096.144       -3421.893          44.000  
E33  23066739.272   121216506.058       -2105.636          47.000    23066746.487    92880230.798       -1613.522          50.000  
G09  19389296.836   101891440.019       -1831.329          47.000    19389298.605    79395992.624       -1426.992          46.000  
G03  22809969.331   119866844.336       -4147.852          34.000    22809993.677                       -3232.779          31.000  
G11  20630873.580   108415933.775        -822.122          47.000    20630876.752    84479980.761        -640.587          46.000  
E26  24291433.595   127652097.647       -3752.082          44.000    24291451.603    97811293.915       -2874.989          49.000  
G06  20124527.228   105755077.105       -3132.360          42.000    20124535.426    82406552.017       -2440.812          44.000  
R14  19093578.884   101779865.625        2764.459          52.000    19093588.443    79162044.838        2150.116          50.000  
R12  21029930.522   112338204.951       -4376.967          50.000    21029936.803    87374283.202       -3404.449          45.000  
R19  20422194.786   109244917.684       -2471.386          38.000    20422200.891    84968273.508       -1922.364          45.000  
E19  24196236.712   127152157.447         631.632          40.000    24196245.936    97428324.984         484.226          44.000  
S31  36982041.244   194341866.199        -818.242          44.000  
G07  17940503.029    94278178.936        -711.832          49.000    17940503.027    73463407.870        -554.667          48.000  
G30  19319243.873   101523546.284        1344.245          48.000    19319249.637    79109609.462        1047.550          45.000  
G04  21997074.032   115595387.576       -3163.477          39.000    21997080.898    90074333.9971      -2464.685          34.000  
E21  25880131.860   136001015.609        2083.429          37.000    25880159.640   104208665.804        1596.238          43.000  
E30  24696373.969   129780450.571       -1200.048          39.000    24696384.407    99442258.931        -919.646          40.000  
E27  23721439.701   124657237.930        1128.968          44.000    23721452.339    95516732.398         865.148          50.000  
> 2024 04 08 17 36 30.4940000  0 27                     
S33  37939712.790   199374469.833        -818.206          43.000  
G16  23445685.872   123207822.342       -2263.430          28.000                                                                  
E07  23686833.890   124475077.651       -2211.081          44.000    23686843.880    95377010.637       -1694.129          50.000  
G20  20824255.687   109432214.958        2110.449          44.000                                                                  
E12  25395724.838                3        550.042          23.000    25395744.939   102258125.048         421.432          34.000  
R13  18229117.371    97342730.553       -1609.684          40.000    18229120.091    75711088.066       -1252.027          44.000  
R04  19835373.339   106217646.206        1510.175          49.000    19835375.658    82613711.985        1174.649          48.000  
R02  20577676.773   109806298.778       -2867.693          47.000    20577683.830    85404908.529       -2230.279          44.000  
R03  18280260.007    97855720.388        -600.598          50.000    18280258.752    76110060.356        -467.044          50.000  
R18  21183402.750   113078393.492       -4404.861          45.000    21183420.808    87949812.715       -3425.854          43.000  
E33  23078797.745   121279870.964       -2118.664          48.000    23078804.487    92928782.963       -1623.284          50.000  
G09  19399763.760   101946445.905       -1835.905          46.000    19399766.605    79438854.297       -1430.484          47.000  
G03  22833666.152   119991372.560       -4153.352          30.000    22833690.393                1      -3236.638          28.000  
G11  20635621.126   108440885.293        -841.188          47.000    20635625.025    84499423.450        -655.304          46.000  
E26  24312861.653   127764699.715       -3754.706          44.000    24312879.810    97897572.573       -2876.888          49.000  
G06  20142448.563   105849251.058       -3145.767          43.000    20142456.747    82479934.074       -2451.286          43.000  
R14  19078062.986   101697158.780        2749.445          52.000    19078072.057    79097717.603        2138.531          49.000  
R12  21054550.413   112469721.932       -4390.792          49.000    21054557.121    87476574.132       -3415.035          46.000  
R19  20436116.454   109319382.322       -2492.936          41.000    20436120.913    85026190.202       -1938.742          45.000  
E19  24192633.096   127133220.372         630.606          39.000    24192642.452    97413814.850         483.234          44.000  
S31  36986712.317   194366412.848        -818.134          44.000  
G07  17944623.284    94299830.092        -731.551          49.000    17944623.141    73480278.935        -570.059          47.000  
G30  19311610.986   101483434.844        1329.674          48.000    19311616.998    79078353.944        1036.276          45.000  
G04  22015135.181   115690302.833       -3164.062          39.000    22015142.412    90148293.787       -2465.906          34.000  
E21  25868232.597   135938481.117        2085.729          39.000    25868260.092   104160749.415        1598.160          43.000  
E30  24703263.592   129816656.988       -1213.668          39.000    24703274.470    99470001.571        -929.702          39.000  
E27  23715020.240   124623500.247        1120.188          45.000    23715031.462    95490881.645         858.349          50.000  
> 2024 04 08 17 37 00.4940000  0 27                     
S33  37944382.937   199399012.726        -818.248          43.000  
G16  23458623.330                3      -2277.117          24.000                                                                  
E07  23699458.463   124541423.414       -2211.845          44.000    23699468.987    95427846.940       -1694.779          50.000  
G20  20812230.462   109369023.952        2102.698          44.000                                                                  
R13  18238235.980    97391421.367       -1636.203          39.000    18238238.690    75748958.690       -1272.671          44.000  
R04  19826915.011   106172351.944        1509.600          50.000    19826916.958    82578483.242        1174.040          48.000  
R02  20593817.707   109892428.369       -2874.188          48.000    20593823.129    85471898.028       -2235.609          43.000  
R03  18283649.140    97873858.055        -608.321          51.000    18283646.953    76124167.449        -473.204          50.000  
R18  21208173.297   113210616.444       -4409.769          44.000    21208192.132    88052651.583       -3429.796          44.000  
E33  23090929.030   121343623.391       -2131.381          48.000    23090936.234    92977632.091       -1633.187          50.000  
G09  19410257.968   102001595.040       -1840.493          47.000    19410260.931    79481827.632       -1434.213          47.000  
G03  22857394.457                       -4159.077          27.000    22857415.164                3      -3242.238          24.000  
G11  20640477.684   108466409.217        -860.292          46.000    20640482.167    84519312.162        -670.435          45.000  
E26  24334305.074   127877384.277       -3757.246          45.000    24334323.544    97983914.427       -2879.076          49.000  
G06  20160447.111   105943834.072       -3159.292          44.000    20160455.169    82553634.869       -2461.577          43.000  
R14  19062631.636   101614903.660        2734.351          53.000    19062641.277    79033741.709        2126.764          50.000  
R12  21079248.090   112601653.329       -4404.434          48.000    21079254.783    87579187.352       -3425.840          44.000  
R19  20450155.839   109394482.737       -2513.607          40.000    20450160.367    85084601.451       -1955.266          44.000  
E19  24189036.964   127114321.261         629.594          40.000    24189045.547    97399333.791         482.221          44.000  
S31  36991383.835   194390959.974        -818.228          43.000  
G07  17948856.920    94322076.595        -751.357          50.000    17948855.918    73497613.846        -585.437          47.000  
G30  19304060.983   101443761.615        1315.402          48.000    19304067.047    79047439.910        1024.837          46.000  
G04  22033202.653   115785243.418       -3165.112          40.000    22033209.431    90222273.281       -2466.693          35.000  
E21  25856319.427   135875879.349        2088.256          39.000    25856347.824   104112781.536        1599.872          44.000  
E30  24710231.547   129853273.206       -1227.332          38.000    24710241.491    99498058.141        -940.203          37.000  
E27  23708651.047   124590032.284        1111.163          45.000    23708662.509    95465237.553         851.460          49.000  
E12                                                                  25392643.771   102245638.442         411.813          32.000  
> 2024 04 08 17 37 30.4940000  0 26                     
S33  37949054.681   199423562.453        -818.832          44.000  
E07  23712090.912   124607801.625       -2213.616          44.000    23712100.488    95478708.094       -1696.112          50.000  
G20  20800252.586   109306079.525        2093.719          44.000                                                                  
R13  18247504.663    97440917.480       -1663.609          39.000    18247507.070    75787455.684       -1293.976          44.000  
R04  19818462.306   106127085.333        1508.132          49.000    19818462.975    82543276.025        1172.978          47.000  
R02  20609995.695   109978763.394       -2881.622          45.000    20610003.782    85539047.305       -2241.589          45.000  
R03  18287082.546    97892236.675        -617.001          52.000    18287080.405    76138461.935        -479.789          50.000  
R18  21232973.077   113342997.376       -4415.552          43.000    21232992.455    88155613.407       -3434.282          43.000  
E33  23103134.670   121407767.472       -2144.979          47.000    23103143.041    93026781.319       -1643.577          51.000  
G09  19420780.867   102056892.821       -1846.091          47.000    19420783.514    79524916.760       -1438.399          46.000  
G11  20645445.273   108492510.409        -880.033          46.000    20645449.086    84539650.675        -685.658          45.000  
E26  24355764.885   127990154.706       -3760.940          45.000    24355783.668    98070322.059       -2881.576          48.000  
G06  20178524.735   106038828.576       -3173.504          44.000    20178532.660    82627656.274       -2473.005          44.000  
R14  19047287.079   101533110.355        2718.396          53.000    19047297.297    78970125.020        2114.288          50.000  
R12  21104023.730   112734000.765       -4418.763          49.000    21104030.321    87682124.194       -3436.810          46.000  
R19  20464314.489   109470220.779       -2535.668          39.000    20464319.513    85143508.607       -1972.003          45.000  
E19  24185448.540   127095465.093         627.386          40.000    24185457.320    97384885.620         480.847          44.000  
S31  36996055.772   194415513.445        -818.876          43.000  
G07  17953203.336    94344922.559        -771.779          49.000    17953203.715    73515415.915        -601.375          48.000  
G30  19296595.951   101404533.125        1299.880          48.000    19296601.675    79016872.390        1012.875          45.000  
G04  22051275.596   115880214.718       -3166.522          40.000    22051283.246    90296276.674       -2467.712          36.000  
E21  25844396.093   135813217.629        2089.440          40.000    25844423.723   104064767.689        1601.004          43.000  
E30  24717276.940   129890304.551       -1241.535          40.000    24717287.911    99526432.809        -951.244          40.000  
E27  23702334.673   124556841.406        1101.312          45.000    23702346.898    95439805.736         843.891          50.000  
E12                                                                  25389616.308   102233452.400         400.465          33.000  
G03                                                                  22881174.838                3      -3241.675          17.000  
> 2024 04 08 17 38 00.4940000  0 27                     
S33  37953729.626   199448129.173        -819.017          43.000  
G16  23484824.859                3      -2309.369          23.000                                                                  
E07  23724731.248   124674222.640       -2214.590          44.000    23724740.629    95529602.054       -1696.847          51.000  
G20  20788324.274   109243394.526        2085.372          45.000                                                                  
R13  18256925.647    97491227.774       -1690.201          37.000    18256928.778    75826585.926       -1314.812          44.000  
R04  19810015.904   106081857.877        1507.215          50.000    19810016.534    82508099.240        1172.214          47.000  
R02  20626214.648   110065315.419       -2888.475          47.000    20626223.112    85606365.338       -2246.548          44.000  
R03  18290562.273    97910867.689        -624.999          53.000    18290560.723    76152952.763        -486.195          50.000  
R18  21257804.902   113475542.057       -4420.667          43.000    21257824.470    88258702.547       -3438.144          45.000  
E33  23115416.478   121472312.270       -2157.954          47.000    23115425.803    93076237.580       -1653.503          51.000  
G09  19431333.457   102112349.535       -1851.038          46.000    19431337.228    79568129.774       -1442.466          47.000  
G11  20650524.516   108519198.636        -899.170          48.000    20650527.273    84560446.622        -700.443          45.000  
E26  24377243.238   128103019.154       -3763.419          45.000    24377262.211    98156801.760       -2883.728          48.000  
G06  20196681.032   106134241.909       -3187.134          43.000    20196690.286    82702004.037       -2483.414          45.000  
R14  19032032.309   101451792.992        2702.808          53.000    19032041.355    78906878.462        2102.179          50.000  
R12  21128878.962   112866770.408       -4432.474          47.000    21128885.243    87785389.381       -3447.405          46.000  
R19  20478593.565   109546603.780       -2556.614          40.000    20478598.200    85202917.403       -1988.433          45.000  
E19  24181870.745   127076661.952         626.143          39.000    24181879.231    97370478.133         479.696          44.000  
S31  37000730.840   194440083.803        -819.089          43.000  
G07  17957666.999    94368378.033        -791.790          49.000    17957667.621    73533692.933        -617.056          48.000  
G30  19289217.862   101365760.662        1285.109          48.000    19289223.637    78986660.248        1001.128          45.000  
G04  22069355.175   115975227.072       -3167.474          37.000    22069362.350    90370312.147       -2468.176          35.000  
E21  25832464.124   135750508.054        2091.294          41.000    25832490.579   104016717.174        1602.415          43.000  
E30  24724406.028   129927761.180       -1255.405          39.000    24724415.359    99555133.381        -961.958          38.000  
E27  23696074.877   124523939.660        1092.054          46.000    23696085.669    95414595.491         836.722          50.000  
E12                                                                  25386666.420   102221575.616         390.307          31.000  
G03                                                                  22904973.587                3      -3261.821          17.000  
> 2024 04 08 17 38 30.4940000  0 26                     
S33  37958406.041   199472702.400        -819.311          44.000  
E07  23737376.475   124740676.862       -2215.763          44.000    23737385.921    95580521.429       -1697.732          51.000  
G20  20776443.401   109180961.492        2076.946          45.000                                                                  
R13  18266497.932    97542340.925       -1717.146          40.000    18266500.561    75866340.616       -1335.416          44.000  
R04  19801574.878   106036660.150        1506.123          50.000    19801575.641    82472945.578        1171.406          47.000  
R02  20642475.008   110152074.941       -2895.461          46.000    20642483.104    85673844.812       -2251.850          45.000  
R03  18294087.576    97929743.080        -633.292          51.000    18294086.707    76167633.608        -492.469          50.000  
R18  21282664.003   113608236.076       -4425.544          42.000    21282683.018    88361907.838       -3441.995          44.000  
E33  23127773.063   121537246.548       -2170.895          46.000    23127782.014    93125992.265       -1663.397          50.000  
G09  19441915.414   102167955.323       -1856.130          48.000    19441918.734    79611458.915       -1446.211          47.000  
G11  20655711.967   108546463.417        -918.448          47.000    20655715.822    84581691.877        -715.517          45.000  
E26  24398736.048   128215965.754       -3766.221          45.000    24398755.664    98243344.377       -2885.863          48.000  
G06  20214915.385   106230061.060       -3200.714          44.000    20214923.683    82776668.043       -2494.050          44.000  
R14  19016865.826   101370945.904        2686.963          53.000    19016874.607    78843997.716        2089.899          50.000  
R12  21153811.017   112999948.310       -4446.019          48.000    21153816.550    87888972.123       -3458.061          47.000  
R19  20492990.704   109623618.605       -2577.379          40.000    20492995.156    85262817.645       -2004.864          44.000  
E19  24178300.502   127057901.435         624.941          39.000    24178309.205    97356103.304         478.557          44.000  
S31  37005407.928   194464660.593        -819.132          44.000  
G07  17962244.582    94392431.827        -811.755          49.000    17962244.524    73552436.139        -632.569          48.000  
G30  19281924.783   101327435.461        1269.898          48.000    19281930.468    78956796.566         989.529          45.000  
G04  22087441.456   116070270.775       -3168.939          38.000    22087448.077    90444372.036       -2468.915          35.000  
E21  25820520.160   135687742.648        2093.083          40.000    25820547.086   103968623.861        1603.773          44.000  
E30  24731614.366   129965633.031       -1269.157          41.000    24731623.075    99584152.162        -972.510          37.000  
E27  23689866.452   124491319.036        1082.756          45.000    23689878.319    95389600.635         829.579          51.000  
E12                                                                  25383791.886                         381.160          31.000  
G03                                                                  22928808.709                3      -3265.739          13.000  
> 2024 04 08 17 39 00.4940000  0 26                     
S33  37963084.033   199497287.845        -819.516          44.000  
E07  23750030.310   124807170.366       -2216.801          44.000    23750039.070    95631470.927       -1698.603          50.000  
G20  20764612.396   109118788.793        2068.321          45.000                                                                  
R13  18276221.355    97594261.576       -1744.000          39.000    18276223.802    75906723.344       -1356.518          44.000  
R04  19793142.678   105991499.605        1504.992          51.000    19793142.324    82437820.837        1170.430          47.000  
R02  20658772.767   110239048.456       -2902.445          45.000    20658782.321    85741490.696       -2257.418          45.000  
R03  18297660.699    97948870.022        -641.633          50.000    18297660.758    76182510.146        -498.987          51.000  
R18  21307551.671   113741080.711       -4430.433          42.000    21307570.576    88465230.232       -3445.936          44.000  
E33  23140206.140   121602574.842       -2184.028          47.000    23140213.793    93176048.856       -1673.456          50.000  
G09  19452526.658   102223716.025       -1861.085          48.000    19452529.588    79654908.776       -1450.168          47.000  
G11  20661011.573   108574310.092        -937.708          48.000    20661015.227    84603390.523        -730.577          45.000  
E26  24420245.130   128328998.317       -3769.052          44.000    24420265.905    98329952.859       -2887.946          47.000  
G06  20233225.995   106326288.986       -3214.147          43.000    20233234.058    82851650.570       -2504.412          42.000  
R14  19001788.196   101290578.855        2671.021          52.000    19001797.697    78781490.340        2077.380          50.000  
R12  21178819.062   113133536.510       -4459.546          47.000    21178824.471    87992873.946       -3468.492          46.000  
R19  20507506.432   109701267.434       -2598.921          39.000    20507510.617    85323210.892       -2021.031          44.000  
E19  24174739.010   127039189.372         623.273          40.000    24174748.117    97341765.591         477.453          44.000  
S31  37010087.935   194489250.397        -819.688          44.000  
G07  17966936.670    94417088.762        -831.757          49.000    17966936.735    73571649.367        -648.012          48.000  
G30  19274717.476   101289564.342        1254.963          47.000    19274723.588    78927286.743         977.797          45.000  
G04  22105535.197   116165351.728       -3169.574          39.000    22105542.319    90518460.897       -2469.983          35.000  
E21  25808566.373   135624929.064        2094.613          38.000    25808593.832   103920493.690        1605.154          44.000  
E30  24738899.724   130003925.956       -1283.379          39.000    24738908.601    99613493.557        -983.338          36.000  
E27  23683713.377   124458987.301        1072.975          45.000    23683725.357    95364827.121         822.290          50.000  
E12                                                                  25380996.126   102198734.958         370.658          33.000  
G03                                                                  22952662.311                3      -3242.875          16.000  
> 2024 04 08 17 39 30.4940000  0 26                     
S33  37967765.104   199521883.905        -819.879          44.000  
E07  23762690.986   124873701.057       -2218.070          44.000    23762699.518    95682448.924       -1699.620          50.000  
G20  20752830.406   109056876.629        2059.649          45.000                                                                  
R13  18286094.355    97646985.781       -1770.774          38.000    18286097.438    75947731.075       -1377.271          44.000  
R04  19784715.220   105946374.855        1503.721          51.000    19784716.127    82402723.908        1169.548          47.000  
R02  20675111.209   110326234.222       -2909.573          46.000    20675120.572    85809301.571       -2262.987          44.000  
R03  18301280.920    97968247.895        -649.824          51.000    18301281.127    76197581.827        -505.552          52.000  
R18  21332465.154   113874069.028       -4435.332          38.000    21332484.759    88568664.393       -3449.578          44.000  
E33  23152712.355   121668293.506       -2196.894          47.000    23152719.916    93226404.567       -1683.305          50.000  
G09  19463167.257   102279629.381       -1866.058          49.000    19463169.355    79698477.587       -1454.164          46.000  
G11  20666420.915   108602735.748        -957.043          48.000    20666424.749    84625540.313        -745.682          46.000  
E26  24441771.117   128442112.518       -3771.761          44.000    24441791.825    98416623.887       -2889.970          47.000  
G06  20251615.318   106422920.367       -3227.491          43.000    20251623.931    82926947.469       -2514.992          44.000  
R14  18986802.800   101210694.069        2654.932          53.000    18986810.429    78719358.009        2064.838          49.000  
R12  21203902.278   113267528.692       -4472.985          45.000    21203908.672    88097089.949       -3478.903          46.000  
R19  20522139.491   109779544.740       -2619.409          38.000    20522144.218    85384093.038       -2037.425          44.000  
E19  24171187.608   127020522.913         621.737          41.000    24171195.579    97327462.844         476.335          43.000  
S31  37014768.809   194513850.955        -820.059          43.000  
G07  17971743.143    94442346.015        -851.755          49.000    17971743.025    73591330.373        -663.800          48.000  
G30  19267597.661   101252146.058        1239.985          48.000    19267603.599    78898129.760         966.160          46.000  
G04  22123635.476   116260467.800       -3170.807          37.000    22123642.952    90592577.172       -2470.892          36.000  
E21  25796605.404   135562066.905        2096.406          38.000    25796632.444   103872326.331        1606.208          45.000  
E30  24746264.447   130042637.530       -1297.121          37.000    24746275.722    99643155.643        -994.107          38.000  
E27  23677616.173   124426943.950        1063.544          45.000    23677627.319    95340274.570         814.842          50.000  
E12                                                                  25378274.790   102187775.574         360.270          33.000  
G03                                                                  22976548.340                3      -3252.005          14.000  
> 2024 04 08 17 40 00.4940000  0 26                     
S33  37972445.646   199546480.513        -819.770          44.000  
E07  23775355.038   124940259.064       -2219.088          44.000    23775365.276    95733447.834       -1700.258          50.000  
G20  20741096.072   108995217.529        2051.210          44.000                                                                  
R13  18296115.979    97700502.130       -1797.106          38.000    18296119.311    75989354.918       -1397.568          43.000  
R04  19776293.655   105901276.238        1502.827          51.000    19776294.163    82367647.348        1168.851          48.000  
R02  20691489.206   110413622.542       -2916.256          47.000    20691497.822    85877270.056       -2268.199          44.000  
R03  18304945.900    97987867.514        -658.000          52.000    18304945.224    76212841.533        -511.777          50.000  
R18  21357403.004   114007186.394       -4439.426          38.000    21357421.066    88672198.919       -3452.954          40.000  
E33  23165290.264   121734391.046       -2209.436          47.000    23165297.611    93277050.584       -1692.969          49.000  
G09  19473834.437   102335685.233       -1870.669          49.000    19473836.773    79742157.439       -1457.774          47.000  
G16  23538136.462                2      -2362.650          27.000                                                                  
G11  20671938.138   108631729.612        -975.877          47.000    20671941.795    84648132.866        -760.333          44.000  
E26  24463309.805   128555296.146       -3773.865          44.000    24463330.906    98503348.117       -2891.560          47.000  
G06  20270077.346   106519941.988       -3240.450          43.000    20270086.862    83002548.428       -2524.924          45.000  
R14  18971905.068   101131285.045        2639.081          53.000    18971913.412    78657595.713        2052.631          49.000  
R12  21229059.256   113401910.454       -4485.809          46.000    21229065.049    88201609.035       -3489.026          47.000  
R19  20536887.427   109858436.609       -2639.839          38.000    20536892.494    85445453.149       -2053.178          44.000  
E19  24167641.654   127001891.730         620.675          41.000    24167649.746    97313187.105         475.472          43.000  
S31  37019450.110   194538450.821        -819.912          44.000  
G07  17976661.169    94468192.615        -871.232          49.000    17976660.829    73611470.596        -678.977          47.000  
G30  19260561.963   101215171.499        1225.085          49.000    19260566.832    78869318.555         954.517          45.000  
G04  22141738.800   116355608.874       -3171.863          35.000    22141748.453    90666712.839       -2471.338          36.000  
E21  25784633.178   135499147.878        2098.553          40.000    25784659.418   103824115.416        1607.872          45.000  
E30  24753709.352   130081757.463       -1310.825          37.000    24753719.785    99673130.702       -1004.062          37.000  
E27  23671571.422   124395180.682        1054.223          45.000    23671582.798    95315936.629         807.758          50.000  
E12                                                                  25375626.802   102177116.042         350.411          34.000  
> 2024 04 08 17 40 30.4940000  0 25                     
S33  37977127.120   199571081.758        -819.986          43.000  
E07  23788027.302   125006848.733       -2220.181          45.000    23788037.030    95784471.032       -1701.195          50.000  
G20  20729412.062   108933818.054        2042.394          45.000                                                                  
R13  18306286.724    97754812.861       -1823.695          38.000    18306289.993    76031596.616       -1418.275          43.000  
R04  19767878.004   105856209.281        1501.693          50.000    19767878.283    82332595.350        1167.897          47.000  
R02  20707903.403   110501218.294       -2923.251          46.000    20707913.001    85945399.906       -2273.628          44.000  
R03  18308657.548    98007734.698        -666.315          52.000    18308655.810    76228293.807        -518.207          49.000  
R18  21382367.605   114140432.082       -4443.369          40.000    21382384.111    88775833.201       -3456.085          40.000  
E33  23177941.869   121800870.215       -2222.242          48.000    23177948.606    93327989.012       -1702.745          50.000  
G09  19484529.230   102391887.786       -1875.872          48.000    19484531.703    79785951.582       -1461.633          46.000  
G11  20677564.307   108661295.109        -994.935          47.000    20677567.894    84671170.854        -775.274          45.000  
E26  24484862.982   128668551.296       -3776.246          44.000    24484883.812    98590127.139       -2893.389          47.000  
G06  20288615.338   106617355.040       -3253.808          43.000    20288624.626    83078454.347       -2535.414          45.000  
R14  18957098.564   101052360.165        2622.784          53.000    18957107.429    78596209.986        2039.917          49.000  
R12  21254288.696   113536681.999       -4498.738          47.000    21254294.562    88306431.208       -3499.024          48.000  
R19  20551750.846   109937944.148       -2660.646          40.000    20551756.033    85507292.129       -2069.314          43.000  
E19  24164104.418   126983299.718         619.077          42.000    24164111.543    97298941.359         474.593          42.000  
S31  37024133.015   194563056.195        -820.443          44.000  
G07  17981692.158    94494631.578        -891.079          50.000    17981692.045    73632072.392        -694.250          48.000  
G30  19253610.969   101178645.698        1210.141          49.000    19253616.044    78840857.032         942.747          44.000  
G04  22159847.614   116450779.294       -3172.748          37.000    22159859.320    90740871.398       -2472.675          35.000  
E21  25772650.174   135436178.043        2099.768          39.000    25772676.984   103775865.546        1608.983          44.000  
E30  24761231.941   130121289.644       -1324.818          37.000    24761243.593    99703421.651       -1014.697          39.000  
E27  23665581.013   124363703.426        1044.501          45.000    23665592.697    95291817.843         800.384          50.000  
E12                                                                  25373055.423   102166760.392         339.998          35.000  
> 2024 04 08 17 41 00.4940000  0 26                     
S33  37981809.338   199595686.381        -820.352          44.000  
E07  23800704.452   125073469.602       -2221.160          44.000    23800714.628    95835518.123       -1702.010          50.000  
G20  20717778.368   108872680.112        2033.473          44.000                                                                  
R13  18316605.625    97809915.811       -1849.648          38.000    18316608.051    76074454.477       -1438.878          41.000  
R04  19759467.392   105811174.450        1500.574          48.000    19759468.870    82297568.370        1167.222          49.000  
R02  20724357.496   110589021.173       -2930.245          46.000    20724367.903    86013690.785       -2279.090          44.000  
R03  18312415.267    98027850.093        -674.743          52.000    18312413.929    76243939.136        -524.797          50.000  
R18  21407352.456   114273800.961       -4447.783          38.000    21407371.280    88879563.310       -3459.419          40.000  
E33  23190664.161   121867728.909       -2234.940          48.000    23190671.529    93379218.248       -1712.431          50.000  
G09  19495251.118   102448236.248       -1880.552          48.000    19495254.629    79829859.465       -1465.502          47.000  
G16  23565267.084                3      -2391.885          24.000                                                                  
G11  20683299.143   108691430.887       -1014.140          48.000    20683303.363    84694653.211        -790.162          45.000  
E26  24506429.070   128781875.183       -3778.524          44.000    24506449.643    98676958.832       -2895.252          47.000  
G06  20307226.567   106715155.545       -3266.491          43.000    20307235.726    83154662.225       -2545.366          45.000  
R14  18942383.477   100973922.452        2606.451          52.000    18942392.099    78535203.202        2027.167          49.000  
R12  21279588.332   113671838.642       -4511.804          39.000    21279596.879    88411552.909       -3509.064          48.000  
R19  20566729.156   110018062.829       -2680.422          40.000    20566733.849    85569606.466       -2085.072          44.000  
E19  24160573.740   126964745.836         617.812          42.000    24160581.207    97284724.855         473.463          43.000  
S31  37028815.556   194587665.219        -820.091          43.000  
G07  17986836.220    94521661.298        -910.857          50.000    17986836.104    73653134.529        -709.619          48.000  
G30  19246745.094   101142568.920        1195.131          48.000    19246750.773    78812745.361         931.125          44.000  
G04  22177965.336   116545978.181       -3173.743          38.000    22177972.847    90815052.212       -2473.389          33.000  
E21  25760657.145   135373158.469        2101.682          38.000    25760684.942   103727577.603        1610.259          44.000  
E30  24768831.393   130161233.263       -1338.128          35.000    24768844.632    99734027.807       -1025.453          40.000  
E27  23659646.170   124332513.287        1034.914          45.000    23659657.352    95267919.052         792.936          50.000  
E12                                                                  25370557.847   102156708.876         329.955          33.000  
> 2024 04 08 17 41 30.4940000  0 25                     
S33  37986492.117   199620296.889        -820.522          44.000  
E07  23813388.954   125140124.051       -2222.403          44.000    23813398.605    95886590.940       -1702.899          50.000  
G20  20706195.084   108811808.398        2024.877          45.000                                                                  
R13  18327073.061    97865811.599       -1876.122          39.000    18327075.698    76117928.991       -1459.440          42.000  
R04  19751061.817   105766174.683        1499.335          47.000    19751065.468    82262568.691        1166.117          48.000  
R02  20740852.755   110677033.911       -2937.274          47.000    20740860.254    86082144.922       -2284.442          41.000  
R03  18316220.461    98048217.579        -683.108          52.000    18316218.270    76259780.515        -531.332          49.000  
R18  21432360.924   114407290.624       -4451.868          37.000    21432379.729    88983387.372       -3462.462          38.000  
E33  23203459.486   121934967.941       -2247.563          47.000    23203466.736    93430738.900       -1722.174          49.000  
G09  19506002.681   102504732.964       -1885.665          48.000    19506006.038    79873882.818       -1469.238          47.000  
G11  20689142.592   108722138.366       -1032.986          47.000    20689147.713    84718581.041        -804.943          45.000  
E26  24528007.411   128895267.948       -3780.894          44.000    24528027.936    98763843.297       -2897.013          46.000  
G06  20325910.345   106813342.693       -3279.140          45.000    20325919.725    83231171.405       -2555.473          44.000  
R14  18927761.615   100895978.109        2589.899          53.000    18927769.202    78474580.119        2014.349          49.000  
R12  21304962.096   113807378.502       -4524.274          41.000    21304970.042    88516972.786       -3518.986          48.000  
R19  20581820.285   110098791.336       -2700.899          39.000    20581825.543    85632395.087       -2100.636          45.000  
E19  24157050.413   126946231.621         616.423          42.000    24157058.315    97270538.750         472.261          44.000  
S31  37033499.208   194612279.731        -820.590          43.000  
G07  17992091.632    94549282.804        -930.594          49.000    17992092.332    73674657.791        -725.133          48.000  
G30  19239966.125   101106944.301        1179.854          48.000    19239971.536    78784985.988         919.620          44.000  
G04  22196088.164   116641207.945       -3174.809          38.000    22196094.745                       -2473.997          31.000  
E21  25748655.962   135310093.240        2102.608          38.000    25748683.666   103679254.689        1611.211          43.000  
E30  24776513.594   130201590.162       -1352.389          37.000    24776523.663    99764950.652       -1035.995          40.000  
E27  23653766.217   124301614.244        1025.205          46.000    23653777.963    95244243.293         785.453          50.000  
E12                                                                  25368136.473   102146963.831         319.082          32.000  
> 2024 04 08 17 42 00.4940000  0 25                     
S33  37991177.877   199644918.158        -820.777          43.000  
E07  23826079.656   125206816.056       -2223.351          43.000    23826089.599    95937692.532       -1703.704          50.000  
G20  20694663.364   108751209.255        2015.587          45.000                                                                  
E12  25365784.911                         403.746          27.000    25365791.687                         309.789          31.000  
R13  18337690.092    97922502.569       -1902.935          39.000    18337692.172    76162021.975       -1479.874          42.000  
R04  19742666.596   105721215.126        1498.164          48.000    19742668.403    82227600.249        1165.225          48.000  
R02  20757384.647   110765261.379       -2944.297          45.000    20757393.941    86150766.064       -2289.892          43.000  
R03  18320072.835    98068842.531        -691.537          52.000    18320071.156    76275822.165        -537.955          49.000  
R18  21457394.613                       -4455.381          31.000    21457410.850    89087304.644       -3464.854          37.000  
E33  23216326.533   122002589.559       -2260.272          46.000    23216334.847    93482552.719       -1731.856          49.000  
G09  19516782.834   102561381.557       -1890.557          49.000    19516786.062    79918024.535       -1473.132          47.000  
G11  20695095.003   108753420.512       -1052.010          48.000    20695099.091    84742956.709        -819.743          44.000  
E26  24549599.011   129008731.192       -3782.935          44.000    24549619.741    98850781.794       -2898.571          46.000  
G06  20344669.200   106911917.148       -3292.053          45.000    20344677.489    83307982.349       -2564.993          43.000  
R14  18913233.176   100818535.393        2573.322          53.000    18913241.404    78414347.187        2001.361          49.000  
R12  21330408.786   113943301.579       -4536.899          43.000    21330414.776    88622690.682       -3528.634          48.000  
R19  20597025.120   110180129.621       -2721.038          40.000    20597031.146    85695657.955       -2116.537          44.000  
E19  24153535.254   126927760.963         615.146          42.000    24153543.487    97256385.981         471.510          44.000  
S31  37038185.143   194636904.500        -820.767          43.000  
G07  17997462.421    94577498.943        -950.161          51.000    17997461.636    73696644.412        -740.409          48.000  
G30  19233273.787   101071776.415        1164.789          48.000    19233279.264    78757582.566         907.746          44.000  
G04  22214216.018   116736472.448       -3176.003          37.000    22214222.891    90963488.857       -2474.743          33.000  
E21  25736647.658   135246987.908        2104.540          38.000    25736675.591   103630901.061        1612.574          43.000  
E30  24784271.892   130242363.855       -1365.751          37.000    24784282.557    99796192.899       -1046.422          42.000  
E27  23647942.773   124271011.841        1015.312          45.000    23647954.160    95220794.826         777.962          50.000  
> 2024 04 08 17 42 30.4940000  0 25                     
S33  37995862.475   199669537.500        -820.407          43.000  
E07  23838775.898   125273535.337       -2224.256          44.000    23838785.881    95988815.029       -1704.363          50.000  
G20  20683181.586   108690874.646        2006.914          45.000                                                                  
E12  25363524.287                         391.064          28.000    25363525.035   102128396.936         299.068          34.000  
R13  18348453.322    97979976.003       -1928.599          40.000    18348455.203    76206723.537       -1499.944          43.000  
R04  19734277.299   105676286.143        1497.184          50.000    19734276.865    82192655.606        1164.435          45.000  
R02  20773959.082   110853692.866       -2950.932          48.000    20773966.684    86219545.901       -2295.092          43.000  
R03  18323971.907    98089715.247        -699.793          51.000    18323970.880    76292056.499        -544.294          50.000  
R18  21482444.326   114674614.939       -4458.317          35.000    21482462.522    89191303.698       -3468.144          36.000  
E33  23229266.295   122070581.916       -2272.446          47.000    23229273.420    93534650.588       -1741.142          49.000  
G09  19527588.650   102618171.620       -1895.115          47.000    19527593.014    79962276.482       -1476.731          48.000  
G11  20701155.188   108785266.108       -1070.684          47.000    20701158.963    84767771.416        -834.301          44.000  
E26  24571200.831   129122252.452       -3784.876          42.000    24571223.214    98937764.750       -2900.044          46.000  
G06  20363498.512   107010865.349       -3304.358          45.000    20363507.389    83385084.527       -2574.961          44.000  
R14  18898797.890   100741587.271        2556.775          53.000    18898806.316    78354498.954        1988.586          49.000  
R12  21355924.377   114079592.828       -4548.875          45.000    21355928.935    88728694.943       -3538.173          48.000  
R19  20612342.235   110262063.779       -2740.848          40.000    20612347.308    85759384.317       -2131.720          44.000  
E19  24150025.749   126909322.788         614.253          41.000    24150034.567    97242258.141         470.546          43.000  
S31  37042871.533   194661528.651        -820.705          43.000  
G07  18002943.022    94606298.069        -969.895          51.000    18002941.742    73719085.299        -755.458          48.000  
G30  19226667.058   101037055.773        1150.000          48.000    19226672.135    78730527.602         896.164          45.000  
G04  22232348.366   116831761.185       -3176.654          38.000    22232356.097    91037739.656       -2475.595          35.000  
E21  25724630.491   135183833.935        2105.826          39.000    25724657.556   103582510.176        1613.514          42.000  
E30  24792109.245   130283543.793       -1379.483          38.000    24792119.620    99827746.336       -1056.772          42.000  
E27  23642174.022   124240697.342        1005.560          45.000    23642185.121    95197566.933         770.644          50.000  
> 2024 04 08 17 43 00.4940000  0 25                     
S33  38000547.763   199694157.985        -820.772          44.000  
E07  23851478.401   125340283.814       -2225.372          44.000    23851487.867    96039959.901       -1705.284          50.000  
G20  20671751.649   108630808.676        1997.645          46.000                                                                  
E12  25361331.088                         377.446          30.000    25361333.310   102119569.704         289.117          35.000  
R13  18359362.918    98038232.114       -1955.028          40.000    18359364.981    76252033.871       -1520.450          43.000  
R04  19725893.477   105631390.639        1495.923          49.000    19725892.016    82157736.957        1163.251          45.000  
R02  20790568.965   110942331.151       -2958.124          47.000    20790578.067    86288486.526       -2300.592          43.000  
R03  18327918.684    98110839.432        -708.359          52.000    18327917.856    76308486.420        -551.011          51.000  
R18  21507512.699   114808431.529       -4462.039          36.000    21507532.348    89295382.041       -3470.795          34.000  
E33  23242275.274   122138945.168       -2285.041          47.000    23242283.016    93587032.664       -1750.837          49.000  
G09  19538422.485   102675104.852       -1900.130          47.000    19538426.978    80006640.002       -1480.723          47.000  
G11  20707322.680   108817676.027       -1089.822          47.000    20707327.387    84793025.830        -849.227          45.000  
E26  24592815.782   129235831.322       -3787.041          43.000    24592837.809    99024791.820       -2901.589          47.000  
G06  20382399.102   107110185.774       -3316.973          45.000    20382407.867    83462476.743       -2584.515          43.000  
R14  18884456.355   100665139.472        2539.860          53.000    18884464.137    78295039.868        1975.309          50.000  
R12  21381507.208   114216249.955       -4561.169          45.000    21381510.870    88834983.799       -3547.745          47.000  
R19  20627770.103   110344592.032       -2760.827          40.000    20627776.687    85823572.729       -2147.354          44.000  
E19  24146523.852   126890918.473         613.081          41.000    24146531.819    97228156.209         469.754          43.000  
S31  37047557.116   194686153.073        -820.948          43.000  
G07  18008532.867    94635680.896        -989.208          48.000    18008533.063    73741981.048        -770.925          48.000  
G30  19220145.542   101002784.863        1134.812          49.000    19220150.521    78703823.112         884.031          45.000  
G04  22250485.770   116927075.973       -3177.497          38.000    22250496.314    91112010.717       -2476.147          38.000  
E21  25712602.629   135120634.735        2107.260          38.000    25712632.006   103534084.644        1614.715          43.000  
E30  24800022.694   130325131.153       -1392.931          38.000    24800033.096    99859611.984       -1067.407          43.000  
E27  23636460.753   124210674.134         995.829          45.000    23636471.916    95174562.249         763.079          50.000  
> 2024 04 08 17 43 30.4940000  0 25                     
S33  38005233.774   199718781.360        -820.852          44.000  
E07  23864185.781   125407063.322       -2226.748          44.000    23864195.643    96091128.560       -1706.201          50.000  
G20  20660373.707   108571015.543        1988.429          46.000                                                                  
E12  25359215.715   133263531.8601        364.284          31.000    25359217.265   102111049.278         278.437          35.000  
R13  18370418.055    98097270.402       -1980.844          39.000    18370420.493    76297952.533       -1540.883          43.000  
R04  19717514.309   105586531.252        1494.554          47.000    19717515.783    82122846.400        1162.352          47.000  
R02  20807219.502   111031178.230       -2965.170          47.000    20807229.271    86357589.622       -2306.115          44.000  
R03  18331913.107    98132218.086        -717.030          52.000    18331911.406    76325114.256        -557.716          51.000  
R18  21532586.708                1      -4465.914          29.000    21532621.030    89399537.332       -3473.021          31.000  
E33  23255354.356   122207679.486       -2297.479          46.000    23255363.147    93639699.043       -1760.392          50.000  
G09  19549284.166   102732182.891       -1905.129          47.000    19549288.211    80051116.347       -1484.706          47.000  
G11  20713597.568   108850651.001       -1108.711          47.000    20713602.290    84818720.554        -863.974          45.000  
E26  24614440.369   129349467.309       -3788.851          42.000    24614462.922    99111862.672       -2903.095          47.000  
G06  20401370.664   107209877.016       -3329.439          46.000    20401379.179    83540157.878       -2594.265          43.000  
R14  18870209.199   100589197.637        2522.760          53.000    18870217.021    78235974.287        1962.121          50.000  
R12  21407156.827   114353270.779       -4573.588          44.000    21407161.137    88941555.481       -3557.298          46.000  
R19  20643308.816   110427712.374       -2780.722          39.000    20643315.327    85888221.651       -2162.725          44.000  
E19  24143028.406   126872549.602         611.654          41.000    24143036.025    97214081.426         468.723          42.000  
S31  37052243.629   194710780.641        -821.039          43.000  
G07  18014234.496    94665647.953       -1008.760          49.000    18014235.120    73765332.012        -785.975          47.000  
G30  19213709.424   100968966.123        1119.587          49.000    19213714.709    78677470.958         872.467          45.000  
G04  22268629.703   117022418.565       -3178.830          39.000    22268639.573    91186303.419       -2477.165          36.000  
E21  25700567.871   135057393.853        2108.387          38.000    25700597.838   103485627.203        1615.650          44.000  
E30  24808016.610   130367127.379       -1406.800          40.000    24808025.021    99891790.979       -1078.018          42.000  
E27  23630803.529   124180945.644         985.850          45.000    23630814.583    95151783.399         755.448          50.000  
> 2024 04 08 17 44 00.4940000  0 26                     
S33  38009920.646   199743411.679        -821.151          44.000  
E07  23876900.600   125473879.095       -2227.907          44.000    23876910.392    96142324.981       -1707.102          50.000  
G20  20649048.957   108511502.831        1978.918          46.000                                                                  
E12  25357172.391   133252818.274         349.333          30.000    25357178.636   102102840.221         268.406          35.000  
R13  18381621.252    98157094.644       -2007.223          39.000    18381623.898    76344482.497       -1561.138          43.000  
R04  19709144.666   105541714.180        1493.120          47.000    19709147.435    82087988.793        1161.322          47.000  
R02  20823908.827   111120239.718       -2972.182          48.000    20823919.469    86426859.422       -2311.754          45.000  
R03  18335954.708    98153857.684        -725.734          52.000    18335953.569    76341945.054        -564.492          50.000  
R18  21557713.891   115076552.3741      -4469.350          32.000    21557724.599                3      -3476.605          24.000  
E33  23268505.517   122276788.449       -2309.927          46.000    23268514.416    93692652.499       -1769.924          50.000  
G09  19560174.994   102789410.851       -1910.121          47.000    19560177.946    80095709.491       -1488.381          47.000  
G16  23648599.178                3      -2472.666          23.000                                                                  
G11  20719981.251   108884195.204       -1127.620          48.000    20719985.053    84844858.843        -878.679          44.000  
E26  24636076.738   129463163.396       -3791.078          42.000    24636099.595    99198979.606       -2904.785          47.000  
G06  20420411.900   107309940.857       -3341.620          45.000    20420421.767    83618129.367       -2603.911          44.000  
R14  18856059.869   100513770.908        2505.455          53.000    18856067.163    78177309.344        1948.680          50.000  
R12  21432875.141   114490656.223       -4585.641          44.000    21432880.302    89048410.818       -3566.509          44.000  
R19  20658957.903   110511425.476       -2800.248          39.000    20658965.096    85953331.604       -2178.087          45.000  
E19  24139539.731   126854220.430         610.274          40.000    24139547.900    97200037.082         467.531          41.000  
S31  37056931.739   194735415.883        -821.273          43.000  
G07  18020049.349    94696203.065       -1028.347          48.000    18020049.420    73789141.231        -801.410          47.000  
G30  19207361.106   100935605.469        1104.323          49.000    19207366.057    78651475.759         860.517          45.000  
G04  22286779.754   117117794.014       -3179.808          40.000    22286789.167    91260621.762       -2477.542          38.000  
E21  25688526.707   134994118.140        2109.806          36.000    25688557.068   103437143.117        1616.407          44.000  
E30  24816087.558   130409537.359       -1420.749          39.000    24816094.747    99924286.939       -1088.612          43.000  
E27  23625202.429   124151518.631         975.550          44.000    23625214.951    95129235.561         747.652          50.000  
> 2024 04 08 17 44 30.4940000  0 25                     
S33  38014608.907   199768048.799        -821.093          44.000  
E07  23889621.461   125540730.195       -2228.842          44.000    23889631.955    96193548.472       -1707.749          50.000  
G20  20637778.096   108452271.612        1969.874          47.000                                                                  
E12  25355202.578   133242499.4771        337.058          30.000    25355216.650   102094942.105         258.604          36.000  
R13  18392970.722    98217701.629       -2033.107          38.000    18392973.553    76391621.232       -1581.265          43.000  
R04  19700784.690   105496939.368        1492.081          49.000    19700786.802    82053164.055        1160.505          48.000  
R02  20840640.283   111209514.843       -2979.109          48.000    20840648.736    86496295.493       -2317.053          43.000  
R03  18340045.466    98175758.440        -734.138          52.000    18340044.459    76358978.984        -571.052          50.000  
R18  21582831.163   115210661.587       -4471.593          32.000    21582879.316                       -3478.109          28.000  
E33  23281727.992   122346269.314       -2321.896          47.000    23281736.195    93745890.911       -1779.124          50.000  
G09  19571094.002   102846787.445       -1914.689          48.000    19571096.085    80140418.491       -1491.969          46.000  
G11  20726472.738   108918306.518       -1146.232          47.000    20726476.052    84871438.987        -893.188          44.000  
E26  24657723.278   129576916.239       -3792.258          42.000    24657747.381    99286140.037       -2905.908          49.000  
G06  20439524.581   107410373.007       -3353.669          46.000    20439532.931    83696387.810       -2613.025          43.000  
R14  18842006.628   100438861.632        2488.488          53.000    18842014.512    78119046.881        1935.503          50.000  
R12  21458661.859   114628401.191       -4597.338          43.000    21458667.005    89155545.760       -3575.589          41.000  
R19  20674718.143   110595727.135       -2819.870          40.000    20674724.429    86018899.354       -2192.858          45.000  
E19  24136059.273   126835929.717         609.201          41.000    24136067.297    97186022.171         466.962          41.000  
S31  37061620.950   194760057.344        -821.373          43.000  
G07  18025975.679    94727343.817       -1047.413          49.000    18025975.960    73813406.765        -816.264          48.000  
G30  19201099.632   100902702.436        1089.394          49.000    19201104.264    78625837.115         848.878          44.000  
G04  22304935.547   117213201.178       -3180.305          39.000    22304945.155    91334964.823       -2478.366          38.000  
E21  25676478.680   134930808.259        2110.986          37.000    25676509.134   103388632.848        1617.510          43.000  
E30  24824232.330   130452359.301       -1433.983          35.000    24824243.525    99957098.612       -1098.804          43.000  
E27  23619660.253   124122393.559         965.980          44.000    23619672.346    95106919.106         740.184          50.000  
