     3.00           OBSERVATION DATA    M: Mixed            RINEX VERSION / TYPE
CONVBIN 2.4.3                           20240408 195942 UTC PGM / RUN BY / DATE 
format: u-blox UBX                                          COMMENT             
log: data/2024-04-08/20240408194500.ubx                     COMMENT             
AQUI00CHL                                                   MARKER NAME         
                                                            MARKER NUMBER       
                                                            MARKER TYPE         
                                                            OBSERVER / AGENCY   
UNKNOWN             UBLOX-ZED-F9P                           REC # / TYPE / VERS 
UNKNOWN             TWIVSP6037L                             ANT # / TYPE        
  1713381.0000 -5047934.0000 -3490983.0000                  APPROX POSITION XYZ 
        0.0000        0.0000        0.0000                  ANTENNA: DELTA H/E/N
G    8 C1C L1C D1C S1C C2L L2L D2L S2L                      SYS / # / OBS TYPES 
R    8 C1C L1C D1C S1C C2C L2C D2C S2C                      SYS / # / OBS TYPES 
E    8 C1C L1C D1C S1C C7Q L7Q D7Q S7Q                      SYS / # / OBS TYPES 
S    4 C1C L1C D1C S1C                                      SYS / # / OBS TYPES 
  2024    04    08    19    45   00.4980000     GPS         TIME OF FIRST OBS   
  2024    04    08    19    59   30.4980000     GPS         TIME OF LAST OBS    
                                                            END OF HEADER       
> 2024 04 08 19 45 00.4980000  0 19                     
S33  39146441.585   205715840.4651       -819.042          44.000  
G05  21183322.393   111319118.7961        705.524          48.000    21183322.929    86742219.2641        549.725          46.000  
E07  27275464.246   143333335.5201      -2804.691          43.000    27275481.554   109826812.7761      -2149.084          48.000  
G20  20396344.086   107183564.4871      -2004.709          47.000                                                                  
R04  18723479.372   100263577.3811       -808.867          52.000    18723476.319    77982787.8691       -629.216          49.000  
R05  20379483.076   108940000.9601       2281.219          52.000    20379482.037    84731154.0531       1774.225          49.000  
R03  21276462.039   113894535.7011      -3820.175          52.000    21276464.636    88584672.7941      -2971.417          47.000  
G09  23092739.417   121353081.0151      -3277.155          44.000    23092746.388    94560886.8271      -2553.723          41.000  
G13  21797700.744   114547842.1571       1428.879          44.000                                                                  
R14  19226851.546   102490411.0621      -3057.798          53.000    19226853.911    79714723.0511      -2378.395          51.000  
R15  19069798.151   101903524.0921        962.106          51.000    19069799.995    79258491.0751        748.253          50.000  
E19  23452509.448   123243928.9561        307.709          44.000    23452511.325    94433732.8651        235.794          47.000  
S31  38193850.540   200709950.6761       -819.315          43.000  
G14  19887092.604   104507651.4011        456.097          45.000    19887093.934    81434718.6191        355.278          50.000  
G07  21799378.940   114556719.8911      -3722.573          45.000    21799378.076    89264871.7201      -2900.673          44.000  
G30  20131322.117   105791113.1461      -2138.116          50.000    20131322.434    82435003.9931      -1666.138          45.000  
E21  23405409.580   122996573.9581        626.364          48.000    23405415.632    94244307.6611        479.785          53.000  
G22  21261764.435   111731557.9591       2217.900          47.000                                                                  
E27  24397892.207   128212118.4981      -2172.926          48.000    24397896.057    98240630.3531      -1665.017          48.000  
> 2024 04 08 19 45 30.4980000  0 19                     
S33  39151117.051   205740408.305        -818.831          43.000  
G05  21179344.365   111298211.257         688.180          49.000    21179343.976    86725927.690         536.182          46.000  
E07  27291483.596   143417526.545       -2808.207          41.000    27291502.573   109891322.588       -2151.697          48.000  
G20  20407839.610   107243972.720       -2022.696          47.000                                                                  
R04  18728063.613   100288129.313        -828.158          51.000    18728060.989    78001883.843        -643.988          48.000  
R05  20366699.157   108871668.606        2274.042          52.000    20366699.169    84678006.759        1768.762          49.000  
R03  21297908.096   114009334.877       -3833.317          51.000    21297909.331    88673960.702       -2981.375          46.000  
G09  23111466.151   121451492.008       -3283.545          43.000    23111474.599    94637570.525       -2558.887          42.000  
G13  21789546.808   114504990.889        1427.563          45.000                                                                  
R14  19244109.373   102582405.004       -3075.270          53.000    19244112.302    79786273.927       -2391.897          51.000  
R15  19064456.781   101874983.338         940.353          51.000    19064458.240    79236292.851         731.301          48.000  
E19  23450761.020   123234740.456         304.654          44.000    23450762.741    94426692.381         233.465          47.000  
S31  38198527.994   200734530.399        -819.287          44.000  
G14  19884543.127   104494251.634         437.126          46.000    19884544.182    81424277.370         340.605          50.000  
G07  21820638.246   114668437.037       -3725.389          47.000    21820636.888    89351924.072       -2902.950          43.000  
G30  20143551.675   105855383.179       -2146.606          49.000    20143551.230    82485084.613       -1672.766          43.000  
E21  23401868.988   122977968.369         613.853          47.000    23401874.918    94230051.576         470.379          53.000  
G22  21249133.625   111665183.228        2206.871          47.000                                                                  
E27  24410330.142   128277480.914       -2184.754          48.000    24410333.646    98290713.308       -1673.984          48.000  
> 2024 04 08 19 46 00.4980000  0 20                     
S33  39155791.689   205764977.600        -819.163          43.000  
G05  21175465.191   111277826.411         670.562          49.000    21175464.676    86710043.435         522.386          45.000  
E07  27307526.412   143501826.407       -2811.885          43.000    27307544.520   109955915.801       -2154.500          48.000  
G20  20419437.585   107304920.404       -2040.650          47.000                                                                  
R04  18732757.540   100313258.273        -847.428          52.000    18732754.048    78021428.602        -659.137          48.000  
R05  20353956.388   108803550.683        2266.864          52.000    20353956.724    84625026.230        1763.049          49.000  
R16  23013079.762                3       3178.634          26.000                                                                  
R03  21319424.661   114124524.104       -3846.379          50.000    21319428.288    88763551.988       -2991.526          46.000  
G09  23130229.738   121550091.078       -3289.880          44.000    23130237.632    94714400.730       -2563.519          42.000  
G13  21781398.848   114462176.342        1426.108          44.000                                                                  
R14  19261465.823   102674922.025       -3092.672          53.000    19261468.026    79858231.653       -2405.390          51.000  
R15  19059237.365   101847093.825         918.626          51.000    19059239.326    79214601.143         714.540          49.000  
E19  23449030.463   123225648.198         301.488          43.000    23449032.484    94419725.647         231.165          47.000  
S31  38203205.771   200759110.238        -819.505          44.000  
G14  19882101.605   104481420.108         418.124          46.000    19882102.509    81414278.914         325.735          50.000  
G07  21841912.515   114780235.614       -3728.080          47.000    21841911.089    89439039.856       -2904.957          43.000  
G30  20155829.896   105919905.066       -2155.121          49.000    20155828.681    82535361.447       -1679.419          43.000  
E21  23398399.881   122959734.626         601.549          47.000    23398405.321    94216080.414         460.885          53.000  
G22  21236565.032   111599137.652        2195.856          47.000                                                                  
E27  24422835.891   128343199.245       -2196.619          48.000    24422839.123    98341068.984       -1683.031          48.000  
> 2024 04 08 19 46 30.4980000  0 20                     
S33  39160466.444   205789541.746        -818.295          43.000  
G05  21171684.733   111257962.131         653.475          48.000    21171684.780    86694564.817         509.026          46.000  
E07  27323588.873   143586230.858       -2815.169          43.000    27323606.325   110020589.160       -2157.063          48.000  
G20  20431137.410   107366401.747       -2058.276          47.000                                                                  
R04  18737557.462   100338961.722        -866.258          52.000    18737552.985    78041420.135        -673.707          47.000  
R05  20341253.316   108735646.280        2259.943          52.000    20341253.345    84572211.747        1757.703          48.000  
R16  22995224.304                3       3159.352          23.000    22995303.401                3       2466.419          26.000  
R03  21341016.046   114240097.351       -3858.744          50.000    21341020.150    88853441.961       -3001.171          48.000  
G09  23149027.363   121648873.600       -3295.728          43.000    23149035.222    94791373.948       -2568.109          43.000  
G13  21773256.984   114419395.102        1425.493          44.000                                                                  
R14  19278918.076   102767954.597       -3109.555          53.000    19278919.989    79930590.372       -2418.512          50.000  
R15  19054139.752   101819852.112         897.311          51.000    19054140.732    79193413.268         697.864          48.000  
E19  23447317.646   123216648.513         298.784          44.000    23447319.779    94412829.867         228.662          47.000  
S31  38207881.558   200783686.501        -819.292          43.000  
G14  19879767.012   104469153.654         399.486          45.000    19879768.072    81404720.768         311.284          50.000  
G07  21863201.109   114892109.256       -3730.348          47.000    21863200.405    89526214.126       -2906.638          43.000  
G30  20168155.028   105984672.821       -2162.891          50.000    20168154.092    82585829.849       -1685.516          43.000  
E21  23394998.797   122941869.205         589.350          46.000    23395005.613    94202391.481         451.567          53.000  
G22  21224058.903   111533419.234        2185.276          48.000                                                                  
E27  24435407.615   128409267.844       -2208.026          48.000    24435411.457    98391693.047       -1691.955          48.000  
> 2024 04 08 19 47 00.4980000  0 20                     
S33  39165138.758   205814093.116        -818.221          43.000  
G05  21168002.528   111238610.251         636.500          49.000    21168002.180    86679485.458         495.904          46.000  
E07  27339668.252   143670730.409       -2818.163          43.000    27339686.031   110085335.387       -2159.473          48.000  
G20  20442937.506   107428406.135       -2075.452          49.000                                                                  
R04  18742463.566   100365231.798        -885.189          52.000    18742458.660    78061852.401        -688.525          47.000  
R05  20328589.086   108667949.111        2253.034          52.000    20328588.804    84519558.472        1752.332          47.000  
R16  22977447.807   122741425.1681       3164.333          34.000    22977492.328                1       2461.968          30.000  
R03  21362676.076   114356044.011       -3871.057          50.000    21362680.829    88943622.369       -3010.769          48.000  
G09  23167858.360   121747830.035       -3301.526          42.000    23167866.771    94868482.599       -2572.577          43.000  
G13  21765120.899   114376638.583        1424.684          44.000                                                                  
R14  19296464.700   102861489.178       -3126.253          53.000    19296466.762    80003339.508       -2431.468          50.000  
R15  19049160.986   101793249.532         876.110          52.000    19049162.100    79172722.525         681.440          48.000  
E19  23445619.721   123207732.902         295.636          43.000    23445623.181    94405998.459         226.492          47.000  
S31  38212555.793   200808249.484        -818.600          43.000  
G14  19877537.111   104457443.949         381.017          45.000    19877539.606    81395596.506         296.745          50.000  
G07  21884501.995   115004047.333       -3732.242          48.000    21884501.240    89613438.620       -2908.316          43.000  
G30  20180524.763   106049675.476       -2170.746          50.000    20180524.276    82636481.296       -1691.486          44.000  
E21  23391668.487   122924363.485         577.507          47.000    23391674.352    94188978.166         442.455          54.000  
G22  21211614.391   111468021.426        2174.568          48.000                                                                  
E27  24448044.697   128475675.908       -2219.391          48.000    24448048.747    98442577.211       -1700.522          48.000  
> 2024 04 08 19 47 30.4980000  0 20                     
S33  39169808.198   205838635.370        -818.400          43.000  
G05  21164418.580   111219775.950         619.028          49.000    21164418.570    86664809.397         482.293          46.000  
E07  27355767.065   143755328.614       -2821.684          42.000    27355784.599   110150157.192       -2162.094          47.000  
G20  20454836.147   107490934.881       -2093.325          48.000                                                                  
R04  18747475.570   100392073.513        -904.479          52.000    18747471.152    78082729.278        -703.374          47.000  
R05  20315964.906   108600466.013        2245.685          52.000    20315964.625    84467071.685        1746.661          48.000  
R16  22959693.284   122646599.713        3157.139          37.000    22959729.397    95392024.4811       2455.503          35.000  
R03  21384406.399   114472365.960       -3883.857          50.000    21384410.922    89034094.675       -3020.742          49.000  
G09  23186721.966   121846963.521       -3307.776          41.000    23186730.895    94945729.267       -2577.509          43.000  
G13  21756990.157   114333911.037        1423.591          44.000                                                                  
R14  19314105.523   102955525.560       -3143.016          52.000    19314107.397    80076478.978       -2444.547          49.000  
R15  19044303.195   101767290.253         854.362          53.000    19044304.320    79152532.103         664.514          49.000  
E19  23443939.898   123198905.667         292.537          43.000    23443943.334    94399234.781         224.115          47.000  
S31  38217228.397   200832802.419        -818.347          43.000  
G14  19875415.585   104446295.745         362.096          45.000    19875417.523    81386909.705         282.152          50.000  
G07  21905816.664   115116051.651       -3734.709          48.000    21905815.875    89700714.730       -2910.160          44.000  
G30  20192939.316   106114914.948       -2178.656          49.000    20192939.737    82687317.279       -1697.577          45.000  
E21  23388405.778   122907221.779         565.148          47.000    23388412.474    94175843.754         433.071          54.000  
G22  21199231.677   111402950.632        2163.276          48.000                                                                  
E27  24460746.852   128542425.613       -2230.811          47.000    24460751.171    98493723.145       -1709.248          49.000  
> 2024 04 08 19 48 00.4980000  0 20                     
S33  39174475.827   205863160.903        -817.234          43.000  
G05  21160932.288   111201455.031         602.233          49.000    21160932.202    86650533.396         469.246          46.000  
E07  27371883.775   143840019.831       -2824.588          43.000    27371901.288   110215050.287       -2164.291          47.000  
G20  20466832.670   107553981.004       -2110.104          48.000                                                                  
R04  18752594.373   100419482.569        -923.042          53.000    18752589.565    78104047.399        -717.843          47.000  
R05  20303380.191   108533194.478        2238.806          52.000    20303380.565    84414749.479        1741.315          48.000  
R16  22941977.379   122551979.121        3150.106          36.000    22942006.360    95318430.136        2451.236          32.000  
R03  21406205.592   114589056.035       -3895.686          51.000    21406209.977    89124853.220       -3029.814          48.000  
G09  23205618.792   121946268.091       -3312.805          41.000    23205628.136    95023109.237       -2581.616          42.000  
G13  21748863.513   114291207.682        1423.098          43.000                                                                  
R14  19331839.568   103050054.643       -3159.068          52.000    19331840.520    80150001.631       -2457.009          48.000  
R15  19039564.633   101741969.143         833.541          53.000    19039566.211    79132838.054         648.248          49.000  
E19  23442276.279   123190162.105         290.090          43.000    23442279.361    94392535.214         222.333          47.000  
S31  38221897.672   200857340.030        -817.485          44.000  
G14  19873401.101   104435704.410         343.754          46.000    19873402.609    81378656.850         267.894          50.000  
G07  21927141.134   115228114.712       -3736.339          47.000    21927140.713    89788036.621       -2911.588          43.000  
G30  20205397.660   106180383.958       -2185.944          50.000    20205398.248    82738332.128       -1703.345          45.000  
E21  23385211.243   122890439.165         553.604          46.000    23385218.421    94162984.499         424.172          54.000  
G22  21186910.408   111338203.642        2152.857          48.000                                                                  
E27  24473511.718   128609509.898       -2241.605          46.000    24473516.385    98545125.459       -1717.493          48.000  
> 2024 04 08 19 48 30.4980000  0 20                     
S33  39179139.122   205887666.835        -816.930          44.000  
G05  21157542.605   111183644.897         584.787          49.000    21157542.564    86636655.412         455.640          46.000  
E07  27388016.209   143924799.689       -2827.832          43.000    27388034.565   110280011.300       -2166.616          47.000  
G20  20478926.985   107617538.554       -2127.312          46.000                                                                  
R04  18757818.299   100447456.504        -942.168          52.000    18757813.080    78125804.885        -732.648          47.000  
R05  20290834.685   108466133.350        2231.586          52.000    20290835.114    84362590.893        1735.724          48.000  
R16  22924301.862   122457561.326        3143.838          41.000    22924325.314    95244993.794        2444.600          32.000  
R03  21428072.567   114706108.377       -3907.927          51.000    21428076.710    89215893.571       -3039.536          49.000  
G09  23224548.863   122045739.226       -3318.683          42.000    23224556.369    95100619.005       -2585.925          41.000  
G13  21740740.262   114248524.873        1422.034          44.000                                                                  
R14  19349664.646   103145068.174       -3175.474          52.000    19349664.595    80223901.084       -2469.841          48.000  
R15  19034944.959   101717282.699         812.050          52.000    19034946.275    79113637.666         631.525          49.000  
E19  23440627.788   123181498.447         287.139          43.000    23440630.834    94385896.864         220.116          47.000  
S31  38226564.042   200881858.129        -816.962          44.000  
G14  19871490.884   104425666.685         325.153          45.000    19871492.109    81370835.415         253.257          50.000  
G07  21948475.885   115340231.429       -3738.542          46.000    21948475.426    89875400.290       -2913.046          43.000  
G30  20217899.062   106246076.678       -2193.781          50.000    20217898.652    82789521.318       -1709.308          44.000  
E21  23382085.588   122874012.094         541.406          46.000    23382092.272    94150397.670         414.842          54.000  
G22  21174650.077   111273778.862        2141.909          48.000                                                                  
E27  24486340.194   128676923.164       -2252.796          46.000    24486344.817    98596779.861       -1726.172          49.000  
> 2024 04 08 19 49 00.4980000  0 20                     
S33  39183799.817   205912160.803        -816.300          43.000  
G05  21154253.025   111166354.852         567.552          50.000    21154251.655    86623182.678         442.302          46.000  
E07  27404168.317   144009675.750       -2830.820          44.000    27404186.134   110345046.063       -2169.171          47.000  
G20  20491120.734   107681613.370       -2144.408          47.000                                                                  
R04  18763149.295   100476004.419        -961.227          52.000    18763144.780    78148008.795        -747.604          47.000  
R05  20278330.391   108399293.830        2224.274          52.000    20278330.797    84310604.687        1729.944          48.000  
R16  22906667.455   122363356.733        3136.474          43.000    22906691.533    95171723.122        2439.226          34.000  
R03  21450007.446   114823529.063       -3920.212          52.000    21450012.304    89307220.404       -3049.095          49.000  
G09  23243511.597   122145384.152       -3324.530          43.000    23243519.231    95178264.158       -2590.430          41.000  
G13  21732623.443   114205871.137        1421.045          43.000                                                                  
R14  19367579.502   103240570.136       -3191.581          53.000    19367580.929    80298180.418       -2482.295          50.000  
R15  19030445.385   101693238.835         790.808          52.000    19030446.531    79094937.033         614.994          48.000  
E19  23438996.686   123172923.549         284.382          43.000    23438998.873    94379326.538         217.938          47.000  
S31  38231226.660   200906363.274        -816.671          44.000  
G14  19869686.983   104416191.163         306.531          44.000    19869688.829    81363452.046         238.609          50.000  
G07  21969822.751   115452407.045       -3740.431          47.000    21969820.274    89962809.831       -2914.533          42.000  
G30  20230443.608   106311999.046       -2201.282          50.000    20230442.579    82840889.424       -1715.289          44.000  
E21  23379028.815   122857948.841         529.207          46.000    23379035.443    94138089.593         405.506          54.000  
G22  21162452.971   111209686.096        2130.695          47.000                                                                  
E27  24499233.136   128744671.548       -2263.902          46.000    24499237.372    98648691.012       -1734.718          49.000  
> 2024 04 08 19 49 30.4980000  0 20                     
S33  39188460.493   205936654.805        -817.087          42.000  
G05  21151064.050   111149598.725         549.466          49.000    21151063.607    86610126.000         428.181          47.000  
E07  27420340.039   144094660.712       -2834.906          42.000    27420358.177   110410164.249       -2172.113          47.000  
G20  20503414.218   107746216.379       -2162.397          48.000                                                                  
R04  18768590.568   100505141.009        -981.205          52.000    18768586.760    78170670.597        -763.215          49.000  
R05  20265871.444   108332692.013        2215.937          52.000    20265871.919    84258803.349        1723.401          48.000  
R16  22889074.575   122269380.813        3128.511          38.000    22889101.041                        2433.250          31.000  
R03  21472014.229   114941330.033       -3933.186          51.000    21472019.533    89398843.011       -3059.241          49.000  
G09  23262508.347   122245215.208       -3330.957          41.000    23262516.209    95256054.373       -2595.703          42.000  
G13  21724514.780   114163260.063        1419.270          43.000                                                                  
R14  19385588.664   103336569.540       -3208.293          53.000    19385590.027    80372846.675       -2495.442          50.000  
R15  19026068.539   101669851.378         768.499          52.000    19026069.260    79076746.935         597.544          48.000  
E19  23437384.322   123164450.748         280.643          44.000    23437386.278    94372834.456         214.910          47.000  
S31  38235890.010   200930868.475        -817.115          44.000  
G14  19867994.070   104407291.554         286.932          45.000    19867994.530    81356517.415         223.473          50.000  
G07  21991181.832   115564652.735       -3742.761          47.000    21991181.313    90050273.987       -2916.396          43.000  
G30  20243033.775   106378162.210       -2209.619          51.000    20243033.142    82892445.177       -1721.832          44.000  
E21  23376043.868   122842262.812         516.446          47.000    23376050.316    94126070.574         395.725          54.000  
G22  21150322.286   111145940.807        2118.911          48.000                                                                  
E27  24512191.026   128812766.253       -2275.707          46.000    24512195.478    98700867.534       -1743.777          49.000  
> 2024 04 08 19 50 00.4980000  0 20                     
S33  39193121.349   205961146.099        -816.473          43.000  
G05  21147977.050   111133375.662         531.786          50.000    21147976.547    86597484.699         414.325          46.000  
E07  27436533.158   144179751.754       -2838.210          43.000    27436550.765   110475363.693       -2174.675          47.000  
G20  20515807.682   107811343.268       -2179.734          47.000                                                                  
R04  18774141.790   100534864.689       -1000.600          53.000    18774137.097    78193788.991        -778.255          48.000  
R05  20253456.749   108266328.172        2208.094          51.000    20253456.666    84207187.120        1717.395          48.000  
R16  22871524.710   122175632.910        3121.036          39.000    22871545.766    95025573.8601       2427.811          33.000  
R03  21494090.713   115059506.417       -3945.551          50.000    21494095.828    89490757.556       -3068.714          48.000  
G09  23281540.719   122345229.378       -3337.036          42.000    23281549.135    95333987.222       -2600.293          43.000  
G13  21716414.797   114120689.801        1418.230          45.000                                                                  
R14  19403691.267   103433060.080       -3224.565          52.000    19403690.634    80447894.915       -2507.981          48.000  
R15  19021814.351   101647118.266         746.825          52.000    19021815.073    79059065.789         580.763          48.000  
E19  23435790.529   123156077.931         277.435          43.000    23435792.905    94366418.962         212.583          47.000  
S31  38240552.500   200955371.134        -816.917          44.000  
G14  19866410.047   104398966.092         267.758          46.000    19866410.482    81350030.180         208.763          50.000  
G07  22012554.264   115676964.505       -3744.843          46.000    22012551.659    90137789.650       -2918.066          41.000  
G30  20255668.340   106444561.732       -2217.206          50.000    20255669.449    82944185.135       -1727.875          45.000  
E21  23373130.602   122826951.970         504.004          47.000    23373136.677    94114339.035         386.204          53.000  
G22  21138258.192   111082542.977        2107.440          48.000                                                                  
E27  24525214.996   128881203.172       -2286.940          47.000    24525218.453    98753306.269       -1752.328          49.000  
> 2024 04 08 19 50 30.4980000  0 20                     
S33  39197779.814   205985625.971        -815.836          43.000  
G05  21144989.098   111117677.968         514.562          50.000    21144989.245    86585252.781         400.990          46.000  
E07  27452743.815   144264940.536       -2841.210          43.000    27452761.499   110540638.018       -2176.923          47.000  
G20  20528299.258   107876983.970       -2196.713          48.000                                                                  
R04  18779799.976   100565168.593       -1019.785          52.000    18779795.444    78217358.684        -793.092          47.000  
R05  20241085.711   108200197.296        2200.360          52.000    20241084.721    84155752.053        1711.554          48.000  
R16  22854017.190   122082107.526        3113.855          38.000    22854041.973    94952831.625        2421.873          37.000  
R03  21516234.776   115178048.543       -3957.531          49.000    21516240.928    89582956.567       -3078.010          48.000  
G09  23300606.574   122445418.001       -3342.499          41.000    23300614.525    95412056.041       -2604.523          42.000  
G13  21708320.417   114078152.859        1417.222          45.000                                                                  
R14  19421881.890   103530029.627       -3240.267          52.000    19421881.728    80523315.690       -2520.180          49.000  
R15  19017680.567   101625031.237         725.421          52.000    19017681.742    79041887.172         564.229          48.000  
E19  23434215.881   123147798.039         274.515          44.000    23434217.091    94360074.686         210.379          47.000  
S31  38245212.837   200979862.691        -816.013          44.000  
G14  19864933.322   104391207.422         249.206          45.000    19864933.834    81343984.619         194.244          50.000  
G07  22033937.857   115789332.522       -3746.552          46.000    22033935.041    90225349.128       -2919.338          41.000  
G30  20268346.896   106511187.857       -2224.780          49.000    20268348.086    82996101.623       -1733.618          45.000  
E21  23370287.896   122812008.745         491.960          48.000    23370292.759    94102889.169         376.974          54.000  
G22  21126258.821   111019486.974        2096.062          48.000                                                                  
E27  24538299.827   128949972.596       -2297.741          46.000    24538304.635    98805999.779       -1760.674          49.000  
> 2024 04 08 19 51 00.4980000  0 20                     
S33  39202433.694   206010082.691        -814.806          44.000  
G05  21142100.316   111102496.140         497.253          49.000    21142100.227    86573422.819         387.468          46.000  
E07  27468971.176   144350214.627       -2844.170          43.000    27468988.913   110605977.707       -2179.144          47.000  
G20  20540885.096   107943124.119       -2213.062          48.000                                                                  
R04  18785565.928   100596041.613       -1038.829          53.000    18785560.911    78241371.010        -807.968          48.000  
R05  20228756.648   108134290.272        2193.061          52.000    20228755.671    84104491.132        1705.676          49.000  
R16  22836547.574   121988794.513        3106.905          40.000    22836574.698    94880254.386        2416.111          38.000  
R03  21538446.259   115296941.978       -3969.106          52.000    21538450.695    89675428.812       -3087.109          47.000  
G09  23319703.308   122545768.338       -3347.809          42.000    23319710.976    95490250.850       -2608.636          42.000  
G13  21700230.343   114035637.429        1416.462          46.000                                                                  
R14  19440159.447   103627461.938       -3255.689          52.000    19440159.966    80599096.403       -2532.152          49.000  
R15  19013666.508   101603578.314         704.380          53.000    19013666.641    79025201.741         547.837          48.000  
E19  23432655.361   123139599.324         271.741          43.000    23432656.905    94353792.614         208.293          46.000  
S31  38249868.990   201004330.832        -815.592          44.000  
G14  19863561.835   104384004.068         230.755          45.000    19863563.288    81338371.790         179.765          50.000  
G07  22055328.644   115901742.779       -3747.868          47.000    22055326.307    90312941.526       -2920.543          41.000  
G30  20281065.927   106578026.540       -2231.671          49.000    20281066.915    83048183.733       -1739.026          45.000  
E21  23367511.349   122797421.352         480.172          48.000    23367516.643    94091711.957         367.928          53.000  
G22  21114322.404   110956762.723        2085.042          48.000                                                                  
E27  24551447.215   129019060.692       -2308.385          46.000    24551451.570    98858937.463       -1768.774          49.000  
> 2024 04 08 19 51 30.4980000  0 20                     
S33  39207083.045   206034516.707        -814.453          44.000  
G05  21139309.702   111087832.038         479.945          49.000    21139309.575    86561996.298         374.068          46.000  
E07  27485214.410   144435575.409       -2847.273          43.000    27485232.459   110671383.840       -2181.588          46.000  
G20  20553566.456   108009763.597       -2229.764          49.000                                                                  
R04  18791437.277   100627486.593       -1057.952          52.000    18791433.216    78265828.236        -822.932          48.000  
R05  20216470.457   108068611.885        2185.138          52.000    20216469.421    84053408.025        1699.500          49.000  
R16  22819120.834   121895697.598        3099.285          42.000    22819145.595    94807845.162        2410.378          39.000  
R03  21560723.294   115416186.741       -3980.954          52.000    21560726.614    89768174.394       -3096.324          47.000  
G09  23338830.712   122646281.456       -3353.326          44.000    23338837.812    95568572.554       -2612.927          42.000  
G13  21692143.910   113993146.248        1415.713          45.000                                                                  
R14  19458523.906   103725354.643       -3271.050          52.000    19458524.306    80675235.225       -2544.132          49.000  
R15  19009770.236   101582761.284         683.072          52.000    19009769.964    79009010.925         531.252          47.000  
E19  23431111.445   123131484.144         268.896          43.000    23431112.380    94347574.548         206.023          47.000  
S31  38254521.020   201028777.007        -814.671          44.000  
G14  19862296.840   104377358.405         211.795          45.000    19862298.212    81333193.529         165.086          50.000  
G07  22076727.368   116014194.990       -3749.300          46.000    22076726.330    90400566.629       -2921.812          42.000  
G30  20293825.632   106645077.705       -2238.898          49.000    20293826.387    83100431.407       -1744.574          46.000  
E21  23364802.282   122783191.928         467.964          47.000    23364808.762    94080809.046         358.660          53.000  
G22  21102450.354   110894374.175        2073.729          48.000                                                                  
E27  24564655.412   129088467.427       -2319.121          47.000    24564659.021    98912119.299       -1776.995          49.000  
> 2024 04 08 19 52 00.4980000  0 20                     
S33  39211729.925   206058936.506        -814.042          43.000  
G05  21136619.456   111073694.213         462.375          50.000    21136619.257    86550979.865         360.188          46.000  
E07  27501476.341   144521030.010       -2850.006          42.000    27501493.995   110736861.852       -2183.827          45.000  
G20  20566343.066   108076907.545       -2246.626          48.000                                                                  
R04  18797417.828   100659512.308       -1077.417          52.000    18797413.798    78290737.113        -837.954          48.000  
R05  20204228.483   108003172.518        2177.075          52.000    20204227.311    84002510.800        1693.359          49.000  
R16  22801736.079   121802826.477        3091.730          40.000    22801759.989    94735611.714        2404.551          41.000  
R03  21583065.223   115535788.803       -3992.892          50.000    21583071.239    89861197.818       -3105.587          48.000  
G09  23357989.999   122746964.189       -3358.954          44.000    23357998.311    95647026.421       -2617.188          43.000  
G13  21684063.914   113950686.995        1414.368          46.000                                                                  
R14  19476974.989   103823711.137       -3286.403          52.000    19476976.928    80751734.736       -2556.130          51.000  
R15  19005994.493   101562587.901         661.560          52.000    19005994.830    78993320.705         514.540          48.000  
E19  23429583.754   123123460.402         265.775          43.000    23429585.599    94341426.536         203.604          47.000  
S31  38259169.623   201053207.993        -814.376          43.000  
G14  19861140.346   104371278.412         193.090          45.000    19861141.101    81328456.035         150.476          50.000  
G07  22098134.623   116126694.941       -3750.865          46.000    22098133.785    90488228.911       -2922.756          41.000  
G30  20306626.403   106712346.865       -2246.002          50.000    20306626.850    83152848.968       -1750.354          45.000  
E21  23362163.161   122769328.269         455.882          46.000    23362170.360    94070186.408         349.323          53.000  
G22  21090643.331   110832331.072        2062.059          48.000                                                                  
E27  24577924.391   129158198.547       -2329.881          47.000    24577928.071    98965549.696       -1785.199          49.000  
> 2024 04 08 19 52 30.4980000  0 20                     
S33  39216374.798   206083346.021        -813.610          43.000  
G05  21134030.012   111060089.728         444.377          49.000    21134030.338    86540379.011         346.132          46.000  
E07  27517756.733   144606583.851       -2853.532          42.000    27517774.277   110802415.898       -2186.479          45.000  
G20  20579217.460   108144559.694       -2263.703          47.000                                                                  
R04  18803508.160   100692125.729       -1097.143          52.000    18803504.086    78316103.116        -853.435          48.000  
R05  20192032.953   107937981.353        2168.707          52.000    20192032.225    83951806.672        1686.725          49.000  
R16  22784393.262   121710189.230        3083.486          39.000    22784418.213    94663560.162        2398.589          41.000  
R03  21605473.768   115655751.525       -4004.870          49.000    21605481.503    89954501.687       -3115.030          49.000  
G09  23377182.242   122847821.665       -3364.990          43.000    23377190.972    95725616.419       -2622.144          43.000  
G13  21675991.874   113908266.232        1413.025          46.000                                                                  
R14  19495514.825   103922533.372       -3302.052          53.000    19495515.615    80828596.507       -2568.238          50.000  
R15  19002340.733   101543064.120         639.817          51.000    19002340.180    78978135.785         497.642          47.000  
E19  23428075.045   123115534.607         262.371          43.000    23428077.381    94335353.601         200.877          47.000  
S31  38263816.449   201077629.258        -814.172          43.000  
G14  19860091.911   104365770.437         173.839          44.000    19860093.148    81324164.266         135.375          51.000  
G07  22119552.432   116239246.761       -3752.770          45.000    22119551.766    90575931.626       -2924.340          41.000  
G30  20319469.706   106779837.952       -2253.662          50.000    20319470.382    83205439.453       -1756.091          46.000  
E21  23359596.200   122755836.458         443.319          46.000    23359602.829    94059848.695         339.629          53.000  
G22  21078904.073   110770641.628        2050.245          49.000                                                                  
E27  24591256.076   129228258.040       -2340.974          47.000    24591260.012    99019231.704       -1793.770          49.000  
> 2024 04 08 19 53 00.4980000  0 20                     
S33  39221019.465   206107753.303        -813.613          43.000  
G05  21131544.906   111047027.680         426.217          49.000    21131544.721    86530200.817         332.146          45.000  
E07  27534057.483   144692244.186       -2857.449          42.000    27534075.014   110868051.561       -2189.582          45.000  
G20  20592189.046   108212725.410       -2280.785          47.000                                                                  
R04  18809710.258   100725335.601       -1117.116          52.000    18809706.528    78341932.998        -868.818          49.000  
R05  20179885.911   107873048.841        2159.882          51.000    20179884.956    83901303.700        1679.926          49.000  
R16  22767097.715   121617796.053        3075.367          36.000    22767122.327    94591698.444        2392.094          43.000  
R03  21627954.703   115776081.381       -4017.214          52.000    21627960.934    90048091.121       -3124.572          49.000  
G09  23396408.991   122948860.858       -3371.276          43.000    23396418.341    95804347.966       -2626.807          43.000  
G13  21667928.244   113865892.048        1411.345          45.000                                                                  
R14  19514141.544   104021825.043       -3317.701          53.000    19514142.676    80905823.410       -2580.434          51.000  
R15  18998810.130   101524197.703         617.728          52.000    18998810.421    78963462.093         480.484          48.000  
E19  23426586.161   123107715.037         258.448          42.000    23426589.207    94329362.017         198.268          47.000  
S31  38268464.008   201102048.312        -813.942          44.000  
G14  19859154.455   104360842.601         154.394          44.000    19859154.896    81320324.535         120.312          50.000  
G07  22140981.735   116351855.906       -3754.692          46.000    22140981.214    90663679.020       -2925.770          42.000  
G30  20332357.037   106847556.680       -2261.212          51.000    20332357.347    83258207.319       -1761.920          46.000  
E21  23357101.786   122742724.459         430.546          46.000    23357107.638    94049801.988         329.880          53.000  
G22  21067233.543   110709315.611        2037.960          48.000                                                                  
E27  24604651.829   129298651.767       -2352.241          47.000    24604655.661    99073169.801       -1802.308          49.000  
> 2024 04 08 19 53 30.4980000  0 20                     
S33  39225662.454   206132153.524        -812.898          42.000  
G05  21129161.744   111034504.506         408.314          49.000    21129161.413    86520442.545         318.232          45.000  
E07  27550377.911   144778006.760       -2860.390          42.000    27550395.600   110933765.533       -2191.494          46.000  
G20  20605256.171   108281398.730       -2297.515          46.000                                                                  
R04  18816022.254   100759139.005       -1136.577          52.000    18816017.918    78368224.528        -884.118          48.000  
R05  20167787.695   107808374.607        2151.465          52.000    20167786.350    83851001.612        1673.303          49.000  
R16  22749844.318   121525645.126        3067.867          32.000    22749871.222    94520025.116        2386.038          42.000  
R03  21650501.498   115896772.327       -4028.897          52.000    21650506.760    90141961.421       -3133.689          47.000  
G09  23415670.718   123050077.226       -3376.872          44.000    23415679.236    95883217.579       -2631.298          42.000  
G13  21659872.912   113823561.392        1410.197          46.000                                                                  
R14  19532853.916   104121577.778       -3332.714          52.000    19532855.702    80983408.900       -2592.093          51.000  
R15  18995401.471   101505984.800         596.179          52.000    18995402.604    78949296.698         463.731          49.000  
E19  23425117.734   123099998.318         255.497          42.000    23425120.579    94323449.283         195.808          47.000  
S31  38273109.273   201126459.516        -813.604          44.000  
G14  19858326.324   104356491.556         135.317          43.000    19858326.243    81316934.267         105.484          50.000  
G07  22162419.907   116464516.998       -3756.347          44.000    22162419.620    90751466.857       -2926.834          42.000  
G30  20345284.963   106915497.418       -2268.500          50.000    20345285.567    83311148.206       -1767.658          45.000  
E21  23354677.955   122729988.749         418.271          46.000    23354683.930    94040043.618         320.509          54.000  
G22  21055631.974   110648351.365        2026.001          48.000                                                                  
E27  24618109.920   129369374.123       -2362.769          47.000    24618113.817    99127359.723       -1810.488          50.000  
> 2024 04 08 19 54 00.4980000  0 20                     
S33  39230304.447   206156545.667        -812.880          43.000  
G05  21126881.325   111022519.947         390.490          50.000    21126880.854    86511103.961         304.099          45.000  
E07  27566716.350   144863869.789       -2863.974          40.000    27566735.434   110999556.484       -2194.403          46.000  
G20  20618419.845   108350576.005       -2314.321          46.000                                                                  
R04  18822445.081   100793535.717       -1156.561          52.000    18822442.180    78394977.510        -899.536          49.000  
R05  20155737.221   107743959.951        2142.731          51.000    20155736.153    83800901.425        1666.498          49.000  
R16  22732640.585   121433737.020        3059.722          39.000    22732666.382    94448540.596        2379.812          42.000  
R03  21673112.604   116017820.627       -4040.961          50.000    21673119.137    90236109.637       -3142.940          47.000  
G09  23434964.966   123151468.527       -3382.682          44.000    23434973.337    95962223.558       -2635.913          42.000  
G13  21651826.003   113781273.234        1408.610          45.000                                                                  
R14  19551652.891   104221786.556       -3347.962          53.000    19551654.973    81061349.073       -2603.956          51.000  
R15  18992115.374   101488423.827         574.371          52.000    18992116.535    78935638.366         446.700          50.000  
E19  23423668.747   123092383.392         251.915          42.000    23423671.502    94317614.541         193.120          47.000  
S31  38277752.816   201150863.327        -813.513          44.000  
G14  19857606.879   104352716.270         116.174          44.000    19857607.703    81313992.640          90.546          50.000  
G07  22183868.372   116577226.948       -3757.814          46.000    22183867.720    90839292.829       -2928.325          42.000  
G30  20358254.948   106983656.749       -2275.720          50.000    20358255.406    83364259.411       -1773.267          45.000  
E21  23352325.456   122717628.064         405.664          46.000    23352331.704    94030572.639         310.827          54.000  
G22  21044099.401   110587749.681        2013.933          48.000                                                                  
E27  24631629.928   129440421.848       -2373.778          47.000    24631633.601    99181798.924       -1818.894          50.000  
> 2024 04 08 19 54 30.4980000  0 20                     
S33  39234943.615   206180925.651        -812.630          44.000  
G05  21124703.087   111011072.375         372.263          50.000    21124703.215    86502183.798         290.087          46.000  
E07  27583075.068   144949830.213       -2867.184          41.000    27583092.917   111065422.072       -2196.997          45.000  
G20  20631678.731   108420252.256       -2331.066          46.000                                                                  
R04  18828979.401   100828523.615       -1176.418          52.000    18828976.094    78422190.306        -914.964          49.000  
R05  20143735.950   107679805.193        2133.875          52.000    20143734.165    83751003.372        1659.656          48.000  
R16  22715485.325   121342071.055        3051.105          42.000    22715507.288    94377244.594        2373.011          44.000  
R03  21695793.879   116139221.957       -4052.895          51.000    21695798.306    90330532.435       -3152.128          47.000  
G09  23454291.166   123253031.540       -3388.531          42.000    23454299.699    96041363.272       -2640.208          41.000  
G13  21643786.765   113739025.878        1407.201          46.000                                                                  
R14  19570535.650   104322444.128       -3362.923          53.000    19570538.365    81139638.321       -2615.646          51.000  
R15  18988951.268   101471512.193         552.554          52.000    18988951.514    78922485.046         429.804          50.000  
E19  23422240.097   123084868.360         248.654          43.000    23422241.262    94311856.341         190.482          46.000  
S31  38282394.283   201175255.723        -812.886          44.000  
G14  19856997.828   104349514.603          96.819          45.000    19856998.411    81311497.980          75.536          50.000  
G07  22205324.947   116689981.184       -3759.461          46.000    22205323.923    90927153.262       -2929.407          42.000  
G30  20371265.586   107052030.240       -2282.849          49.000    20371265.961    83417537.506       -1778.943          45.000  
E21  23350044.192   122705640.127         393.065          47.000    23350050.683    94021387.274         301.175          54.000  
G22  21032636.803   110527510.022        2001.704          48.000                                                                  
E27  24645210.528   129511790.531       -2384.593          47.000    24645214.643    99236484.061       -1827.158          50.000  
> 2024 04 08 19 55 00.4980000  0 20                     
S33  39239581.135   206205295.967        -812.326          42.000  
G05  21122627.338   111000165.367         354.102          50.000    21122627.341    86493684.841         275.929          46.000  
E07  27599452.518   145035889.774       -2870.500          43.000    27599469.732   111131363.594       -2199.576          45.000  
G20  20645033.736   108490427.585       -2347.822          47.000                                                                  
R04  18835624.734   100864106.111       -1196.318          52.000    18835620.270    78449865.597        -930.501          48.000  
R05  20131784.352   107615915.696        2124.847          52.000    20131782.324    83701311.622        1652.661          48.000  
R16  22698370.473   121250651.574        3043.115          41.000    22698394.033    94306140.239        2366.795          43.000  
R03  21718538.441   116260976.238       -4064.682          50.000    21718543.898    90425229.729       -3161.334          48.000  
G09  23473651.576   123354767.604       -3394.398          43.000    23473660.121    96120637.836       -2645.156          40.000  
G13  21635754.964   113696821.689        1405.524          46.000                                                                  
R14  19589503.373   104423549.018       -3377.927          52.000    19589505.251    81218275.478       -2627.291          50.000  
R15  18985907.505   101455251.808         530.910          52.000    18985908.012    78909838.274         412.801          49.000  
E19  23420829.573   123077455.893         245.082          44.000    23420831.081    94306176.714         187.760          47.000  
S31  38287034.095   201199637.536        -812.854          44.000  
G14  19856498.350   104346889.041          77.691          45.000    19856499.072    81309452.236          60.479          51.000  
G07  22226790.156   116802779.935       -3760.985          45.000    22226788.945    91015048.365       -2930.629          41.000  
G30  20384317.951   107120618.153       -2290.088          49.000    20384318.413    83470982.649       -1784.583          45.000  
E21  23347834.689   122694027.281         380.595          47.000    23347840.441    94012489.309         291.546          54.000  
G22  21021242.282   110467636.724        1989.090          48.000                                                                  
E27  24658852.579   129583480.428       -2395.336          45.000    24658856.882    99291415.351       -1835.356          50.000  
> 2024 04 08 19 55 30.4980000  0 20                     
S33  39244215.794   206229650.894        -810.917          43.000  
G05  21120653.973   110989794.253         336.993          50.000    21120653.412    86485603.453         262.688          45.000  
E07  27615846.159   145122042.997       -2873.041          42.000    27615864.121   111197376.857       -2201.330          45.000  
G20  20658481.150   108561094.950       -2363.462          47.000                                                                  
R04  18842379.063   100900278.926       -1215.292          52.000    18842375.590    78478000.004        -945.172          48.000  
R05  20119881.478   107552289.421        2116.742          52.000    20119879.462    83651824.611        1646.301          49.000  
R16  22681302.234   121159475.567        3035.146          43.000    22681325.831    94235225.311        2360.916          43.000  
R03  21741347.362   116383076.210       -4075.469          49.000    21741354.523    90520195.917       -3169.776          49.000  
G09  23493043.458   123456670.959       -3399.219          44.000    23493051.578    96200042.779       -2648.987          39.000  
G13  21627730.477   113654656.326        1405.136          45.000                                                                  
R14  19608552.859   104525091.686       -3391.622          52.000    19608554.226    81297253.156       -2637.943          51.000  
R15  18982985.391   101439637.369         509.990          52.000    18982985.738    78897693.885         396.590          49.000  
E19  23419437.883   123070141.524         242.537          44.000    23419438.925    94300572.254         185.846          47.000  
S31  38291670.753   201224004.722        -811.683          43.000  
G14  19856107.182   104344834.891          59.270          45.000    19856108.034    81307851.727          46.128          51.000  
G07  22248262.901   116915616.434       -3761.560          46.000    22248261.107    91102972.880       -2930.657          41.000  
G30  20397408.767   107189413.529       -2296.390          49.000    20397409.662    83524589.459       -1789.315          45.000  
E21  23345695.198   122682784.702         368.937          48.000    23345701.061    94003875.030         282.696          54.000  
G22  21009917.778   110408126.968        1977.920          48.000                                                                  
E27  24672554.521   129655484.703       -2405.026          46.000    24672558.522    99346587.475       -1842.802          51.000  
> 2024 04 08 19 56 00.4980000  0 20                     
S33  39248845.359   206253979.738        -811.128          44.000  
G05  21118780.086   110979949.932         318.920          49.000    21118779.935    86477932.573         248.597          46.000  
E07  27632256.687   145208279.028       -2876.427          42.000    27632273.995   111263453.658       -2203.883          43.000  
G20  20672019.435   108632240.951       -2379.938          46.000                                                                  
R04  18849242.757   100937032.176       -1235.182          52.000    18849239.107    78506585.877        -960.668          48.000  
R05  20108026.361   107488918.750        2107.746          51.000    20108025.096    83602536.410        1639.307          49.000  
R16  22664278.207   121068534.462        3027.242          44.000    22664300.499    94164493.184        2354.390          40.000  
R03  21764220.181   116505509.157       -4086.964          51.000    21764226.626    90615421.022       -3178.759          49.000  
G09  23512464.514   123558730.493       -3405.000          42.000    23512472.366    96279569.406       -2653.157          39.000  
G13  21619712.383   113612520.400        1403.417          45.000                                                                  
R14  19627681.027   104627057.857       -3406.252          53.000    19627682.744    81376560.223       -2649.367          51.000  
R15  18980181.953   101424658.108         488.353          52.000    18980182.046    78886043.491         379.808          48.000  
E19  23418062.680   123062915.544         239.066          44.000    23418063.967    94295035.528         183.105          47.000  
S31  38296302.506   201248344.922        -811.340          44.000  
G14  19855822.980   104343342.126          39.952          46.000    19855823.607    81306688.675          31.157          50.000  
G07  22269739.493   117028478.566       -3762.784          46.000    22269738.664    91190917.420       -2932.389          42.000  
G30  20410537.104   107258404.160       -2303.428          49.000    20410537.633    83578348.425       -1794.619          44.000  
E21  23343623.909   122671902.217         356.384          48.000    23343629.981    93995536.673         273.032          54.000  
G22  20998660.933   110348972.437        1965.596          47.000                                                                  
E27  24686313.671   129727791.100       -2415.614          46.000    24686317.912    99401991.125       -1850.923          50.000  
> 2024 04 08 19 56 30.4980000  0 20                     
S33  39253474.676   206278308.419        -811.361          43.000  
G05  21117012.276   110970659.555         300.100          50.000    21117011.686    86470693.345         233.821          45.000  
E07  27648688.344   145294623.657       -2880.523          44.000    27648705.422   111329613.635       -2206.975          44.000  
G20  20685653.500   108703889.640       -2397.207          46.000                                                                  
R04  18856220.237   100974393.544       -1255.900          52.000    18856215.960    78535644.709        -976.824          48.000  
R05  20096224.497   107425833.461        2097.608          52.000    20096223.544    83553470.172        1631.482          48.000  
R16  22647301.901   120977857.238        3017.675          42.000    22647325.342    94093966.285        2347.260          36.000  
R03  21787158.482   116628300.142       -4099.346          50.000    21787165.560    90710924.637       -3188.412          49.000  
G09  23531920.137   123660971.608       -3411.568          42.000    23531929.452    96359237.561       -2658.635          40.000  
G13  21611705.003   113570440.392        1401.363          45.000                                                                  
R14  19646893.573   104729469.302       -3421.566          53.000    19646894.632    81456213.617       -2661.220          50.000  
R15  18977502.423   101410340.492         465.887          52.000    18977502.148    78874907.700         362.365          48.000  
E19  23416709.955   123055804.630         234.635          44.000    23416710.973    94289586.962         179.711          47.000  
S31  38300934.666   201272685.275        -811.754          44.000  
G14  19855651.806   104342437.207          19.927          46.000    19855651.369    81305983.669          15.588          51.000  
G07  22291225.667   117141391.133       -3765.011          46.000    22291223.742    91278901.236       -2933.966          40.000  
G30  20423707.402   107327614.305       -2311.038          49.000    20423707.637    83632278.495       -1800.889          45.000  
E21  23341627.059   122661406.174         343.000          47.000    23341632.458    93987494.416         262.863          54.000  
G22  20987478.088   110290201.520        1952.080          48.000                                                                  
E27  24700135.684   129800423.966       -2427.031          46.000    24700139.595    99457644.918       -1859.560          51.000  
> 2024 04 08 19 57 00.4980000  0 20                     
S33  39258105.631   206302645.106        -811.537          43.000  
G05  21115351.841   110961932.627         281.393          50.000    21115350.934    86463893.165         219.340          45.000  
E07  27665140.554   145381085.504       -2883.926          41.000    27665159.173   111395863.401       -2209.850          45.000  
G20  20699384.359   108776048.024       -2413.961          47.000                                                                  
R04  18863312.778   101012372.949       -1276.339          52.000    18863309.027    78565184.215        -992.741          49.000  
R05  20084479.188   107363045.558        2087.773          52.000    20084477.889    83504635.243        1623.809          49.000  
R16  22630379.051   120887454.707        3008.740          43.000    22630402.601    94023653.204        2340.229          38.000  
R03  21810166.072   116751455.937       -4111.386          51.000    21810172.908    90806711.952       -3197.719          49.000  
G09  23551413.138   123763402.589       -3416.910          42.000    23551422.502    96439053.594       -2663.344          41.000  
G13  21603709.315   113528425.824        1399.332          45.000                                                                  
R14  19666190.132   104832331.320       -3436.249          54.000    19666190.769    81536217.446       -2672.676          50.000  
R15  18974948.845   101396693.678         443.523          52.000    18974948.441    78864293.642         344.928          48.000  
E19  23415380.272   123048818.274         230.627          45.000    23415381.520    94284233.840         176.729          47.000  
S31  38305567.810   201297033.348        -811.995          44.000  
G14  19855591.998   104342129.470           0.194          46.000    19855593.039    81305744.003           0.226          51.000  
G07  22312722.342   117254360.781       -3766.554          45.000    22312721.605    91366929.476       -2935.046          40.000  
G30  20436921.155   107397051.181       -2318.412          49.000    20436920.824    83686385.195       -1806.470          44.000  
E21  23339703.847   122651305.781         330.013          47.000    23339710.136    93979755.334         252.789          54.000  
G22  20976368.676   110231825.348        1939.169          47.000                                                                  
E27  24714020.824   129873390.463       -2437.801          47.000    24714024.654    99513554.369       -1867.920          51.000  
> 2024 04 08 19 57 30.4980000  0 20                     
S33  39262737.297   206326984.952        -811.565          43.000  
G05  21113797.785   110953765.365         262.905          50.000    21113796.926    86457529.096         204.779          45.000  
E07  27681616.020   145467659.650       -2887.830          42.000    27681633.833   111462199.218       -2212.836          45.000  
G20  20713211.592   108848708.942       -2430.486          48.000                                                                  
R04  18870519.797   101050966.482       -1296.749          52.000    18870515.580    78595201.394       -1008.702          49.000  
R05  20072788.885   107300554.097        2077.880          52.000    20072787.242    83456030.851        1616.076          49.000  
R16  22613506.167   120797324.160        2999.554          44.000    22613530.209    93953551.612        2333.052          39.000  
R03  21833239.501   116874970.004       -4123.210          50.000    21833247.433    90902777.942       -3206.966          49.000  
G09  23570940.093   123866018.140       -3423.822          41.000    23570949.448    96519013.499       -2667.761          41.000  
G13  21595726.112   113486472.888        1397.024          44.000                                                                  
R14  19685569.323   104935635.163       -3450.947          54.000    19685570.572    81616564.913       -2684.133          51.000  
R15  18972519.364   101383712.620         421.501          52.000    18972519.530    78854197.404         327.734          49.000  
E19  23414073.042   123041952.526         226.563          44.000    23414074.992    94278973.151         173.609          47.000  
S31  38310201.928   201321385.873        -811.873          43.000  
G14  19855646.051   104342414.692         -19.378          45.000    19855647.498    81305966.367         -15.229          51.000  
G07  22334229.243   117367381.774       -3768.378          45.000    22334227.613    91454997.832       -2936.499          39.000  
G30  20450176.961   107466708.353       -2325.664          49.000    20450176.334    83740663.548       -1812.094          44.000  
E21  23337857.036   122641596.747         316.880          48.000    23337862.618    93972316.100         242.812          54.000  
G22  20965334.031   110173841.519        1926.085          47.000                                                                  
E27  24727967.967   129946684.264       -2448.708          47.000    24727972.089    99569714.596       -1876.261          51.000  
> 2024 04 08 19 58 00.4980000  0 20                     
S33  39267371.242   206351334.476        -811.958          44.000  
G05  21112351.235   110946165.487         243.794          50.000    21112350.797    86451607.104         189.969          46.000  
E07  27698112.729   145554351.884       -2891.709          43.000    27698130.526   111528625.569       -2215.807          44.000  
G20  20727135.760   108921876.443       -2447.465          48.000                                                                  
R04  18877842.884   101090181.659       -1317.678          52.000    18877838.729    78625702.062       -1024.839          49.000  
R05  20061155.264   107238368.557        2067.584          52.000    20061154.022    83407664.416        1608.241          49.000  
R16  22596686.018   120707474.752        2990.385          43.000    22596710.602    93883668.697        2325.657          44.000  
R03  21856381.959   116998846.495       -4135.333          51.000    21856388.551    90999125.765       -3216.275          48.000  
G09  23590502.981   123968823.859       -3429.892          41.000    23590513.387    96599121.585       -2673.025          41.000  
G13  21587755.019   113444588.804        1394.717          44.000                                                                  
R14  19705031.663   105039383.417       -3465.697          53.000    19705033.853    81697258.041       -2695.601          51.000  
R15  18970215.698   101371403.599         398.981          52.000    18970215.558    78844623.834         310.313          49.000  
E19  23412790.700   123035214.424         222.381          44.000    23412792.515    94273810.244         170.454          47.000  
S31  38314837.317   201345747.015        -812.237          42.000  
G14  19855815.189   104343299.444         -39.539          46.000    19855814.933    81306655.892         -30.872          50.000  
G07  22355747.512   117480458.486       -3770.364          46.000    22355746.327    91543109.505       -2938.112          39.000  
G30  20463474.619   107536590.336       -2333.130          49.000    20463474.278    83795117.085       -1818.075          45.000  
E21  23336085.255   122632285.564         303.749          48.000    23336090.409    93965181.707         232.696          54.000  
G22  20954376.388   110116258.655        1912.550          48.000                                                                  
E27  24741979.113   130020309.791       -2459.808          47.000    24741982.505    99626129.022       -1884.782          51.000  
> 2024 04 08 19 58 30.4980000  0 20                     
S33  39272006.488   206375695.173        -812.155          44.000  
G05  21111014.028   110939136.522         224.384          49.000    21111013.621    86446130.003         174.932          46.000  
E07  27714634.015   145641164.821       -2896.120          42.000    27714650.925   111595144.353       -2219.059          44.000  
G20  20741155.550   108995550.932       -2464.430          48.000                                                                  
R04  18885282.803   101130022.077       -1338.716          52.000    18885279.160    78656689.055       -1041.185          50.000  
R05  20049579.983   107176494.598        2056.932          51.000    20049579.396    83359540.300        1599.828          50.000  
R16  22579919.396   120617911.063        2980.365          44.000    22579944.345    93814008.065        2318.128          44.000  
R03  21879591.104   117123086.326       -4147.613          50.000    21879597.663    91095756.217       -3225.902          46.000  
G09  23610103.779   124071821.846       -3436.895          43.000    23610113.453    96679379.441       -2678.061          40.000  
G13  21579798.565   113402777.040        1392.072          45.000                                                                  
R14  19724577.754   105143574.822       -3480.697          53.000    19724578.919    81778295.825       -2707.198          51.000  
R15  18968038.412   101359769.016         376.274          52.000    18968037.827    78835574.839         292.588          48.000  
E19  23411532.678   123028607.256         217.721          44.000    23411535.241    94268747.667         166.872          48.000  
S31  38319475.406   201370119.571        -812.955          43.000  
G14  19856098.040   104344786.825         -59.877          46.000    19856098.265    81307814.995         -46.749          50.000  
G07  22377276.091   117593591.949       -3772.312          46.000    22377273.652    91631265.505       -2939.460          39.000  
G30  20476814.771   107606698.194       -2340.958          48.000    20476815.507    83849746.616       -1824.090          44.000  
E21  23334388.096   122623375.253         289.994          47.000    23334394.736    93958354.490         222.187          54.000  
G22  20943495.160   110059081.584        1898.883          48.000                                                                  
E27  24756052.307   130094268.099       -2471.333          46.000    24756055.938    99682798.420       -1893.455          50.000  
> 2024 04 08 19 59 00.4980000  0 20                     
S33  39276643.844   206400063.055        -812.482          44.000  
G05  21109784.053   110932674.488         205.890          49.000    21109784.171    86441094.662         160.432          46.000  
E07  27731175.174   145728093.354       -2899.421          40.000    27731193.948   111661751.728       -2221.793          46.000  
G20  20755271.423   109069725.626       -2480.708          49.000                                                                  
R04  18892838.201   101170483.658       -1359.075          51.000    18892835.448    78688159.164       -1056.972          50.000  
R05  20038062.211   107114930.855        2046.953          51.000    20038062.540    83311657.473        1592.132          49.000  
R16  22563205.904   120528630.454        2971.418          45.000    22563230.719    93744567.637        2310.990          46.000  
R03  21902866.135   117247682.872       -4159.237          50.000    21902873.070    91192664.080       -3234.854          46.000  
G09  23629739.671   124175006.802       -3442.608          41.000    23629749.171    96759783.009       -2682.489          40.000  
G13  21571855.297   113361033.627        1390.222          47.000                                                                  
R14  19744205.275   105248200.293       -3494.643          54.000    19744206.566    81859671.231       -2718.117          51.000  
R15  18965986.451   101348804.132         354.415          52.000    18965986.501    78827046.721         275.674          49.000  
E19  23410299.922   123022127.282         214.023          44.000    23410301.904    94263782.550         163.929          47.000  
S31  38324115.065   201394499.358        -812.789          44.000  
G14  19856495.054   104346872.473         -79.432          46.000    19856494.801    81309440.259         -61.897          50.000  
G07  22398813.688   117706776.302       -3773.565          44.000    22398812.957    91719461.044       -2940.469          37.000  
G30  20490197.765   107677025.540       -2347.948          48.000    20490198.251    83904547.186       -1829.571          45.000  
E21  23332769.835   122614861.429         277.229          48.000    23332774.510    93951831.043         212.410          54.000  
G22  20932692.121   110002308.009        1885.709          48.000                                                                  
E27  24770186.677   130168552.700       -2481.309          45.000    24770191.778    99739717.879       -1901.532          50.000  
> 2024 04 08 19 59 30.4980000  0 20                     
S33  39281280.991   206424432.744        -812.865          44.000  
G05  21108661.897   110926775.762         187.017          49.000    21108661.528    86436498.269         145.517          46.000  
E07  27747738.268   145815132.761       -2903.370          40.000    27747757.480   111728444.013       -2224.560          46.000  
G20  20769480.181   109144393.790       -2497.560          49.000                                                                  
R04  18900509.861   101211562.840       -1379.949          51.000    18900506.575    78720109.619       -1073.297          50.000  
R05  20026603.396   107053676.190        2036.210          51.000    20026604.050    83264015.029        1583.775          50.000  
R16  22546545.550   120439630.501        2961.750          45.000    22546568.890    93675345.538        2303.400          45.000  
R03  21926208.440   117372629.447       -4171.007          52.000    21926214.387    91289844.193       -3243.972          46.000  
G09  23649409.255   124278373.594       -3449.016          40.000    23649418.700    96840328.272       -2687.525          39.000  
G13  21563924.777   113319354.939        1387.718          46.000                                                                  
R14  19763912.979   105353251.814       -3509.104          53.000    19763914.344    81941377.983       -2729.331          52.000  
R15  18964058.612   101338503.880         331.901          52.000    18964059.144    78819035.526         258.179          49.000  
E19  23409089.977   123015770.811         209.593          44.000    23409092.491    94258912.079         160.566          48.000  
S31  38328754.282   201418880.832        -813.142          43.000  
G14  19857005.479   104349552.205         -99.556          46.000    19857004.826    81311528.450         -77.608          50.000  
G07  22420361.766   117820005.385       -3775.313          45.000    22420360.277    91807691.503       -2942.148          39.000  
G30  20503621.492   107747566.207       -2355.295          49.000    20503622.011    83959513.978       -1835.100          45.000  
E21  23331223.790   122606739.865         263.822          47.000    23331228.768    93945608.144         202.162          54.000  
G22  20921964.019   109945935.443        1872.040          48.000                                                                  
E27  24784383.631   130243157.450       -2492.331          46.000    24784388.542    99796882.608       -1909.775          50.000  
