     3.00           OBSERVATION DATA    M: Mixed            RINEX VERSION / TYPE
CONVBIN 2.4.3                           20240408 161442 UTC PGM / RUN BY / DATE 
format: u-blox UBX                                          COMMENT             
log: data/2024-04-08/20240408160000.ubx                     COMMENT             
AQUI00CHL                                                   MARKER NAME         
                                                            MARKER NUMBER       
                                                            MARKER TYPE         
                                                            OBSERVER / AGENCY   
UNKNOWN             UBLOX-ZED-F9P                           REC # / TYPE / VERS 
UNKNOWN             TWIVSP6037L                             ANT # / TYPE        
  1713381.0000 -5047934.0000 -3490983.0000                  APPROX POSITION XYZ 
        0.0000        0.0000        0.0000                  ANTENNA: DELTA H/E/N
G    8 C1C L1C D1C S1C C2L L2L D2L S2L                      SYS / # / OBS TYPES 
R    8 C1C L1C D1C S1C C2C L2C D2C S2C                      SYS / # / OBS TYPES 
E    8 C1C L1C D1C S1C C7Q L7Q D7Q S7Q                      SYS / # / OBS TYPES 
S    4 C1C L1C D1C S1C                                      SYS / # / OBS TYPES 
  2024    04    08    16    00   00.4910000     GPS         TIME OF FIRST OBS   
  2024    04    08    16    14   30.4910000     GPS         TIME OF LAST OBS    
                                                            END OF HEADER       
> 2024 04 08 16 00 00.4910000  0 25                     
S33  37035349.072   194622063.5761       -827.088          43.000  
E07  21351130.203   112200925.1061      -1968.958          49.000    21351135.784    85972155.3771      -1508.762          52.000  
R13  19091824.263   101949461.4421       2659.696          39.000    19091830.213    79294082.2871       2068.436          39.000  
R17  18464200.830    98805605.5521      -4213.795          50.000    18464201.821    76848669.5431      -3277.531          48.000  
R02  18007731.641    96092690.8801      -1982.867          52.000    18007735.874    74738794.1101      -1542.322          51.000  
R03  18209208.823    97475376.3781        354.993          51.000    18209207.493    75814237.8181        276.129          48.000  
R18  17950034.846    95818487.0621       -799.105          51.000    17950037.210    74525327.5061       -621.522          49.000  
E33  22254474.787   116948074.7571        599.124          47.000    22254479.607    89609626.6911        459.127          50.000  
G09  17954731.474    94352773.7611       -666.047          50.000    17954731.231    73521714.0521       -519.156          45.000  
G03  19098765.089   100364645.1151      -2490.927          46.000    19098770.587    78206176.0031      -1941.072          44.000  
E26  20911391.338   109890088.3961      -2068.584          47.000    20911395.530    84201503.3891      -1584.992          51.000  
G06  18597847.678    97732401.7461        529.553          47.000    18597850.530    76155137.3811        412.689          48.000  
R11  21063689.351                3      -3636.450          19.000                                                                  
R12  18459531.084    98607629.4141        -11.888          52.000    18459533.494    76694956.7301         -9.273          47.000  
R01  20905400.797   111751264.9351      -3181.524          35.000    20905407.293                       -2473.847          31.000  
R19  20283789.621                3       2119.070          25.000    20283810.177                1       1647.792          26.000  
S31  36082353.276   189614027.9351       -827.434          43.000  
E13  23873408.287   125455433.9531      -3915.053          41.000    23873425.696    96128172.6111      -2999.712          46.000  
G07  19157277.001   100672322.0991       2628.079          48.000    19157279.072    78446073.5851       2047.875          42.000  
G30  21946921.755   115331831.8471       3020.597          41.000    21946941.664    89869250.0211       2353.542          37.000  
G04  18668573.604    98103990.7661      -2791.094          47.000    18668574.476    76444644.9121      -2174.688          47.000  
E30  24688793.974   129740557.0691        951.752          42.000    24688807.750    99411674.8801        729.242          45.000  
G16  22493906.517   118206297.1231        386.684          33.000                                                                  
E08                                                                  25037646.616   100816077.6521      -2266.726          39.000  
G11                                                                  21586603.697                        1741.319          29.000  
> 2024 04 08 16 00 30.4910000  0 25                     
S33  37040066.127   194646851.320        -825.568          43.000  
E07  21362374.721   112260012.566       -1970.637          48.000    21362379.816    86017430.095       -1509.865          52.000  
R13  19076907.897   101869810.773        2649.930          40.000    19076914.001    79232132.118        2061.056          40.000  
R17  18487862.729    98932222.550       -4227.640          49.000    18487864.214    76947149.112       -3288.143          49.000  
R02  18018885.649    96152206.808       -1985.162          52.000    18018888.658    74785084.219       -1544.031          50.000  
R03  18207226.456    97464765.560         352.045          52.000    18207225.654    75805984.937         273.798          49.000  
R18  17954597.313    95842847.920        -825.306          50.000    17954600.398    74544274.791        -641.926          49.000  
E33  22251084.179   116930260.141         588.034          47.000    22251089.779    89595976.542         450.567          50.000  
G09  17958552.907    94372856.436        -673.175          50.000    17958553.185    73537362.854        -524.690          45.000  
G03  19113010.535   100439497.878       -2499.570          48.000    19113014.035    78264502.679       -1947.933          43.000  
E26  20923234.371   109952321.266       -2080.702          47.000    20923238.511    84249188.232       -1594.285          51.000  
G06  18594875.450    97716781.419         511.460          48.000    18594878.126    76142965.673         398.560          47.000  
R11  21084052.297                3      -3661.857          12.000                                                                  
R12  18459662.906    98608335.877         -35.562          52.000    18459665.640    76695506.297         -27.697          47.000  
R01  20923249.689   111846677.355       -3179.981          34.000    20923259.377    86991956.002       -2473.573          33.000  
R19  20271961.607                3       2102.275          24.000    20271950.032                1       1634.139          30.000  
S31  36087069.829   189638812.043        -825.525          45.000  
E13  23895764.317   125572907.425       -3917.245          42.000    23895781.346    96218183.952       -3001.393          46.000  
G07  19142300.587   100593620.154        2618.323          48.000    19142302.162    78384747.582        2040.238          42.000  
G30  21929677.474   115241212.565        3020.280          40.000    21929697.142    89798637.937        2353.484          38.000  
G04  18684516.146    98187768.725       -2794.542          47.000    18684517.177    76509926.380       -2177.616          47.000  
E08  25054512.690   131662346.859       -2955.307          30.000    25054527.082   100884046.215       -2264.756          38.000  
E30  24683374.519   129712080.636         946.382          42.000    24683388.095    99389855.379         725.170          43.000  
G16  22491722.505   118194813.462         378.525          35.000                                                                  
G11                                                                  21573873.996                1       1734.686          28.000  
> 2024 04 08 16 01 00.4910000  0 23                     
S33  37044775.143   194671600.365        -824.880          43.000  
E07  21373627.881   112319146.534       -1972.065          49.000    21373632.912    86062740.456       -1511.051          52.000  
R13  19062047.813   101790456.799        2639.860          40.000    19062053.828    79170412.628        2053.274          40.000  
R17  18511600.262    99059246.456       -4241.057          49.000    18511602.238    77045945.158       -3298.556          49.000  
R02  18030052.162    96211790.875       -1987.329          51.000    18030055.454    74831427.329       -1545.813          50.000  
R03  18205261.993    97454246.401         348.932          52.000    18205260.508    75797803.362         271.399          49.000  
R18  17959307.786    95867996.276        -851.601          50.000    17959311.222    74563834.539        -662.318          49.000  
E33  22247758.142   116912779.530         576.813          47.000    22247763.476    89582582.306         442.134          50.000  
G09  17962415.424    94393154.973        -680.366          50.000    17962415.552    73553179.878        -530.152          45.000  
G03  19127303.011   100514605.574       -2507.748          47.000    19127306.891    78323027.998       -1954.197          43.000  
E26  20935145.948   110014918.026       -2092.780          47.000    20935150.201    84297151.896       -1603.581          51.000  
G06  18592005.800    97701702.421         493.345          47.000    18592008.579    76131215.804         384.459          48.000  
R12  18459928.515    98609753.799         -59.356          52.000    18459931.448    76696609.188         -46.105          48.000  
R01  20941094.490                       -3179.069          31.000    20941101.597    87066138.148       -2472.363          32.000  
R19  20260223.731                3       2084.035          24.000    20260224.379    84294384.1351       1621.279          32.000  
S31  36091778.359   189663558.061        -824.432          43.000  
E13  23918131.329   125690446.664       -3919.239          41.000    23918148.758    96308245.702       -3003.061          46.000  
G07  19127378.930   100515210.182        2608.603          47.000    19127380.334    78323649.076        2032.518          42.000  
G30  21912434.906   115150606.041        3019.971          38.000    21912454.672    89728035.894        2352.807          35.000  
G04  18700477.594    98271648.899       -2797.755          47.000    18700479.517    76575287.437       -2180.131          48.000  
E08  25071377.882                       -2951.963          29.000    25071387.688   100951940.193       -2261.913          35.000  
E30  24677986.169   129683767.269         941.059          41.000    24678000.409    99368160.841         720.871          44.000  
G11                                                                  21561188.000                1       1728.459          26.000  
> 2024 04 08 16 01 30.4910000  0 24                     
S33  37049479.813   194696323.116        -823.820          43.000  
E07  21384890.790   112378337.813       -1974.079          48.000    21384896.420    86108094.743       -1512.657          52.000  
R13  19047245.113   101711415.519        2629.345          39.000    19047251.813    79108936.396        2045.149          40.000  
R17  18535414.179    99186684.376       -4255.048          49.000    18535417.718    77145063.226       -3309.478          48.000  
R02  18041233.630    96271454.808       -1990.363          53.000    18041235.936    74877832.542       -1548.016          49.000  
R03  18203314.215    97443830.533         345.331          49.000    18203313.963    75789702.163         268.530          49.000  
R18  17964168.615    95893943.571        -878.512          50.000    17964171.889    74584015.696        -683.297          49.000  
E33  22244497.469   116895645.896         565.152          47.000    22244502.628    89569453.950         433.003          50.000  
G09  17966321.635    94413680.140        -688.166          50.000    17966321.365    73569173.461        -536.220          45.000  
G03  19141646.440   100589980.182       -2517.107          47.000    19141650.382    78381761.318       -1961.474          44.000  
E26  20947129.692   110077889.563       -2105.417          47.000    20947132.732    84345402.714       -1613.258          50.000  
G06  18589241.137    97687178.045         474.711          46.000    18589244.337    76119898.094         369.852          47.000  
R12  18460329.711    98611896.800         -83.747          52.000    18460332.063    76698276.052         -65.307          47.000  
R01  20958932.513                       -3178.068          29.000    20958941.117                       -2471.854          27.000  
R19  20248587.621                3       2061.474          23.000    20248583.936    84245965.768        1606.644          32.000  
S31  36096482.911   189688277.148        -823.834          43.000  
E13  23940513.034   125808061.603       -3922.126          42.000    23940531.468    96398365.432       -3005.129          47.000  
G07  19112515.925   100437106.817        2598.070          48.000    19112518.129    78262789.498        2024.620          42.000  
G30  21895198.684   115060026.336        3018.483          38.000    21895217.340    89657454.745        2351.674          36.000  
G04  18716460.929    98355641.508       -2801.780          48.000    18716462.580    76640736.124       -2183.256          47.000  
E08  25088222.976   131839468.606       -2949.661          35.000    25088233.414   101019768.463       -2260.198          35.000  
E30  24672632.554   129655630.558         934.737          41.000    24672647.271    99346601.659         716.201          46.000  
G16  22487500.253   118172598.9831        360.249          35.000                                                                  
G11                                                                  21548544.370                1       1721.131          30.000  
> 2024 04 08 16 02 00.4910000  0 24                     
S33  37054180.321   194721024.447        -822.879          44.000  
E07  21396166.234   112437590.848       -1976.078          48.000    21396171.881    86153496.342       -1514.104          52.000  
R13  19032503.188   101632697.167        2618.484          39.000    19032510.519    79047711.329        2036.393          39.000  
R17  18559307.456    99314537.193       -4268.589          50.000    18559310.139    77244504.004       -3320.085          49.000  
R02  18052429.921    96331203.425       -1992.981          52.000    18052432.688    74924303.609       -1550.073          49.000  
R03  18201389.936    97433523.040         341.895          51.000    18201388.610    75781685.263         265.826          49.000  
R18  17969181.573    95920694.574        -905.030          51.000    17969183.443    74604821.972        -703.957          49.000  
E33  22241304.787   116878865.797         553.459          47.000    22241309.330    89556596.461         424.037          49.000  
G09  17970270.956    94434436.146        -695.656          50.000    17970271.491    73585346.974        -542.172          46.000  
G03  19156042.049   100665627.130       -2526.081          48.000    19156046.100    78440706.871       -1968.220          45.000  
E26  20959183.827   110141240.219       -2118.052          47.000    20959188.228    84393944.046       -1622.887          51.000  
G06  18586584.008    97673215.074         456.065          45.000    18586587.304    76109017.848         355.285          48.000  
R12  18460867.516    98614772.063        -107.947          52.000    18460870.858    76700512.430         -84.152          47.000  
R01  20976766.785                1      -3176.742          31.000    20976784.323                3      -2473.197          19.000  
R19  20237041.292                        2047.387          27.000    20237049.389    84197975.681        1592.438          33.000  
S31  36101183.517   189712975.820        -823.074          45.000  
E13  23962909.745   125925755.700       -3924.208          41.000    23962928.989    96488545.824       -3007.023          47.000  
G07  19097713.469   100359318.115        2587.770          48.000    19097715.288    78202175.090        2016.167          42.000  
G30  21877968.046   114969481.076        3017.344          38.000    21877986.311    89586900.444        2350.549          34.000  
G04  18732466.043    98439750.391       -2805.501          47.000    18732467.958    76706275.429       -2186.211          48.000  
E08  25105047.917                       -2946.325          29.000    25105064.791   101087534.836       -2257.708          36.000  
E30  24667313.443   129627677.591         928.815          42.000    24667327.735    99325183.295         711.554          47.000  
G16  22485468.281   118161921.545         351.491          35.000                                                                  
G11                                                                  21535961.809                        1714.223          32.000  
> 2024 04 08 16 02 30.4910000  0 25                     
S33  37058876.888   194745702.967        -822.347          44.000  
E07  21407453.642   112496903.394       -1978.158          48.000    21407458.901    86198943.566       -1515.727          52.000  
R13  19017823.345   101554304.766        2607.617          40.000    19017829.198    78986739.690        2028.252          38.000  
R17  18583275.894    99442798.779       -4282.393          50.000    18583278.682    77344262.724       -3330.723          48.000  
R02  18063642.928    96391035.444       -1995.801          52.000    18063645.075    74970839.573       -1552.215          49.000  
R03  18199484.437    97423322.037         338.226          52.000    18199482.800    75773751.154         263.098          48.000  
R18  17974342.905    95948247.533        -931.886          51.000    17974345.641    74626252.003        -724.819          49.000  
E33  22238179.398   116862439.174         541.614          48.000    22238183.648    89544009.843         414.982          50.000  
G09  17974263.627    94455420.669        -703.266          49.000    17974264.808    73601698.531        -547.961          45.000  
G03  19170489.569   100741545.304       -2535.112          49.000    19170493.332    78499863.762       -1975.328          44.000  
E26  20971311.379   110204967.832       -2130.484          47.000    20971315.140    84442774.220       -1632.407          51.000  
G06  18584034.461    97659813.633         437.317          46.000    18584037.302    76098575.151         340.839          47.000  
R11  21166551.196                3      -3707.720          16.000                                                                  
R12  18461542.961    98618379.539        -132.480          52.000    18461546.433    76703318.273        -103.104          48.000  
R01  20994609.237                3      -3179.021          25.000    20994621.700                3      -2462.424          23.000  
R19  20225612.985   108193368.0531       2029.042          33.000    20225619.380    84150415.403        1577.795          34.000  
S31  36105878.556   189737651.077        -822.139          44.000  
E13  23985321.213   126043525.810       -3926.556          40.000    23985339.988    96578784.448       -3009.012          47.000  
G07  19082970.562   100281845.499        2577.038          48.000    19082972.891    78141806.961        2008.326          42.000  
G30  21860743.925   114878971.171        3016.354          38.000    21860761.484    89516373.716        2350.778          33.000  
G04  18748493.760    98523972.848       -2809.297          46.000    18748495.105    76771903.168       -2189.165          47.000  
E08  25121863.180                       -2943.587          30.000    25121878.204   101155238.032       -2256.459          36.000  
E30  24662028.615   129599908.941         922.578          42.000    24662043.367    99303906.158         706.828          47.000  
G16  22483490.155   118151523.187         341.631          35.000                                                                  
G11                                                                  21523429.801    88134820.6161       1707.019          32.000  
> 2024 04 08 16 03 00.4910000  0 25                     
S33  37063570.915   194770370.189        -822.055          43.000  
E07  21418754.312   112556285.406       -1980.535          49.000    21418759.109    86244443.992       -1517.670          52.000  
R13  19003206.651   101476253.799        2595.636          39.000    19003212.415    78926033.653        2019.351          38.000  
R17  18607322.962    99571475.583       -4296.112          50.000    18607325.271    77444344.362       -3341.521          47.000  
R02  18074872.521    96450961.417       -1999.164          52.000    18074875.239    75017448.596       -1554.932          48.000  
R03  18197600.931    97413237.636         334.125          52.000    18197598.329    75765907.787         259.784          48.000  
R18  17979657.070    95976612.704        -959.133          51.000    17979659.985    74648313.756        -746.053          50.000  
E33  22235122.007   116846378.028         529.197          47.000    22235127.283    89531703.265         405.460          50.000  
G09  17978302.475    94476643.567        -711.524          50.000    17978303.413    73618235.827        -554.444          45.000  
G03  19184990.274   100817745.706       -2544.769          49.000    19184993.975    78559240.557       -1983.160          44.000  
E26  20983513.024   110269082.288       -2143.628          48.000    20983515.642    84491900.825       -1642.565          50.000  
G06  18581593.480    97646986.072         417.861          46.000    18581596.331    76088579.633         325.630          47.000  
R11  21187398.194                3      -3724.566          24.000                                                                  
R12  18462357.332    98622732.488        -157.587          51.000    18462360.861    76706703.935        -122.711          48.000  
R01  21012429.906                       -3177.063          27.000    21012440.101                3      -2471.413          26.000  
R19  20214288.905   108132786.677        2010.037          33.000    20214292.894    84103296.630        1562.973          36.000  
S31  36110571.973   189762314.970        -821.973          44.000  
E13  24007748.886   126161380.893       -3929.967          39.000    24007767.812    96669088.139       -3011.290          47.000  
G07  19068291.143   100204702.459        2565.863          48.000    19068293.197    78081695.672        1999.251          42.000  
G30  21843529.202   114788509.777        3014.670          40.000    21843547.144    89445884.869        2348.865          34.000  
G04  18764544.286    98608318.242       -2813.730          47.000    18764545.594    76837626.739       -2192.543          47.000  
E08  25138664.768   132104555.025       -2941.852          30.000    25138679.192   101222886.082       -2254.047          37.000  
E30  24656782.774   129572337.261         915.671          42.000    24656796.310    99282779.979         701.524          47.000  
G16  22481567.919   118141416.923         331.917          36.000                                                                  
G11                                                                  21510950.062    88083717.385        1699.482          34.000  
> 2024 04 08 16 03 30.4910000  0 25                     
S33  37068264.135   194795032.843        -822.747          43.000  
E07  21430068.744   112615743.366       -1983.390          49.000    21430073.771    86290002.603       -1519.757          52.000  
R13  18988655.884   101398556.345        2583.411          39.000    18988661.719    78865602.567        2009.501          39.000  
R17  18631446.521    99700570.298       -4310.226          49.000    18631449.750    77544751.082       -3352.532          47.000  
R02  18086121.979    96510988.737       -2002.765          53.000    18086124.466    75064136.500       -1557.770          49.000  
R03  18195739.461    97403277.054         329.706          51.000    18195738.884    75758160.704         256.500          48.000  
R18  17985123.900    96005796.885        -986.666          52.000    17985127.066    74671012.488        -767.397          50.000  
E33  22232137.561   116830691.068         516.436          48.000    22232141.797    89519683.390         395.642          49.000  
G09  17982387.779    94498111.157        -719.850          50.000    17982388.945    73634963.787        -560.921          46.000  
G03  19199544.937   100894235.853       -2554.727          48.000    19199549.061    78618843.145       -1990.593          43.000  
E26  20995787.262   110333590.075       -2157.062          47.000    20995791.719    84541328.770       -1652.783          51.000  
G06  18579263.210    97634741.197         398.275          45.000    18579266.297    76079038.144         310.306          47.000  
R11  21208385.144                3      -3689.549          13.000                                                                  
R12  18463315.324    98627839.644        -183.062          53.000    18463316.241    76710676.231        -142.319          47.000  
R01  21030250.764                1      -3178.333          30.000    21030269.355                1      -2470.990          26.000  
R19  20203071.459                1       1990.030          31.000    20203077.320                        1546.500          30.000  
S31  36115264.113   189786973.866        -822.230          43.000  
E13  24030195.099   126279326.474       -3933.320          40.000    24030212.827    96759461.155       -3013.653          47.000  
G07  19053675.334   100127899.555        2554.108          47.000    19053678.943    78021849.393        1990.393          44.000  
G30  21826325.748   114698106.630        3012.267          39.000    21826343.074    89375441.413        2346.886          32.000  
G04  18780619.310    98692792.482       -2817.861          47.000    18780620.961    76903450.738       -2195.894          48.000  
E08  25155456.156   132192777.028       -2939.953          33.000    25155466.426   101290484.510       -2252.595          34.000  
E30  24651574.970   129544971.776         908.616          42.000    24651588.606    99261811.759         696.233          47.000  
G16  22479702.480   118131612.292         321.342          33.000                                                                  
G11                                                                  21498523.468                        1691.216          31.000  
> 2024 04 08 16 04 00.4910000  0 24                     
S33  37072955.443   194819687.371        -822.078          43.000  
E07  21441395.552   112675273.688       -1985.782          48.000    21441402.013    86335616.667       -1521.580          52.000  
R13  18974172.013   101321214.068        2571.805          39.000    18974177.750    78805447.751        2000.544          39.000  
R17  18655648.244    99830075.582       -4323.770          50.000    18655651.836    77645477.123       -3363.046          48.000  
R02  18097389.029    96571114.215       -2005.988          52.000    18097392.542    75110900.681       -1560.162          48.000  
R03  18193901.349    97393437.200         325.732          51.000    18193900.487    75750507.509         253.241          48.000  
R18  17990744.025    96035796.689       -1013.763          52.000    17990747.294    74694345.608        -788.483          50.000  
E33  22229223.111   116815376.732         504.013          47.000    22229227.613    89507949.033         386.219          50.000  
G09  17986518.617    94519819.753        -727.876          50.000    17986520.604    73651879.553        -567.071          46.000  
G03  19214155.419   100971013.215       -2564.101          48.000    19214160.285    78678669.507       -1998.081          45.000  
G11  21486169.781   112910629.5261       2161.410          32.000    21486155.837    87982195.469        1683.988          33.000  
E26  21008137.339   110398487.515       -2169.857          47.000    21008141.121    84591055.300       -1662.664          51.000  
G06  18577044.244    97623077.671         378.914          47.000    18577047.119    76069949.695         295.230          48.000  
R12  18464412.388    98633699.871        -208.129          52.000    18464413.395    76715234.193        -161.763          48.000  
R01  21048084.714                       -3177.509          27.000    21048081.515                3      -2471.610          22.000  
R19  20191962.113                        1971.023          29.000    20191957.999                3       1536.314          23.000  
S31  36119955.362   189811625.247        -821.736          44.000  
E13  24052655.904   126397357.967       -3936.155          40.000    24052673.647    96849900.010       -3015.809          46.000  
G07  19039125.372   100051436.609        2542.814          48.000    19039128.244    77962268.016        1981.493          43.000  
G30  21809133.349   114607761.231        3010.713          39.000    21809149.227                        2345.364          30.000  
G04  18796717.819    98777391.561       -2822.197          47.000    18796719.815    76969371.999       -2199.110          48.000  
E08  25172231.320   132280931.235       -2937.480          36.000    25172242.274   101358031.033       -2250.528          35.000  
E30  24646405.453   129517811.480         901.667          41.000    24646419.957    99241000.818         690.709          47.000  
G16  22477893.383   118122107.917         311.554          34.000                                                                  
> 2024 04 08 16 04 30.4910000  0 25                     
S33  37077645.746   194844333.429        -821.726          43.000  
E07  21452737.034   112734874.853       -1987.975          48.000    21452743.750    86381285.023       -1523.161          53.000  
R13  18959755.385   101244231.034        2560.125          39.000    18959761.228    78745572.299        1991.346          39.000  
R17  18679927.076    99959986.120       -4337.101          50.000    18679928.918    77746518.346       -3373.269          48.000  
R02  18108674.553    96631336.983       -2009.167          51.000    18108677.256    75157740.535       -1562.543          49.000  
R03  18192085.358    97383716.824         321.893          51.000    18192083.676    75742947.209         250.317          47.000  
R18  17996516.391    96066610.575       -1040.832          51.000    17996519.772    74718311.921        -809.564          50.000  
E33  22226379.927   116800435.607         491.788          47.000    22226384.552    89496500.644         376.792          50.000  
G09  17990695.184    94541767.667        -735.779          50.000    17990696.961    73668981.825        -573.358          46.000  
G03  19228820.625   101048077.258       -2573.599          48.000    19228825.127    78738719.253       -2005.500          44.000  
E26  21020561.297   110463772.982       -2182.673          47.000    21020564.493    84641079.139       -1672.370          51.000  
G06  18574934.931    97611996.251         359.584          46.000    18574938.273    76061314.835         280.162          47.000  
R11  21250543.813                3      -3764.425          13.000                                                                  
R12  18465649.250    98640313.950        -233.248          52.000    18465652.056    76720378.505        -181.341          48.000  
R01  21065917.116                3      -3176.922          26.000    21065920.632                3      -2470.000          25.000  
R19  20180961.540                        1951.779          30.000    20180968.919                        1517.352          30.000  
S31  36124644.305   189836268.456        -821.373          43.000  
E13  24075132.125   126515472.826       -3938.758          40.000    24075151.003    96940402.777       -3017.880          46.000  
G07  19024640.382    99975315.705        2531.500          49.000    19024642.256    77902953.170        1972.729          43.000  
G30  21791952.598   114517475.281        3008.438          38.000    21791969.584                        2343.956          29.000  
G04  18812840.365    98862113.297       -2826.158          48.000    18812841.294    77035388.844       -2202.134          47.000  
E08  25188993.891   132369016.781       -2935.153          37.000    25189004.883   101425524.923       -2248.956          36.000  
E30  24641276.524   129490857.631         894.813          42.000    24641290.739    99220348.038         685.856          47.000  
G16  22476141.026   118112905.670         301.881          32.000                                                                  
G11                                                                  21473844.615    87931778.144        1676.801          35.000  
> 2024 04 08 16 05 00.4910000  0 24                     
S33  37082335.138   194868978.163        -821.437          43.000  
E07  21464093.579   112794551.877       -1990.334          48.000    21464100.422    86427011.505       -1525.028          53.000  
R13  18945407.659   101167617.292        2547.923          38.000    18945413.694    78685984.106        1981.516          39.000  
R17  18704280.568   100090303.118       -4350.454          49.000    18704282.500    77847875.699       -3383.665          47.000  
R02  18119981.089    96691662.741       -2012.390          51.000    18119982.287    75204660.490       -1565.314          47.000  
R03  18190292.484    97374121.566         317.859          51.000    18190290.626    75735484.261         247.241          47.000  
R18  18002442.747    96098243.705       -1067.963          52.000    18002445.701    74742915.397        -830.615          50.000  
E33  22223609.241   116785874.736         479.113          47.000    22223613.520    89485343.622         367.145          50.000  
G09  17994918.217    94563959.733        -743.628          50.000    17994919.734    73686274.321        -579.523          46.000  
G03  19243540.907   101125433.995       -2583.122          48.000    19243545.724    78798997.069       -2012.749          45.000  
E26  21033059.809   110529451.415       -2195.646          48.000    21033062.911    84691404.084       -1682.360          51.000  
G06  18572938.547    97601504.247         340.140          46.000    18572941.799    76053139.231         265.026          47.000  
R12  18467028.701    98647689.560        -258.418          50.000    18467033.206    76726115.124        -200.855          49.000  
R01  21083757.234                1      -3177.399          31.000    21083757.993                       -2471.326          26.000  
R19  20170069.421                        1931.874          30.000    20170074.535                3       1502.588          26.000  
S31  36129333.871   189860909.818        -821.163          44.000  
E13  24097625.711   126633675.134       -3941.320          39.000    24097645.463    97030972.530       -3020.066          47.000  
G07  19010221.533    99899545.699        2519.937          49.000    19010223.656    77843911.767        1963.586          44.000  
G30  21774784.004   114427256.955        3006.627          35.000    21774801.595    89164391.299        2342.621          32.000  
G04  18828987.082    98946962.252       -2830.281          48.000    18828987.150    77101504.801       -2205.476          47.000  
E08  25205740.703   132457039.268       -2933.085          35.000    25205755.315   101492970.500       -2246.903          34.000  
E30  24636187.861   129464117.881         887.743          44.000    24636201.705    99199859.317         680.344          47.000  
G16  22474448.051   118104013.393         291.229          35.000                                                                  
G11                                                                  21461589.841    87881597.109        1668.632          34.000  
> 2024 04 08 16 05 30.4910000  0 24                     
S33  37087023.154   194893613.637        -821.146          44.000  
E07  21475463.236   112854297.573       -1992.613          48.000    21475469.653    86472790.601       -1526.792          53.000  
R13  18931128.762   101091371.035        2535.146          39.000    18931135.072    78626681.713        1972.290          39.000  
R17  18728706.332   100221015.552       -4363.610          48.000    18728709.564    77949540.588       -3393.947          46.000  
R02  18131304.059    96752084.935       -2015.741          52.000    18131306.251    75251655.415       -1567.792          49.000  
R03  18188522.263    97364644.316         313.812          52.000    18188520.588    75728113.059         244.220          48.000  
R18  18008520.593    96130688.969       -1094.989          52.000    18008523.116    74768150.533        -851.697          49.000  
E33  22220910.406   116771688.979         466.635          47.000    22220914.164    89474474.020         357.552          50.000  
G09  17999186.347    94586388.666        -751.654          50.000    17999187.470    73703751.387        -585.718          45.000  
G03  19258317.160   101203077.183       -2592.846          50.000    19258320.411    78859498.125       -2020.434          45.000  
G11  21449395.488   112717297.4723       2132.034          29.000    21449390.348                        1661.487          32.000  
E26  21045632.029   110595515.499       -2208.535          49.000    21045634.392    84742024.512       -1692.198          51.000  
G06  18571052.809    97591596.610         320.635          45.000    18571056.669    76045418.991         249.623          47.000  
R12  18468552.178    98655821.498        -283.677          52.000    18468555.468    76732439.989        -220.625          49.000  
R01  21101591.408                       -3177.008          30.000    21101593.994                1      -2471.155          27.000  
R19  20159286.579                        1912.187          31.000    20159305.535    83874522.9941       1487.253          35.000  
S31  36134021.488   189885541.724        -820.887          43.000  
E13  24120134.123   126751956.780       -3943.878          38.000    24120154.535    97121603.007       -3022.042          47.000  
G07  18995869.036    99824123.036        2508.265          49.000    18995870.993    77785140.996        1954.728          44.000  
G30  21757625.212   114337102.183        3004.437          35.000    21757645.894    89094141.402        2341.271          33.000  
G04  18845155.549    99031930.660       -2834.403          47.000    18845156.615    77167713.845       -2208.413          48.000  
E08  25222478.225   132544992.178       -2931.017          34.000    25222493.413   101560362.784       -2245.418          35.000  
E30  24631139.725   129437587.708         880.900          44.000    24631152.875    99179531.180         674.930          47.000  
G16  22472813.662                         280.892          31.000                                                                  
> 2024 04 08 16 06 00.4910000  0 24                     
S33  37091711.187   194918248.204        -821.429          43.000  
E07  21486846.921   112914119.299       -1995.656          48.000    21486853.218    86518627.956       -1529.124          53.000  
R13  18916922.067   101015505.463        2522.043          41.000    18916927.241    78567675.417        1961.870          39.000  
R17  18753207.724   100352126.740       -4377.261          48.000    18753210.713    78051515.639       -3404.459          45.000  
R02  18142646.562    96812612.223       -2019.647          50.000    18142649.375    75298732.094       -1570.758          49.000  
R03  18186775.726    97355293.262         309.387          52.000    18186774.868    75720840.029         240.662          48.000  
R18  18014752.216    96163953.493       -1122.711          52.000    18014754.696    74794022.887        -873.260          49.000  
E33  22218283.784   116757887.788         453.340          47.000    22218287.690    89463899.087         347.349          50.000  
G09  18003500.621    94609061.689        -760.156          49.000    18003501.229    73721418.658        -592.340          45.000  
G03  19273148.174   101281015.248       -2603.167          49.000    19273151.927    78920228.924       -2028.229          45.000  
G11  21437252.382                        2120.797          30.000    21437245.920                        1652.594          29.000  
E26  21058278.006   110661972.485       -2222.086          48.000    21058280.490    84792946.024       -1702.570          50.000  
G06  18569281.355    97582282.970         300.321          47.000    18569284.276    76038161.577         233.911          47.000  
R12  18470217.856    98664719.684        -309.656          51.000    18470220.869    76739360.816        -240.895          49.000  
R01  21119429.958                3      -3178.623          22.000    21119436.368                3      -2472.494          24.000  
R19  20148622.145   107781560.3151       1892.327          32.000    20148639.536                        1471.122          29.000  
S31  36138708.828   189910173.345        -821.290          44.000  
E13  24142660.754   126870324.049       -3947.396          40.000    24142679.578    97212299.082       -3024.373          46.000  
G07  18981583.837    99749058.129        2495.718          47.000    18981586.346    77726649.000        1944.666          44.000  
G30  21740483.040   114247021.646        3000.957          33.000    21740503.913    89023949.327        2338.566          35.000  
G04  18861348.794    99117025.349       -2838.843          48.000    18861349.640    77234021.287       -2212.017          48.000  
E08  25239204.650   132632883.345       -2928.827          34.000    25239217.268   101627707.763       -2244.370          32.000  
E30  24626133.311   129411277.170         873.161          45.000    24626146.116    99159371.303         668.974          47.000  
G16  22471241.051                         270.040          30.000                                                                  
> 2024 04 08 16 06 30.4910000  0 24                     
S33  37096398.682   194942883.824        -821.481          43.000  
E07  21498245.567   112974018.272       -1998.314          48.000    21498251.653    86564524.487       -1531.062          52.000  
R13  18902787.686   100940026.797        2509.055          41.000    18902792.847    78508970.013        1951.742          41.000  
R17  18777784.665   100483634.378       -4390.503          49.000    18777785.934    78153799.002       -3414.897          45.000  
R02  18154008.403    96873245.979       -2023.145          50.000    18154011.804    75345891.615       -1573.627          49.000  
R03  18185052.255    97346069.740         305.072          52.000    18185051.520    75713666.187         237.292          48.000  
R18  18021137.661    96198038.766       -1150.128          53.000    18021140.406    74820533.595        -894.415          50.000  
E33  22215730.797   116744474.406         440.237          47.000    22215735.032    89453621.297         337.333          50.000  
G09  18007861.948    94631979.805        -768.323          50.000    18007862.889    73739276.910        -598.700          45.000  
G03  19288035.389   101359250.314       -2613.277          49.000    19288039.000    78981191.171       -2036.338          43.000  
G11  21425154.325                3       2109.951          28.000    21425165.832                        1644.426          30.000  
E26  21070999.782   110728823.441       -2235.323          48.000    21071002.067    84844169.393       -1712.752          50.000  
G06  18567622.456    97573566.632         280.123          46.000    18567625.754    76031369.597         218.400          48.000  
R12  18472026.976    98674387.665        -335.465          50.000    18472030.816    76746880.356        -260.876          49.000  
R01  21137276.839                3      -3173.930          17.000    21137276.237                3      -2466.895          14.000  
R19  20138073.243   107725100.665        1871.589          31.000    20138081.302    83786190.8901       1455.707          33.000  
S31  36143396.064   189934806.306        -821.237          44.000  
E13  24165200.939   126988777.111       -3950.048          40.000    24165221.151    97303060.933       -3026.556          46.000  
G07  18967369.054    99674356.099        2483.660          48.000    18967371.094    77668439.752        1935.323          44.000  
G30  21723356.770   114157019.581        2999.188          34.000    21723377.768    88953818.409        2336.833          35.000  
G04  18877565.808    99202247.063       -2843.197          48.000    18877566.741    77300427.736       -2215.361          47.000  
E08  25255920.553   132720714.768       -2926.835          34.000    25255931.294   101695006.872       -2242.823          34.000  
E30  24621168.090   129385190.146         865.575          44.000    24621182.090    99139382.689         663.180          48.000  
G16  22469727.936   118079213.5231        259.016          32.000                                                                  
> 2024 04 08 16 07 00.4910000  0 24                     
S33  37101089.662   194967531.839        -821.792          43.000  
E07  21509659.930   113034004.048       -2001.087          47.000    21509666.489    86610487.546       -1533.257          52.000  
R13  18888727.729   100864950.320        2495.707          40.000    18888733.526    78450577.458        1941.089          40.000  
R17  18802434.248   100615544.433       -4403.669          48.000    18802436.661    78256395.373       -3425.089          45.000  
R02  18165394.623    96933996.934       -2026.984          49.000    18165397.133    75393142.345       -1576.532          49.000  
R03  18183354.769    97336983.943         300.568          51.000    18183353.634    75706599.435         233.679          48.000  
R18  18027678.263    96232954.021       -1177.637          51.000    18027681.264    74847689.855        -915.967          49.000  
E33  22213254.068   116731460.344         427.171          46.000    22213258.511    89443649.506         327.306          50.000  
G09  18012272.407    94655152.467        -776.642          50.000    18012273.068    73757333.496        -605.255          45.000  
G03  19302981.412   101437792.901       -2623.266          48.000    19302985.456    79042393.027       -2044.049          43.000  
G11  21413156.910   112526798.4871       2099.576          33.000    21413139.668                1       1635.673          28.000  
E26  21083796.899   110796077.730       -2248.557          48.000    21083800.362    84895701.823       -1722.927          50.000  
G06  18566079.215    97565459.299         259.970          45.000    18566082.879    76025052.194         202.661          47.000  
R12  18473983.522    98684837.121        -361.319          51.000    18473986.829    76755007.700        -281.036          49.000  
R01  21155111.914                1      -3179.083          27.000    21155046.265                3      -2481.799          13.000  
R19  20127635.783                        1850.610          29.000    20127643.373    83742759.338        1439.927          34.000  
S31  36148085.829   189959450.608        -821.702          43.000  
E13  24187761.449   127107324.599       -3953.225          42.000    24187780.939    97393895.136       -3028.908          46.000  
G07  18953224.811    99600030.121        2471.250          48.000    18953227.273    77610523.550        1925.699          44.000  
G30  21706247.305   114067108.845        2995.291          35.000    21706267.510    88883758.655        2334.404          35.000  
G04  18893808.810    99287604.829       -2847.557          49.000    18893809.918    77366940.184       -2218.880          47.000  
E08  25272624.158   132808496.544       -2925.494          34.000    25272636.264   101762268.046       -2241.558          35.000  
E30  24616248.864   129359338.804         857.705          44.000    24616262.422    99119574.667         657.210          47.000  
E27  25313285.338                1       1644.993          26.000                                                                  
> 2024 04 08 16 07 30.4910000  0 24                     
S33  37105782.993   194992195.178        -822.332          43.000  
E07  21521092.970   113094080.560       -2004.214          48.000    21521098.812    86656520.139       -1535.609          52.000  
R13  18874745.161   100790284.771        2481.735          40.000    18874751.018    78392504.506        1930.234          40.000  
R17  18827159.883   100747856.778       -4417.371          48.000    18827162.857    78359304.622       -3435.620          45.000  
R02  18176799.767    96994869.270       -2031.305          50.000    18176804.553    75440487.307       -1579.822          49.000  
R03  18181683.753    97328040.798         295.648          51.000    18181682.587    75699643.647         229.913          48.000  
R18  18034375.479    96268703.360       -1205.676          52.000    18034378.589    74875494.837        -937.756          49.000  
E33  22210854.492   116718851.542         413.429          46.000    22210859.228    89433988.222         316.795          50.000  
G09  18016730.716    94678583.332        -785.413          49.000    18016732.153    73775591.315        -611.993          46.000  
G03  19317986.220   101516647.886       -2633.915          47.000    19317991.633    79103838.310       -2052.473          44.000  
G11  21401201.695   112463986.127        2088.486          33.000    21401197.308    87634313.6131       1626.608          32.000  
E26  21096672.391   110863739.078       -2262.375          47.000    21096675.826    84947546.134       -1733.401          50.000  
G06  18564652.217    97557966.965         239.024          45.000    18564657.429    76019214.022         186.468          47.000  
R12  18476087.403    98696074.133        -387.888          52.000    18476091.373    76763747.591        -301.684          50.000  
R01  21172946.381                1      -3180.060          29.000    21172932.650                3      -2472.301          24.000  
R19  20117313.272                        1829.616          30.000    20117321.952                        1423.854          31.000  
S31  36152778.805   189984111.951        -822.802          44.000  
E13  24210338.883   127225969.323       -3956.385          41.000    24210359.080    97484803.861       -3031.531          46.000  
G07  18939154.531    99526087.921        2458.130          48.000    18939156.385    77552906.360        1915.423          44.000  
G30  21689157.177   113977296.370        2991.576          36.000    21689176.398    88813775.477        2331.332          37.000  
G04  18910078.475    99373102.020       -2852.358          49.000    18910079.935    77433561.265       -2222.527          48.000  
E08  25289320.067   132896233.136       -2924.674          32.000    25289332.534   101829494.550       -2240.368          36.000  
E30  24611375.223   129333729.671         849.491          43.000    24611389.359    99099952.232         650.915          48.000  
E27  25303882.301   132972830.1701       1647.541          29.000    25303910.509   101888363.6601       1262.092          34.000  
> 2024 04 08 16 08 00.4910000  0 24                     
S33  37110479.322   195016875.001        -823.104          44.000  
E07  21532541.633   113154246.077       -2007.139          48.000    21532548.116    86702620.940       -1538.014          52.000  
R13  18860839.881   100716034.175        2468.041          40.000    18860846.114    78334754.252        1919.501          40.000  
R17  18851960.942   100880565.775       -4430.245          48.000    18851963.739    78462522.336       -3445.762          46.000  
R02  18188231.863    97055862.238       -2035.272          48.000    18188233.812    75487926.297       -1582.983          48.000  
R03  18180040.866    97319238.581         290.863          52.000    18180039.128    75692797.459         226.263          48.000  
R18  18041228.632    96305284.675       -1233.295          51.000    18041231.581    74903946.882        -959.296          50.000  
E33  22208531.660   116706648.244         399.885          45.000    22208536.888    89424637.650         306.427          49.000  
G09  18021238.137    94702270.582        -793.988          49.000    18021238.947    73794048.893        -618.695          45.000  
G03  19333052.212   101595814.394       -2644.185          48.000    19333056.544    79165526.348       -2060.250          44.000  
G11  21389313.054   112401510.209        2077.055          34.000    21389316.682    87585631.156        1618.200          35.000  
E26  21109623.976   110931805.562       -2275.862          46.000    21109628.772    84999700.892       -1743.724          51.000  
G06  18563343.513    97551089.984         218.778          45.000    18563348.351    76013855.349         170.577          47.000  
R12  18478338.443    98708099.273        -414.154          51.000    18478342.122    76773100.473        -322.152          49.000  
R19  20107108.860                        1809.013          30.000    20107115.461    83657361.677        1406.730          35.000  
S31  36157474.742   190008787.771        -822.814          44.000  
E13  24232934.226   127344708.637       -3959.577          41.000    24232955.543    97575785.042       -3034.019          46.000  
G07  18925157.166    99452531.221        2445.267          48.000    18925158.897    77495361.5611       1905.522          44.000  
G30  21672084.348   113887583.639        2988.634          35.000    21672103.698    88743869.977        2328.822          37.000  
G04  18926374.190    99458736.418       -2856.849          49.000    18926375.927    77500289.262       -2226.008          48.000  
E08  25306012.004                       -2921.690          30.000    25306019.428   101896685.621       -2239.417          36.000  
E30  24606547.874   129308363.678         841.357          42.000    24606562.492    99080516.099         644.643          47.000  
E27  25294470.914   132923367.607        1650.164          32.000    25294497.238   101850464.199        1263.995          34.000  
R01                                                                  21190810.721                3      -2473.804          22.000  
> 2024 04 08 16 08 30.4910000  0 24                     
S33  37115178.047   195041567.666        -823.185          44.000  
E07  21544007.245   113214497.993       -2009.623          48.000    21544013.667    86748787.932       -1539.841          52.000  
R13  18847012.852   100642200.910        2454.362          39.000    18847019.041    78277328.627        1908.628          40.000  
R17  18876834.043   101013664.895       -4442.878          47.000    18876836.634    78566043.514       -3455.477          43.000  
R02  18199684.361    97116974.015       -2038.867          50.000    18199686.720    75535457.485       -1585.834          48.000  
R03  18178422.332    97310575.226         286.755          52.000    18178420.666    75686059.313         222.949          48.000  
R18  18048236.592    96342694.893       -1260.681          51.000    18048239.585    74933043.645        -980.511          50.000  
E33  22206286.676   116694849.806         386.656          45.000    22206291.554    89415597.310         296.275          49.000  
G09  18025793.934    94726211.417        -802.271          49.000    18025794.244    73812704.075        -625.092          44.000  
G03  19348175.558   101675290.786       -2654.166          47.000    19348181.233    79227455.887       -2068.105          45.000  
G11  21377486.246   112339371.748        2066.042          35.000    21377490.567    87537211.548        1609.198          33.000  
E26  21122653.611   111000274.400       -2288.830          47.000    21122658.239    85052163.937       -1753.773          51.000  
G06  18562153.050    97544827.855         198.560          46.000    18562156.164    76008975.762         154.814          47.000  
R12  18480737.407    98720911.845        -440.046          52.000    18480740.333    76783065.791        -342.342          49.000  
R01  21208657.093                3      -3179.013          22.000    21208669.529                       -2474.902          26.000  
R19  20097018.968                1       1787.597          32.000    20097028.421    83615398.175        1390.341          37.000  
S31  36162173.168   190033477.077        -823.192          43.000  
E13  24255548.541   127463538.897       -3962.274          41.000    24255569.772    97666835.852       -3035.934          48.000  
G07  18911232.854    99379361.035        2432.704          48.000    18911234.288    77438345.970        1895.594          44.000  
G30  21655031.280   113797971.255        2985.516          35.000    21655050.198    88674042.708        2326.363          36.000  
G04  18942695.525    99544504.907       -2861.072          49.000    18942696.902    77567121.746       -2229.300          48.000  
E08  25322689.877                1      -2920.612          30.000    25322697.315   101963839.685       -2237.343          34.000  
E30  24601766.399   129283240.891         833.350          41.000    24601781.473    99061266.308         638.718          47.000  
E27  25285045.662   132873831.080        1652.605          34.000    25285069.741   101812508.045        1266.788          36.000  
> 2024 04 08 16 09 00.4910000  0 25                     
S33  37119878.755   195066269.149        -823.552          43.000  
E07  21555488.253   113274830.918       -2012.541          48.000    21555494.736    86795016.997       -1542.117          52.000  
G16  22463122.815                         202.849          32.000                                                                  
R13  18833263.997   100568785.163        2439.700          39.000    18833270.248    78220227.698        1897.715          39.000  
R17  18901777.206   101147144.777       -4455.930          46.000    18901780.494    78669860.839       -3465.659          44.000  
R02  18211156.939    97178199.859       -2042.889          50.000    18211160.923    75583077.506       -1589.111          48.000  
R03  18176828.689    97302045.675         281.970          52.000    18176827.568    75679425.186         219.220          49.000  
R18  18055399.064    96380928.371       -1288.342          50.000    18055402.026    74962780.738       -1001.959          49.000  
E33  22204118.717   116683452.829         373.034          46.000    22204122.980    89406864.570         285.783          49.000  
G09  18030396.754    94750400.279        -810.632          49.000    18030397.005    73831552.501        -631.708          45.000  
G03  19363356.609   101755072.591       -2664.532          47.000    19363363.212    79289623.351       -2076.581          45.000  
G11  21365719.422                        2053.775          31.000    21365729.403                        1600.387          32.000  
E26  21135758.620   111069139.936       -2302.283          47.000    21135763.004    85104930.928       -1764.091          51.000  
G06  18561078.579    97539177.174         177.898          47.000    18561080.823    76004572.614         138.706          47.000  
R12  18483281.733    98734508.358        -466.562          52.000    18483285.290    76793640.831        -362.744          49.000  
R01  21226518.982                3      -3175.683          19.000    21226521.874                3      -2468.421          15.000  
R19  20087053.008                        1766.724          29.000    20087060.909    83573924.094        1373.992          38.000  
S31  36166872.900   190058176.191        -823.656          44.000  
E13  24278177.570   127582453.644       -3965.264          41.000    24278199.047    97757951.418       -3038.500          47.000  
G07  18897382.559    99306575.444        2419.569          48.000    18897383.884    77381630.044        1885.271          45.000  
G30  21637995.623   113708456.975        2981.696          34.000    21638015.419    88604291.794        2324.094          36.000  
G04  18959041.079    99630401.618       -2865.587          48.000    18959043.185    77634054.137       -2232.837          48.000  
E08  25339354.565                       -2918.517          29.000    25339364.925   102030953.191       -2236.584          35.000  
E30  24597032.029   129258358.465         825.372          42.000    24597046.530    99042200.672         632.141          47.000  
E27  25275605.943   132824217.793        1654.845          38.000    25275628.854   101774493.161        1267.763          39.000  
> 2024 04 08 16 09 30.4910000  0 25                     
S33  37124580.762   195090977.003        -823.750          43.000  
E07  21566984.409   113335241.461       -2014.990          48.000    21566990.470    86841305.527       -1544.037          52.000  
G16  22461997.516   118038576.180         191.178          34.000                                                                  
R13  18819593.332   100495788.267        2426.453          38.000    18819599.127    78163452.609        1886.909          39.000  
R17  18926790.151   101280998.146       -4467.957          46.000    18926795.133    78773968.641       -3475.039          43.000  
R02  18222652.141    97239536.848       -2046.436          49.000    18222654.672    75630783.941       -1591.669          48.000  
R03  18175259.214    97293646.751         277.808          51.000    18175258.105    75672892.668         216.077          49.000  
R18  18062715.287    96419981.185       -1315.393          51.000    18062718.014    74993155.081       -1023.059          49.000  
E33  22202025.303   116672455.824         359.969          46.000    22202030.350    89398438.294         275.765          50.000  
G09  18035046.534    94774833.593        -818.488          48.000    18035047.258    73850591.442        -637.756          45.000  
G03  19378598.150   101835157.218       -2674.679          48.000    19378602.940    79352026.764       -2084.063          46.000  
G11  21354025.226   112216100.591        2043.114          36.000    21354038.716    87441156.177        1592.709          34.000  
E26  21148938.044   111138398.480       -2315.219          47.000    21148942.397    85157999.076       -1773.998          51.000  
G06  18560119.209    97534136.423         157.921          47.000    18560121.932    76000644.766         123.005          47.000  
R12  18485974.560    98748887.271        -492.406          52.000    18485976.982    76804824.446        -382.949          49.000  
R01  21244381.323                3      -3184.005          21.000    21244383.770                3      -2476.004          14.000  
R19  20077212.279                1       1745.934          27.000    20077209.110                        1357.801          31.000  
S31  36171574.124   190082881.013        -823.232          44.000  
E13  24300823.350   127701448.451       -3967.879          42.000    24300843.735    97849128.319       -3040.327          47.000  
G07  18883604.501    99234174.400        2406.975          48.000    18883605.332    77325213.777        1875.586          43.000  
G30  21620979.540   113619040.344        2979.525          36.000    21620999.901    88534617.156        2321.272          36.000  
G04  18975410.382    99716422.606       -2869.426          49.000    18975411.954    77701083.371       -2235.780          47.000  
E08  25356013.723                       -2918.168          26.000    25356022.687   102098024.029       -2235.173          36.000  
E30  24592342.948   129233715.612         817.378          42.000    24592357.212    99023318.593         626.436          47.000  
E27  25266147.187   132774526.881        1657.684          39.000    25266172.328   101736418.780        1269.843          41.000  
> 2024 04 08 16 10 00.4910000  0 25                     
S33  37129281.873   195115683.645        -823.226          43.000  
E07  21578493.389   113395721.068       -2017.023          48.000    21578499.438    86887646.970       -1545.520          52.000  
G16  22460932.924   118032983.371         181.407          34.000                                                                  
R13  18806001.282   100423207.242        2412.717          39.000    18806006.662    78107000.903        1876.195          38.000  
R17  18951873.637   101415212.397       -4479.675          47.000    18951877.088    78878357.085       -3484.379          42.000  
R02  18234166.266    97300977.099       -2049.591          50.000    18234169.133    75678570.696       -1594.293          48.000  
R03  18173712.694    97285370.474         274.066          51.000    18173712.725    75666455.567         213.055          49.000  
R18  18070183.897    96459844.154       -1341.998          52.000    18070186.500    75024159.528       -1043.750          50.000  
E33  22200007.546   116661852.119         347.067          46.000    22200012.619    89390313.389         265.858          50.000  
G09  18039740.600    94799502.592        -826.050          48.000    18039741.490    73869814.028        -643.787          45.000  
G03  19393893.439   101915536.997       -2684.196          48.000    19393898.187    79414660.194       -2091.486          45.000  
G11  21342393.577   112154962.587        2032.716          35.000    21342398.389                        1583.739          26.000  
E26  21162191.785   111208041.274       -2327.747          48.000    21162195.376    85211361.616       -1783.592          51.000  
G06  18559275.034    97529699.081         138.296          46.000    18559278.260    75997187.091         107.644          48.000  
R12  18488810.895    98764041.758        -517.913          51.000    18488813.816    76816611.246        -402.825          49.000  
R01  21262233.277                3      -3185.693          15.000                                                                  
R19  20067470.073                3       1725.587          24.000    20067471.622                        1341.592          27.000  
S31  36176275.122   190107584.209        -823.276          43.000  
E13  24323480.687   127820513.722       -3970.106          41.000    24323501.873    97940359.235       -3041.882          46.000  
G07  18869899.109    99162152.934        2394.470          48.000    18869900.856    77269093.294        1865.790          44.000  
G30  21603981.466   113529716.196        2976.235          36.000    21604001.876    88465014.492        2318.672          36.000  
G04  18991802.432    99802558.896       -2872.984          50.000    18991803.497    77768202.448       -2238.722          47.000  
E08  25372654.913                1      -2914.989          25.000    25372666.946   102165045.915       -2232.896          34.000  
E30  24587698.726   129209306.418         809.830          41.000    24587711.696    99004615.550         620.530          46.000  
E27  25256674.580   132724752.471        1660.582          41.000    25256699.960   101698280.411        1272.573          43.000  
> 2024 04 08 16 10 30.4910000  0 25                     
S33  37133983.516   195140391.545        -823.448          43.000  
E07  21590016.345   113456272.436       -2019.383          48.000    21590022.344    86934043.411       -1547.338          53.000  
G16  22459934.330                1        169.840          31.000                                                                  
R13  18792488.896   100351049.857        2398.289          40.000    18792494.540    78050878.678        1865.304          39.000  
R17  18977021.530   101549786.135       -4491.493          47.000    18977024.155    78983025.184       -3493.600          42.000  
R02  18245700.243    97362524.395       -2053.290          50.000    18245702.228    75726440.704       -1597.052          47.000  
R03  18172190.169    97277219.627         269.720          52.000    18172189.365    75660116.025         209.833          48.000  
R18  18077803.268    96500519.650       -1369.256          51.000    18077806.957    75055795.966       -1064.954          50.000  
E33  22198065.442   116651646.318         333.695          46.000    22198070.765    89382493.354         255.790          50.000  
G09  18044480.179    94824409.798        -833.984          48.000    18044481.098    73889222.213        -649.896          45.000  
G03  19409246.798   101996215.459       -2694.106          48.000    19409250.762    79477526.353       -2099.055          45.000  
G11  21330822.842   112094160.712        2021.073          35.000    21330825.313                1       1575.682          25.000  
E26  21175517.321   111278070.627       -2340.602          47.000    21175521.507    85265020.363       -1793.458          51.000  
G06  18558545.770    97525869.726         117.615          45.000    18558549.580    75994203.168          91.725          48.000  
R12  18491794.769    98779976.367        -544.098          51.000    18491796.968    76829004.839        -423.136          48.000  
R01  21280089.748                       -3183.472          28.000    21280065.872                3      -2475.848          24.000  
R19  20057848.251                1       1704.225          24.000    20057846.824                1       1325.533          29.000  
S31  36180976.498   190132289.368        -823.380          44.000  
E13  24346152.498   127939651.067       -3972.167          41.000    24346174.207    98031645.385       -3043.566          46.000  
G07  18856266.138    99090517.455        2381.516          47.000    18856269.069    77213273.559        1855.751          44.000  
G30  21586999.552   113440490.223        2972.743          36.000    21587021.565    88395488.303        2316.256          35.000  
G04  19008215.896    99888812.618       -2876.869          49.000    19008217.301    77835413.004       -2241.617          47.000  
E08  25389287.861                1      -2912.142          26.000    25389301.132   102232021.626       -2231.926          33.000  
E30  24583097.919   129185136.059         801.731          40.000    24583111.762    98986095.523         614.587          45.000  
E27  25247188.030   132674899.781        1663.272          42.000    25247213.185   101660082.089        1274.329          45.000  
> 2024 04 08 16 11 00.4910000  0 25                     
S33  37138686.396   195165102.354        -823.544          43.000  
E07  21601551.665   113516896.146       -2021.681          48.000    21601558.656    86980495.280       -1549.096          53.000  
G16  22458999.646                1        158.447          33.000                                                                  
R13  18779056.257   100279321.887        2384.020          40.000    18779061.174    77995090.500        1854.036          39.000  
R17  19002237.022   101684716.213       -4503.364          47.000    19002240.336    79087970.380       -3502.798          41.000  
R02  18257255.427    97424179.866       -2056.769          51.000    18257256.912    75774394.875       -1599.701          47.000  
R03  18170692.852    97269195.807         265.582          52.000    18170689.926    75653875.264         206.641          49.000  
R18  18085575.007    96542007.538       -1396.222          51.000    18085578.045    75088064.251       -1085.919          50.000  
E33  22196199.807   116641840.906         320.444          46.000    22196204.916    89374980.117         245.537          50.000  
G09  18049266.075    94849555.572        -841.968          48.000    18049266.519    73908816.268        -656.122          45.000  
G03  19424656.167   102077193.997       -2703.975          48.000    19424660.800    79540626.374       -2106.939          45.000  
G11  21319315.396   112033698.756        2010.092          34.000    21319318.166                1       1566.121          26.000  
E26  21188917.212   111348486.855       -2353.369          47.000    21188921.626    85318975.519       -1803.160          51.000  
G06  18557933.330    97522650.826          97.340          45.000    18557936.851    75991694.924          75.930          47.000  
R12  18494924.278    98796693.511        -570.073          52.000    18494927.230    76842007.023        -443.362          50.000  
R01  21297961.669   113849747.9281      -3183.939          32.000    21297987.989                3      -2476.796          23.000  
R19  20048343.256                3       1683.500          23.000    20048353.928                        1308.396          30.000  
S31  36185678.161   190156997.255        -823.437          44.000  
E13  24368837.932   128058860.038       -3974.467          42.000    24368859.895    98122986.411       -3045.293          46.000  
G07  18842708.690    99019271.685        2368.533          47.000    18842711.102    77157757.492        1845.406          45.000  
G30  21570041.254   113351366.195        2969.127          39.000    21570061.530    88326041.572        2314.063          36.000  
G04  19024652.271    99975183.879       -2880.748          49.000    19024653.104    77902715.175       -2244.741          47.000  
E08  25405908.658                       -2909.991          28.000    25405921.045                       -2230.247          27.000  
E30  24578544.218   129161207.691         793.616          41.000    24578557.767    98967760.948         608.349          44.000  
E27  25237686.551   132624972.018        1665.809          41.000    25237712.133   101621826.215        1276.385          45.000  
> 2024 04 08 16 11 30.4910000  0 25                     
S33  37143388.778   195189811.719        -823.644          43.000  
E07  21613101.562   113577586.726       -2024.117          47.000    21613107.514    87026998.371       -1550.893          53.000  
G16  22458128.811                         146.747          33.000                                                                  
R13  18765704.802   100208022.957        2369.655          41.000    18765709.194    77939635.989        1842.871          39.000  
R17  19027516.892   101819992.974       -4514.971          47.000    19027519.863    79193185.289       -3511.675          42.000  
R02  18268828.155    97485938.801       -2060.333          50.000    18268829.514    75822429.453       -1602.521          45.000  
R03  18169215.250    97261293.501         261.322          52.000    18169214.410    75647729.037         203.137          49.000  
R18  18093497.443    96584301.801       -1423.187          50.000    18093501.398    75120959.728       -1106.989          50.000  
E33  22194409.722   116632432.235         307.150          47.000    22194414.537    89367770.880         235.244          50.000  
G09  18054094.837    94874934.205        -849.945          48.000    18054095.688    73928591.803        -662.109          45.000  
G03  19440122.130   102158468.002       -2714.188          47.000    19440127.224    79603956.583       -2114.771          44.000  
G11  21307877.843   111973574.739        1998.775          35.000    21307900.655                        1557.329          28.000  
E26  21202389.397   111419284.141       -2366.122          47.000    21202394.004    85373222.668       -1813.000          51.000  
G06  18557435.864    97520038.736          77.182          45.000    18557439.285    75989659.527          60.170          47.000  
R12  18498198.380    98814189.454        -596.200          50.000    18498202.444    76855614.965        -463.672          49.000  
R01  21315837.307                       -3184.798          26.000                                                                  
R19  20038978.922                3       1663.629          24.000    20038966.274    83373887.4331       1292.359          36.000  
S31  36190379.900   190181704.037        -823.562          45.000  
E13  24391534.145   128178134.038       -3976.917          42.000    24391557.969    98214377.286       -3047.087          46.000  
G07  18829225.123    98948413.830        2355.522          48.000    18829226.907    77102543.697        1835.436          44.000  
G30  21553100.605   113262341.742        2965.840          39.000    21553119.589    88256672.502        2310.967          36.000  
G04  19041108.424   100061666.668       -2884.574          49.000    19041110.788    77970104.207       -2247.637          47.000  
E08  25422531.670                1      -2909.044          27.000    25422535.958   102365833.001       -2228.282          32.000  
E30  24574036.652   129137518.420         785.597          41.000    24574050.731    98949609.548         602.130          46.000  
E27  25228171.255   132574966.253        1668.305          42.000    25228195.979   101583510.582        1278.337          44.000  
> 2024 04 08 16 12 00.4910000  0 24                     
S33  37148090.735   195214522.820        -823.750          43.000  
E07  21624663.180   113638346.398       -2026.376          47.000    21624670.033    87073554.426       -1552.710          53.000  
R13  18752434.315   100137160.620        2354.834          41.000    18752439.074    77884520.996        1831.609          40.000  
R17  19052859.052   101955614.825       -4526.458          43.000    19052864.588    79298668.518       -3520.272          43.000  
R02  18280422.007    97547804.183       -2063.959          51.000    18280424.042    75870546.885       -1605.377          43.000  
R03  18167763.024    97253515.524         257.245          51.000    18167761.694    75641679.491         200.031          49.000  
R18  18101572.017    96627403.934       -1450.189          50.000    18101576.031    75154483.525       -1127.911          50.000  
E33  22192696.986   116623424.461         293.539          47.000    22192700.505    89360868.808         224.913          50.000  
G09  18058968.914    94900547.858        -857.672          48.000    18058970.105    73948550.459        -668.243          46.000  
G03  19455644.735   102240040.467       -2724.012          47.000    19455650.158    79667519.401       -2122.760          44.000  
G11  21296503.539   111913793.793        1987.117          35.000    21296521.396                3       1549.027          24.000  
E26  21215934.211   111490464.409       -2378.979          47.000    21215938.939    85427763.272       -1822.864          51.000  
G06  18557054.819    97518037.562          56.656          46.000    18557058.868    75988100.140          44.040          47.000  
R12  18501620.823    98832468.144        -622.326          51.000    18501623.870    76869831.700        -483.951          49.000  
R01  21333713.732                       -3185.371          27.000                                                                  
R19  20029716.751                3       1640.188          19.000    20029715.077    83335368.648        1275.347          35.000  
S31  36195081.013   190206411.648        -823.677          44.000  
E13  24414246.103   128297474.322       -3978.974          43.000    24414268.856    98305818.916       -3048.878          47.000  
G07  18815815.902    98877949.804        2342.257          48.000    18815819.157    77047636.782        1825.074          45.000  
G30  21536180.036   113173422.182        2962.234          41.000    21536197.030    88187385.107        2308.285          35.000  
G04  19057587.367   100148262.827       -2888.366          49.000    19057589.778    78037581.614       -2250.701          47.000  
E30  24569574.937   129114073.012         777.329          43.000    24569589.223    98931645.062         595.845          44.000  
E27  25218640.688   132524887.424        1670.721          41.000    25218666.214   101545138.974        1279.974          45.000  
E08                                                                  25439135.034   102432667.271       -2227.416          31.000  
> 2024 04 08 16 12 30.4910000  0 26                     
S33  37152792.450   195239229.729        -823.148          43.000  
E07  21636238.251   113699169.711       -2028.234          48.000    21636244.160    87120159.220       -1553.963          53.000  
G16  22456583.820                1        125.352          33.000                                                                  
R13  18739245.015   100066734.383        2340.751          39.000    18739250.833    77829745.302        1820.183          38.000  
R17  19078267.374   102091572.171       -4537.203          42.000    19078274.436    79404412.643       -3528.951          44.000  
R02  18292035.399    97609771.052       -2066.957          51.000    18292036.645    75918743.305       -1607.531          45.000  
R03  18166331.692    97245857.303         253.668          51.000    18166330.680    75635723.137         197.156          48.000  
R18  18109797.793    96671307.831       -1476.471          51.000    18109801.148    75188630.929       -1148.462          50.000  
E33  22191058.126   116614813.861         280.808          47.000    22191062.017    89354271.074         215.130          50.000  
G09  18063886.809    94926390.800        -865.106          47.000    18063888.154    73968687.778        -674.036          46.000  
G03  19471222.702   102321906.778       -2733.536          45.000    19471228.897    79731311.112       -2130.032          45.000  
G11  21285194.038   111854354.035        1975.537          37.000    21285227.575                3       1542.101          22.000  
E26  21229550.789   111562021.804       -2391.233          47.000    21229555.929    85482592.828       -1832.143          50.000  
G06  18556790.049    97516643.595          36.661          47.000    18556793.199    75987013.911          28.576          46.000  
R12  18505187.036    98851525.701        -647.954          50.000    18505191.913    76884654.265        -504.011          50.000  
R01  21351592.906                       -3185.269          27.000                                                                  
R19  20020558.874                3       1613.876          14.000    20020584.003    83297347.307        1259.340          35.000  
S31  36199782.501   190231115.805        -823.162          45.000  
E13  24436966.492   128416874.288       -3980.632          42.000    24436990.898    98397306.283       -3050.079          47.000  
G07  18802482.142    98807876.874        2329.481          48.000    18802484.161    76993034.600        1815.194          44.000  
G30  21519278.835   113084605.223        2959.033          41.000    21519294.302                        2305.415          31.000  
G04  19074086.527   100234966.344       -2891.543          49.000    19074089.281    78105142.694       -2253.175          47.000  
E30  24565160.060   129090868.519         769.753          44.000    24565172.742    98913865.145         589.841          44.000  
E27  25209097.255   132474732.579        1673.515          42.000    25209121.356   101506709.077        1282.279          45.000  
E19                                                                  24954829.047                3        784.432          26.000  
E08                                                                  25455729.069                3      -2227.528          18.000  
> 2024 04 08 16 13 00.4910000  0 25                     
S33  37157492.909   195263928.050        -823.395          44.000  
E07  21647822.977   113760050.633       -2030.420          48.000    21647829.314    87166808.175       -1555.790          53.000  
R13  18726137.876    99996743.479        2325.647          40.000    18726143.123    77775308.087        1808.710          38.000  
R17  19103735.696   102227854.919       -4548.250          45.000    19103741.866    79510409.935       -3537.700          43.000  
R02  18303664.432    97671834.203       -2070.478          49.000    18303667.388    75967014.517       -1610.265          47.000  
R03  18164923.607    97238312.674         249.554          51.000    18164921.332    75629855.110         194.049          49.000  
R18  18118171.358    96716006.446       -1503.162          50.000    18118174.213    75223396.469       -1169.171          49.000  
E33  22189494.193   116606596.273         267.339          47.000    22189498.191    89347974.483         204.820          50.000  
G09  18068847.218    94952456.752        -872.601          48.000    18068848.815    73988998.891        -679.938          46.000  
G03  19486857.017   102404061.631       -2743.459          46.000    19486862.825    79795327.667       -2137.830          45.000  
G11  21273946.343   111795252.646        1964.740          33.000                                                                  
E26  21243239.841   111633949.889       -2403.835          48.000    21243242.977    85537706.419       -1841.842          50.000  
G06  18556639.839    97515852.567          16.161          48.000    18556642.097    75986397.496          12.692          46.000  
R12  18508900.793    98871357.583        -674.028          50.000    18508903.230    76900079.048        -524.366          49.000  
R01  21369464.914                3      -3186.224          16.000                                                                  
R19  20011560.933                3       1587.813          17.000    20011565.543    83259820.866        1242.319          35.000  
S31  36204482.115   190255812.070        -823.149          44.000  
E13  24459698.238   128536326.836       -3982.571          42.000    24459722.303    98488833.942       -3051.681          46.000  
G07  18789221.516    98738192.728        2316.108          48.000    18789224.164    76938735.405        1804.843          45.000  
G30  21502396.371   112995887.896        2955.556          42.000    21502409.309    88049047.868        2303.417          33.000  
G04  19090605.131   100321770.751       -2895.098          49.000    19090606.236    78172782.386       -2256.026          45.000  
E30  24560789.417   129067901.426         761.470          44.000    24560801.962    98896267.075         583.598          43.000  
E27  25199538.036   132424498.353        1675.595          42.000    25199561.208   101468218.337        1283.808          44.000  
E19                                                                  24949007.435                         779.999          28.000  
E08                                                                  25472286.398                3      -2223.105          22.000  
> 2024 04 08 16 13 30.4910000  0 26                     
S33  37162190.404   195288617.468        -822.691          42.000  
E07  21659419.216   113820988.126       -2032.147          47.000    21659425.601    87213500.464       -1557.076          53.000  
G16  22455287.709                         101.767          32.000                                                                  
R13  18713113.455    99927191.982        2311.160          40.000    18713117.768    77721212.669        1797.609          38.000  
R17  19129262.054   102364458.221       -4558.832          39.000    19129268.627    79616656.485       -3545.548          43.000  
R02  18315314.595    97733993.409       -2073.489          50.000    18315316.476    76015360.470       -1612.780          47.000  
R03  18163534.327    97230881.239         245.911          52.000    18163533.298    75624075.111         191.101          49.000  
R18  18126692.920    96761497.914       -1529.529          51.000    18126696.345    75258778.638       -1189.673          50.000  
E33  22188004.674   116598772.452         254.215          47.000    22188009.255    89341979.606         194.836          50.000  
G09  18073849.394    94978744.519        -879.993          47.000    18073850.736    74009482.808        -685.614          46.000  
G03  19502545.761   102486504.700       -2752.941          46.000    19502551.169    79859568.856       -2145.095          44.000  
G11  21262762.819   111736491.796        1953.619          33.000    21262790.087                3       1519.871          25.000  
E26  21256997.009   111706247.240       -2415.972          47.000    21257000.900    85593102.973       -1851.292          49.000  
G06  18556604.090    97515665.180          -3.892          48.000    18556606.753    75986251.477          -2.974          46.000  
R12  18512757.173    98891964.080        -699.815          48.000    18512761.997    76916106.288        -544.184          49.000  
R19  20002675.930                3       1572.047          21.000    20002665.642    83222791.728        1225.771          35.000  
S31  36209180.201   190280498.536        -822.806          44.000  
E13  24482440.221   128655829.889       -3984.203          42.000    24482464.196    98580400.284       -3052.759          46.000  
G07  18776035.242    98668900.317        2303.322          48.000    18776037.147    76884741.461        1794.662          44.000  
G30  21485532.549   112907272.252        2952.055          42.000    21485542.878                        2300.849          32.000  
G04  19107142.220   100408674.528       -2898.402          48.000    19107143.349    78240499.477       -2258.580          45.000  
E30  24556463.227   129045173.203         753.694          43.000    24556476.999    98878852.073         577.525          44.000  
E27  25189963.143   132374186.198        1678.445          42.000    25189987.174   101429667.901        1286.029          46.000  
E19                                                                  24943205.109                         777.050          28.000  
E08                                                                  25488870.474                3      -2215.817          21.000  
R01                                                                  21387371.168                3      -2478.480          26.000  
> 2024 04 08 16 14 00.4910000  0 25                     
S33  37166887.425   195313298.282        -822.559          43.000  
E07  21671026.283   113881982.441       -2034.167          48.000    21671032.393    87260236.290       -1558.657          53.000  
G16  22454738.263   118000425.2611         90.009          33.000                                                                  
R13  18700171.622    99858085.059        2296.029          38.000    18700175.606    77667463.045        1785.847          38.000  
R17  19154849.782   102501378.214       -4569.071          44.000    19154855.985    79723149.299       -3553.659          44.000  
R02  18326980.584    97796249.546       -2076.866          49.000    18326983.250    76063781.795       -1615.259          47.000  
R03  18162167.010    97223563.578         242.023          51.000    18162165.483    75618383.587         188.147          49.000  
R18  18135364.453    96807781.696       -1556.055          52.000    18135366.621    75294777.050       -1210.211          49.000  
E33  22186591.731   116591344.399         240.918          48.000    22186595.939    89336287.966         184.523          50.000  
G09  18078894.515    95005254.062        -887.408          47.000    18078895.051    74030139.577        -691.486          46.000  
G03  19518289.650   102569237.046       -2762.673          47.000    19518295.738    79924035.423       -2152.514          45.000  
G11  21251644.207                        1941.620          29.000    21251644.419                        1512.805          28.000  
E26  21270825.771   111778913.717       -2428.293          48.000    21270829.034    85648782.341       -1860.763          49.000  
G06  18556683.068    97516083.384         -24.091          46.000    18556686.703    75986577.336         -18.817          47.000  
R12  18516761.045    98913347.318        -725.809          49.000    18516764.890    76932737.682        -564.426          49.000  
R01  21405211.594                3      -3180.284          16.000                                                                  
R19  19993901.976                3       1554.948          26.000    19993885.949    83186263.463        1208.860          36.000  
S31  36213875.886   190305177.170        -822.371          43.000  
E13  24505190.574   128775382.501       -3985.825          41.000    24505215.459    98672004.650       -3054.108          46.000  
G07  18762924.657    98600002.732        2289.874          48.000    18762926.518    76831055.154        1784.188          44.000  
G30  21468689.295   112818761.670        2948.578          42.000    21468701.865    87911028.738        2297.406          33.000  
G04  19123698.333   100495677.402       -2901.749          48.000    19123700.783    78308293.795       -2261.064          47.000  
E30  24552185.034   129022686.626         745.365          44.000    24552198.210    98861622.223         571.282          45.000  
E27  25180373.780   132323799.073        1680.744          40.000    25180398.557   101391060.024        1287.743          47.000  
E19                                                                  24937422.669                         775.405          27.000  
> 2024 04 08 16 14 30.4910000  0 26                     
S33  37171584.315   195337980.564        -822.868          43.000  
E07  21682646.297   113943041.881       -2036.351          48.000    21682651.421    87307021.999       -1560.376          53.000  
G16  22454262.488                3         78.853          29.000                                                                  
R13  18687316.454    99789436.569        2280.807          39.000    18687320.495    77614069.955        1773.722          39.000  
R17  19180499.036   102638619.236       -4580.221          44.000    19180502.194    79829891.850       -3562.154          44.000  
R02  18338667.277    97858611.897       -2080.595          50.000    18338670.883    76112285.749       -1618.214          48.000  
R03  18160823.053    97216368.842         237.720          52.000    18160821.702    75612787.715         185.016          49.000  
R18  18144184.865    96854865.315       -1582.794          51.000    18144186.341    75331397.551       -1231.110          49.000  
E33  22185255.367   116584322.204         227.276          47.000    22185259.666    89330907.282         174.150          50.000  
G09  18083982.299    95031993.563        -895.337          47.000    18083983.387    74050975.522        -697.565          46.000  
G03  19534089.745   102652267.701       -2772.718          47.000    19534096.488    79988734.428       -2160.653          45.000  
G11  21240600.293   111620080.3451       1929.364          32.000    21240598.911                        1503.143          29.000  
E26  21284725.718   111851957.195       -2441.107          48.000    21284728.837    85704750.572       -1870.547          49.000  
G06  18556880.382    97517117.160         -44.672          47.000    18556883.589    75987382.830         -34.745          47.000  
R04  21215501.512                3       1735.492          11.000                                                                  
R12  18520910.738    98935517.006        -752.157          49.000    18520915.056    76949980.762        -584.942          49.000  
R01  21423135.485                3      -3188.051          23.000                                                                  
R19  19985205.172                3       1564.774          13.000    19985228.139    83150245.323        1191.570          34.000  
S31  36218572.366   190329856.317        -822.501          43.000  
E13  24527953.332   128894991.966       -3987.894          42.000    24527977.629    98763652.562       -3055.633          46.000  
G07  18749891.297    98531511.755        2276.200          48.000    18749892.450    76777685.664        1773.600          44.000  
G30  21451867.828   112730367.524        2944.224          42.000    21451883.814    87842150.761        2294.296          33.000  
G04  19140275.047   100582787.241       -2905.404          48.000    19140277.285    78376171.503       -2263.909          46.000  
E30  24547953.719   129000452.435         736.789          44.000    24547966.978    98844585.774         564.600          45.000  
E27  25170771.971   132273347.797        1682.722          39.000    25170797.338   101352403.028        1289.295          46.000  
E19                                                                  24931655.700                3        773.279          25.000  
