     3.00           OBSERVATION DATA    M: Mixed            RINEX VERSION / TYPE
CONVBIN 2.4.3                           20240408 162942 UTC PGM / RUN BY / DATE 
format: u-blox UBX                                          COMMENT             
log: data/2024-04-08/20240408161500.ubx                     COMMENT             
AQUI00CHL                                                   MARKER NAME         
                                                            MARKER NUMBER       
                                                            MARKER TYPE         
                                                            OBSERVER / AGENCY   
UNKNOWN             UBLOX-ZED-F9P                           REC # / TYPE / VERS 
UNKNOWN             TWIVSP6037L                             ANT # / TYPE        
  1713381.0000 -5047934.0000 -3490983.0000                  APPROX POSITION XYZ 
        0.0000        0.0000        0.0000                  ANTENNA: DELTA H/E/N
G    8 C1C L1C D1C S1C C2L L2L D2L S2L                      SYS / # / OBS TYPES 
R    8 C1C L1C D1C S1C C2C L2C D2C S2C                      SYS / # / OBS TYPES 
E    8 C1C L1C D1C S1C C7Q L7Q D7Q S7Q                      SYS / # / OBS TYPES 
S    4 C1C L1C D1C S1C                                      SYS / # / OBS TYPES 
  2024    04    08    16    15   00.4910000     GPS         TIME OF FIRST OBS   
  2024    04    08    16    29   30.4920000     GPS         TIME OF LAST OBS    
                                                            END OF HEADER       
> 2024 04 08 16 15 00.4910000  0 25                     
S33  37176281.140   195362661.6911       -822.698          43.000  
E08  25538446.008                3      -2893.671          24.000                                                                  
E07  21694276.991   114004164.4061      -2038.385          48.000    21694282.904    87353856.0641      -1561.861          53.000  
R13  18674546.237    99721249.4941       2265.366          38.000    18674551.115    77561035.6701       1761.731          39.000  
R17  19206204.313   102776175.3441      -4590.196          44.000    19206208.026    79936879.4761      -3570.250          44.000  
R02  18350374.137    97921079.1631      -2083.972          51.000    18350376.168    76160871.2601      -1620.917          47.000  
R03  18159503.465    97209295.3261        233.820          53.000    18159500.297    75607286.1411        181.921          49.000  
R18  18153154.535    96902745.6971      -1609.100          51.000    18153155.899    75368637.8001      -1251.697          49.000  
E33  22183996.468   116577705.5711        213.944          47.000    22184000.434    89325837.3741        163.815          50.000  
G09  18089114.706    95058960.7271       -902.448          49.000    18089115.882    74071988.8721       -703.284          47.000  
G03  19549947.431   102735595.3381      -2782.607          47.000    19549952.550    80053664.8511      -2168.238          44.000  
G11  21229620.270                1       1917.578          28.000    21229618.757    86931724.1421       1493.896          32.000  
E26  21298696.202   111925375.1521      -2453.265          47.000    21298699.931    85761005.7481      -1879.912          49.000  
G06  18557193.903    97518766.0711        -65.127          47.000    18557197.256    75988667.6851        -50.832          47.000  
R12  18525208.979    98958472.4991       -778.103          50.000    18525211.657    76967835.0161       -605.313          49.000  
R01  21441031.501                3      -3184.100          22.000                                                                  
R19  19976681.067                3       1518.658          21.000    19976691.222    83114738.7541       1174.960          34.000  
S31  36223268.636   190354534.4331       -822.456          44.000  
E13  24550724.137   129014655.1101      -3989.752          40.000    24550749.539    98855341.5831      -3056.846          46.000  
G07  18736934.838    98463428.7801       2262.676          48.000    18736935.924    76724634.1851       1763.092          43.000  
G30  21435068.408   112642090.8521       2940.578          42.000    21435083.821    87773364.3021       2291.596          34.000  
G04  19156872.008   100670001.5391      -2908.697          48.000    19156873.926    78444130.5761      -2266.749          46.000  
E30  24543770.173   128978471.0991        728.591          43.000    24543784.183    98827743.0541        558.359          46.000  
E27  25161159.051   132222833.0391       1684.927          38.000    25161183.873   101313697.3171       1291.091          46.000  
E19                                                                  24925910.400                3        770.626          24.000  
> 2024 04 08 16 15 30.4910000  0 24                     
S33  37180978.418   195387347.049        -822.582          43.000  
E07  21705920.823   114065353.670       -2040.530          48.000    21705926.670    87400741.272       -1563.500          52.000  
R13  18661864.637    99653532.493        2249.808          38.000    18661870.574    77508367.083        1749.645          41.000  
R17  19231970.037   102914046.436       -4600.529          45.000    19231973.658    80044112.083       -3578.287          45.000  
R02  18362101.397    97983655.975       -2087.453          52.000    18362103.980    76209541.987       -1623.534          47.000  
R03  18158204.054    97202347.066         229.877          52.000    18158202.514    75601881.967         178.815          49.000  
R18  18162273.769    96951425.763       -1635.632          52.000    18162276.311    75406499.956       -1272.174          49.000  
E33  22182815.172   116571499.884         200.282          47.000    22182819.681    89321082.320         153.516          50.000  
G09  18094290.305    95086158.950        -910.162          48.000    18094291.539    74093182.265        -709.113          47.000  
G03  19565861.744   102819224.258       -2792.239          47.000    19565866.636    80118830.059       -2175.987          45.000  
G11  21218709.468   111505070.6951       1905.505          33.000    21218707.060    86887043.278        1484.717          33.000  
E26  21312739.573   111999170.771       -2465.796          47.000    21312743.165    85817550.287       -1889.313          50.000  
G06  18557625.468    97521035.382         -85.620          47.000    18557629.049    75990435.941         -66.716          47.000  
R12  18529654.236    98982218.747        -804.240          49.000    18529656.835    76986304.297        -625.616          48.000  
R01  21458906.468                3      -3184.237          25.000                                                                  
R19  19968272.502                        1489.018          28.000    19968272.997                        1157.844          30.000  
S31  36227965.845   190379217.594        -822.514          44.000  
E13  24573506.687   129134374.465       -3991.353          41.000    24573532.094    98947073.674       -3058.228          46.000  
G07  18724058.240    98395761.050        2249.080          48.000    18724059.180    76671906.217        1752.344          43.000  
G30  21418293.088   112553938.381        2936.842          42.000    21418305.363    87704674.661        2288.401          35.000  
G04  19173489.158   100757323.498       -2912.118          49.000    19173491.030    78512173.550       -2269.255          46.000  
E30  24539636.252   128956748.679         720.173          43.000    24539650.337    98811098.719         551.776          46.000  
E27  25151534.871   132172260.948        1687.153          38.000    25151559.957   101274947.718        1292.498          46.000  
E19                                                                  24920182.397                3        774.375          22.000  
> 2024 04 08 16 16 00.4910000  0 25                     
S33  37185674.819   195412024.889        -821.947          43.000  
E07  21717575.673   114126598.676       -2042.121          48.000    21717581.251    87447669.182       -1564.766          52.000  
R13  18649269.943    99586279.551        2234.113          39.000    18649275.958    77456059.390        1737.865          40.000  
R17  19257791.013   103052216.786       -4610.279          46.000    19257795.801    80151577.387       -3585.755          47.000  
R02  18373846.943    98046331.953       -2090.654          52.000    18373850.116    76258289.873       -1625.979          48.000  
R03  18156926.999    97195513.688         226.086          52.000    18156926.340    75596567.110         175.940          50.000  
R18  18171540.341    97000893.075       -1661.816          51.000    18171543.723    75444974.434       -1292.413          50.000  
E33  22181711.018   116565695.825         186.901          47.000    22181715.164    89316635.030         143.313          50.000  
G09  18099507.487    95113577.013        -917.322          48.000    18099508.525    74114546.967        -714.764          46.000  
G03  19581830.791   102903144.225       -2802.067          47.000    19581836.156    80184222.020       -2183.490          45.000  
E26  21326851.667   112073332.560       -2477.908          47.000    21326855.994    85874375.403       -1898.486          50.000  
G06  18558174.049    97523915.648        -105.824          47.000    18558177.828    75992680.263         -82.346          47.000  
R04  21187119.190                3       1733.160          12.000                                                                  
R12  18534244.977    99006746.145        -830.325          49.000    18534248.966    77005381.145        -645.832          49.000  
R01  21476819.608                1      -3189.339          29.000    21476819.687                       -2480.521          27.000  
R19  19959995.019                        1467.300          30.000    19959990.895    83045270.567        1140.892          34.000  
S31  36232660.373   190403892.823        -822.126          44.000  
E13  24596298.418   129254137.912       -3992.654          42.000    24596322.888    99038839.540       -3059.212          45.000  
G07  18711258.912    98328500.323        2235.516          48.000    18711260.196    76619495.381        1741.991          44.000  
G30  21401539.388   112465902.166        2932.892          41.000    21401555.886    87636075.647        2285.125          36.000  
G04  19190124.329   100844741.627       -2915.335          48.000    19190125.957    78580291.455       -2271.462          46.000  
E30  24535551.639   128935276.621         711.949          45.000    24535563.777    98794646.222         545.372          46.000  
E27  25141898.991   132121623.170        1689.164          39.000    25141923.338   101236147.769        1294.412          46.000  
E19                                                                  24914475.744                3        765.369          26.000  
G11                                                                  21207861.096    86842639.690        1475.147          34.000  
> 2024 04 08 16 16 30.4910000  0 24                     
S33  37190368.082   195436688.006        -822.032          44.000  
E07  21729238.619   114187889.989       -2043.979          47.000    21729244.599    87494632.567       -1566.143          52.000  
R13  18636762.545    99519486.236        2218.861          41.000    18636767.108    77404109.164        1725.624          39.000  
R17  19283666.490   103190673.081       -4620.067          46.000    19283669.063    80259265.111       -3593.328          46.000  
R02  18385608.666    98109098.061       -2093.766          52.000    18385612.182    76307107.858       -1628.583          46.000  
R03  18155669.632    97188785.889         222.376          52.000    18155669.199    75591334.358         173.071          48.000  
R18  18180953.027    97051137.075       -1687.860          50.000    18180956.283    75484053.003       -1312.793          49.000  
E33  22180680.982   116560285.731         173.730          47.000    22180685.615    89312489.617         133.039          51.000  
G09  18104764.654    95141205.271        -924.719          48.000    18104765.804    74136075.464        -720.532          46.000  
G03  19597853.971   102987346.384       -2811.594          47.000    19597859.584    80249833.889       -2190.714          45.000  
E26  21341032.586   112147850.602       -2490.082          47.000    21341036.917    85931473.495       -1907.904          51.000  
G06  18558836.695    97527399.012        -126.285          47.000    18558840.766    75995394.548         -98.442          47.000  
R12  18538980.281    99032046.055        -856.217          47.000    18538984.803    77025058.827        -665.965          49.000  
R01  21494711.146                3      -3189.777          21.000                                                                  
R19  19951821.979                3       1444.781          26.000    19951829.347    83011298.475        1123.458          33.000  
S31  36237353.103   190428553.429        -822.056          44.000  
E13  24619094.935   129373934.905       -3993.916          42.000    24619120.084    99130631.171       -3060.517          43.000  
G07  18698535.576    98261640.563        2221.998          48.000    18698537.540    76567396.994        1731.334          45.000  
G30  21384806.876   112377975.936        2929.031          40.000    21384823.460    87567562.323        2282.278          36.000  
G04  19206775.656   100932246.068       -2918.254          49.000    19206777.180    78648476.607       -2274.200          45.000  
E30  24531511.734   128914047.962         703.516          45.000    24531524.302    98778380.188         539.023          47.000  
E27  25132248.899   132070912.851        1691.315          40.000    25132272.846   101197292.261        1295.894          46.000  
E19                                                                  24908781.840                3        763.522          26.000  
G11                                                                  21197084.561    86798508.629        1466.241          36.000  
> 2024 04 08 16 17 00.4910000  0 25                     
S33  37195057.818   195461333.196        -820.784          43.000  
E07  21740910.373   114249224.256       -2044.699          48.000    21740916.495    87541628.874       -1566.723          52.000  
G16  22452847.521                3         20.366          25.000                                                                  
R13  18624340.597    99453153.975        2204.149          41.000    18624344.529    77352517.623        1714.016          39.000  
R17  19309591.626   103329408.054       -4628.683          46.000    19309595.264    80367169.548       -3600.101          46.000  
R02  18397387.749    98171951.897       -2096.059          51.000    18397391.008    76355994.067       -1630.309          48.000  
R03  18154432.176    97182160.971         219.556          52.000    18154431.173    75586181.688         170.782          48.000  
R18  18190510.224    97102153.099       -1712.933          51.000    18190513.150    75523732.049       -1332.324          49.000  
E33  22179726.479   116555267.925         161.247          47.000    22179730.934    89308644.760         123.527          51.000  
G09  18110061.065    95169040.128        -930.780          47.000    18110062.897    74157764.931        -725.293          46.000  
G03  19613930.643   103071828.143       -2820.409          47.000    19613935.546    80315663.600       -2197.743          44.000  
G11  21186369.587                1       1870.367          30.000    21186373.056    86754649.883        1457.391          36.000  
E26  21355280.314   112222721.010       -2501.134          47.000    21355284.074    85988841.565       -1916.408          51.000  
G06  18559613.333    97531483.601        -145.802          47.000    18559618.188    75998577.309        -113.489          47.000  
R12  18543862.399    99058116.472        -881.532          50.000    18543866.397    77045335.798        -685.499          50.000  
R01  21512614.251                3      -3193.554          21.000    21512608.619                3      -2478.935          24.000  
R19  19943787.474                        1423.720          27.000    19943787.469    82977833.106        1106.856          36.000  
S31  36242043.171   190453196.420        -820.605          44.000  
E13  24641898.062   129493760.969       -3994.143          43.000    24641923.253    99222445.090       -3060.407          43.000  
G07  18685888.402    98195181.865        2209.038          48.000    18685891.126    76515611.121        1721.310          44.000  
G30  21368096.213   112290159.330        2925.895          42.000    21368111.966    87499134.389        2279.905          38.000  
G04  19223442.586   101019833.011       -2920.456          48.000    19223444.356    78716726.045       -2275.671          45.000  
E30  24527516.715   128893061.769         695.785          43.000    24527530.942    98762299.919         533.239          47.000  
E27  25122586.549   132020129.286        1694.226          40.000    25122609.367   101158380.570        1298.370          47.000  
E19                                                                  24903103.296                         761.226          28.000  
> 2024 04 08 16 17 30.4920000  0 24                     
S33  37199739.023   195485934.192        -819.286          42.000  
E07  21752585.000   114310575.092       -2045.448          48.000    21752591.104    87588637.884       -1567.353          52.000  
G16  22452761.334                2         10.834          30.000                                                                  
R13  18612000.362    99387256.870        2188.645          41.000    18612005.213    77301264.454        1702.248          40.000  
R17  19335563.923   103468393.213       -4637.080          45.000    19335569.176    80475268.628       -3606.459          48.000  
R02  18409177.176    98234867.361       -2098.364          50.000    18409181.452    76404928.224       -1632.184          47.000  
R03  18153208.861    97175610.327         216.820          52.000    18153207.344    75581086.750         168.726          48.000  
R18  18200206.219    97153912.768       -1737.781          51.000    18200210.701    75563989.497       -1351.643          50.000  
E33  22178840.933   116550615.443         148.748          47.000    22178845.661    89305079.836         113.971          51.000  
G09  18115392.398    95197053.875        -936.982          48.000    18115394.351    74179593.792        -730.177          47.000  
G03  19630055.667   103156564.452       -2829.004          48.000    19630060.134    80381691.708       -2204.204          44.000  
G11  21175725.220   111279156.5291       1859.938          33.000    21175725.096    86711042.309        1449.416          38.000  
E26  21369589.603   112297917.323       -2511.984          47.000    21369593.958    86046459.378       -1924.832          51.000  
G06  18560500.758    97536142.677        -165.063          48.000    18560504.291    76002207.728        -128.748          46.000  
R12  18548881.135    99084930.412        -906.384          49.000    18548886.023    77066191.074        -704.907          49.000  
R19  19935860.300   106643398.5571       1402.783          31.000    19935864.536    82944853.617        1090.948          35.000  
S31  36246724.653   190477794.347        -819.550          44.000  
E13  24664701.419   129613590.580       -3994.376          42.000    24664726.833    99314261.772       -3060.561          42.000  
G07  18673312.979    98129096.801        2196.309          48.000    18673314.806    76464116.374        1711.320          44.000  
G30  21351400.663   112202424.092        2922.955          42.000    21351415.450    87430769.883        2277.130          39.000  
G04  19240120.679   101107476.470       -2922.498          48.000    19240122.950    78785019.548       -2277.316          45.000  
E30  24523563.740   128872291.294         688.531          42.000    24523578.690    98746384.981         527.479          48.000  
E27  25112903.563   131969244.810        1697.502          40.000    25112926.612   101119391.659        1300.645          48.000  
E19                                                                  24897435.676                         760.120          29.000  
> 2024 04 08 16 18 00.4920000  0 24                     
S33  37204415.605   195510508.717        -819.054          43.000  
E07  21764266.166   114371959.658       -2047.001          47.000    21764272.324    87635672.717       -1568.445          52.000  
R13  18599746.058    99321825.554        2173.097          40.000    18599752.490    77250373.627        1690.010          41.000  
R17  19361586.411   103607636.844       -4646.074          46.000    19361591.401    80583568.663       -3613.464          49.000  
R02  18420983.050    98297862.667       -2101.508          50.000    18420987.060    76453924.521       -1634.363          48.000  
R03  18152003.857    97169156.020         213.255          53.000    18152001.915    75576066.752         165.893          49.000  
R18  18210044.744    97206433.056       -1763.583          51.000    18210049.161    75604838.495       -1371.731          50.000  
E33  22178029.413   116546351.470         135.485          47.000    22178034.245    89301812.596         103.740          51.000  
G09  18120761.256    95225265.591        -943.959          49.000    18120762.334    74201576.908        -735.542          47.000  
G03  19646232.167   103241571.471       -2838.295          47.000    19646238.195    80447930.769       -2211.904          46.000  
G11  21165142.855                        1847.294          32.000    21165143.048    86667707.855        1439.541          39.000  
E26  21383963.815   112373455.209       -2523.895          47.000    21383968.660    86104338.892       -1933.936          51.000  
G06  18561500.835    97541398.480        -185.327          47.000    18561504.732    76006303.120        -144.421          47.000  
R12  18554045.702    99112508.741        -932.294          50.000    18554048.656    77087640.879        -725.165          49.000  
R01  21548359.876                       -3188.043          27.000                                                                  
R19  19928056.706                        1381.151          31.000    19928055.640                        1073.826          27.000  
E19  24891775.133   130807168.3801        988.930          30.000    24891784.826   100228902.3201        757.672          29.000  
S31  36251400.674   190502367.615        -819.338          44.000  
E13  24687507.377   129733435.790       -3995.350          42.000    24687534.001    99406090.388       -3061.381          43.000  
G07  18660814.227    98063414.712        2182.540          48.000    18660816.328    76412935.622        1700.770          44.000  
G30  21334726.320   112114800.304        2918.768          43.000    21334739.976    87362492.221        2273.798          38.000  
G04  19256812.642   101195191.402       -2925.303          47.000    19256814.144    78853368.755       -2279.635          45.000  
E30  24519657.779   128851761.612         680.154          43.000    24519671.369    98730654.513         521.126          46.000  
E27  25103207.710   131918286.770        1699.552          42.000    25103229.359   101080346.339        1302.264          48.000  
> 2024 04 08 16 18 30.4920000  0 24                     
S33  37209090.934   195535076.398        -819.125          43.000  
E07  21775956.628   114433395.036       -2048.632          47.000    21775963.112    87682746.500       -1569.807          52.000  
R13  18587583.488    99256878.853        2156.537          41.000    18587589.579    77199859.662        1677.338          40.000  
R17  19387658.052   103747154.850       -4655.124          47.000    19387663.686    80692082.153       -3620.656          48.000  
R02  18432806.860    98360955.912       -2104.846          50.000    18432810.121    76502996.973       -1637.213          48.000  
R03  18150818.372    97162814.123         209.532          52.000    18150817.935    75571134.199         162.858          49.000  
R18  18220028.504    97259729.630       -1789.486          49.000    18220033.206    75646291.288       -1391.793          50.000  
E33  22177294.468   116542492.536         121.855          46.000    22177299.797    89298855.710          93.405          51.000  
G09  18126170.376    95253691.042        -951.039          49.000    18126171.824    74223726.605        -741.139          46.000  
G03  19662464.541   103326867.802       -2848.105          48.000    19662469.741    80514395.211       -2219.310          45.000  
G11  21154627.175   111168297.946        1835.489          32.000    21154629.477    86624659.211        1430.144          39.000  
E26  21398405.933   112449351.623       -2535.765          47.000    21398411.225    86162493.132       -1943.074          51.000  
G06  18562617.349    97547267.701        -205.914          47.000    18562621.112    76010876.504        -160.571          46.000  
R12  18559354.654    99140869.078        -958.441          50.000    18559357.524    77109698.872        -745.337          48.000  
R01  21566289.944                       -3189.319          29.000                                                                  
R19  19920373.045                        1357.903          27.000    19920373.012                        1056.465          30.000  
E19  24886138.256   130777553.693         985.881          32.000    24886150.161   100206210.733         754.524          32.000  
S31  36256075.298   190526931.973        -818.646          44.000  
E13  24710320.708   129853314.547       -3996.486          42.000    24710347.024    99497944.705       -3062.223          44.000  
G07  18648394.556    97998151.197        2168.520          47.000    18648396.619    76362081.059        1689.596          44.000  
G30  21318075.302   112027303.131        2914.496          42.000    21318088.640    87294313.196        2270.892          38.000  
G04  19273520.609   101282995.293       -2928.362          47.000    19273522.927    78921787.239       -2281.587          44.000  
E30  24515800.524   128831489.386         671.504          43.000    24515813.704    98715121.319         514.568          47.000  
E27  25093498.255   131867271.004        1701.565          43.000    25093520.482   101041256.819        1303.732          47.000  
> 2024 04 08 16 19 00.4920000  0 24                     
S33  37213766.852   195559648.518        -819.118          43.000  
E07  21787658.325   114494893.880       -2050.972          46.000    21787666.118    87729868.913       -1571.524          52.000  
R13  18575514.794    99192433.855        2139.954          40.000    18575520.421    77149735.952        1664.429          40.000  
R17  19413783.945   103886956.326       -4664.663          45.000    19413789.517    80800816.088       -3628.210          49.000  
R02  18444652.415    98424161.049       -2108.752          52.000    18444656.202    76552156.399       -1640.125          49.000  
R03  18149657.357    97156598.182         205.120          53.000    18149656.671    75566299.563         159.502          49.000  
R18  18230161.624    97313814.084       -1815.938          50.000    18230164.711    75688356.871       -1412.330          48.000  
E33  22176640.999   116539052.896         107.704          47.000    22176645.357    89296220.121          82.496          51.000  
G09  18131622.567    95282342.604        -958.858          49.000    18131623.790    74246052.469        -747.312          46.000  
G03  19678752.866   103412466.612       -2858.461          47.000    19678758.448    80581095.369       -2227.265          45.000  
G11  21144184.721   111113434.832        1821.873          31.000    21144189.136    86581908.728        1420.167          39.000  
E26  21412918.399   112525618.662       -2548.206          46.000    21412924.545    86220931.372       -1952.576          51.000  
G06  18563853.537    97553764.371        -227.039          47.000    18563857.256    76015938.801        -176.965          46.000  
R12  18564811.605    99170025.051        -985.144          50.000    18564815.278    77132375.734        -766.254          48.000  
R01  21584199.745                1      -3189.942          27.000    21584204.044                       -2481.274          29.000  
R19  19912820.187                        1334.298          30.000    19912825.313    82849012.109        1038.464          32.000  
E19  24880521.963   130748042.195         981.409          33.000    24880533.769   100183598.138         752.417          33.000  
S31  36260750.586   190551502.419        -819.192          44.000  
E13  24733142.895   129973238.328       -3998.160          42.000    24733168.384    99589833.538       -3063.477          44.000  
G07  18636057.836    97933322.142        2153.578          48.000    18636059.371    76311565.034        1678.034          44.000  
G30  21301451.679   111939948.299        2909.412          41.000    21301465.531    87226245.130        2267.426          38.000  
G04  19290248.873   101370900.388       -2931.966          48.000    19290250.896    78990284.626       -2284.696          45.000  
E30  24511993.812   128811489.748         662.093          42.000    24512007.738    98699796.986         507.338          46.000  
E27  25083782.219   131816212.805        1702.670          43.000    25083803.449   101002134.761        1304.570          46.000  
> 2024 04 08 16 19 30.4920000  0 24                     
S33  37218445.527   195584233.135        -819.721          44.000  
E07  21799375.376   114556462.644       -2053.489          46.000    21799382.302    87777044.879       -1573.396          52.000  
R13  18563542.429    99128502.543        2122.443          41.000    18563547.773    77100011.785        1650.848          40.000  
R17  19439961.698   104027043.402       -4674.347          45.000    19439969.356    80909772.109       -3635.529          49.000  
R02  18456518.173    98487485.268       -2112.830          52.000    18456522.920    76601408.445       -1643.255          48.000  
R03  18148520.396    97150515.183         200.500          52.000    18148518.816    75561568.334         156.018          47.000  
R18  18240442.400    97368691.372       -1842.445          51.000    18240444.936    75731039.118       -1432.935          49.000  
E33  22176067.482   116536040.568          93.319          47.000    22176072.205    89293911.943          71.477          51.000  
G09  18137119.240    95311226.477        -966.552          49.000    18137120.131    74268559.347        -753.149          46.000  
G03  19695100.695   103498374.933       -2868.851          47.000    19695106.234    80648036.700       -2235.412          45.000  
G11  21133812.736                1       1809.909          30.000    21133823.078    86539463.792        1409.710          39.000  
E26  21427503.424   112602262.181       -2561.098          46.000    21427509.561    86279658.051       -1962.300          51.000  
G06  18565211.149    97560896.248        -248.315          48.000    18565214.676    76021496.041        -193.573          47.000  
R12  18570421.282    99199984.164       -1011.951          50.000    18570423.524    77155677.268        -787.024          47.000  
R01  21602095.618                       -3192.002          26.000    21602116.876                       -2482.836          26.000  
R19  19905402.855   106480475.131        1312.264          33.000    19905402.661    82818135.716        1019.869          29.000  
E19  24874928.175   130718640.594         978.537          35.000    24874938.539   100161069.865         749.753          34.000  
S31  36265428.733   190576084.028        -819.732          44.000  
E13  24755974.067   130093212.386       -3999.896          42.000    24755998.691    99681760.948       -3064.769          43.000  
G07  18623805.745    97868937.298        2138.886          48.000    18623807.110    76261395.113        1666.766          44.000  
G30  21284856.472   111852745.207        2904.409          40.000    21284871.225    87158295.346        2263.064          39.000  
G04  19306997.089   101458912.684       -2935.579          47.000    19306998.391    79058865.490       -2287.328          43.000  
E30  24508241.493   128791771.444         652.663          41.000    24508255.788    98684688.228         499.991          47.000  
E27  25074057.786   131765121.242        1703.500          42.000    25074080.383   100962987.117        1305.250          46.000  
> 2024 04 08 16 20 00.4920000  0 25                     
S33  37223125.361   195608828.586        -819.727          43.000  
E07  21811103.913   114618099.685       -2055.512          46.000    21811111.482    87824273.179       -1574.969          52.000  
G16  22453322.427                3        -51.019          27.000                                                                  
R13  18551667.668    99065088.029        2105.383          42.000    18551671.736    77050689.557        1637.506          39.000  
R17  19466192.064   104167410.721       -4683.424          45.000    19466200.514    81018946.115       -3642.578          49.000  
R02  18468408.172    98550927.749       -2116.492          52.000    18468411.866    76650752.551       -1646.203          48.000  
R03  18147408.695    97144563.738         196.442          53.000    18147407.574    75556939.414         152.715          49.000  
R18  18250869.692    97424358.465       -1868.537          50.000    18250873.370    75774335.622       -1453.291          49.000  
E33  22175576.481   116533455.549          79.219          48.000    22175580.400    89291931.184          60.714          51.000  
G09  18142659.142    95340340.784        -973.974          49.000    18142660.783    74291245.795        -759.164          46.000  
G03  19711507.171   103584591.699       -2878.785          46.000    19711513.444    80715218.393       -2243.224          45.000  
G11  21123520.310   111004858.5241       1796.507          31.000    21123531.492    86497325.644        1399.360          38.000  
E26  21442160.151   112679279.886       -2573.315          47.000    21442165.337    86338671.465       -1971.747          50.000  
G06  18566689.593    97568663.014        -269.238          49.000    18566692.258    76027548.012        -209.845          46.000  
R12  18576179.463    99230745.537       -1038.477          49.000    18576182.520    77179602.732        -807.654          48.000  
R01  21620015.067                1      -3192.638          27.000    21620034.570                       -2483.579          27.000  
R19  19898112.275                        1288.412          31.000    19898115.675                1       1002.088          27.000  
E19  24869353.819   130689347.631         974.917          34.000    24869363.571   100138624.851         746.877          35.000  
S31  36270109.140   190600677.772        -819.826          44.000  
E13  24778814.004   130213234.013       -4001.200          41.000    24778838.460    99773724.858       -3065.981          42.000  
G07  18611639.033    97804998.553        2123.900          47.000    18611639.947    76211572.790        1655.121          44.000  
G30  21268290.600   111765695.301        2899.200          40.000    21268305.515    87090464.889        2259.036          39.000  
G04  19323765.216   101547030.149       -2938.799          48.000    19323766.977    79127528.357       -2290.021          44.000  
E30  24504543.500   128772335.277         643.322          42.000    24504556.812    98669795.637         492.888          46.000  
E27  25064328.545   131713997.230        1704.936          42.000    25064351.668   100923814.630        1306.221          46.000  
> 2024 04 08 16 20 30.4920000  0 24                     
S33  37227807.438   195633432.475        -820.381          43.000  
E07  21822845.772   114679801.340       -2057.829          46.000    21822853.092    87871550.977       -1576.744          52.000  
R13  18539889.037    99002191.235        2087.940          42.000    18539892.606    77001769.992        1623.486          39.000  
R17  19492474.747   104308050.469       -4692.564          48.000    19492482.791    81128332.009       -3649.734          49.000  
R02  18480318.248    98614485.792       -2120.636          52.000    18480322.585    76700186.498       -1649.384          48.000  
R03  18146321.529    97138740.958         191.900          53.000    18146320.363    75552410.576         149.292          50.000  
R18  18261446.006    97480810.223       -1894.844          51.000    18261448.455    75818242.448       -1473.781          48.000  
E33  22175164.633   116531295.660          64.819          48.000    22175169.471    89290276.189          49.677          51.000  
G09  18148243.035    95369681.598        -981.855          49.000    18148243.775    74314108.722        -764.965          46.000  
G03  19727971.411   103671113.780       -2889.067          46.000    19727978.699    80782637.955       -2251.231          45.000  
G11  21113312.426   110951174.302        1782.277          33.000    21113315.990    86455493.800        1389.459          38.000  
E26  21456887.081   112756667.453       -2585.739          47.000    21456891.839    86397968.280       -1981.264          50.000  
G06  18568288.589    97577062.235        -290.570          50.000    18568290.838    76034092.800        -226.477          47.000  
R12  18582087.352    99262306.524       -1065.479          49.000    18582090.371    77204150.130        -828.680          47.000  
R01  21637935.828                3      -3199.370          21.000    21637960.632                3      -2484.308          22.000  
R19  19890953.207                        1265.374          29.000    19890958.005    82758014.2871        984.545          33.000  
E19  24863797.988   130660160.089         970.740          33.000    24863809.658   100116260.582         743.834          35.000  
S31  36274790.309   190625279.211        -820.249          44.000  
E13  24801660.104   130333298.317       -4002.978          39.000    24801686.261    99865721.503       -3067.165          42.000  
G07  18599555.777    97741505.045        2108.721          47.000    18599557.209    76162097.427        1643.264          43.000  
G30  21251753.968   111678797.895        2893.797          40.000    21251768.415    87022753.260        2254.763          39.000  
G04  19340553.337   101635248.666       -2942.352          48.000    19340554.316    79196269.950       -2292.817          44.000  
E30  24500897.221   128753179.794         633.829          41.000    24500911.745    98655118.122         485.669          47.000  
E27  25054592.991   131662839.689        1705.562          42.000    25054615.698   100884616.457        1306.853          45.000  
> 2024 04 08 16 21 00.4920000  0 25                     
S33  37232491.168   195658046.404        -820.448          44.000  
E07  21834599.810   114741569.352       -2060.049          47.000    21834607.260    87918879.649       -1578.627          52.000  
G16  22454053.823                1        -75.920          32.000                                                                  
R13  18528208.354    98939818.967        2070.313          42.000    18528212.093    76953258.367        1610.150          40.000  
R17  19518808.704   104448960.281       -4701.543          48.000    19518815.308    81237927.930       -3656.727          48.000  
R02  18492251.769    98678161.879       -2124.512          53.000    18492254.940    76749712.297       -1652.667          46.000  
R03  18145259.175    97133049.307         187.513          53.000    18145257.415    75547983.714         145.869          50.000  
R18  18272169.255    97538046.831       -1921.094          51.000    18272171.502    75862759.671       -1494.134          49.000  
E33  22174835.088   116529564.213          50.430          48.000    22174839.635    89288949.452          38.732          51.000  
G09  18153869.610    95399250.431        -989.476          49.000    18153870.399    74337149.355        -771.248          46.000  
G03  19744494.315   103757943.403       -2899.539          45.000    19744501.660    80850297.211       -2259.454          45.000  
G11  21103172.657   110897887.858        1769.494          35.000    21103175.872    86413972.021        1378.975          39.000  
E26  21471683.959   112834426.020       -2598.075          47.000    21471688.699    86457549.358       -1990.821          50.000  
G06  18570007.839    97586096.954        -311.816          50.000    18570010.007    76041132.796        -242.957          47.000  
R12  18588145.187    99294669.603       -1092.196          48.000    18588148.189    77229321.398        -849.507          46.000  
R01  21655879.245                3      -3195.911          26.000    21655908.199                3      -2491.162          21.000  
R19  19883925.432                3       1243.434          20.000    19883929.328    82728769.239         966.338          34.000  
E19  24858264.430   130631079.947         967.587          34.000    24858275.430   100093978.578         741.613          36.000  
S31  36279473.599   190649890.643        -820.557          43.000  
E13  24824515.048   130453405.956       -4004.845          38.000    24824542.956    99957751.349       -3068.334          42.000  
G07  18587558.963    97678461.855        2093.859          48.000    18587560.911    76112972.962        1631.490          44.000  
G30  21235247.410   111592057.762        2888.822          41.000    21235261.746    86955164.174        2250.848          40.000  
G04  19357360.143   101723569.552       -2945.728          47.000    19357361.250    79265091.304       -2295.577          43.000  
E30  24497307.653   128734309.136         624.312          42.000    24497320.613    98640658.862         478.262          46.000  
E27  25044851.384   131611652.857        1706.485          42.000    25044874.697   100845395.854        1307.673          45.000  
> 2024 04 08 16 21 30.4920000  0 25                     
S33  37237178.994   195682680.108        -821.606          43.000  
E07  21846369.393   114803411.955       -2062.693          48.000    21846375.661    87966265.466       -1580.551          52.000  
G16  22454532.047   117999288.5291        -89.754          32.000                                                                  
R13  18516628.775    98877984.719        2051.947          42.000    18516631.978    76905165.194        1595.984          39.000  
R17  19545192.005   104590144.337       -4710.736          49.000    19545199.183    81347737.139       -3663.908          49.000  
R02  18504208.161    98741965.042       -2128.998          53.000    18504211.762    76799336.893       -1655.810          46.000  
R03  18144221.131    97127497.325         182.651          52.000    18144220.795    75543665.498         142.057          51.000  
R18  18283039.592    97596075.039       -1947.506          52.000    18283042.141    75907892.618       -1514.668          50.000  
E33  22174589.957   116528270.957          35.729          48.000    22174593.689    89287958.492          27.347          51.000  
G09  18159541.478    95429055.238        -997.463          49.000    18159542.638    74360373.849        -777.278          47.000  
G03  19761078.348   103845089.375       -2910.101          47.000    19761084.556    80918202.945       -2267.625          44.000  
G11  21093109.678   110845010.780        1755.698          36.000    21093114.169    86372769.142        1368.114          40.000  
E26  21486552.801   112912563.109       -2610.922          47.000    21486557.925    86517420.484       -2000.561          50.000  
G06  18571849.282    97595776.595        -333.539          49.000    18571852.956    76048675.325        -259.888          47.000  
R12  18594355.795    99327843.960       -1119.461          49.000    18594358.758    77255123.656        -870.606          47.000  
R19  19877011.879                3       1237.944          14.000    19877029.594    82700079.291         946.706          35.000  
E19  24852752.190   130602115.563         963.434          35.000    24852764.311   100071785.333         738.417          37.000  
S31  36284160.548   190674521.866        -821.457          44.000  
E13  24847379.966   130573563.841       -4006.056          38.000    24847409.103   100049819.799       -3069.775          43.000  
G07  18575650.412    97615880.080        2078.223          49.000    18575651.973    76064207.995        1619.312          44.000  
G30  21218773.738   111505486.166        2882.712          42.000    21218787.277    86887706.429        2245.906          40.000  
G04  19374187.706   101812000.589       -2949.656          47.000    19374189.390    79333998.484       -2298.422          43.000  
E30  24493773.142   128715733.834         614.131          41.000    24493785.866    98626425.914         470.677          47.000  
E27  25035107.722   131560447.667        1707.189          42.000    25035130.072   100806161.163        1307.909          45.000  
R01                                                                  21673833.741                3      -2481.833          23.000  
> 2024 04 08 16 22 00.4920000  0 25                     
S33  37241868.995   195707326.539        -821.703          43.000  
E07  21858150.237   114865322.877       -2064.749          48.000    21858156.977    88013703.616       -1582.079          52.000  
G16  22455082.024                1       -102.954          27.000                                                                  
R13  18505149.130    98816686.747        2034.290          41.000    18505152.354    76857489.127        1582.092          40.000  
R17  19571626.155   104731592.262       -4719.215          49.000    19571632.945    81457751.580       -3670.480          48.000  
R02  18516188.104    98805890.032       -2132.727          53.000    18516191.047    76849056.266       -1658.875          46.000  
R03  18143208.622    97122079.281         178.503          53.000    18143208.074    75539451.444         138.769          50.000  
R18  18294055.932    97654886.912       -1973.450          50.000    18294060.294    75953635.071       -1534.833          50.000  
E33  22174426.016   116527411.148          21.483          48.000    22174430.039    89287299.633          16.465          51.000  
G09  18165256.937    95459089.464       -1004.816          49.000    18165259.007    74383777.119        -783.009          47.000  
G03  19777721.798   103932545.888       -2920.314          48.000    19777727.504    80986350.654       -2275.368          44.000  
G11  21083126.288   110792539.677        1742.482          37.000    21083130.072    86331882.617        1357.585          40.000  
E26  21501493.149   112991071.741       -2622.945          47.000    21501497.945    86577576.301       -2009.868          50.000  
G06  18573812.560    97606096.022        -354.602          48.000    18573815.966    76056716.397        -276.385          47.000  
R12  18600716.983    99361823.778       -1145.972          49.000    18600722.074    77281552.374        -891.354          49.000  
R19  19870254.331                3       1194.765          23.000    19870264.293    82671942.542         928.914          37.000  
E19  24847261.798   130573261.303         959.986          35.000    24847273.486   100049676.406         735.851          37.000  
S31  36288850.307   190699166.755        -821.454          43.000  
E13  24870255.492   130693764.677       -4007.223          39.000    24870283.387   100141921.103       -3070.536          44.000  
G07  18563829.177    97553756.927        2063.159          48.000    18563830.809    76015800.395        1607.617          44.000  
G30  21202330.883   111419079.785        2877.470          41.000    21202344.024    86820377.377        2241.799          39.000  
G04  19391034.615   101900535.043       -2952.692          46.000    19391036.629    79402986.312       -2300.821          43.000  
E30  24490294.023   128697449.945         604.742          40.000    24490306.235    98612416.247         463.258          47.000  
E27  25025359.795   131509220.357        1708.201          43.000    25025381.516   100766909.525        1308.875          45.000  
R01                                                                  21691780.479                3      -2471.897          15.000  
> 2024 04 08 16 22 30.4920000  0 25                     
S33  37246558.228   195731967.395        -821.065          44.000  
E07  21869940.709   114927281.508       -2065.898          48.000    21869947.554    88061178.320       -1582.984          52.000  
G16  22455705.972   118005520.9781       -115.336          29.000                                                                  
R13  18493767.376    98755909.015        2017.316          42.000    18493772.009    76810217.674        1569.214          41.000  
R17  19598104.728   104873279.286       -4726.588          49.000    19598111.582    81567951.964       -3676.267          48.000  
R02  18528186.210    98869916.545       -2135.773          53.000    18528189.872    76898854.561       -1661.188          47.000  
R03  18142218.293    97116774.558         175.133          52.000    18142216.531    75535325.542         136.174          50.000  
R18  18305215.390    97714459.796       -1998.285          50.000    18305220.375    75999969.403       -1554.163          49.000  
E33  22174340.926   116526965.586           8.133          48.000    22174345.563    89286958.195           6.181          51.000  
G09  18171011.305    95489332.201       -1011.261          49.000    18171013.701    74407342.871        -788.019          47.000  
G03  19794418.546   104020292.837       -2929.534          46.000    19794424.739    81054724.673       -2282.698          43.000  
G11  21073214.240   110740456.948        1729.599          36.000    21073219.192    86291298.734        1347.657          40.000  
E26  21516499.701   113069930.601       -2634.233          47.000    21516504.864    86638000.462       -2018.379          51.000  
G06  18575893.779    97617035.772        -374.750          48.000    18575897.720    76065240.828        -292.120          47.000  
R12  18607223.743    99396588.844       -1171.733          47.000    18607229.240    77308591.781        -911.222          49.000  
R01  21709718.053                3      -3198.304          26.000                                                                  
R19  19863624.242                3       1174.099          23.000    19863630.871    82644344.120         911.179          40.000  
E19  24841786.960   130544496.698         957.753          35.000    24841800.045   100027636.237         733.792          38.000  
S31  36293539.046   190723805.384        -821.037          44.000  
E13  24893132.994   130813986.537       -4007.331          39.000    24893161.180   100234038.588       -3070.679          44.000  
G07  18552091.956    97492075.095        2049.066          48.000    18552092.685    75967736.670        1596.588          44.000  
G30  21185915.462   111332820.963        2873.084          41.000    21185928.664    86753163.283        2238.584          38.000  
G04  19407898.578   101989151.956       -2955.188          47.000    19407899.538    79472038.304       -2302.508          43.000  
E30  24486867.767   128679439.044         596.157          41.000    24486879.148    98598615.812         456.651          47.000  
E27  25015603.089   131457952.859        1709.885          42.000    25015625.775   100727627.118        1309.966          46.000  
> 2024 04 08 16 23 00.4920000  0 25                     
S33  37251244.638   195756591.966        -821.254          44.000  
E07  21881738.542   114989277.627       -2067.596          48.000    21881745.081    88108681.763       -1584.292          52.000  
G16  22456403.858                3       -127.717          26.000                                                                  
R13  18482480.989    98695645.877        1999.451          40.000    18482487.074    76763346.468        1555.090          40.000  
R17  19624626.565   105015190.635       -4734.638          51.000    19624631.230    81678326.828       -3682.461          47.000  
R02  18540202.025    98934035.061       -2139.301          52.000    18540204.840    76948724.452       -1663.904          46.000  
R03  18141246.698    97111574.044         171.135          52.000    18141245.486    75531280.705         133.116          50.000  
R18  18316516.722    97774781.550       -2023.669          51.000    18316520.444    76046886.224       -1573.859          49.000  
E33  22174333.349   116526925.584          -5.942          48.000    22174338.110    89286927.502          -4.495          51.000  
G09  18176804.565    95519773.082       -1018.440          49.000    18176805.821    74431062.985        -793.635          46.000  
G03  19811169.925   104108320.479       -2939.475          46.000    19811176.139    81123317.428       -2290.472          44.000  
G11  21063375.068   110688755.538        1716.094          33.000    21063379.979    86251011.931        1337.455          38.000  
E26  21531570.324   113149128.807       -2646.162          46.000    21531575.862    86698684.644       -2027.497          51.000  
G06  18578092.509    97628586.815        -395.752          48.000    18578095.832    76074241.583        -308.344          47.000  
R12  18613876.900    99432129.462       -1198.048          49.000    18613881.868    77336234.475        -931.815          48.000  
R19  19857113.850                1       1148.339          29.000    19857125.382    82617279.120         892.983          41.000  
E19  24836328.714   130515811.764         954.222          36.000    24836340.636   100005657.081         731.118          37.000  
S31  36298224.686   190748427.782        -820.802          44.000  
E13  24916012.672   130934218.125       -4008.212          39.000    24916040.892   100326163.585       -3071.410          44.000  
G07  18540436.202    97430826.707        2033.832          47.000    18540437.224    75920010.698        1584.882          44.000  
G30  21169526.459   111246702.482        2867.907          41.000    21169540.405    86686058.584        2234.723          39.000  
G04  19424775.761   102077840.650       -2957.936          48.000    19424776.412    79541146.266       -2305.027          42.000  
E30  24483488.478   128661693.346         586.903          39.000    24483502.786    98585018.544         449.500          48.000  
E27  25005839.715   131406637.572        1710.847          44.000    25005860.817   100688308.103        1310.811          47.000  
R01                                                                  21727622.614                3      -2492.231          18.000  
> 2024 04 08 16 23 30.4920000  0 25                     
S33  37255930.035   195781215.697        -820.818          43.000  
E07  21893545.503   115051325.610       -2069.239          47.000    21893552.289    88156224.945       -1585.539          52.000  
G16  22457162.139   118013213.2011       -140.343          33.000                                                                  
R13  18471296.526    98635916.499        1981.805          42.000    18471301.430    76716890.410        1541.418          40.000  
R17  19651190.062   105157336.987       -4742.170          50.000    19651195.156    81788884.451       -3688.317          47.000  
R02  18552239.217    98998261.014       -2142.737          53.000    18552240.751    76998677.858       -1666.528          45.000  
R03  18140297.110    97106492.247         167.266          51.000    18140295.455    75527328.164         130.151          50.000  
R18  18327959.214    97835865.028       -2048.914          50.000    18327963.378    76094395.479       -1593.530          49.000  
E33  22174405.765   116527306.895         -19.865          47.000    22174410.595    89287219.642         -15.193          51.000  
G09  18182637.015    95550426.067       -1025.478          49.000    18182638.396    74454948.386        -799.025          46.000  
G03  19827977.295   104196643.560       -2948.972          47.000    19827984.553    81192140.381       -2298.006          44.000  
G11  21053614.673   110637452.662        1703.530          36.000    21053617.307    86211035.733        1327.300          40.000  
E26  21546709.113   113228679.891       -2657.721          46.000    21546713.824    86759639.217       -2036.285          51.000  
G06  18580410.106    97640764.481        -416.498          48.000    18580413.477    76083730.607        -324.481          47.000  
R12  18620679.942    99468460.646       -1224.398          50.000    18620683.783    77364492.039        -952.271          49.000  
R01  21745626.369                3      -3200.625          25.000    21745587.080                3      -2484.532          20.000  
R19  19850754.061   106188102.3831       1123.763          34.000    19850750.425    82590761.275         874.825          41.000  
E19  24830888.804   130487221.085         951.341          38.000    24830899.936    99983750.173         728.812          38.000  
S31  36302910.172   190773049.189        -820.603          44.000  
E13  24938895.861   131054472.536       -4009.110          38.000    24938924.520   100418306.052       -3071.673          43.000  
G07  18528866.316    97370029.514        2018.958          47.000    18528867.429    75872636.353        1573.212          44.000  
G30  21153168.327   111160741.755        2862.645          41.000    21153182.314    86619076.768        2230.466          39.000  
G04  19441668.569   102166615.087       -2960.772          47.000    19441670.734    79610321.037       -2307.104          44.000  
E30  24480165.135   128644229.348         577.081          40.000    24480179.373    98571637.127         442.230          48.000  
E27  24996067.788   131355291.408        1711.968          44.000    24996089.743   100648965.419        1311.748          48.000  
> 2024 04 08 16 24 00.4920000  0 26                     
S33  37260617.284   195805845.636        -821.253          44.000  
E07  21905363.687   115113432.260       -2071.338          47.000    21905370.791    88203813.088       -1587.108          52.000  
G16  22457998.038   118017617.731        -153.348          34.000                                                                  
R13  18460214.233    98576733.086        1963.324          43.000    18460217.998    76670858.981        1526.990          40.000  
R17  19677798.542   105299721.301       -4750.183          50.000    19677803.847    81899627.149       -3694.519          48.000  
R02  18564295.449    99062602.323       -2146.747          51.000    18564297.614    77048721.029       -1669.610          45.000  
R03  18139371.999    97101537.086         162.951          52.000    18139370.247    75523474.133         126.714          49.000  
R18  18339546.643    97897715.273       -2074.603          50.000    18339550.438    76142501.089       -1613.556          49.000  
E33  22174560.407   116528117.759         -34.403          48.000    22174564.704    89287840.942         -26.362          51.000  
G09  18188511.867    95581297.789       -1032.863          49.000    18188513.499    74479004.231        -804.891          47.000  
G03  19844842.479   104285269.403       -2959.417          46.000    19844849.580    81261199.208       -2305.985          44.000  
G11  21043930.239   110586558.186        1689.236          37.000    21043932.163    86171377.768        1316.342          39.000  
E26  21561915.543   113308589.946       -2669.877          46.000    21561920.594    86820868.865       -2045.802          51.000  
G06  18582848.039    97653576.646        -437.854          48.000    18582851.416    76093714.066        -341.150          47.000  
R12  18627630.752    99505590.011       -1251.193          52.000    18627635.058    77393370.395        -973.097          49.000  
R01  21763601.934                3      -3201.200          25.000    21763576.559                3      -2493.094          21.000  
R19  19844513.193                        1100.234          31.000    19844510.019    82564798.134         856.143          41.000  
E19  24825466.808   130458732.134         947.637          37.000    24825478.447    99961921.206         726.065          39.000  
S31  36307596.495   190797677.146        -821.121          44.000  
E13  24961785.436   131174755.372       -4010.334          39.000    24961813.628   100510470.381       -3072.593          43.000  
G07  18517385.406    97309693.587        2003.357          48.000    18517385.694    75825621.395        1561.017          44.000  
G30  21136843.101   111074948.467        2856.860          42.000    21136856.238    86552225.383        2226.065          39.000  
G04  19458579.437   102255481.656       -2963.778          47.000    19458581.861    79679567.606       -2309.654          43.000  
E30  24476897.313   128627056.067         567.324          41.000    24476910.695    98558478.476         434.777          47.000  
E27  24986292.426   131303923.758        1712.415          44.000    24986314.310   100609606.253        1312.121          48.000  
E08                                                                  25833565.888                3      -2188.905          22.000  
> 2024 04 08 16 24 30.4920000  0 25                     
S33  37265306.249   195830487.724        -821.766          43.000  
E07  21917194.553   115175602.852       -2073.499          46.000    21917201.646    88251450.229       -1588.775          52.000  
G16  22458912.784   118022420.143        -166.484          34.000                                                                  
R13  18449234.544    98518105.354        1944.611          43.000    18449237.435    76625259.681        1512.885          39.000  
R17  19704451.898   105442344.849       -4758.150          50.000    19704456.942    82010555.873       -3700.636          48.000  
R02  18576376.313    99127065.365       -2150.946          52.000    18576378.882    77098858.826       -1672.882          45.000  
R03  18138471.276    97096714.456         158.452          52.000    18138469.283    75519723.181         123.278          49.000  
R18  18351277.137    97960335.701       -2100.323          50.000    18351281.453    76191205.751       -1633.466          49.000  
E33  22174797.384   116529364.920         -48.948          48.000    22174801.980    89288796.549         -37.516          51.000  
G09  18194429.909    95612393.183       -1040.420          49.000    18194431.239    74503234.368        -810.683          47.000  
G03  19861767.707   104374203.620       -2969.643          48.000    19861772.746    81330498.325       -2313.983          44.000  
G11  21034323.191   110536080.297        1675.320          36.000    21034325.954    86132044.454        1305.719          38.000  
E26  21577190.820   113388863.447       -2681.898          47.000    21577196.194    86882376.974       -2054.927          51.000  
G06  18585408.562    97667029.607        -459.357          49.000    18585411.652    76104196.836        -357.880          47.000  
R12  18634732.283    99543523.283       -1277.943          51.000    18634734.612    77422874.028        -993.931          48.000  
R01  21781560.319                       -3202.766          28.000    21781571.085                3      -2498.488          19.000  
R19  19838404.550   106122061.771        1076.816          32.000    19838405.104    82539396.494         837.141          43.000  
E19  24820064.236   130430349.922         943.733          36.000    24820076.641    99940173.964         723.426          39.000  
S31  36312285.630   190822317.218        -821.854          44.000  
E13  24984681.700   131295070.646       -4011.203          40.000    24984709.379   100602659.638       -3073.344          43.000  
G07  18505992.869    97249827.047        1987.543          48.000    18505993.761    75778972.193        1548.761          44.000  
G30  21120550.204   110989330.888        2850.574          40.000    21120563.320    86485510.936        2221.236          39.000  
G04  19475508.910   102344445.264       -2967.230          46.000    19475511.275    79748889.763       -2312.075          44.000  
E30  24473686.111   128610181.056         557.316          42.000    24473699.030    98545548.378         427.235          46.000  
E27  24976514.172   131252542.434        1712.855          43.000    24976536.319   100570236.623        1312.379          47.000  
> 2024 04 08 16 25 00.4920000  0 25                     
S33  37269997.850   195855141.093        -821.723          43.000  
E07  21929038.558   115237835.733       -2075.083          48.000    21929044.511    88299135.105       -1590.056          53.000  
G16  22459898.918                        -180.418          30.000                                                                  
R13  18438360.844    98460036.546        1926.392          44.000    18438363.838    76580095.175        1498.413          39.000  
R17  19731146.843   105585201.786       -4765.551          48.000    19731153.217    82121666.147       -3706.412          45.000  
R02  18588480.294    99191648.950       -2154.493          53.000    18588481.904    77149090.421       -1675.629          44.000  
R03  18137595.434    97092022.964         154.516          52.000    18137592.699    75516074.262         120.258          49.000  
R18  18363151.285    98023722.964       -2125.342          50.000    18363156.127    76240506.836       -1653.009          49.000  
E33  22175117.913   116531048.038         -63.083          48.000    22175122.532    89290086.200         -48.328          52.000  
G09  18200389.375    95643710.328       -1047.278          50.000    18200390.828    74527637.318        -816.009          47.000  
G03  19878748.971   104463444.984       -2979.603          47.000    19878755.903    81400036.814       -2321.715          44.000  
G11  21024796.559   110486020.454        1661.757          39.000    21024799.498    86093036.869        1295.110          37.000  
E26  21592535.975   113469497.998       -2693.536          48.000    21592540.307    86944161.736       -2063.802          50.000  
G06  18588090.846    97681122.703        -480.313          48.000    18588094.158    76115178.393        -374.048          48.000  
R12  18641983.034    99582259.252       -1304.317          51.000    18641985.992    77453002.008       -1014.663          48.000  
R01  21799523.261                3      -3204.887          24.000    21799559.732                       -2491.411          26.000  
R19  19832434.030   106090125.342        1052.552          36.000    19832435.126    82514557.080         818.787          44.000  
E19  24814684.202   130402073.297         941.221          36.000    24814695.863    99918507.625         721.228          39.000  
S31  36316975.859   190846968.989        -821.504          43.000  
E13  25007582.914   131415415.604       -4011.841          41.000    25007610.148   100694871.670       -3073.855          43.000  
G07  18494690.621    97190431.137        1972.137          49.000    18494690.889    75732689.724        1536.841          44.000  
G30  21104290.693   110903890.309        2845.113          39.000    21104304.189    86418934.400        2216.984          39.000  
G04  19492456.154   102433503.796       -2969.777          46.000    19492458.716    79818285.888       -2314.031          44.000  
E30  24470531.045   128593604.907         547.819          42.000    24470544.268    98532847.255         419.761          46.000  
E27  24966733.750   131201148.406        1713.732          43.000    24966755.727   100530857.280        1313.085          47.000  
> 2024 04 08 16 25 30.4920000  0 26                     
S33  37274690.087   195879798.098        -822.056          43.000  
E07  21940890.270   115300122.921       -2077.139          46.000    21940897.403    88346861.568       -1591.581          53.000  
G16  22460961.128   118033210.245        -192.523          29.000                                                                  
R13  18427589.375    98402522.984        1907.745          42.000    18427593.163    76535362.507        1483.777          40.000  
R17  19757885.131   105728279.826       -4772.899          48.000    19757890.719    82232948.341       -3712.344          46.000  
R02  18600603.536    99256346.018       -2158.481          51.000    18600606.289    77199410.270       -1678.641          46.000  
R03  18136741.789    97087455.438         150.108          52.000    18136739.160    75512521.736         116.758          49.000  
R18  18375168.123    98087866.870       -2150.665          51.000    18375172.020    76290396.408       -1672.809          49.000  
E33  22175519.163   116533160.519         -77.599          48.000    22175524.484    89291704.844         -59.429          52.000  
G09  18206389.565    95675240.983       -1054.555          50.000    18206390.899    74552206.616        -821.730          47.000  
G03  19895787.772   104552985.961       -2989.871          47.000    19895795.466    81469808.731       -2329.629          44.000  
G11  21015347.707   110436373.619        1648.128          36.000    21015352.592    86054351.085        1284.185          40.000  
E26  21607947.186   113550484.782       -2705.389          47.000    21607951.887    87006216.408       -2072.925          50.000  
G06  18590893.248    97695848.830        -501.508          49.000    18590896.425    76126653.255        -390.647          48.000  
R04  21032988.334                3       1654.441          13.000                                                                  
R12  18649383.829    99621790.105       -1330.822          51.000    18649387.011    77483748.193       -1035.070          48.000  
R19  19826597.187   106058906.519        1028.703          36.000    19826599.530    82490275.853         799.921          44.000  
E19  24809321.183   130373894.393         937.661          35.000    24809332.938    99896916.280         718.341          38.000  
S31  36321668.009   190871623.571        -821.859          44.000  
E13  25030488.686   131535780.995       -4012.548          40.000    25030515.664   100787099.426       -3074.506          43.000  
G07  18483477.039    97131501.397        1956.641          49.000    18483476.673    75686770.520        1524.585          43.000  
G30  21088064.429   110818621.650        2839.303          38.000    21088078.082    86352491.863        2212.611          38.000  
G04  19509420.048   102522648.883       -2972.955          46.000    19509421.944    79887749.531       -2316.589          43.000  
E30  24467432.225   128577321.822         537.819          42.000    24467446.303    98520370.727         412.097          47.000  
E27  24956949.735   131149736.213        1713.994          42.000    24956972.052   100491463.979        1313.392          47.000  
R01                                                                  21817536.207                3      -2494.739          19.000  
> 2024 04 08 16 26 00.4920000  0 26                     
S33  37279378.633   195904437.449        -821.065          43.000  
E07  21952749.726   115362443.163       -2077.794          47.000    21952756.947    88394613.366       -1592.034          53.000  
G16  22462092.302                        -204.993          28.000                                                                  
R13  18416919.547    98345548.046        1890.320          42.000    18416923.844    76491048.786        1470.184          41.000  
R17  19784659.183   105871553.480       -4778.930          47.000    19784665.531    82344382.628       -3716.971          45.000  
R02  18612745.892    99321135.692       -2161.125          53.000    18612749.577    77249802.132       -1680.902          47.000  
R03  18135907.501    97082990.708         147.302          52.000    18135905.465    75509049.180         114.569          50.000  
R18  18387321.775    98152743.806       -2174.627          50.000    18387325.661    76340856.119       -1691.357          48.000  
E33  22175999.102   116535682.514         -90.802          48.000    22176004.358    89293637.248         -69.555          52.000  
G09  18212426.087    95706963.635       -1060.450          50.000    18212427.826    74576925.525        -826.336          48.000  
G03  19912880.708   104642805.612       -2998.550          48.000    19912887.939    81539797.806       -2336.580          44.000  
G11  21005976.926   110387121.392        1635.180          37.000    21005980.829    86015972.809        1274.102          40.000  
E26  21623421.003   113631801.766       -2716.000          47.000    21623426.098    87068524.070       -2081.082          50.000  
G06  18593811.389    97711187.701        -521.447          48.000    18593814.890    76138605.562        -406.229          47.000  
R12  18656929.732    99662094.530       -1356.258          51.000    18656931.067    77515096.114       -1054.846          47.000  
R01  21835465.537                3      -3207.880          22.000                                                                  
R19  19820892.125   106028386.743        1005.965          40.000    19820892.489    82466538.264         782.297          43.000  
E19  24803973.102   130345792.345         935.229          36.000    24803985.365    99875383.727         716.523          38.000  
S31  36326356.797   190896262.051        -820.952          44.000  
E13  25053392.824   131656144.336       -4011.735          39.000    25053420.541   100879325.596       -3073.995          44.000  
G07  18472347.503    97073019.058        1942.047          49.000    18472347.794    75641199.922        1513.153          43.000  
G30  21071867.390   110733506.720        2834.618          40.000    21071880.169    86286169.045        2209.178          38.000  
G04  19526396.029   102611858.929       -2974.736          46.000    19526398.746    79957263.735       -2317.997          43.000  
E30  24464387.752   128561312.795         529.260          44.000    24464400.172    98508104.155         405.546          47.000  
E27  24947159.579   131098287.130        1715.641          42.000    24947180.920   100452042.446        1314.503          47.000  
E08                                                                  25898646.417                3      -2180.359          25.000  
> 2024 04 08 16 26 30.4920000  0 25                     
S33  37284063.628   195929056.675        -820.563          44.000  
E07  21964614.532   115424792.043       -2079.128          47.000    21964621.716    88442387.104       -1593.132          53.000  
G16  22463296.591   118045507.455        -217.795          32.000                                                                  
R13  18406350.015    98289111.748        1871.661          41.000    18406354.496    76447153.988        1455.951          41.000  
R17  19811469.664   106015014.030       -4785.440          47.000    19811476.606    82455962.342       -3722.065          46.000  
R02  18624903.919    99386014.777       -2164.429          52.000    18624906.248    77300263.535       -1683.458          44.000  
R03  18135091.299    97078624.741         143.708          51.000    18135089.660    75505653.416         111.700          49.000  
R18  18399612.350    98218347.344       -2199.200          51.000    18399615.760    76391880.958       -1710.474          48.000  
E33  22176556.680   116538610.890        -104.699          48.000    22176561.688    89295881.040         -80.186          52.000  
G09  18218498.409    95738873.568       -1067.084          50.000    18218499.905    74601790.371        -831.538          47.000  
G03  19930024.851   104732899.910       -3008.091          47.000    19930032.345    81610000.849       -2343.814          44.000  
G11  20996677.916   110338262.254        1621.900          37.000    20996682.449    85977900.861        1263.521          40.000  
E26  21638956.350   113713443.611       -2727.284          47.000    21638962.155    87131080.669       -2089.578          50.000  
G06  18596846.134    97727135.751        -542.127          48.000    18596850.029    76151032.554        -422.470          48.000  
R12  18664619.135    99703168.505       -1382.278          51.000    18664620.674    77547042.519       -1075.042          47.000  
R01  21853523.602                3      -3198.677          14.000                                                                  
R19  19815317.058   105998564.683         982.249          39.000    19815317.162    82443343.403         763.827          42.000  
E19  24798639.679   130317762.976         932.828          37.000    24798651.414    99853906.838         714.881          38.000  
S31  36331041.582   190920879.033        -820.391          44.000  
E13  25076297.015   131776500.041       -4011.989          41.000    25076324.141   100971545.963       -3074.288          43.000  
G07  18461303.346    97014982.662        1926.929          48.000    18461304.210    75595976.828        1501.270          43.000  
G30  21055700.011   110648543.989        2829.636          40.000    21055712.337    86219964.821        2204.534          39.000  
G04  19543383.766   102701129.085       -2976.967          46.000    19543385.572    80026824.824       -2319.837          42.000  
E30  24461392.443   128545575.504         519.741          44.000    24461404.769    98496045.849         398.181          46.000  
E27  24937361.243   131046799.325        1716.506          42.000    24937382.336   100412591.234        1315.408          47.000  
> 2024 04 08 16 27 00.4920000  0 25                     
S33  37288747.938   195953673.539        -820.667          44.000  
E07  21976488.317   115487187.886       -2080.668          47.000    21976495.264    88490196.827       -1594.310          53.000  
G16  22464577.611   118052231.153        -230.657          35.000                                                                  
R13  18395887.150    98233237.284        1853.082          42.000    18395891.042    76403696.153        1441.187          41.000  
R17  19838316.467   106158676.013       -4792.146          47.000    19838324.283    82567698.665       -3727.351          46.000  
R02  18637081.533    99451002.207       -2168.201          51.000    18637085.011    77350809.239       -1686.548          46.000  
R03  18134298.418    97074377.058         139.476          52.000    18134296.363    75502349.670         108.501          49.000  
R18  18412041.821    98284693.955       -2224.017          51.000    18412044.909    76443483.745       -1729.803          48.000  
E33  22177195.210   116541965.232        -118.989          48.000    22177200.099    89298451.238         -91.239          52.000  
G09  18224609.854    95770988.753       -1073.945          49.000    18224610.887    74626815.151        -836.890          46.000  
G03  19947225.866   104823287.445       -3017.880          48.000    19947232.071    81680432.464       -2351.649          44.000  
G11  20987458.415   110289817.510        1607.423          37.000    20987462.788    85940151.823        1252.456          39.000  
E26  21654557.160   113795427.783       -2738.453          46.000    21654563.117    87193899.578       -2098.391          50.000  
G06  18600000.578    97743712.095        -563.149          47.000    18600004.660    76163949.122        -438.844          48.000  
R12  18672453.945    99745030.674       -1408.573          50.000    18672456.959    77579601.977       -1095.645          48.000  
R01  21871519.145                3      -3208.624          20.000    21871437.427                3      -2495.848          17.000  
R19  19809874.690   105969461.183         957.799          37.000    19809876.747    82420707.340         745.302          42.000  
E19  24793323.043   130289824.571         929.758          37.000    24793335.260    99832499.647         712.553          39.000  
S31  36335725.275   190945493.968        -820.656          43.000  
E13  25099201.623   131896865.070       -4012.208          40.000    25099229.336   101063773.512       -3074.392          45.000  
G07  18450347.883    96957413.548        1910.938          48.000    18450349.659    75551117.852        1489.240          44.000  
G30  21039564.503   110563754.562        2823.184          38.000    21039577.229    86153895.643        2200.177          39.000  
G04  19560386.593   102790477.263       -2979.615          46.000    19560388.477    80096446.624       -2321.824          43.000  
E30  24458453.679   128530130.469         509.958          44.000    24458466.051    98484211.441         390.632          46.000  
E27  24927558.937   130995293.616        1717.172          41.000    24927580.740   100373126.300        1315.674          47.000  
> 2024 04 08 16 27 30.4920000  0 25                     
S33  37293432.080   195978289.075        -820.629          43.000  
E07  21988370.849   115549631.120       -2082.344          47.000    21988377.566    88538042.857       -1595.547          53.000  
G16  22465937.369   118059347.962        -243.765          35.000                                                                  
R13  18385529.577    98177929.766        1834.046          43.000    18385534.395    76360679.328        1426.532          42.000  
R17  19865201.585   106302536.021       -4798.677          47.000    19865209.583    82679588.965       -3732.291          47.000  
R02  18649282.195    99516099.738       -2171.919          52.000    18649285.611    77401440.559       -1689.278          48.000  
R03  18133526.892    97070248.570         135.510          51.000    18133525.619    75499138.636         105.395          50.000  
R18  18424610.121    98351781.749       -2248.700          51.000    18424612.811    76495663.039       -1749.005          48.000  
E33  22177915.715   116545747.337        -133.338          49.000    22177919.673    89301349.186        -102.182          52.000  
G09  18230760.063    95803309.347       -1080.823          49.000    18230761.450    74651999.987        -842.261          47.000  
G03  19964482.854   104913968.976       -3027.767          49.000    19964488.933    81751093.153       -2359.396          44.000  
G11  20978317.688   110241790.459        1593.682          36.000    20978323.632    85902728.193        1242.030          39.000  
E26  21670224.424   113877753.912       -2750.050          47.000    21670229.414    87256980.469       -2107.100          50.000  
G06  18603274.766    97760917.952        -584.224          47.000    18603278.831    76177356.233        -455.208          48.000  
R12  18680438.288    99787681.670       -1434.914          50.000    18680441.364    77612774.923       -1116.107          47.000  
R01  21889524.456                3      -3213.310          16.000                                                                  
R19  19804569.251   105941079.824         933.924          38.000    19804572.048    82398633.018         726.335          44.000  
E19  24788024.685   130261977.955         926.755          38.000    24788036.387    99811162.803         710.019          39.000  
S31  36340409.918   190970108.746        -820.518          44.000  
E13  25122107.309   132017238.687       -4012.931          41.000    25122135.601   101156007.662       -3074.526          42.000  
G07  18439482.389    96900315.223        1895.337          48.000    18439483.949    75506625.737        1476.794          44.000  
G30  21023463.021   110479141.879        2817.188          38.000    21023475.023    86087964.215        2195.003          39.000  
G04  19577403.215   102879903.444       -2982.216          45.000    19577405.520    80166129.236       -2323.838          43.000  
E30  24455569.622   128514980.164         500.033          43.000    24455582.631    98472602.912         383.084          47.000  
E27  24917754.875   130943773.069        1717.448          41.000    24917776.215   100333650.008        1315.853          47.000  
> 2024 04 08 16 28 00.4920000  0 24                     
S33  37298117.002   196002908.413        -820.777          43.000  
E07  22000262.620   115612125.345       -2084.045          47.000    22000269.999    88585927.977       -1596.899          53.000  
G16  22467367.676   118066863.381        -257.397          34.000                                                                  
R13  18375280.117    98123197.490        1814.789          43.000    18375283.968    76318109.915        1411.243          41.000  
R17  19892122.828   106446593.452       -4805.042          48.000    19892131.241    82791632.833       -3737.464          47.000  
R02  18661502.321    99581311.594       -2175.632          51.000    18661505.275    77452160.784       -1692.110          46.000  
R03  18132778.897    97066243.752         131.494          51.000    18132777.728    75496023.774         102.208          50.000  
R18  18437316.691    98419612.493       -2273.273          52.000    18437319.518    76548420.162       -1768.152          48.000  
E33  22178716.840   116549962.014        -147.753          48.000    22178721.927    89304578.603        -113.240          52.000  
G09  18236950.229    95835838.736       -1087.856          50.000    18236950.675    74677347.527        -847.603          46.000  
G03  19981795.041   105004948.466       -3037.637          47.000    19981802.156    81821986.012       -2367.065          44.000  
G11  20969261.256   110194187.608        1579.488          39.000    20969264.853    85865635.082        1231.060          39.000  
E26  21685955.840   113960424.650       -2761.381          47.000    21685961.531    87320325.432       -2115.869          50.000  
G06  18606669.870    97778757.710        -605.090          48.000    18606673.824    76191257.289        -471.565          48.000  
R12  18688570.841    99831125.328       -1461.265          49.000    18688573.880    77646564.461       -1136.517          48.000  
R19  19799399.611   105913426.924         909.525          37.000    19799403.849    82377125.255         707.448          45.000  
E19  24782744.011   130234227.073         923.508          39.000    24782755.254    99789899.263         707.582          39.000  
S31  36345094.351   190994725.711        -820.460          43.000  
E13  25145015.829   132137623.152       -4013.012          40.000    25145044.115   101248250.245       -3074.882          42.000  
G07  18428708.131    96843693.957        1879.480          49.000    18428709.133    75462505.343        1464.648          44.000  
G30  21007395.895   110394712.422        2811.149          40.000    21007408.776    86022175.520        2190.021          37.000  
G04  19594436.336   102969410.934       -2984.846          45.000    19594438.999    80235875.231       -2325.922          44.000  
E30  24452743.931   128500130.493         489.878          43.000    24452756.694    98461224.690         375.353          47.000  
E27  24907949.587   130892243.771        1717.909          42.000    24907970.162   100294167.001        1316.163          47.000  
> 2024 04 08 16 28 30.4920000  0 24                     
S33  37302802.939   196027531.731        -820.987          43.000  
E07  22012164.560   115674671.072       -2085.735          47.000    22012172.045    88633852.565       -1598.268          53.000  
G16  22468871.604   118074779.983        -270.963          34.000                                                                  
R13  18365139.244    98069045.217        1795.190          44.000    18365143.502    76275991.622        1396.222          41.000  
R17  19919080.278   106590844.832       -4811.641          48.000    19919089.321    82903827.551       -3742.418          46.000  
R02  18673743.863    99646639.495       -2179.551          51.000    18673747.709    77502971.291       -1695.296          47.000  
R03  18132053.399    97062363.486         127.141          51.000    18132052.807    75493005.782          98.993          50.000  
R18  18450162.617    98488184.550       -2298.181          52.000    18450165.075    76601753.831       -1787.506          48.000  
E33  22179601.307   116554611.090        -162.278          48.000    22179607.009    89308140.864        -124.327          52.000  
G09  18243179.978    95868577.123       -1094.782          50.000    18243181.208    74702857.937        -853.114          46.000  
G03  19999164.863   105096226.744       -3047.760          47.000    19999172.394    81893111.669       -2374.845          45.000  
G11  20960284.346   110147012.314        1565.306          39.000    20960287.610    85828875.206        1219.803          39.000  
E26  21701753.649   114043439.716       -2772.914          47.000    21701758.961    87383934.218       -2124.819          51.000  
G06  18610186.011    97797232.672        -626.462          48.000    18610189.784    76205653.303        -488.141          48.000  
R12  18696851.987    99875362.145       -1487.853          49.000    18696856.019    77680970.847       -1157.154          48.000  
R19  19794368.304   105886505.900         885.087          38.000    19794370.830    82356186.695         688.394          44.000  
E19  24777481.638   130206572.507         920.147          39.000    24777492.311    99768709.535         705.154          39.000  
S31  36349779.635   191019347.202        -820.994          44.000  
E13  25167925.704   132258017.918       -4013.338          39.000    25167954.561   101340500.707       -3075.236          44.000  
G07  18418024.373    96787553.240        1863.147          49.000    18418025.990    75418759.410        1451.941          44.000  
G30  20991364.206   110310469.628        2805.061          40.000    20991376.403    85956532.253        2185.343          36.000  
G04  19611484.565   103058999.904       -2987.666          45.000    19611487.653    80305684.721       -2327.949          44.000  
E30  24449975.261   128485584.027         479.822          43.000    24449988.442    98450078.789         367.664          47.000  
E27  24898142.804   130840708.875        1718.154          43.000    24898162.798   100254679.691        1316.222          46.000  
> 2024 04 08 16 29 00.4920000  0 24                     
S33  37307490.186   196052162.475        -821.352          44.000  
E07  22024077.624   115737270.865       -2087.664          47.000    22024084.557    88681818.566       -1599.673          53.000  
G16  22470457.885   118083102.293        -284.302          34.000                                                                  
R13  18355107.969    98015480.250        1775.519          43.000    18355111.856    76234330.100        1380.878          41.000  
R17  19946074.548   106735288.694       -4818.247          48.000    19946082.528    83016171.954       -3747.380          46.000  
R02  18686009.543    99712086.867       -2183.761          51.000    18686013.230    77553874.699       -1698.480          48.000  
R03  18131352.977    97058611.086         122.789          51.000    18131351.701    75490087.251          95.525          50.000  
R18  18463147.616    98557497.897       -2322.888          52.000    18463149.532    76655664.074       -1806.714          47.000  
E33  22180569.670   116559698.343        -177.083          48.000    22180574.932    89312038.879        -135.634          52.000  
G09  18249450.484    95901526.728       -1102.016          50.000    18249451.428    74728532.919        -858.613          47.000  
G03  20016591.189   105187806.572       -3057.735          46.000    20016599.176    81964472.287       -2382.648          44.000  
G11  20951389.312   110100269.967        1550.642          38.000    20951392.946    85792452.632        1208.523          40.000  
E26  21717616.636   114126800.595       -2784.571          48.000    21717622.291    87447807.979       -2133.543          51.000  
G06  18613822.850    97816346.014        -647.803          48.000    18613826.921    76220546.769        -504.863          48.000  
R12  18705283.328    99920394.795       -1514.458          51.000    18705286.470    77715996.239       -1177.987          48.000  
R19  19789473.605   105860321.861         860.344          39.000    19789475.502    82335821.375         669.081          44.000  
E19  24772237.055   130179017.020         916.797          37.000    24772248.527    99747595.737         702.414          39.000  
S31  36354466.342   191043976.319        -821.040          43.000  
E13  25190837.945   132378424.186       -4013.575          40.000    25190867.209   101432759.995       -3075.449          44.000  
G07  18407433.796    96731898.356        1846.869          48.000    18407434.869    75375392.045        1439.337          44.000  
G30  20975369.192   110226418.894        2798.314          41.000    20975381.317    85891038.669        2180.005          36.000  
G04  19628549.039   103148672.471       -2990.483          46.000    19628552.067    80375559.322       -2330.358          45.000  
E30  24447266.265   128471345.379         469.277          43.000    24447278.915    98439168.744         359.703          47.000  
E27  24888335.482   130789173.368        1717.626          43.000    24888355.263   100215191.885        1316.154          46.000  
> 2024 04 08 16 29 30.4920000  0 24                     
S33  37312177.616   196076796.762        -821.515          43.000  
E07  22035999.449   115799920.292       -2089.293          47.000    22036006.284    88729822.601       -1600.945          52.000  
G16  22472117.096   118091827.784        -297.794          33.000                                                                  
R13  18345185.903    97962502.841        1755.731          42.000    18345190.978    76193125.584        1365.729          41.000  
R17  19973100.795   106879916.562       -4824.346          45.000    19973109.038    83128659.402       -3752.098          44.000  
R02  18698296.391    99777650.038       -2187.598          51.000    18698298.824    77604868.190       -1701.473          47.000  
R03  18130675.024    97054982.904         118.620          51.000    18130674.017    75487265.328          92.358          50.000  
R18  18476269.610    98627545.928       -2347.382          51.000    18476273.039    76710145.748       -1825.745          48.000  
E33  22181620.285   116565220.559        -191.645          47.000    22181625.808    89316270.163        -146.702          52.000  
G09  18255759.742    95934682.881       -1108.980          50.000    18255760.750    74754368.837        -863.978          46.000  
G03  20034075.641   105279683.830       -3067.793          47.000    20034082.723    82036064.691       -2390.468          44.000  
G11  20942577.671   110053958.968        1536.207          40.000    20942579.601    85756366.211        1197.360          39.000  
E26  21733544.306   114210502.019       -2795.974          48.000    21733550.276    87511942.687       -2142.272          51.000  
G06  18617580.993    97836094.052        -669.119          48.000    18617585.124    76235934.783        -521.324          48.000  
R12  18713863.282    99966218.645       -1540.943          51.000    18713863.731    77751637.000       -1198.416          47.000  
R19  19784716.128   105834872.477         835.865          40.000    19784717.695    82316027.421         650.150          44.000  
E19  24767011.040   130151556.423         913.463          36.000    24767022.765    99726554.703         699.961          40.000  
S31  36359153.943   191068608.479        -821.511          44.000  
E13  25213752.220   132498836.309       -4013.979          40.000    25213780.534   101525023.848       -3075.971          41.000  
G07  18396935.337    96676727.815        1830.640          48.000    18396936.301    75332402.101        1426.526          44.000  
G30  20959411.718   110142558.780        2791.998          43.000    20959422.634    85825693.591        2175.407          36.000  
G04  19645628.192   103238423.843       -2993.373          45.000    19645631.458    80445495.329       -2332.416          45.000  
E30  24444613.308   128457412.278         459.187          41.000    24444627.270    98428492.819         351.760          46.000  
E27  24878527.262   130737635.398        1717.593          43.000    24878547.327   100175702.175        1316.233          45.000  
