     3.00           OBSERVATION DATA    M: Mixed            RINEX VERSION / TYPE
CONVBIN 2.4.3                           20240408 181442 UTC PGM / RUN BY / DATE 
format: u-blox UBX                                          COMMENT             
log: data/2024-04-08/20240408180000.ubx                     COMMENT             
AQUI00CHL                                                   MARKER NAME         
                                                            MARKER NUMBER       
                                                            MARKER TYPE         
                                                            OBSERVER / AGENCY   
UNKNOWN             UBLOX-ZED-F9P                           REC # / TYPE / VERS 
UNKNOWN             TWIVSP6037L                             ANT # / TYPE        
  1713381.0000 -5047934.0000 -3490983.0000                  APPROX POSITION XYZ 
        0.0000        0.0000        0.0000                  ANTENNA: DELTA H/E/N
G    8 C1C L1C D1C S1C C2L L2L D2L S2L                      SYS / # / OBS TYPES 
R    8 C1C L1C D1C S1C C2C L2C D2C S2C                      SYS / # / OBS TYPES 
E    8 C1C L1C D1C S1C C7Q L7Q D7Q S7Q                      SYS / # / OBS TYPES 
S    4 C1C L1C D1C S1C                                      SYS / # / OBS TYPES 
  2024    04    08    18    00   00.4950000     GPS         TIME OF FIRST OBS   
  2024    04    08    18    14   30.4950000     GPS         TIME OF LAST OBS    
                                                            END OF HEADER       
> 2024 04 08 18 00 00.4950000  0 25                     
S33  38159635.972   200530164.5111       -817.926          44.000  
E07  24286680.409   127627272.8711      -2260.072          42.000    24286690.411    97792325.0961      -1731.805          45.000  
G20  20316650.695   106764754.5221       1645.722          46.000                                                                  
E12  25332630.575   133123855.4781        -85.674          38.000    25332637.694   102004033.8821        -65.732          39.000  
R13  18814365.607   100467920.8111      -2792.732          41.000    18814367.201    78141791.8791      -2172.319          43.000  
R04  19445875.684   104131918.3581       1436.023          51.000    19445874.339    80991485.0091       1116.864          49.000  
R12  22286993.274                3      -4889.633          12.000                                                                  
R02  21378714.349   114080748.4991      -3197.797          49.000    21378725.189    88729468.3961      -2487.139          46.000  
R03  18491709.078    98987628.0081      -1019.964          50.000    18491708.330    76990432.9941       -793.309          51.000  
E33  23724159.984   124671244.4781      -2669.225          46.000    23724168.994    95527359.5831      -2045.140          49.000  
G09  19922771.475   104694861.6531      -2060.309          48.000    19922775.058    81580475.4451      -1605.564          47.000  
G11  20979176.866   110246263.9301      -1702.637          46.000    20979181.100    85906208.1821      -1326.798          45.000  
E26  25331092.690   133115446.5001      -3806.512          43.000    25331120.284   101997467.2091      -2916.691          46.000  
G06  21062508.690   110684127.6191      -3669.293          45.000    21062522.790    86247351.4761      -2859.204          46.000  
R14  18457487.733    98389190.7941       1899.900          53.000    18457494.150    76524865.6731       1477.678          51.000  
R19  21212953.714   113474885.8531      -3350.519          41.000    21212961.673    88258235.4851      -2606.027          45.000  
E19  24030581.012   126281646.3761        583.956          42.000    24030588.470    96761314.6331        447.471          44.000  
S31  37206677.520   195522329.6201       -818.046          42.000  
G14  22161882.639   116461409.0631       2674.197          36.000    22161902.674    90749249.9531       2083.401          37.000  
G07  18262677.658    95971220.1871      -1619.639          49.000    18262676.436    74782661.5561      -1262.080          45.000  
G30  19049987.983   100108612.3571        615.446          50.000    19049990.384    78007068.3131        479.484          44.000  
G04  22869967.703   120182511.2581      -3205.744          34.000    22869977.635    93648725.3871      -2497.335          33.000  
E21  25300826.622   132956761.1751       2123.850          42.000    25300853.490   101876058.5911       1627.369          47.000  
E30  25114397.873   131977192.1001      -1842.473          45.000    25114407.078   101125479.2381      -1411.608          47.000  
E27  23477159.282   123373556.7501        635.891          47.000    23477168.660    94533139.7901        487.215          50.000  
> 2024 04 08 18 00 30.4950000  0 24                     
S33  38164304.207   200554694.916        -818.033          44.000  
E07  24299583.319   127695086.634       -2261.320          41.000    24299594.666    97844286.222       -1732.728          44.000  
G20  20307288.426   106715554.206        1633.872          46.000                                                                  
E12  25333158.419   133126626.862         -99.510          37.000    25333165.478   102006157.385         -76.401          40.000  
R13  18830120.333   100552051.016       -2816.314          41.000    18830122.093    78207226.507       -2190.527          43.000  
R04  19437835.822   104088869.771        1433.405          51.000    19437835.936    80958002.907        1114.795          49.000  
R02  21396711.716   114176784.355       -3205.130          50.000    21396722.625    88804162.638       -2492.812          46.000  
R03  18497452.019    99018372.318       -1030.228          49.000    18497452.260    77014345.213        -801.260          52.000  
E33  23739425.280   124751466.696       -2679.599          45.000    23739435.349    95588828.329       -2053.186          49.000  
G09  19934545.899   104756734.984       -2065.148          49.000    19934548.635    81628688.392       -1609.093          46.000  
G11  20988944.389   110297596.307       -1720.080          45.000    20988949.814    85946207.345       -1340.250          45.000  
E26  25352821.023   133229625.393       -3805.910          42.000    25352847.323   102084955.080       -2916.252          46.000  
G06  21083479.523   110794329.598       -3677.781          45.000    21083493.588    86333222.565       -2865.964          45.000  
R14  18446851.890    98332497.339        1879.057          53.000    18446858.440    76480770.961        1461.461          51.000  
R19  21231785.679   113575621.380       -3365.688          41.000    21231794.088    88336584.913       -2617.799          45.000  
E19  24027247.956   126264130.468         583.458          42.000    24027254.961    96747893.480         446.854          44.000  
S31  37211346.563   195546865.491        -818.105          42.000  
G14  22146616.524   116381189.951        2673.671          38.000    22146636.448    90686741.622        2083.305          37.000  
G07  18271972.119    96020065.811       -1637.399          48.000    18271971.639    74820723.091       -1275.851          45.000  
G30  19046517.432   100090375.774         599.724          50.000    19046520.885    77992858.104         467.227          45.000  
G04  22888271.352   120278691.087       -3206.709          34.000    22888277.647    93723670.712       -2499.452          32.000  
E21  25288702.149   132893047.477        2123.161          42.000    25288728.770   101827239.589        1626.755          47.000  
E30  25124951.183   132032651.635       -1855.501          44.000    25124960.918   101167974.274       -1421.663          48.000  
E27  23473560.386   123354646.633         624.187          47.000    23473570.570    94518650.367         478.278          51.000  
> 2024 04 08 18 01 00.4950000  0 24                     
S33  38168972.470   200579225.187        -817.795          44.000  
E07  24312494.745   127762939.143       -2262.400          39.000    24312506.143    97896276.995       -1733.547          43.000  
G20  20297994.107   106666712.209        1622.166          47.000                                                                  
E12  25333766.873   133129820.494        -113.474          39.000    25333772.793   102008604.513         -86.880          40.000  
R13  18846005.051   100636875.737       -2839.417          41.000    18846006.848    78273201.289       -2208.326          43.000  
R04  19429811.778   104045902.975        1430.884          52.000    19429811.240    80924584.388        1112.866          49.000  
R02  21414750.548   114273041.183       -3212.246          49.000    21414762.943    88879028.773       -2498.396          48.000  
R03  18503253.248    99049421.766       -1040.073          51.000    18503252.280    77038494.765        -808.994          51.000  
E33  23754751.182   124831999.762       -2689.550          45.000    23754760.636    95650535.267       -2060.949          49.000  
G09  19946348.078   104818754.838       -2069.683          49.000    19946350.423    81677015.515       -1612.673          46.000  
G11  20998811.896   110349446.842       -1736.995          46.000    20998815.539    85986610.221       -1353.475          45.000  
E26  25374545.799   133343787.758       -3805.033          43.000    25374571.747   102172430.292       -2915.637          47.000  
G06  21104499.251   110904786.241       -3686.081          44.000    21104513.450    86419292.089       -2872.402          45.000  
R14  18436334.834    98276434.319        1858.192          53.000    18436340.832    76437166.583        1445.183          51.000  
R19  21250701.132   113676806.194       -3380.225          40.000    21250709.718    88415283.787       -2629.011          44.000  
E19  24023919.348   126246638.706         582.574          42.000    24023926.429    96734490.813         446.412          44.000  
S31  37216015.859   195571402.249        -817.936          41.000  
G14  22131353.660   116300987.107        2672.891          41.000    22131373.908    90624246.018        2082.692          36.000  
G07  18281368.039    96069442.016       -1654.680          48.000    18281367.641    74859198.070       -1289.353          45.000  
G30  19043136.384   100072608.288         584.385          50.000    19043139.705    77979013.441         455.333          45.000  
G04  22906578.688   120374901.320       -3207.522          36.000    22906588.325                       -2499.564          30.000  
E21  25276582.042   132829356.486        2122.679          43.000    25276608.158   101778437.973        1626.351          48.000  
E30  25135579.165   132088499.775       -1868.026          46.000    25135588.962   101210767.080       -1431.413          49.000  
E27  23470028.255   123336084.558         612.925          47.000    23470038.196    94504427.608         469.622          50.000  
> 2024 04 08 18 01 30.4950000  0 24                     
S33  38173639.347   200603749.873        -817.407          43.000  
E07  24325414.665   127830823.804       -2263.560          40.000    24325423.269    97948292.437       -1734.177          42.000  
G20  20288766.862   106618224.140        1610.165          47.000                                                                  
E12  25334453.553   133133430.033        -127.155          39.000    25334459.614   102011370.248         -97.614          40.000  
R13  18862018.903   100722385.463       -2862.015          42.000    18862020.547    78339708.890       -2225.739          43.000  
R04  19421802.676   104003012.566        1428.357          52.000    19421801.443    80891225.285        1110.962          48.000  
R02  21432829.671   114369512.161       -3219.448          51.000    21432841.335    88954061.434       -2504.010          47.000  
R03  18509110.598    99080770.870       -1049.947          51.000    18509108.467    77062877.399        -816.766          51.000  
E33  23770132.723   124912834.989       -2699.544          44.000    23770143.622    95712473.692       -2068.504          50.000  
G09  19958176.815   104880914.512       -2074.490          49.000    19958178.655    81725451.593       -1616.470          46.000  
G11  21008775.700   110401806.834       -1753.833          46.000    21008779.878    86027410.113       -1366.740          45.000  
E26  25396264.750   133457924.659       -3804.109          43.000    25396291.307   102259886.028       -2914.883          46.000  
G06  21125565.822   111015487.304       -3694.077          46.000    21125579.622    86505552.034       -2878.431          45.000  
R14  18425935.152    98220998.029        1837.348          53.000    18425941.285    76394049.643        1429.086          51.000  
R19  21269698.784   113778428.409       -3394.719          41.000    21269706.200    88494322.855       -2640.276          44.000  
E19  24020593.490   126229163.678         582.277          42.000    24020601.005    96721100.979         446.008          44.000  
S31  37220683.673   195595931.604        -817.698          43.000  
G14  22116094.303   116220796.580        2672.734          41.000    22116114.273    90561759.965        2082.868          37.000  
G07  18290863.274    96119339.855       -1672.111          48.000    18290862.418    74898079.524       -1302.768          45.000  
G30  19039843.335   100055303.259         568.942          50.000    19039846.558    77965529.114         443.333          44.000  
G04  22924892.602   120471135.018       -3208.419          36.000    22924900.292    93873626.382       -2500.483          32.000  
E21  25264465.739   132765683.247        2122.029          44.000    25264490.799   101729649.908        1626.052          47.000  
E30  25146279.423   132144728.938       -1880.702          46.000    25146288.788   101253851.819       -1440.963          48.000  
E27  23466561.321   123317865.043         601.587          46.000    23466571.066    94490467.331         460.938          51.000  
> 2024 04 08 18 02 00.4950000  0 24                     
S33  38178304.892   200628267.169        -817.485          43.000  
E07  24338338.924   127898741.759       -2264.600          40.000    24338348.521    98000333.399       -1735.321          43.000  
G20  20279607.804   106570093.187        1598.152          47.000                                                                  
E12  25335220.494   133137456.548        -141.323          40.000    25335226.119   102014455.503        -108.263          41.000  
R13  18878159.880   100808577.462       -2884.544          41.000    18878161.886    78406747.113       -2243.448          43.000  
R04  19413807.430   103960201.052        1425.500          52.000    19413806.960    80857927.573        1108.753          49.000  
R02  21450949.592   114466198.292       -3226.722          51.000    21450960.219    89029261.482       -2509.544          47.000  
R03  18515022.491    99112422.167       -1060.353          51.000    18515021.745    77087495.063        -824.664          51.000  
E33  23785572.874   124993971.317       -2709.875          45.000    23785583.781    95774642.814       -2076.211          51.000  
G09  19970031.807   104943215.001       -2079.343          49.000    19970034.509    81773997.405       -1620.356          46.000  
G11  21018837.198   110454675.389       -1771.030          47.000    21018840.320    86068606.282       -1380.026          46.000  
E26  25417980.141   133572034.955       -3803.539          43.000    25418005.167   102347321.374       -2914.207          46.000  
G06  21146678.021   111126430.280       -3702.444          45.000    21146691.300    86592000.478       -2884.870          44.000  
R14  18415654.248    98166192.434        1816.000          53.000    18415659.800    76351423.249        1412.473          51.000  
R19  21288777.672   113880484.355       -3409.284          42.000    21288784.871    88573699.235       -2651.668          44.000  
E19  24017271.357   126211706.100         581.581          43.000    24017278.607    96707724.483         445.593          44.000  
S31  37225350.495   195620455.766        -817.506          43.000  
G14  22100837.498   116140621.944        2671.979          41.000    22100857.612    90499286.411        2082.167          39.000  
G07  18300458.204    96169758.637       -1689.603          49.000    18300456.106    74937366.931       -1316.528          45.000  
G30  19036638.209   100038461.658         553.398          50.000    19036641.768    77952405.917         431.125          45.000  
G04  22943208.657   120567393.313       -3208.976          36.000    22943218.598    93948632.540       -2500.509          34.000  
E21  25252352.076   132702030.398        2121.095          43.000    25252377.264   101680877.535        1625.348          47.000  
E30  25157052.044   132201339.110       -1893.470          46.000    25157061.495   101297228.512       -1450.838          49.000  
E27  23463159.604   123299990.281         589.792          45.000    23463169.815    94476771.208         451.893          51.000  
> 2024 04 08 18 02 30.4950000  0 24                     
S33  38182970.866   200652788.738        -817.684          43.000  
E07  24351271.821   127966702.003       -2266.188          40.000    24351281.231    98052406.748       -1736.424          43.000  
G20  20270518.320   106522330.339        1585.572          47.000                                                                  
E12  25336067.684   133141909.204        -155.596          40.000    25336073.435   102017867.315        -119.381          41.000  
R13  18894429.319   100895457.968       -2907.661          41.000    18894431.176    78474320.876       -2261.656          42.000  
R04  19405829.045   103917478.870        1422.388          52.000    19405828.951    80824699.314        1106.281          49.000  
R02  21469110.468   114563108.921       -3234.352          50.000    21469121.948    89104636.121       -2515.544          47.000  
R03  18520993.006    99144385.692       -1070.837          50.000    18520992.600    77112355.560        -832.954          51.000  
E33  23801070.516   125075415.498       -2720.212          44.000    23801082.103    95837047.872       -2084.274          50.000  
G09  19981915.867   105005665.155       -2084.376          48.000    19981918.093    81822659.832       -1624.108          45.000  
G11  21028995.229   110508059.470       -1788.196          45.000    21028999.062    86110204.158       -1393.474          46.000  
E26  25439690.654   133686125.238       -3802.937          44.000    25439715.514   102434741.422       -2913.714          45.000  
G06  21167838.216   111237620.440       -3710.694          46.000    21167850.856    86678641.529       -2891.336          44.000  
R14  18405492.121    98112029.228        1794.413          53.000    18405499.271    76309296.462        1395.659          51.000  
R19  21307938.509   113982979.044       -3423.896          40.000    21307946.080    88653416.857       -2662.954          44.000  
E19  24013954.546   126194274.572         580.601          42.000    24013961.370    96694367.942         444.806          44.000  
S31  37230018.239   195644982.946        -817.847          42.000  
G14  22085586.227   116060474.775        2670.922          44.000    22085606.422    90436834.327        2081.255          41.000  
G07  18310152.371    96220705.287       -1707.064          48.000    18310151.339    74977065.654       -1330.323          45.000  
G30  19033523.572   100022092.401         537.552          50.000    19033526.851    77939650.775         418.827          46.000  
G04  22961535.567   120663685.041       -3210.500          39.000    22961542.939    94023664.883       -2502.205          34.000  
E21  25240245.396   132638408.639        2120.049          43.000    25240269.946   101632128.980        1624.341          47.000  
E30  25167898.566   132258338.267       -1906.574          45.000    25167907.557   101340903.266       -1461.001          48.000  
E27  23459825.014   123282470.286         577.874          45.000    23459835.682    94463346.948         442.746          51.000  
> 2024 04 08 18 03 00.4950000  0 24                     
S33  38187637.200   200677308.297        -817.430          43.000  
E07  24364210.954   128034701.077       -2267.716          39.000    24364221.233    98104509.849       -1737.376          44.000  
G20  20261499.224   106474934.320        1573.438          48.000                                                                  
E12  25336993.701   133146784.610        -169.922          39.000    25337001.055   102021603.004        -130.165          42.000  
R13  18910826.456   100983019.658       -2930.058          41.000    18910828.443    78542424.420       -2279.016          43.000  
R04  19397867.593   103874843.944        1419.598          52.000    19397866.547    80791538.957        1104.053          49.000  
R02  21487312.324   114660239.880       -3241.508          50.000    21487324.268    89180182.078       -2521.236          46.000  
R03  18527020.340    99176659.037       -1081.276          49.000    18527021.240    77137457.009        -840.888          51.000  
E33  23816627.634   125157161.936       -2730.193          45.000    23816638.085    95899684.498       -2091.825          50.000  
G09  19993827.671   105068261.375       -2089.166          48.000    19993829.833    81871436.076       -1627.880          45.000  
G11  21039250.385   110561953.518       -1805.313          44.000    21039255.337    86152199.386       -1406.612          46.000  
E26  25461395.240   133800189.713       -3801.888          42.000    25461420.738   102522141.746       -2913.167          44.000  
G06  21189041.620   111349050.695       -3718.288          43.000    21189055.423    86765469.649       -2897.580          43.000  
R14  18395451.076    98058508.121        1773.089          52.000    18395458.133    76267669.109        1379.094          51.000  
R19  21327178.224   114085903.837       -3438.097          40.000    21327187.417    88733469.004       -2674.123          45.000  
E19  24010641.669   126176864.801         579.709          43.000    24010647.927    96681028.075         444.243          44.000  
S31  37234685.561   195669508.773        -817.637          43.000  
G14  22070339.955   115980354.221        2670.088          44.000    22070360.202    90374402.986        2080.382          41.000  
G07  18319946.600    96272174.087       -1724.539          49.000    18319945.673    75017171.202       -1343.671          45.000  
G30  19030497.788   100006191.825         521.997          50.000    19030501.110    77927260.840         406.719          46.000  
G04  22979864.933   120760006.512       -3211.263          39.000    22979872.198    94098720.348       -2502.694          33.000  
E21  25228143.461   132574816.066        2119.057          42.000    25228168.193   101583402.808        1623.588          47.000  
E30  25178818.358   132315721.716       -1919.437          46.000    25178827.011   101384872.472       -1470.679          48.000  
E27  23456558.494   123265302.704         566.221          46.000    23456568.568    94450192.696         433.769          51.000  
> 2024 04 08 18 03 30.4950000  0 24                     
S33  38192304.176   200701834.325        -817.952          43.000  
E07  24377160.001   128102745.900       -2268.876          40.000    24377170.720    98156648.065       -1738.682          45.000  
G20  20252551.313   106427914.647        1560.871          48.000                                                                  
E12  25338002.657   133152089.755        -184.178          38.000    25338010.699   102025668.017        -141.148          42.000  
R13  18927352.024   101071266.223       -2953.108          41.000    18927354.248    78611060.641       -2296.931          43.000  
R04  19389922.798   103832304.499        1416.223          52.000    19389922.634    80758452.856        1101.575          49.000  
R02  21505556.580   114757598.471       -3249.344          48.000    21505569.036    89255905.126       -2527.217          44.000  
R03  18533109.444    99209250.579       -1091.782          50.000    18533109.691    77162805.973        -849.209          51.000  
E33  23832241.121   125239215.407       -2740.323          44.000    23832252.906    95962556.416       -2099.776          50.000  
G09  20005768.311   105131010.452       -2094.274          48.000    20005770.755    81920331.444       -1631.998          45.000  
G11  21049604.536   110616362.352       -1822.240          44.000    21049608.621    86194595.769       -1420.034          45.000  
E26  25483096.498   133914233.049       -3801.192          42.000    25483122.210   102609525.860       -2912.531          44.000  
G06  21210293.183   111460724.340       -3726.358          43.000    21210307.022    86852487.374       -2903.811          43.000  
R14  18385533.312    98005639.090        1751.222          53.000    18385540.054    76226548.910        1362.058          50.000  
R19  21346500.672   114189261.228       -3452.657          41.000    21346509.563    88813857.608       -2685.332          45.000  
E19  24007333.129   126159483.576         578.823          41.000    24007340.282    96667710.102         443.518          44.000  
S31  37239353.898   195694040.871        -818.060          44.000  
G14  22055099.598   115900269.780        2668.670          44.000    22055120.460    90311999.803        2079.337          41.000  
G07  18329841.581    96324169.744       -1742.194          48.000    18329841.050    75057687.339       -1357.499          46.000  
G30  19027561.613    99990766.755         506.115          50.000    19027565.330    77915241.413         394.366          45.000  
G04  22998201.579   120856364.651       -3212.839          40.000    22998203.377                       -2503.639          27.000  
E21  25216048.349   132511261.244        2117.970          42.000    25216073.269   101534705.580        1622.577          46.000  
E30  25189812.399   132373495.340       -1932.460          45.000    25189821.098   101429140.657       -1480.758          48.000  
E27  23453360.259   123248495.498         554.078          46.000    23453369.700    94437314.594         424.432          50.000  
> 2024 04 08 18 04 00.4950000  0 24                     
S33  38196973.052   200726368.290        -817.741          44.000  
E07  24390117.350   128170840.027       -2270.519          40.000    24390128.681    98208823.985       -1739.761          45.000  
G20  20243675.929   106381276.378        1548.333          48.000                                                                  
E12  25339095.932   133157828.133        -198.621          39.000    25339102.735   102030064.958        -152.027          43.000  
R13  18944006.078   101160197.775       -2975.715          41.000    18944008.031    78680229.650       -2314.386          43.000  
R04  19381997.600   103789865.590        1413.068          52.000    19381996.733    80725444.970        1099.054          48.000  
R02  21523845.675   114855188.109       -3256.624          48.000    21523857.546    89331807.830       -2533.190          43.000  
R03  18539259.055    99242165.291       -1102.422          50.000    18539258.799    77188406.284        -857.440          51.000  
E33  23847913.931   125321577.130       -2750.351          44.000    23847925.859    96025664.499       -2107.406          49.000  
G09  20017738.829   105193915.737       -2099.202          48.000    20017740.884    81969348.510       -1635.853          44.000  
G11  21060056.949   110671287.276       -1839.250          45.000    21060061.315    86237394.257       -1433.266          46.000  
E26  25504794.086   134028256.324       -3800.239          41.000    25504819.927   102696894.648       -2912.101          44.000  
G06  21231590.148   111572641.075       -3734.569          40.000    21231604.687    86939694.526       -2910.142          42.000  
R14  18375740.246    97953427.807        1729.460          55.000    18375744.879    76185940.319        1345.096          50.000  
R19  21365903.816   114293049.903       -3466.537          40.000    21365912.270    88894581.695       -2696.290          45.000  
E19  24004030.922   126142133.585         577.995          41.000    24004038.831    96654416.097         442.812          44.000  
S31  37244023.184   195718581.392        -818.131          43.000  
G14  22039867.938   115820227.421        2667.395          43.000    22039888.923    90249629.421        2078.405          41.000  
G07  18339835.692    96376693.373       -1759.504          48.000    18339836.402    75098614.893       -1371.061          46.000  
G30  19024717.631    99975820.443         490.276          49.000    19024720.815    77903595.011         382.110          45.000  
G04  23016545.416   120952762.570       -3213.981          39.000    23016547.098                1      -2503.752          25.000  
E21  25203961.934   132447749.275        2116.416          43.000    25203986.858   101486041.169        1621.627          46.000  
E30  25200880.407   132431661.456       -1945.333          43.000    25200889.635   101473709.516       -1490.455          48.000  
E27  23450231.154   123232053.121         542.170          46.000    23450240.345    94424716.006         415.317          50.000  
> 2024 04 08 18 04 30.4950000  0 24                     
S33  38201643.955   200750912.843        -818.455          44.000  
E07  24403085.415   128238984.989       -2272.330          40.000    24403095.915    98261038.869       -1741.374          44.000  
G20  20234874.599   106335023.294        1535.244          47.000                                                                  
E12  25340269.203   133164001.169        -212.957          38.000    25340277.424   102034795.032        -163.334          43.000  
R13  18960788.486   101249812.216       -2998.332          42.000    18960790.415    78749929.767       -2332.098          44.000  
R04  19374091.727   103747529.906        1409.485          51.000    19374090.663    80692517.323        1096.265          49.000  
R02  21542177.501   114953010.206       -3264.567          47.000    21542189.287    89407891.368       -2539.153          42.000  
R03  18545468.109    99275405.708       -1113.527          51.000    18545468.411    77214259.909        -866.016          51.000  
E33  23863646.875   125404246.440       -2760.699          45.000    23863657.557    96089008.247       -2115.321          49.000  
G09  20029739.098   105256978.654       -2104.762          48.000    20029742.120    82018488.377       -1640.007          45.000  
G11  21070605.648   110726727.630       -1856.542          43.000    21070611.616    86280594.437       -1446.713          46.000  
E26  25526488.620   134142258.767       -3799.682          41.000    25526513.639   102784247.446       -2911.702          44.000  
G06  21252934.224   111684798.776       -3742.755          42.000    21252948.031    87027089.419       -2916.203          41.000  
R14  18366068.654    97901879.003        1707.139          54.000    18366074.322    76145846.991        1327.674          51.000  
R19  21385384.992   114397266.825       -3480.552          38.000    21385394.692    88975638.817       -2707.364          44.000  
E19  24000737.193   126124815.880         576.718          43.000    24000743.575    96641146.775         441.969          45.000  
S31  37248694.816   195743131.570        -818.424          42.000  
G14  22024644.695   115740231.283        2665.778          43.000    22024666.368    90187295.105        2076.988          41.000  
G07  18349930.573    96429744.208       -1777.199          48.000    18349931.292    75139953.265       -1384.833          46.000  
G30  19021965.150    99961354.160         474.139          50.000    19021967.709    77892322.693         369.383          45.000  
G04  23034895.248   121049201.775       -3215.615          37.000    23034896.604                1      -2505.604          29.000  
E21  25191884.813   132384283.236        2114.470          44.000    25191909.659   101437411.974        1620.419          47.000  
E30  25212023.305   132490220.379       -1958.547          42.000    25212033.198   101518579.415       -1500.648          48.000  
E27  23447172.397   123215978.166         529.536          47.000    23447181.182    94412398.948         405.817          50.000  
> 2024 04 08 18 05 00.4950000  0 24                     
S33  38206315.218   200775462.578        -818.362          45.000  
E07  24416062.863   128307176.170       -2273.864          42.000    24416072.497    98313289.206       -1742.161          47.000  
G20  20226145.662   106289152.841        1522.759          48.000                                                                  
E12  25341526.047   133170604.455        -227.125          38.000    25341533.681   102039854.673        -174.019          43.000  
R13  18977696.504   101340101.477       -3020.859          41.000    18977699.149    78820154.726       -2349.557          44.000  
R04  19366204.494   103705294.266        1406.262          51.000    19366202.981    80659667.523        1093.787          48.000  
R02  21560552.934   115051060.035       -3272.129          48.000    21560564.632    89484152.047       -2545.086          42.000  
R03  18551738.551    99308968.533       -1123.938          50.000    18551738.903    77240364.338        -874.208          52.000  
E33  23879435.120   125487216.521       -2770.455          44.000    23879446.334    96152582.467       -2122.902          48.000  
G09  20041768.163   105320194.505       -2109.707          48.000    20041771.239    82067747.455       -1643.859          44.000  
G11  21081252.319   110782676.734       -1873.477          42.000    21081258.228    86324191.014       -1459.871          46.000  
E26  25548177.102   134256233.493       -3798.344          41.000    25548202.386   102871579.024       -2910.717          45.000  
G06  21274322.020   111797189.176       -3750.198          41.000    21274336.834    87114665.693       -2922.168          41.000  
R14  18356521.685    97850990.648        1685.272          54.000    18356527.286    76106267.331        1310.863          51.000  
R19  21404945.957   114501902.663       -3494.580          40.000    21404956.024    89057021.730       -2718.026          44.000  
E19  23997447.208   126107525.689         575.890          43.000    23997453.201    96627898.507         441.385          44.000  
S31  37253367.841   195767687.134        -818.710          41.000  
G14  22009430.138   115660279.424        2664.410          44.000    22009452.319    90124995.346        2076.282          42.000  
G07  18360125.644    96483315.849       -1794.291          48.000    18360125.445    75181697.418       -1398.266          46.000  
G30  19019302.303    99947363.166         458.495          50.000    19019305.368    77881420.727         357.237          45.000  
G04  23053253.788   121145677.485       -3216.444          38.000    23053257.080                       -2506.051          31.000  
E21  25179815.373   132320860.241        2113.503          44.000    25179840.135   101388815.765        1619.419          47.000  
E30  25223241.532   132549166.440       -1971.390          43.000    25223250.057   101563745.956       -1510.342          48.000  
E27  23444181.180   123200267.005         517.725          46.000    23444191.670    94400360.680         396.632          50.000  
> 2024 04 08 18 05 30.4950000  0 24                     
S33  38210986.249   200800006.890        -818.025          44.000  
E07  24429045.035   128375403.930       -2275.078          40.000    24429055.372    98365567.527       -1743.035          45.000  
G20  20217488.038   106243657.398        1510.118          48.000                                                                  
E12  25342862.430   133177628.216        -241.350          39.000    25342870.577   102045236.581        -185.017          43.000  
R13  18994728.555   101431051.778       -3042.874          41.000    18994731.172    78890893.853       -2366.584          44.000  
R04  19358334.654   103663150.388        1403.168          52.000    19358333.442    80626889.097        1091.358          49.000  
R02  21578968.696   115149327.318       -3279.359          49.000    21578980.562    89560581.716       -2550.409          43.000  
R03  18558066.794    99342844.498       -1134.632          50.000    18558066.528    77266712.290        -882.413          51.000  
E33  23895279.412   125570475.496       -2780.159          44.000    23895290.227    96216378.014       -2130.187          47.000  
G09  20053824.994   105383553.496       -2114.417          47.000    20053827.758    82117118.031       -1647.370          44.000  
G11  21091994.287   110839122.635       -1889.973          45.000    21091999.466    86368174.716       -1472.634          46.000  
E26  25569859.415   134370168.536       -3797.349          43.000    25569882.727   102958880.183       -2909.624          44.000  
G06  21295751.742   111909798.912       -3757.507          42.000    21295766.086    87202412.808       -2927.897          40.000  
R14  18347098.128    97800755.251        1663.485          54.000    18347103.516    76067195.560        1293.790          51.000  
R19  21424582.523   114606942.208       -3508.126          38.000    21424592.794    89138718.644       -2728.689          43.000  
E19  23994160.094   126090252.469         575.281          43.000    23994166.235    96614663.282         440.733          44.000  
S31  37258039.547   195792237.788        -818.424          43.000  
G14  21994223.838   115580364.712        2663.066          45.000    21994243.369    90062724.532        2074.929          41.000  
G07  18370417.258    96537395.935       -1811.260          48.000    18370416.692    75223837.742       -1411.292          46.000  
G30  19016728.381    99933837.522         442.998          50.000    19016731.700    77870881.345         345.356          45.000  
G04  23071618.087   121242179.891       -3217.150          39.000    23071627.176                       -2507.225          30.000  
E21  25167753.469   132257472.193        2112.267          45.000    25167776.923   101340246.325        1618.487          47.000  
E30  25234529.628   132608488.836       -1983.728          40.000    25234538.986   101609200.869       -1520.068          48.000  
E27  23441259.725   123184910.991         505.854          46.000    23441269.166    94388594.532         387.588          50.000  
> 2024 04 08 18 06 00.4950000  0 24                     
S33  38215656.932   200824551.045        -818.177          44.000  
E07  24442035.712   128443673.148       -2276.180          39.000    24442046.324    98417877.635       -1744.188          44.000  
G20  20208903.098   106198544.239        1497.237          47.000                                                                  
E12  25344279.781   133185077.317        -255.489          38.000    25344288.236   102050944.346        -195.705          43.000  
R13  19011884.553   101522664.808       -3064.740          41.000    19011887.353    78962148.416       -2383.809          45.000  
R04  19350482.560   103621104.544        1399.811          52.000    19350481.998    80594186.907        1088.770          48.000  
R02  21597426.386   115247817.104       -3286.813          50.000    21597437.215    89637184.494       -2556.248          44.000  
R03  18564454.945    99377040.118       -1145.211          51.000    18564455.091    77293308.869        -890.682          51.000  
E33  23911178.944   125654026.006       -2789.844          45.000    23911189.218    96280396.989       -2137.748          47.000  
G09  20065911.015   105447060.397       -2119.401          48.000    20065913.462    82166603.897       -1651.482          44.000  
G11  21102830.547   110896068.064       -1906.533          47.000    21102835.212    86412547.643       -1485.656          45.000  
E26  25591532.455   134484066.425       -3795.965          41.000    25591556.868   103046152.854       -2908.486          45.000  
G06  21317222.946   112022629.237       -3764.648          41.000    21317238.370    87290331.835       -2933.223          41.000  
R14  18337797.848    97751180.798        1641.309          54.000    18337804.207    76028637.808        1276.709          51.000  
R19  21444295.192   114712386.087       -3521.639          40.000    21444303.495    89220730.026       -2738.786          41.000  
E19  23990875.931   126073000.901         574.591          43.000    23990883.446    96601444.609         440.343          45.000  
S31  37262711.482   195816787.911        -818.338          44.000  
G14  21979024.733   115500494.614        2661.437          46.000    21979044.195    90000488.486        2073.840          42.000  
G07  18380805.187    96591987.240       -1828.286          48.000    18380804.995    75266376.469       -1424.582          46.000  
G30  19014243.669    99920781.888         427.269          50.000    19014247.564    77860708.210         332.859          46.000  
G04  23089987.686   121338713.850       -3218.500          37.000    23089997.199                       -2508.781          29.000  
E21  25155698.633   132194125.597        2110.788          44.000    25155721.784   101291708.645        1617.349          47.000  
E30  25245889.161   132668191.155       -1996.478          39.000    25245899.848   101654946.858       -1529.688          48.000  
E27  23438406.284   123169915.923         493.856          47.000    23438415.331    94377104.976         378.354          50.000  
> 2024 04 08 18 06 30.4950000  0 24                     
S33  38220328.960   200849101.581        -818.387          44.000  
E07  24455037.516   128511991.184       -2277.870          39.000    24455046.875    98470225.181       -1745.592          44.000  
G20  20200393.058   106153822.465        1484.243          48.000                                                                  
E12  25345780.256   133192959.115        -269.956          39.000    25345788.122   102056983.669        -206.752          43.000  
R13  19029165.596   101614944.154       -3087.241          40.000    19029168.233    79033921.232       -2400.940          44.000  
R04  19342650.651   103579165.542        1396.192          52.000    19342649.156    80561567.803        1085.919          47.000  
R02  21615925.421   115346536.694       -3294.379          49.000    21615938.291    89713966.055       -2562.325          46.000  
R03  18570904.206    99411564.110       -1156.221          51.000    18570904.365    77320160.840        -899.303          51.000  
E33  23927134.587   125737873.085       -2799.661          45.000    23927144.837    96344643.186       -2145.269          47.000  
G09  20078025.342   105510722.389       -2124.558          48.000    20078027.328    82216210.569       -1655.267          43.000  
G11  21113763.477   110953518.079       -1923.337          47.000    21113768.080    86457313.740       -1498.752          46.000  
E26  25613200.561   134597932.192       -3794.919          41.000    25613224.703   103133400.963       -2907.800          46.000  
G06  21338737.549   112135683.838       -3772.026          41.000    21338753.134    87378425.580       -2939.499          40.000  
R14  18328623.297    97702277.280        1618.899          53.000    18328629.822    75990601.911        1259.209          51.000  
R19  21464083.246   114818237.431       -3535.097          39.000    21464092.732    89303058.372       -2749.838          43.000  
E19  23987597.992   126055777.571         573.616          42.000    23987605.535    96588247.611         439.576          44.000  
S31  37267384.684   195841344.759        -818.772          43.000  
G14  21963835.830   115420679.054        2659.662          46.000    21963855.734    89938295.000        2072.436          43.000  
G07  18391291.934    96647095.029       -1845.563          48.000    18391291.389    75309317.641       -1438.096          46.000  
G30  19011850.552    99908203.321         411.468          50.000    19011854.294    77850906.816         320.630          46.000  
G04  23108362.432   121435286.378       -3219.802          34.000    23108374.928                       -2508.162          29.000  
E21  25143653.079   132130829.355        2109.096          44.000    25143676.450   101243209.564        1616.134          47.000  
E30  25257324.616   132728279.539       -2009.409          39.000    25257333.890   101700988.662       -1539.551          47.000  
E27  23435623.051   123155290.133         481.435          47.000    23435632.258    94365898.360         368.891          50.000  
> 2024 04 08 18 07 00.4950000  0 25                     
S33  38225002.484   200873661.924        -818.701          43.000  
E07  24468047.024   128580361.755       -2279.897          39.000    24468057.979    98522612.951       -1746.843          45.000  
G20  20191958.472   106109498.108        1470.946          48.000                                                                  
E12  25347361.481   133201277.231        -284.026          37.000    25347370.693   102063357.329        -217.971          43.000  
R13  19046571.214   101707890.592       -3109.033          41.000    19046574.108    79106212.896       -2418.256          44.000  
R04  19334839.085   103537338.912        1392.456          51.000    19334838.512    80529036.107        1082.904          48.000  
R02  21634469.055   115445489.494       -3302.181          49.000    21634483.187    89790928.996       -2568.336          48.000  
R03  18577416.343    99446421.077       -1167.424          52.000    18577415.963    77347271.800        -908.036          51.000  
E33  23943147.386   125822018.215       -2809.604          45.000    23943157.766    96409117.775       -2152.856          48.000  
G09  20090169.996   105574543.074       -2129.827          48.000    20090171.630    82265940.961       -1659.649          44.000  
G11  21124791.885   111011474.115       -1940.241          47.000    21124797.322    86502474.113       -1511.744          46.000  
E26  25634861.550   134711767.207       -3793.930          41.000    25634886.308   103220625.484       -2906.934          46.000  
G06  21360294.782   112248962.602       -3779.803          41.000    21360310.549    87466693.992       -2945.194          41.000  
R14  18319575.306    97654050.740        1596.353          53.000    18319582.492    75953092.551        1241.574          51.000  
R15  21955082.823   117321323.7841       3647.960          41.000    21955104.335    91250042.8253       2837.525          40.000  
R19  21483946.951   114924494.626       -3548.279          41.000    21483956.303    89385702.380       -2759.966          43.000  
E19  23984327.101   126038585.809         572.773          43.000    23984333.734    96575074.791         438.717          44.000  
S31  37272059.668   195865911.853        -818.808          43.000  
G14  21948658.618   115340924.380        2657.475          46.000    21948678.667    89876149.033        2070.701          42.000  
G07  18401876.849    96702720.443       -1862.700          48.000    18401875.792    75352662.148       -1451.450          45.000  
G30  19009548.073    99896105.213         395.280          49.000    19009551.282    77841479.798         308.142          46.000  
G04  23126746.393   121531901.082       -3221.424          32.000    23126761.045    94700178.3451      -2509.944          32.000  
E21  25131618.024   132067588.816        2107.226          44.000    25131641.726   101194753.174        1614.508          48.000  
E30  25268831.324   132788756.454       -2022.118          37.000    25268842.434   101747328.213       -1549.471          48.000  
E27  23432911.423   123141038.260         469.042          47.000    23432920.121    94354978.241         359.365          50.000  
> 2024 04 08 18 07 30.4950000  0 25                     
S33  38229677.649   200898231.373        -819.053          44.000  
E07  24481065.976   128648784.222       -2281.456          38.000    24481078.616    98575040.526       -1748.360          45.000  
G20  20183599.173   106065572.470        1457.584          48.000                                                                  
E12  25349029.418   133210030.971        -299.027          39.000    25349036.251   102070064.739        -229.283          43.000  
R13  19064101.244   101801499.193       -3131.140          40.000    19064103.473    79179019.519       -2435.310          44.000  
R04  19327048.657   103495624.982        1388.605          51.000    19327048.557    80496592.065        1079.999          48.000  
R02  21653058.042   115544674.811       -3309.949          51.000    21653071.252    89868072.749       -2574.378          48.000  
R03  18583989.638    99481611.635       -1178.490          52.000    18583989.792    77374642.212        -916.576          51.000  
E33  23959216.294   125906458.468       -2819.396          46.000    23959226.782    96473818.455       -2160.373          49.000  
G09  20102344.865   105638521.720       -2135.200          49.000    20102347.141    82315794.414       -1664.001          44.000  
G11  21135916.972   111069933.245       -1956.816          46.000    21135921.167    86548026.543       -1524.971          46.000  
E26  25656515.672   134825568.539       -3792.792          40.000    25656541.716   103307824.199       -2906.191          47.000  
G06  21381893.515   112362461.217       -3786.781          40.000    21381908.173    87555133.707       -2950.656          41.000  
R14  18310655.799    97606503.411        1573.550          53.000    18310661.827    75916111.458        1223.956          51.000  
R15  21934610.596   117211933.835        3644.787          45.000    21934630.295    91164961.400        2834.683          43.000  
R19  21503885.792   115031152.647       -3561.512          40.000    21503896.326    89468658.120       -2770.176          44.000  
E19  23981061.180   126021424.477         571.518          43.000    23981068.061    96561925.298         438.016          44.000  
S31  37276736.181   195890486.960        -819.262          42.000  
G14  21933492.923   115261232.486        2655.420          44.000    21933512.704    89814051.956        2068.906          42.000  
G07  18412559.655    96758860.570       -1879.719          47.000    18412558.797    75396407.715       -1464.764          45.000  
G30  19007336.846    99884486.610         379.265          49.000    19007339.643    77832426.397         295.666          45.000  
G04  23145140.174   121628557.164       -3222.800          34.000    23145153.942    94775494.392       -2511.425          34.000  
E21  25119593.521   132004404.922        2105.202          44.000    25119617.559   101146340.176        1613.142          47.000  
E30  25280414.662   132849620.057       -2034.891          37.000    25280423.752   101793964.041       -1559.453          46.000  
E27  23430269.718   123127160.581         456.418          46.000    23430279.036    94344344.838         349.757          50.000  
> 2024 04 08 18 08 00.4950000  0 25                     
S33  38234355.969   200922813.567        -819.498          44.000  
E07  24494098.970   128717262.781       -2283.637          40.000    24494110.098    98627511.025       -1749.699          46.000  
G20  20175317.598   106022051.454        1444.118          47.000                                                                  
E12  25350777.903   133219224.321        -313.648          38.000    25350785.261   102077109.040        -240.603          42.000  
R13  19081755.625   101895770.746       -3153.113          41.000    19081757.505    79252341.833       -2452.603          43.000  
R04  19319280.944   103454029.512        1384.741          51.000    19319280.514    80464240.144        1076.892          48.000  
R02  21671690.339   115644096.443       -3317.867          51.000    21671702.607    89945400.328       -2580.573          47.000  
R03  18590626.925    99517141.331       -1189.815          52.000    18590626.553    77402276.407        -925.399          50.000  
E33  23975340.570   125991195.753       -2829.418          45.000    23975351.960    96538746.735       -2168.039          49.000  
G09  20114549.804   105702662.352       -2140.490          48.000    20114552.588    82365774.082       -1667.945          44.000  
G11  21147136.755   111128897.267       -1973.585          46.000    21147141.697    86593972.384       -1537.929          45.000  
E26  25678165.861   134939337.965       -3791.513          40.000    25678190.490   103394998.482       -2905.342          46.000  
G06  21403533.968   112476180.201       -3794.202          41.000    21403550.208    87643745.123       -2956.371          40.000  
R14  18301863.854    97559641.614        1550.785          53.000    18301869.650    75879663.566        1206.099          50.000  
R15  21914159.089   117102645.198        3641.405          47.000    21914178.239    91079958.715        2832.121          45.000  
R19  21523899.363   115138210.799       -3575.052          41.000    21523909.824    89551925.082       -2780.571          44.000  
E19  23977802.436   126004297.216         570.519          43.000    23977808.988    96548801.940         437.058          45.000  
S31  37281415.418   195915075.775        -819.729          42.000  
G14  21918341.197   115181610.139        2653.106          45.000    21918360.693    89752009.086        2067.396          43.000  
G07  18423341.450    96815517.224       -1896.945          48.000    18423340.935    75440555.802       -1478.160          46.000  
G30  19005217.589    99873351.348         363.231          49.000    19005221.025    77823749.667         283.068          46.000  
G04  23163546.467   121725258.633       -3224.301          37.000    23163556.756    94850845.871       -2512.206          37.000  
E21  25107581.513   131941283.423        2103.181          43.000    25107605.510   101097975.015        1611.501          48.000  
E30  25292071.407   132910873.367       -2048.201          37.000    25292079.840   101840898.432       -1569.366          46.000  
E27  23427701.861   123113662.162         443.685          47.000    23427709.953    94334002.029         339.989          49.000  
> 2024 04 08 18 08 30.4950000  0 25                     
S33  38239033.336   200947394.462        -818.889          44.000  
E07  24507138.761   128785783.935       -2284.400          41.000    24507149.052    98680014.170       -1750.288          46.000  
G20  20167110.959   105978923.949        1431.339          48.000                                                                  
E12  25352609.239   133228843.686        -327.105          39.000    25352616.126   102084479.750        -250.950          43.000  
R13  19099530.540   101990687.786       -3174.225          41.000    19099532.885    79326166.186       -2469.027          44.000  
R04  19311533.481   103412540.299        1381.500          51.000    19311532.386    80431970.854        1074.506          48.000  
R02  21690363.879   115743740.590       -3324.822          50.000    21690375.328    90022900.965       -2585.943          45.000  
R03  18597326.434    99552997.066       -1200.249          53.000    18597324.639    77430164.185        -933.576          50.000  
E33  23991519.970   126076214.303       -2838.200          46.000    23991530.770    96603890.517       -2174.823          50.000  
G09  20126783.127   105766951.426       -2145.147          48.000    20126786.572    82415869.436       -1671.606          44.000  
G11  21158450.831   111188350.475       -1989.492          46.000    21158456.439    86640299.378       -1550.325          46.000  
E26  25699806.137   135053059.815       -3789.588          40.000    25699831.431   103482136.303       -2903.698          47.000  
G06  21425212.344   112590102.311       -3800.599          39.000    21425228.784    87732514.827       -2961.347          38.000  
R14  18293199.057    97513454.511        1528.556          53.000    18293204.189    75843740.413        1188.871          49.000  
R15  21893724.957   116993447.470        3638.776          46.000    21893743.882    90995026.784        2830.226          46.000  
R19  21543984.937   115245650.178       -3587.153          41.000    21543995.513    89635488.520       -2790.007          45.000  
E19  23974546.615   125987190.110         570.105          42.000    23974553.571    96535694.017         436.994          45.000  
S31  37286094.276   195939663.271        -819.301          43.000  
G14  21903199.966   115102046.486        2651.502          44.000    21903220.065    89690012.009        2065.935          43.000  
G07  18434218.500    96872674.658       -1913.353          49.000    18434217.288    75485094.084       -1490.694          46.000  
G30  19003187.734    99862685.568         347.973          49.000    19003191.796    77815438.782         271.209          46.000  
G04  23181954.374   121821991.883       -3224.713          35.000    23181965.286    94926222.164       -2512.727          37.000  
E21  25095579.797   131878212.588        2101.721          44.000    25095602.990   101049648.618        1610.503          48.000  
E30  25303796.478   132972501.465       -2059.856          37.000    25303807.437   101888120.095       -1578.599          46.000  
E27  23425203.563   123100530.462         431.853          47.000    23425211.537    94323940.232         331.033          50.000  
> 2024 04 08 18 09 00.4950000  0 25                     
S33  38243711.487   200971977.117        -819.672          44.000  
E07  24520185.899   128854350.376       -2286.519          40.000    24520196.977    98732551.975       -1752.042          46.000  
G20  20158979.457   105936194.563        1417.568          48.000                                                                  
E12  25354521.137   133238891.736        -342.004          39.000    25354527.953   102092178.917        -262.161          43.000  
R13  19117426.221   102086249.106       -3196.260          41.000    19117428.816    79400491.613       -2485.846          44.000  
R04  19303806.610   103371161.609        1377.295          51.000    19303804.737    80399787.565        1071.246          47.000  
R02  21709079.182   115843609.564       -3332.839          51.000    21709091.152    90100576.436       -2592.281          45.000  
R03  18604085.346    99589182.972       -1211.807          52.000    18604084.057    77458308.753        -942.607          50.000  
E33  24007752.316   126161514.385       -2848.176          46.000    24007762.897    96669250.015       -2182.187          50.000  
G09  20139046.484   105831391.356       -2150.477          48.000    20139049.835    82466082.304       -1675.905          45.000  
G11  21169857.960   111248293.018       -2006.240          47.000    21169863.079    86687007.697       -1563.352          46.000  
E26  25721437.652   135166734.280       -3788.382          40.000    25721462.477   103569237.809       -2902.758          47.000  
G06  21446930.291   112704226.538       -3807.511          41.000    21446946.767    87821442.000       -2966.869          39.000  
R14  18284661.937    97467946.952        1505.403          53.000    18284666.885    75808345.828        1170.873          50.000  
R15  21873307.479   116884346.392        3634.934          45.000    21873327.147    90910170.034        2827.171          46.000  
R19  21564140.492   115353468.600       -3600.432          41.000    21564150.761    89719346.778       -2800.360          44.000  
E19  23971296.115   125970105.259         568.946          43.000    23971302.334    96522603.184         435.935          46.000  
S31  37290772.824   195964251.904        -819.667          42.000  
G14  21888071.142   115022546.698        2648.667          44.000    21888091.055    89628064.723        2063.871          43.000  
G07  18445190.692    96930333.001       -1930.413          49.000    18445189.479    75530022.708       -1504.202          46.000  
G30  19001248.055    99852491.571         331.846          49.000    19001251.835    77807495.475         258.684          45.000  
G04  23200369.375   121918759.324       -3225.866          35.000    23200381.030    95001625.126       -2513.765          38.000  
E21  25083586.939   131815196.433        2099.415          43.000    25083610.763   101001364.154        1608.791          48.000  
E30  25315597.087   133034505.888       -2073.041          38.000    25315606.049   101935630.073       -1588.492          45.000  
E27  23422773.240   123087768.908         419.193          46.000    23422782.603    94314162.066         321.123          49.000  
> 2024 04 08 18 09 30.4950000  0 25                     
S33  38248390.706   200996564.750        -819.491          45.000  
E07  24533243.159   128922966.846       -2288.128          41.000    24533253.827    98785128.164       -1753.076          45.000  
G20  20150925.277   105893869.895        1404.163          48.000                                                                  
E12  25356515.220   133249372.919        -356.503          38.000    25356522.730   102100209.992        -273.186          43.000  
R13  19135442.618   102182455.592       -3217.383          41.000    19135444.503    79475318.865       -2502.473          43.000  
R04  19296101.435   103329899.908        1373.676          52.000    19296100.318    80367695.270        1068.500          49.000  
R02  21727837.725   115943708.107       -3340.246          49.000    21727850.366    90178430.464       -2598.085          45.000  
R03  18610908.283    99625705.570       -1222.945          51.000    18610907.496    77486715.216        -951.174          51.000  
E33  24024038.851   126247098.518       -2857.430          47.000    24024049.084    96734827.176       -2189.460          49.000  
G09  20151338.022   105895986.912       -2155.638          48.000    20151342.193    82516416.441       -1679.560          45.000  
G11  21181358.071   111308727.392       -2022.583          47.000    21181363.828    86734099.262       -1575.960          46.000  
E26  25743060.850   135280363.959       -3786.667          41.000    25743085.778   103656304.992       -2901.523          48.000  
G06  21468687.451   112818553.937       -3814.032          41.000    21468704.092    87910527.435       -2971.762          39.000  
R14  18276253.238    97423126.349        1482.660          53.000    18276258.868    75773485.492        1153.250          50.000  
R15  21852910.015   116775350.457        3631.560          45.000    21852929.810    90825395.019        2824.609          46.000  
R19  21584366.878   115461666.368       -3612.604          41.000    21584377.604    89803500.090       -2810.002          44.000  
E19  23968049.821   125953046.896         568.329          43.000    23968056.002    96509532.645         435.585          46.000  
S31  37295453.467   195988845.993        -819.727          41.000  
G14  21872956.056   114943118.219        2646.595          45.000    21872975.358    89566172.983        2062.100          43.000  
G07  18456257.963    96988494.777       -1946.988          48.000    18456257.834    75575343.592       -1517.186          46.000  
G30  18999399.047    99842773.713         316.112          49.000    18999402.388    77799923.213         246.221          45.000  
G04  23218789.921   122015565.503       -3227.652          35.000    23218802.649    95077058.295       -2514.469          38.000  
E21  25071606.640   131752241.518        2097.464          43.000    25071630.377   100953126.601        1607.279          48.000  
E30  25327467.860   133096890.083       -2085.771          38.000    25327478.301   101983430.973       -1598.050          47.000  
E27  23420415.626   123075383.253         406.781          46.000    23420425.395    94304671.896         311.612          49.000  
> 2024 04 08 18 10 00.4950000  0 25                     
S33  38253071.360   201021161.458        -820.164          44.000  
E07  24546310.399   128991637.617       -2290.081          40.000    24546321.083    98837745.916       -1754.615          45.000  
G20  20142949.174   105851956.353        1390.151          48.000                                                                  
E12  25358592.182   133260291.347        -371.201          38.000    25358600.844   102108576.119        -284.486          44.000  
R13  19153579.762   102279308.201       -3239.100          41.000    19153581.843    79550648.644       -2519.448          44.000  
R04  19288418.850   103288760.668        1369.171          51.000    19288418.086    80335698.210        1064.899          49.000  
R02  21746639.234   116044040.479       -3348.480          48.000    21746652.972    90256466.347       -2604.255          45.000  
R03  18617794.023    99662569.654       -1234.661          52.000    18617793.525    77515387.250        -960.201          50.000  
E33  24040379.442   126332968.691       -2866.962          46.000    24040390.237    96800623.492       -2196.820          50.000  
G09  20163661.636   105960742.228       -2161.271          49.000    20163664.782    82566875.066       -1684.152          45.000  
G11  21192952.102   111369655.367       -2039.117          46.000    21192958.206    86781575.446       -1588.850          46.000  
E26  25764675.942   135393950.739       -3785.234          41.000    25764700.456   103743339.269       -2900.440          48.000  
G06  21490482.890   112933085.029       -3821.184          41.000    21490497.570    87999771.627       -2977.207          39.000  
R14  18267975.835    97378999.262        1459.125          54.000    18267981.496    75739164.609        1134.984          51.000  
R15  21832533.348   116666466.866        3627.475          44.000    21832554.226    90740707.397        2821.416          45.000  
R19  21604664.848   115570243.014       -3625.521          42.000    21604675.376    89887948.009       -2820.184          44.000  
E19  23964809.581   125936018.914         566.946          43.000    23964815.861    96496485.392         434.472          46.000  
S31  37300136.021   196013450.029        -820.281          42.000  
G14  21857855.409   114863767.841        2643.462          43.000    21857875.234    89504342.167        2059.840          44.000  
G07  18467421.427    97047162.013       -1964.200          48.000    18467422.261    75621058.345       -1530.557          47.000  
G30  18997641.417    99833535.798         299.857          50.000    18997644.701    77792724.909         233.659          45.000  
G04  23237220.589   122112414.653       -3229.525          38.000    23237231.153    95152524.885       -2516.168          38.000  
E21  25059638.475   131689353.590        2095.221          43.000    25059662.684   100904940.375        1605.205          48.000  
E30  25339413.076   133159656.878       -2098.499          41.000    25339422.295   102031525.094       -1607.966          47.000  
E27  23418131.968   123063378.598         393.709          46.000    23418141.304    94295473.634         301.757          50.000  
> 2024 04 08 18 10 30.4950000  0 25                     
S33  38257755.121   201045774.372        -820.521          44.000  
E07  24559391.990   129060368.913       -2291.938          42.000    24559400.698    98890410.109       -1756.233          46.000  
G20  20135053.556   105810462.397        1376.315          48.000                                                                  
E12  25360753.679   133271653.135        -386.322          37.000    25360762.993   102117281.939        -295.756          43.000  
R13  19171838.712   102376809.332       -3260.792          42.000    19171841.540    79626482.831       -2536.220          44.000  
R04  19280761.285   103247751.994        1364.935          51.000    19280759.689    80303802.695        1061.536          49.000  
R02  21765486.488   116144612.511       -3356.274          46.000    21765500.133    90334688.623       -2610.481          43.000  
R03  18624746.417    99699782.856       -1246.210          52.000    18624745.015    77544330.826        -969.301          50.000  
E33  24056775.992   126419128.751       -2876.784          46.000    24056786.276    96866641.925       -2204.211          49.000  
G09  20176015.372   106025663.391       -2166.680          48.000    20176018.716    82617462.953       -1688.478          45.000  
G11  21204641.346   111431080.833       -2055.673          46.000    21204646.925    86829439.301       -1601.995          45.000  
E26  25786283.811   135507498.558       -3784.265          42.000    25786307.464   103830343.727       -2899.645          48.000  
G06  21512316.533   113047822.377       -3827.798          37.000    21512330.486    88089176.491       -2982.588          36.000  
R14  18259830.198    97335574.651        1435.839          54.000    18259834.656    75705390.073        1116.738          51.000  
R15  21812180.178   116557705.197        3623.469          45.000    21812200.950    90656114.561        2818.270          45.000  
R19  21625033.887   115679200.028       -3638.029          41.000    21625045.203    89972691.798       -2829.633          44.000  
E19  23961575.359   125919026.938         566.013          43.000    23961582.152    96483465.724         433.591          46.000  
S31  37304820.651   196038069.148        -820.895          43.000  
G14  21842771.089   114784504.524        2640.618          43.000    21842791.305    89442579.189        2057.561          44.000  
G07  18478682.586    97106338.271       -1980.901          48.000    18478683.080    75667169.737       -1543.542          46.000  
G30  18995975.888    99824783.684         283.771          50.000    18995979.109    77785905.155         221.001          45.000  
G04  23255659.079   122209312.854       -3230.636          36.000    23255669.786    95228029.711       -2516.981          37.000  
E21  25047685.566   131626540.531        2092.534          43.000    25047709.386   100856811.527        1603.348          49.000  
E30  25351431.259   133222811.335       -2111.453          40.000    25351440.250   102079916.262       -1617.874          46.000  
E27  23415921.045   123051762.021         380.798          46.000    23415930.642    94286572.727         291.751          50.000  
> 2024 04 08 18 11 00.4950000  0 25                     
S33  38262440.412   201070396.895        -820.743          43.000  
E07  24572478.960   129129155.485       -2293.505          40.000    24572490.226    98943116.613       -1757.399          46.000  
G20  20127236.565   105769384.325        1362.504          47.000                                                                  
E12  25362999.623   133283452.698        -400.483          38.000    25363008.258   102126323.174        -306.744          43.000  
R13  19190218.177   102474949.816       -3281.665          43.000    19190219.477    79702814.328       -2552.588          44.000  
R04  19273127.401   103206869.896        1360.834          52.000    19273125.047    80272005.632        1058.307          49.000  
R02  21784377.658   116245418.420       -3363.982          47.000    21784391.258    90413092.815       -2616.227          43.000  
R03  18631762.251    99737340.701       -1257.504          52.000    18631761.412    77573542.466        -978.035          50.000  
E33  24073225.461   126505571.068       -2885.754          46.000    24073236.011    96932876.647       -2211.216          49.000  
G09  20188399.559   106090744.965       -2171.855          48.000    20188403.052    82668175.851       -1692.350          45.000  
G11  21216422.881   111492996.018       -2071.916          45.000    21216429.254    86877684.705       -1614.277          46.000  
E26  25807881.292   135620999.779       -3782.232          41.000    25807905.435   103917312.476       -2898.137          48.000  
G06  21534189.191   113162756.909       -3834.004          37.000    21534203.045    88178735.048       -2987.530          38.000  
R14  18251814.774    97292848.983        1412.736          54.000    18251820.024    75672159.137        1098.750          51.000  
R15  21791849.118   116449063.415        3619.610          45.000    21791870.932    90571614.982        2815.231          46.000  
R19  21645471.696   115788526.808       -3650.072          41.000    21645483.679    90057723.209       -2839.079          43.000  
E19  23958347.938   125902065.300         565.190          43.000    23958354.363    96470469.299         433.035          46.000  
S31  37309507.382   196062698.076        -820.908          43.000  
G14  21827703.579   114705325.485        2638.040          43.000    21827723.211    89380881.895        2055.588          44.000  
G07  18490039.593    97166015.752       -1997.442          48.000    18490038.651    75713671.688       -1556.424          46.000  
G30  18994401.502    99816511.555         267.925          50.000    18994405.312    77779459.420         208.640          46.000  
G04  23274105.009   122306254.562       -3231.842          33.000    23274117.387    95303568.415       -2518.255          39.000  
E21  25035744.879   131563798.590        2090.378          43.000    25035769.146   100808737.162        1601.687          49.000  
E30  25363520.925   133286346.749       -2123.722          40.000    25363531.160   102128599.328       -1627.395          47.000  
E27  23413784.560   123040528.974         368.114          47.000    23413792.766    94277965.680         282.202          50.000  
> 2024 04 08 18 11 30.4950000  0 25                     
S33  38267126.667   201095020.942        -820.884          44.000  
E07  24585579.794   129197990.261       -2295.194          42.000    24585589.529    98995860.077       -1758.718          47.000  
G20  20119498.204   105728717.373        1348.729          48.000                                                                  
E12  25365327.456   133295682.888        -414.759          39.000    25365335.585   102135694.408        -317.647          43.000  
R13  19208713.762   102573718.380       -3302.618          43.000    19208716.145    79779634.317       -2568.780          45.000  
R04  19265515.267   103166108.874        1356.696          52.000    19265513.304    80240302.750        1055.255          49.000  
R02  21803311.218   116346451.016       -3371.381          47.000    21803326.059    90491673.376       -2622.174          44.000  
R03  18638841.812    99775237.270       -1268.824          52.000    18638840.504    77603017.545        -986.879          49.000  
E33  24089726.623   126592286.249       -2895.024          45.000    24089737.615    96999320.458       -2218.219          49.000  
G09  20200814.270   106155979.908       -2177.001          48.000    20200816.982    82719008.202       -1696.318          45.000  
G11  21228297.365   111555391.386       -2087.848          47.000    21228302.773    86926304.307       -1626.948          45.000  
E26  25829467.920   135734445.108       -3780.502          41.000    25829493.196   104004238.398       -2896.811          47.000  
G06  21556096.437   113277877.985       -3840.419          39.000    21556111.421    88268438.893       -2992.573          39.000  
R14  18243928.124    97250817.669        1389.484          52.000    18243934.116    75639468.271        1080.709          50.000  
R15  21771540.880   116340537.537        3615.625          46.000    21771562.416    90487205.541        2812.221          47.000  
R19  21665977.147   115898211.870       -3661.888          39.000    21665989.584    90143033.241       -2848.343          44.000  
E19  23955124.048   125885126.483         564.271          43.000    23955130.787    96457490.356         432.400          46.000  
S31  37314194.194   196087329.254        -821.099          43.000  
G14  21812650.456   114626226.310        2635.369          42.000    21812670.193    89319246.856        2053.408          43.000  
G07  18501489.117    97226184.923       -2013.773          49.000    18501487.958    75760556.759       -1569.145          46.000  
G30  18992917.307    99808712.004         252.123          50.000    18992919.742    77773381.908         196.453          45.000  
G04  23292560.139   122403232.381       -3233.109          34.000    23292572.850    95379135.389       -2519.214          40.000  
E21  25023818.561   131501122.394        2087.941          42.000    25023841.472   100760713.163        1599.971          48.000  
E30  25375682.650   133350254.779       -2136.486          41.000    25375691.784   102177567.912       -1636.968          46.000  
E27  23411718.623   123029673.337         355.591          47.000    23411727.146    94269647.821         272.471          50.000  
> 2024 04 08 18 12 00.4950000  0 25                     
S33  38271812.928   201119646.793        -820.761          43.000  
E07  24598684.389   129266872.566       -2296.641          39.000    24598697.416    99048639.944       -1759.755          46.000  
G20  20111838.008   105688462.627        1335.059          48.000                                                                  
E12  25367736.965   133308342.773        -429.174          39.000    25367744.005   102145394.880        -328.581          42.000  
R13  19227326.661   102673110.622       -3323.474          43.000    19227328.793    79856939.383       -2584.863          44.000  
R04  19257925.177   103125469.819        1352.759          52.000    19257924.527    80208694.733        1052.075          49.000  
R02  21822288.861   116447709.229       -3378.984          48.000    21822302.250    90570429.392       -2628.061          45.000  
R03  18645985.682    99813472.755       -1280.045          52.000    18645983.357    77632756.245        -995.621          49.000  
E33  24106279.058   126679271.312       -2903.777          45.000    24106290.213    97065971.049       -2224.885          48.000  
G09  20213256.775   106221367.347       -2182.108          48.000    20213259.430    82769959.403       -1700.421          45.000  
G11  21240261.931   111618263.768       -2103.508          48.000    21240267.368    86975295.606       -1639.211          45.000  
E26  25851044.455   135847831.582       -3778.353          41.000    25851070.006   104091119.218       -2895.153          47.000  
G06  21578039.969   113393181.121       -3846.177          40.000    21578054.273    88358284.589       -2997.016          41.000  
R14  18236173.919    97209482.047        1366.293          53.000    18236179.432    75607318.495        1062.695          50.000  
R15  21751254.770   116232130.198        3611.673          46.000    21751275.690    90402888.298        2809.117          47.000  
R19  21686547.969   116008249.405       -3673.701          38.000    21686560.401    90228617.444       -2857.035          41.000  
E19  23951904.481   125868209.384         563.625          42.000    23951911.385    96444528.053         431.843          46.000  
S31  37318882.023   196111961.832        -820.928          43.000  
G14  21797613.782   114547208.987        2632.583          43.000    21797632.671    89257675.621        2051.340          43.000  
G07  18513031.620    97286842.781       -2029.937          49.000    18513031.016    75807822.635       -1581.703          46.000  
G30  18991522.984    99801383.815         236.589          50.000    18991524.439    77767671.726         184.331          44.000  
G04  23311024.594   122500245.901       -3234.391          37.000    23311034.137    95454730.011       -2520.065          40.000  
E21  25011903.879   131438512.811        2085.961          43.000    25011926.265   100712740.231        1598.395          47.000  
E30  25387913.089   133414533.426       -2148.638          40.000    25387923.192   102226820.451       -1646.372          46.000  
E27  23409724.054   123019195.231         343.032          46.000    23409732.819    94261619.247         262.885          50.000  
> 2024 04 08 18 12 30.4950000  0 25                     
S33  38276497.111   201144263.370        -820.566          44.000  
E07  24611801.941   129335792.694       -2297.938          40.000    24611812.445    99101448.767       -1760.671          47.000  
G20  20104254.274   105648612.385        1321.736          48.000                                                                  
E12  25370225.918   133321422.198        -442.729          39.000    25370232.901   102155416.805        -339.309          42.000  
R13  19246054.162   102773112.529       -3343.311          44.000    19246055.649    79934718.653       -2600.458          43.000  
R04  19250357.694   103084944.057        1349.164          53.000    19250356.796    80177174.803        1049.384          49.000  
R02  21841304.592   116549182.605       -3385.964          49.000    21841318.434    90649352.714       -2633.517          44.000  
R03  18653189.575    99852038.396       -1290.920          52.000    18653187.893    77662751.701       -1003.974          49.000  
E33  24122881.056   126766514.048       -2912.266          45.000    24122892.396    97132819.071       -2231.359          49.000  
G09  20225726.058   106286897.343       -2186.712          46.000    20225728.470    82821021.694       -1703.854          44.000  
G11  21252315.057   111681600.981       -2118.841          48.000    21252319.723    87024649.107       -1650.968          45.000  
E26  25872609.454   135961147.018       -3775.797          43.000    25872632.568   104177945.611       -2893.239          46.000  
G06  21600013.532   113508652.758       -3851.728          40.000    21600028.316    88448261.604       -3001.296          40.000  
R14  18228548.814    97168834.474        1343.505          53.000    18228554.698    75575703.849        1044.903          51.000  
R15  21730989.967   116123834.455        3608.161          47.000    21731009.940    90318657.864        2806.327          47.000  
R19  21707182.503   116118623.993       -3684.857          37.000    21707193.854    90314463.780       -2865.389          41.000  
E19  23948686.718   125851303.356         563.409          42.000    23948693.897    96431574.217         431.850          46.000  
S31  37323567.855   196136585.448        -820.662          42.000  
G14  21782590.776   114468266.247        2630.265          42.000    21782609.325    89196162.446        2049.442          43.000  
G07  18524665.168    97347977.155       -2045.546          48.000    18524664.569    75855459.811       -1593.966          46.000  
G30  18990215.681    99794516.634         221.423          50.000    18990218.190    77762320.737         172.386          44.000  
G04  23329491.056   122597284.858       -3235.024          38.000    23329500.851    95530344.463       -2520.356          40.000  
E21  25000001.642   131375961.634        2084.239          44.000    25000022.213   100664812.010        1596.909          46.000  
E30  25400213.825   133479171.402       -2160.485          41.000    25400223.410   102276348.356       -1655.304          47.000  
E27  23407800.157   123009085.613         330.965          46.000    23407808.693    94253873.019         253.630          50.000  
> 2024 04 08 18 13 00.4950000  0 26                     
S33  38281180.746   201168874.179        -820.467          44.000  
E07  24624925.965   129404753.640       -2299.627          40.000    24624935.826    99154288.836       -1762.048          47.000  
G20  20096749.201   105609171.762        1308.011          48.000                                                                  
E12  25372795.399   133334923.993        -457.431          40.000    25372802.416   102165762.338        -350.229          42.000  
R13  19264895.503   102873723.294       -3364.160          44.000    19264897.023    80012971.451       -2616.418          44.000  
R04  19242811.359   103044536.207        1344.818          51.000    19242809.759    80145746.589        1045.929          49.000  
R02  21860362.306   116650873.915       -3393.538          49.000    21860375.499    90728445.574       -2639.494          43.000  
R03  18660456.433    99890938.295       -1302.370          53.000    18660455.024    77693007.147       -1012.935          49.000  
E33  24139532.442   126854015.099       -2920.964          46.000    24139543.571    97199865.017       -2238.236          49.000  
G09  20238223.660   106352572.920       -2191.738          46.000    20238226.309    82872197.429       -1707.793          43.000  
G05  23150593.061                3       2578.558          25.000                                                                  
G11  21264456.541   111745403.395       -2134.677          47.000    21264460.777    87074365.086       -1663.112          45.000  
E26  25894158.628   136074392.204       -3773.860          42.000    25894182.368   104264718.140       -2891.575          46.000  
G06  21622019.520   113624292.333       -3857.744          38.000    21622034.880    88538369.433       -3005.912          40.000  
R14  18221052.165    97128880.259        1320.101          52.000    18221058.621    75544628.467        1026.735          50.000  
R15  21710746.622   116015657.200        3603.719          47.000    21710765.889    90234519.546        2802.934          47.000  
R19  21727879.003   116229334.286       -3696.159          37.000    21727891.079    90400571.222       -2874.663          41.000  
E19  23945472.171   125834411.198         562.952          42.000    23945479.218    96418631.025         431.242          46.000  
S31  37328252.162   196161202.726        -820.778          40.000  
G14  21767583.676   114389403.792        2627.349          42.000    21767601.802    89134711.827        2047.227          43.000  
G07  18536388.892    97409588.727       -2061.814          47.000    18536388.635    75903468.830       -1606.537          47.000  
G30  18988997.178    99788113.020         205.577          50.000    18989000.326    77757330.957         160.278          45.000  
G04  23347962.166   122694352.238       -3236.505          37.000    23347972.601    95605981.088       -2521.749          39.000  
E21  24988109.660   131313473.514        2081.795          44.000    24988130.901   100616932.102        1595.033          47.000  
E30  25412584.951   133544170.526       -2172.948          41.000    25412591.658   102326152.947       -1664.732          46.000  
E27  23405946.823   122999348.255         318.215          46.000    23405955.588    94246412.025         243.884          50.000  
> 2024 04 08 18 13 30.4950000  0 26                     
S33  38285865.274   201193492.655        -820.656          44.000  
E07  24638057.712   129473769.494       -2301.386          39.000    24638069.146    99207171.060       -1763.441          47.000  
G20  20089324.225   105570156.717        1293.579          47.000                                                                  
E12  25375447.512   133348861.998        -471.747          39.000    25375454.832   102176442.139        -361.501          42.000  
R13  19283852.245   102974953.455       -3384.558          43.000    19283854.339    80091706.031       -2632.513          44.000  
R04  19235289.743   103004262.567        1340.271          52.000    19235288.732    80114422.775        1042.462          48.000  
R02  21879462.247   116752797.447       -3401.258          50.000    21879475.898    90807719.024       -2645.279          44.000  
R03  18667788.395    99930188.297       -1314.143          52.000    18667787.332    77723534.900       -1022.052          49.000  
E33  24156235.664   126941786.385       -2930.102          46.000    24156246.073    97267118.014       -2245.150          49.000  
G09  20250751.713   106418408.074       -2197.025          46.000    20250754.713    82923497.487       -1711.998          43.000  
G05  23135872.458   121579882.8593       2576.555          31.000                                                                  
G11  21276688.324   111809682.712       -2150.513          47.000    21276692.587    87124452.719       -1675.828          44.000  
E26  25915698.001   136187579.053       -3771.718          43.000    25915720.979   104351446.007       -2890.160          45.000  
G06  21644059.983   113740110.191       -3863.469          38.000    21644075.756    88628616.214       -3010.482          41.000  
R14  18213689.802    97089635.743        1296.272          52.000    18213697.108    75514105.088        1008.263          51.000  
R15  21690528.054   115907615.531        3599.152          47.000    21690547.521    90150486.682        2799.371          47.000  
R19  21748639.602   116340390.098       -3707.328          35.000    21748651.593    90486947.366       -2883.502          40.000  
E19  23942262.612   125817546.785         561.910          41.000    23942269.778    96405709.053         430.438          46.000  
S31  37332938.279   196185827.228        -820.826          40.000  
G14  21752593.989   114310638.440        2623.882          43.000    21752612.514    89073336.904        2044.677          44.000  
G07  18548206.140    97471689.344       -2078.041          48.000    18548205.869    75951858.918       -1619.328          46.000  
G30  18987869.055    99782186.583         189.630          50.000    18987873.119    77752713.052         147.765          46.000  
G04  23366440.347   122791461.919       -3237.707          38.000    23366451.993    95681650.711       -2522.759          39.000  
E21  24976231.904   131251064.253        2079.016          43.000    24976254.361   100569112.616        1593.031          48.000  
E30  25425023.155   133609543.500       -2185.505          38.000    25425031.914   102376244.030       -1674.385          46.000  
E27  23404167.819   122989998.176         305.273          46.000    23404176.570    94239247.778         233.879          50.000  
> 2024 04 08 18 14 00.4950000  0 26                     
S33  38290550.947   201218113.876        -820.555          44.000  
E07  24651200.050   129542837.500       -2302.949          38.000    24651212.390    99260093.179       -1764.574          48.000  
G20  20081980.036   105531566.074        1279.517          47.000                                                                  
E12  25378182.446   133363233.109        -485.973          39.000    25378189.794   102187453.759        -372.524          43.000  
R13  19302924.242   103076796.000       -3404.657          42.000    19302926.600    80170916.925       -2648.047          43.000  
R04  19227793.750   102964121.681        1336.023          52.000    19227792.426    80083202.183        1039.179          48.000  
R02  21898606.113   116854949.586       -3408.600          49.000    21898619.431    90887170.245       -2651.142          44.000  
R03  18675185.500    99969785.816       -1325.501          52.000    18675184.697    77754332.971       -1030.965          49.000  
E33  24172988.169   127029822.429       -2938.758          43.000    24172999.114    97334573.860       -2251.758          49.000  
G09  20263309.584   106484399.808       -2202.099          45.000    20263313.458    82974919.576       -1716.058          44.000  
G05  23121172.504                1       2573.694          28.000    23121182.201                1       2005.123          26.000  
G11  21289009.158   111874433.363       -2165.984          45.000    21289015.307    87174907.594       -1687.645          46.000  
E26  25937224.017   136300702.324       -3769.363          43.000    25937247.328   104438125.089       -2888.153          45.000  
G06  21666132.260   113856099.740       -3868.763          40.000    21666148.583    88718996.767       -3014.605          40.000  
R14  18206461.192    97051100.411        1272.875          53.000    18206467.400    75484133.300         990.040          51.000  
R15  21670334.704   115799709.812        3594.798          46.000    21670355.501    90066559.570        2796.033          47.000  
R19  21769463.918   116451782.843       -3717.893          34.000    21769475.338    90573585.559       -2891.772          38.000  
E19  23939058.750   125800706.661         561.179          42.000    23939065.250    96392805.700         429.941          46.000  
S31  37337624.633   196210456.614        -820.804          43.000  
G14  21737623.714   114231969.801        2620.891          44.000    21737642.570    89012037.389        2042.205          45.000  
G07  18560115.720    97534272.770       -2093.954          49.000    18560114.509    76000625.227       -1631.592          44.000  
G30  18986831.754    99776733.834         174.040          51.000    18986834.828    77748464.210         135.668          45.000  
G04  23384926.957   122888610.799       -3238.803          38.000    23384939.885    95757350.955       -2523.912          39.000  
E21  24964370.419   131188732.392        2076.773          43.000    24964392.342   100521352.479        1591.107          48.000  
E30  25437531.849   133675285.862       -2197.207          39.000    25437541.773   102426618.203       -1683.619          45.000  
E27  23402461.988   122981033.135         292.646          46.000    23402470.404    94232378.563         224.201          50.000  
> 2024 04 08 18 14 30.4950000  0 26                     
S33  38295235.174   201242731.066        -820.312          44.000  
E07  24664353.337   129611948.102       -2304.359          39.000    24664363.730    99313047.984       -1765.582          48.000  
G20  20074716.143   105493392.557        1265.575          47.000                                                                  
E12  25380997.487   133378027.563        -500.032          40.000    25381005.428   102198789.766        -383.316          42.000  
R13  19322108.127   103179237.430       -3424.402          43.000    19322110.333    80250593.637       -2663.733          42.000  
R04  19220321.286   102924105.203        1331.873          52.000    19220319.270    80052078.375        1035.962          48.000  
R02  21917790.366   116957320.451       -3415.869          48.000    21917804.780    90966791.611       -2656.800          44.000  
R03  18682645.721   100009722.854       -1336.832          52.000    18682645.681    77785395.093       -1039.712          50.000  
E33  24189788.434   127118111.533       -2947.122          44.000    24189800.308    97402223.592       -2258.108          49.000  
G09  20275894.830   106550538.605       -2206.908          45.000    20275899.117    83026456.249       -1719.504          44.000  
G05  23106480.688                        2571.254          25.000    23106488.892                        2002.932          28.000  
G11  21301418.612   111939643.400       -2181.173          46.000    21301424.357    87225720.414       -1699.619          46.000  
E26  25958736.182   136413750.322       -3766.914          42.000    25958758.872   104524746.505       -2886.370          43.000  
G06  21688233.913   113972247.880       -3873.959          39.000    21688250.936    88809500.868       -3018.571          39.000  
R14  18199365.169    97013266.409        1249.500          54.000    18199370.554    75454706.984         971.847          51.000  
R15  21650165.487   115691933.999        3590.277          44.000    21650186.999    89982733.521        2792.508          47.000  
R19  21790348.127   116563498.781       -3729.547          33.000    21790359.449    90660475.126       -2900.626          35.000  
E19  23935857.663   125783880.645         560.723          42.000    23935863.369    96379913.158         429.780          46.000  
S31  37342311.096   196235080.024        -820.537          43.000  
G14  21722670.519   114153391.211        2617.964          43.000    21722688.455    88950808.021        2039.824          44.000  
G07  18572115.173    97597327.445       -2109.517          49.000    18572113.622    76049758.760       -1643.744          45.000  
G30  18985882.226    99771744.789         158.733          50.000    18985884.911    77744576.729         123.576          45.000  
G04  23403419.960   122985789.415       -3239.807          39.000    23403431.808    95833074.261       -2524.438          37.000  
E21  24952521.975   131126470.196        2074.415          44.000    24952543.664   100473645.682        1589.477          48.000  
E30  25450110.827   133741386.970       -2209.205          40.000    25450120.391   102477267.207       -1692.793          45.000  
E27  23400826.660   122972444.467         280.121          46.000    23400835.938    94225797.737         214.634          50.000  
