     3.00           OBSERVATION DATA    M: Mixed            RINEX VERSION / TYPE
CONVBIN 2.4.3                           20240408 205941 UTC PGM / RUN BY / DATE 
format: u-blox UBX                                          COMMENT             
log: data/2024-04-08/20240408204500.ubx                     COMMENT             
AQUI00CHL                                                   MARKER NAME         
                                                            MARKER NUMBER       
                                                            MARKER TYPE         
                                                            OBSERVER / AGENCY   
UNKNOWN             UBLOX-ZED-F9P                           REC # / TYPE / VERS 
UNKNOWN             TWIVSP6037L                             ANT # / TYPE        
  1713381.0000 -5047934.0000 -3490983.0000                  APPROX POSITION XYZ 
        0.0000        0.0000        0.0000                  ANTENNA: DELTA H/E/N
G    8 C1C L1C D1C S1C C2L L2L D2L S2L                      SYS / # / OBS TYPES 
R    8 C1C L1C D1C S1C C2C L2C D2C S2C                      SYS / # / OBS TYPES 
E    8 C1C L1C D1C S1C C7Q L7Q D7Q S7Q                      SYS / # / OBS TYPES 
S    4 C1C L1C D1C S1C                                      SYS / # / OBS TYPES 
  2024    04    08    20    45   00.0000000     GPS         TIME OF FIRST OBS   
  2024    04    08    20    59   30.5000000     GPS         TIME OF LAST OBS    
                                                            END OF HEADER       
> 2024 04 08 20 45 00.0000000  0 20                     
S33  39702099.207   208635865.2201       -807.622          44.000  
G05  21467256.601   112811205.4421      -1567.495          46.000    21467257.860    87904883.4261      -1221.545          45.000  
G20  22393521.920   117678707.9911      -3633.166          47.000                                                                  
G15  23323220.542   122564283.4051       2117.391          43.000    23323219.911    95504687.6681       1650.006          40.000  
R04  20088847.273   107575041.2081      -3270.322          49.000    20088845.721    83669477.4771      -2543.626          51.000  
R05  19310685.571   103226692.7161        605.252          53.000    19310683.443    80287476.8181        470.692          50.000  
R16  21299477.228   113778329.4401       1837.428          49.000    21299484.078    88494411.7171       1429.066          47.000  
G13  20923689.077   109954923.1211       1007.721          49.000                                                                  
G17  23726577.685   124684237.1041       2077.710          44.000    23726587.253    97156712.1721       1618.903          42.000  
R14  21799918.364   116206310.6961      -4283.772          50.000    21799918.669    90382647.8321      -3331.795          50.000  
R15  19289311.439   103076584.7031      -1542.387          52.000    19289309.202    80170884.5001      -1199.542          50.000  
E19  23420944.517   123078077.1811       -306.122          42.000    23420945.304    94306656.8881       -234.414          46.000  
S31  38749768.889   203631349.7011       -808.239          44.000  
G14  20372857.438   107060404.5321      -1858.080          49.000    20372855.338    83423887.9731      -1447.850          50.000  
G07  24387946.930   128159512.4601      -3763.517          38.000    24387948.273    99864537.3021      -2932.472          36.000  
G30  21860471.988   114877872.4111      -2817.701          45.000    21860472.032    89515598.5981      -2195.802          43.000  
E21  23505857.351   123524475.3121       -932.522          48.000    23505858.872    94648816.3191       -714.551          50.000  
G22  20316304.638   106763228.9731        377.903          48.000                                                                  
E04  26598658.892   139776875.9841       1549.702          34.000    26598662.341   107101853.5591       1187.553          39.000  
E27  26289279.361   138151446.4391      -3226.241          46.000    26289282.865   105856483.8561      -2472.124          50.000  
> 2024 04 08 20 45 30.5000000  0 20                     
S33  39706786.431   208660497.111        -807.411          44.000  
G05  21476409.135   112859304.453       -1586.244          47.000    21476410.666    87942363.136       -1235.975          45.000  
G20  22414634.063   117789647.880       -3641.314          46.000                                                                  
G15  23310938.159   122499737.084        2115.320          43.000    23310937.867    95454391.945        1648.101          40.000  
R04  20107530.519   107675093.143       -3290.127          50.000    20107529.274    83747295.537       -2559.012          51.000  
R05  19307292.515   103208557.664         584.231          52.000    19307290.966    80273371.798         454.328          50.000  
R16  21289029.953   113722517.999        1822.672          52.000    21289034.418    88451003.290        1417.496          46.000  
G13  20917860.235   109924292.007        1001.007          49.000                                                                  
G17  23714527.352   124620913.623        2074.823          45.000    23714535.939    97107369.951        1616.541          41.000  
R14  21824439.201   116337020.532       -4286.998          48.000    21824438.851    90484311.030       -3334.378          50.000  
R15  19298166.757   103123905.035       -1560.275          52.000    19298164.007    80207689.263       -1213.618          49.000  
E19  23422742.026   123087525.837        -313.176          42.000    23422743.037    94313896.795        -240.077          46.000  
S31  38754458.962   203655993.771        -807.748          44.000  
G14  20383694.166   107117350.893       -1875.918          50.000    20383692.109    83468261.809       -1461.757          50.000  
G07  24409784.278   128274269.620       -3761.655          38.000    24409786.519    99953958.535       -2931.776          35.000  
G30  21876836.979   114963867.678       -2821.176          46.000    21876836.153    89582607.884       -2198.443          43.000  
E21  23511306.822   123553115.365        -945.277          48.000    23511309.229    94670761.378        -724.329          50.000  
G22  20314166.826   106751995.239         359.187          48.000                                                                  
E04  26589665.195   139729606.645        1549.878          35.000    26589667.062   107065634.341        1187.686          39.000  
E27  26308020.953   138249934.302       -3231.559          45.000    26308024.472   105931948.620       -2476.224          50.000  
> 2024 04 08 20 46 00.5000000  0 20                     
S33  39711395.106   208684715.957        -806.917          44.000  
G05  21485518.034   112907170.830       -1604.504          46.000    21485519.288    87979661.540       -1250.292          45.000  
G20  22435444.667   117899006.623       -3649.098          47.000                                                                  
G15  23298868.231   122436310.787        2113.339          44.000    23298867.666    95404969.008        1646.431          40.000  
R04  20126017.978   107774089.970       -3309.350          51.000    20126015.866    83824292.958       -2573.906          50.000  
R05  19304072.213   103191346.276         563.482          51.000    19304070.190    80259985.172         438.264          49.000  
R16  21278834.603   113668058.077        1808.228          52.000    21278838.745    88408646.011        1406.580          47.000  
G13  20912163.874   109894357.733         994.696          49.000                                                                  
G17  23702691.040   124558716.923        2071.899          45.000    23702699.447    97058905.696        1614.557          41.000  
R14  21848575.290   116465681.922       -4290.076          49.000    21848576.128    90584380.977       -3336.641          49.000  
R15  19306975.791   103170981.697       -1577.883          51.000    19306973.516    80244304.488       -1227.158          50.000  
E19  23424551.738   123097034.904        -320.279          43.000    23424552.346    94321182.968        -245.397          45.000  
S31  38759068.728   203680222.786        -807.115          44.000  
G14  20394453.889   107173893.367       -1893.366          49.000    20394451.817    83512320.916       -1475.324          50.000  
G07  24431255.925   128387101.167       -3760.361          38.000    24431255.928   100041879.286       -2930.017          33.000  
G30  21892951.285   115048551.239       -2824.349          46.000    21892951.475    89648595.051       -2200.935          43.000  
E21  23516738.768   123581662.043        -957.715          47.000    23516741.607    94692634.877        -733.751          50.000  
G22  20312169.895   106741503.695         340.468          48.000                                                                  
E04  26580817.796   139683104.036        1550.482          37.000    26580817.938   107030002.650        1187.769          40.000  
E27  26326484.586   138346964.782       -3236.658          45.000    26326488.323   106006296.699       -2480.128          50.000  
> 2024 04 08 20 46 30.5000000  0 20                     
S33  39716003.123   208708930.812        -807.119          43.000  
G05  21494733.172   112955593.567       -1623.541          48.000    21494734.020    88017393.491       -1265.101          46.000  
G20  22456300.249   118008604.718       -3657.297          46.000                                                                  
G15  23286811.815   122372954.610        2110.664          44.000    23286810.888    95355600.632        1644.864          40.000  
R04  20144614.682   107873672.389       -3329.176          51.000    20144611.754    83901745.856       -2589.332          50.000  
R05  19300970.403   103174765.892         542.052          51.000    19300967.926    80247089.340         421.567          49.000  
R16  21268722.325   113614038.734        1793.278          52.000    21268726.475    88366631.443        1394.553          47.000  
G13  20906506.330   109864625.327         987.549          50.000                                                                  
G17  23690874.247   124496616.789        2068.280          45.000    23690881.623    97010516.685        1611.609          40.000  
R14  21872730.410   116594440.771       -4293.679          50.000    21872730.978    90684526.756       -3339.450          50.000  
R15  19315884.756   103218590.097       -1595.924          51.000    19315883.213    80281333.327       -1241.197          49.000  
E19  23426404.219   123106765.441        -328.162          43.000    23426403.840    94328638.842        -251.407          45.000  
S31  38763679.282   203704448.974        -807.709          44.000  
G14  20405314.470   107230966.140       -1911.341          49.000    20405312.094    83556793.251       -1489.394          50.000  
G07  24452720.356   128499894.772       -3759.026          38.000    24452720.478   100129770.441       -2929.181          33.000  
G30  21909085.348   115133337.948       -2827.880          45.000    21909084.862    89714662.633       -2203.568          42.000  
E21  23522243.405   123610587.776        -970.643          47.000    23522246.214    94714798.826        -743.702          51.000  
G22  20310280.010   106731573.160         321.499          48.000                                                                  
E04  26571968.565   139636601.058        1550.088          36.000    26571968.392   106994370.623        1187.835          40.000  
E27  26344979.981   138444156.157       -3242.371          45.000    26344983.786   106080768.057       -2484.516          51.000  
> 2024 04 08 20 47 00.5000000  0 20                     
S33  39720611.199   208733147.289        -806.993          43.000  
G05  21504055.492   113004575.874       -1642.087          49.000    21504055.516    88055561.449       -1279.617          46.000  
G20  22477202.485   118118443.618       -3665.200          45.000                                                                  
G15  23274769.564   122309674.624        2108.081          43.000    23274768.386    95306291.656        1642.596          40.000  
R04  20163320.348   107973842.755       -3348.720          51.000    20163318.641    83979656.040       -2604.642          51.000  
R05  19297988.572   103158824.183         520.725          51.000    19297985.230    80234690.267         405.038          49.000  
R16  21258692.364   113560465.473        1778.386          51.000    21258695.632    88324963.750        1383.126          46.000  
G13  20900887.281   109835100.716         980.566          49.000                                                                  
G17  23679076.446   124434621.376        2064.615          43.000    23679082.802    96962209.252        1608.991          40.000  
R14  21896903.890   116723298.524       -4296.901          50.000    21896903.696    90784749.473       -3342.062          49.000  
R15  19324895.353   103266732.645       -1613.606          53.000    19324892.183    80318777.594       -1255.167          49.000  
E19  23428299.036   123116722.711        -335.701          44.000    23428298.530    94336268.454        -257.273          45.000  
S31  38768289.218   203728675.965        -807.403          44.000  
G14  20416275.614   107288571.866       -1928.973          48.000    20416273.924    83601680.896       -1503.243          50.000  
G07  24474178.327   128612654.442       -3757.783          37.000    24474177.771   100217635.076       -2928.574          33.000  
G30  21925240.540   115218231.406       -2831.542          47.000    21925240.405    89780813.378       -2206.331          43.000  
E21  23527820.714   123639896.227        -983.261          47.000    23527823.403    94737256.028        -753.432          51.000  
G22  20308497.957   106722208.741         302.825          47.000                                                                  
E04  26563120.612   139590102.929        1550.144          37.000    26563120.144   106958742.354        1187.682          41.000  
E27  26363505.119   138541511.176       -3247.890          43.000    26363509.279   106155364.752       -2488.704          49.000  
> 2024 04 08 20 47 30.0000000  0 20                     
S33  39725142.620   208756960.493        -807.385          44.000  
G05  21513324.827   113053285.950       -1660.381          49.000    21513324.952    88093517.290       -1293.770          46.000  
G20  22497800.312   118226683.411       -3672.984          46.000                                                                  
G15  23262942.948   122247524.995        2105.370          44.000    23262941.855    95257863.455        1640.565          40.000  
R04  20181822.048   108072915.534       -3368.074          51.000    20181819.455    84056712.532       -2619.588          50.000  
R05  19295172.745   103143773.040         499.644          51.000    19295169.549    80222983.845         388.631          49.000  
R16  21248911.479   113508220.655        1763.625          51.000    21248915.892    88284329.291        1371.608          46.000  
G13  20895401.449   109806272.319         973.712          49.000                                                                  
G17  23667494.970   124373764.673        2061.083          44.000    23667500.322    96914789.147        1606.350          38.000  
R14  21920691.813   116850101.871       -4300.185          50.000    21920692.178    90883374.286       -3344.435          49.000  
R15  19333850.836   103314590.654       -1631.022          52.000    19333847.615    80356000.518       -1268.497          49.000  
E19  23430204.709   123126736.050        -343.111          44.000    23430204.069    94343941.029        -263.062          45.000  
S31  38772823.363   203752499.953        -807.568          44.000  
G14  20427153.724   107345735.218       -1946.460          49.000    20427151.600    83646223.799       -1516.736          50.000  
G07  24495271.809   128723501.194       -3757.234          38.000    24495270.615                       -2927.334          31.000  
G30  21941145.680   115301812.960       -2834.993          47.000    21941145.111    89845941.901       -2209.091          43.000  
E21  23533375.726   123669088.380        -995.860          47.000    23533378.506    94759624.104        -763.056          51.000  
G22  20306850.838   106713552.991         284.068          47.000                                                                  
E04  26554419.400   139544385.166        1549.866          36.000    26554420.516   106923711.987        1187.437          42.000  
E27  26381753.498   138637401.084       -3253.365          43.000    26381756.701   106228838.863       -2492.681          50.000  
> 2024 04 08 20 48 00.0000000  0 21                     
S33  39729750.952   208781178.204        -807.261          43.000  
G05  21522855.834   113103372.729       -1678.826          49.000    21522856.366    88132545.890       -1308.198          46.000  
G20  22518790.974   118336989.517       -3680.859          46.000                                                                  
G15  23250930.236   122184400.545        2102.831          44.000    23250929.404    95208675.657        1638.483          39.000  
R04  20200745.523   108174246.557       -3387.323          51.000    20200743.293    84135525.457       -2634.571          51.000  
R05  19292428.963   103129104.745         478.187          52.000    19292425.728    80211575.208         371.989          49.000  
R16  21239047.479   113455533.770        1748.742          50.000    21239052.588    88243351.054        1360.143          46.000  
G19  24330539.422                1       2148.890          30.000                                                                  
G13  20889862.464   109777164.553         966.821          48.000                                                                  
G17  23655738.902   124311985.828        2057.267          45.000    23655743.143    96866650.476        1602.791          38.000  
R14  21944900.233   116979146.088       -4302.846          50.000    21944899.426    90983742.037       -3346.721          48.000  
R15  19343056.042   103363783.511       -1648.525          52.000    19343054.205    80394261.669       -1282.143          50.000  
E19  23432185.097   123137145.449        -350.877          43.000    23432185.176    94351917.085        -268.759          46.000  
S31  38777433.011   203776727.869        -807.511          43.000  
G14  20438315.474   107404391.772       -1963.941          49.000    20438313.694    83691930.268       -1530.378          50.000  
G07  24516715.627   128836191.160       -3755.859          39.000    24516714.180   100391819.573       -2926.786          32.000  
G30  21957340.030   115386914.653       -2838.308          47.000    21957339.681    89912254.920       -2211.774          43.000  
E21  23539096.232   123699152.607       -1008.455          47.000    23539099.266    94782660.392        -772.646          51.000  
G22  20305282.866   106705312.825         265.321          47.000                                                                  
E04  26545573.730   139497898.462        1549.346          37.000    26545574.318   106888092.423        1187.128          42.000  
E27  26400340.370   138735074.341       -3258.265          41.000    26400342.943   106303679.385       -2496.662          49.000  
> 2024 04 08 20 48 30.0000000  0 21                     
S33  39734359.585   208805396.237        -807.299          43.000  
G05  21532492.778   113154014.402       -1697.400          48.000    21532492.725    88172006.867       -1322.585          45.000  
G20  22539826.102   118447526.404       -3688.572          46.000                                                                  
G15  23238933.192   122121356.902        2100.121          44.000    23238932.360    95159550.850        1636.494          39.000  
R04  20219775.650   108276159.931       -3406.788          51.000    20219774.642    84214791.301       -2649.833          51.000  
R05  19289806.082   103115082.752         456.425          52.000    19289802.676    80200669.211         355.056          49.000  
R16  21229268.729   113403294.645        1733.708          50.000    21229271.509    88202721.081        1348.489          44.000  
G19  24318263.373                        2151.283          30.000                                                                  
G13  20884363.686   109748269.401         959.393          48.000                                                                  
G17  23644003.990   124250320.571        2053.478          45.000    23644007.691    96818600.246        1599.857          38.000  
R14  21969124.963   117108279.911       -4306.096          51.000    21969125.175    91084179.427       -3349.263          47.000  
R15  19352359.860   103413502.213       -1666.197          51.000    19352358.094    80432931.850       -1295.913          50.000  
E19  23434208.880   123147784.140        -358.605          43.000    23434209.545    94360068.854        -274.750          46.000  
S31  38782043.776   203800956.158        -807.876          43.000  
G14  20449578.769   107463575.353       -1981.692          50.000    20449575.553    83738047.392       -1544.198          50.000  
G07  24538152.167   128948845.176       -3754.427          36.000    24538152.696   100479601.873       -2925.226          32.000  
G30  21973554.146   115472119.995       -2841.972          47.000    21973552.828    89978648.704       -2214.768          41.000  
E21  23544889.189   123729596.662       -1021.194          46.000    23544892.236    94805987.717        -782.515          51.000  
G22  20303822.961   106697640.022         246.138          48.000                                                                  
E04  26536727.709   139451418.812        1548.812          35.000    26536729.327   106852478.231        1186.818          43.000  
E27  26418956.103   138832905.288       -3263.894          42.000    26418960.285   106378640.834       -2500.793          51.000  
> 2024 04 08 20 49 00.5000000  0 21                     
S33  39739044.667   208830015.912        -807.090          43.000  
G05  21542397.236   113206065.543       -1715.922          47.000    21542397.139    88212566.135       -1336.908          46.000  
G20  22561254.679   118560138.078       -3695.876          45.000                                                                  
G15  23226752.430   122057346.153        2097.531          44.000    23226751.234    95109672.428        1634.182          39.000  
R04  20239236.739   108380365.765       -3426.265          52.000    20239235.075    84295840.177       -2664.982          51.000  
R05  19287264.089   103101491.304         434.686          52.000    19287259.803    80190098.105         338.163          49.000  
R16  21219411.929   113350643.841        1718.679          51.000    21219414.673    88161770.881        1336.844          46.000  
G19  24305769.893   127727692.2821       2153.076          34.000                                                                  
G13  20878815.226   109719111.381         952.386          49.000                                                                  
G17  23632095.501   124187746.621        2049.812          45.000    23632101.048    96769841.940        1597.075          40.000  
R14  21993770.629   117239653.633       -4308.609          51.000    21993770.567    91186358.988       -3351.180          48.000  
R15  19361919.794   103464584.477       -1683.589          52.000    19361917.757    80472662.551       -1309.365          50.000  
E19  23436311.371   123158835.201        -366.203          43.000    23436312.502    94368536.600        -280.517          46.000  
S31  38786731.110   203825586.885        -807.318          43.000  
G14  20461130.918   107524282.584       -1999.226          50.000    20461128.052    83785351.800       -1557.894          50.000  
G07  24559939.396   129063338.308       -3752.848          35.000    24559942.570                       -2924.344          31.000  
G30  21990058.365   115558849.724       -2845.273          47.000    21990056.971    90046230.344       -2216.956          41.000  
E21  23550852.231   123760935.548       -1033.794          46.000    23550855.680    94830000.695        -792.065          51.000  
G22  20302449.039   106690420.927         227.003          48.000                                                                  
E04  26527736.859   139404171.422        1549.364          36.000    26527738.626   106816275.847        1186.993          43.000  
E27  26437913.160   138932525.635       -3268.727          41.000    26437916.970   106454973.296       -2504.757          50.000  
> 2024 04 08 20 49 30.5000000  0 21                     
S33  39743651.533   208854224.567        -807.047          43.000  
G05  21552245.075   113257812.790       -1734.102          48.000    21552244.263    88252888.610       -1351.151          46.000  
G20  22582375.295   118671121.972       -3703.121          45.000                                                                  
G15  23214785.981   121994462.245        2094.730          45.000    23214784.724    95060672.060        1631.870          39.000  
R04  20258485.124   108483438.501       -3445.403          52.000    20258483.693    84376007.753       -2679.754          51.000  
R05  19284884.194   103088771.707         413.070          52.000    19284881.091    80180205.121         321.272          49.000  
R16  21209800.080   113299301.504        1703.878          50.000    21209803.980    88121838.344        1325.162          47.000  
G19  24293470.291   127663051.851        2155.703          39.000                                                                  
G13  20873397.453   109690641.978         945.233          48.000                                                                  
G17  23620404.294   124126311.001        2045.922          45.000    23620410.472    96721970.658        1594.276          41.000  
R14  22018026.117   117368949.554       -4311.292          51.000    22018025.639    91286922.511       -3353.286          47.000  
R15  19371419.133   103515346.150       -1700.784          52.000    19371416.900    80512143.915       -1322.755          50.000  
E19  23438422.870   123169930.365        -373.710          43.000    23438423.833    94377038.126        -286.285          46.000  
S31  38791339.251   203849805.708        -807.427          43.000  
G14  20472591.869   107584514.303       -2016.526          49.000    20472590.372    83832285.670       -1571.248          51.000  
G07  24581361.858   129175909.465       -3751.848          37.000    24581362.795                       -2923.303          30.000  
G30  22006310.537   115644252.548       -2848.547          48.000    22006308.737    90112778.023       -2219.719          41.000  
E21  23556789.383   123792134.030       -1046.323          47.000    23556792.576    94853906.089        -801.634          51.000  
G22  20301204.799   106683885.724         208.295          48.000                                                                  
E04  26518891.921   139357699.653        1548.958          35.000    26518895.049   106780667.689        1186.833          43.000  
E27  26456586.173   139030660.336       -3274.149          39.000    26456591.679   106530167.446       -2508.438          50.000  
> 2024 04 08 20 50 00.5000000  0 21                     
S33  39748256.735   208878426.224        -806.849          43.000  
G05  21562195.972   113310103.527       -1752.314          48.000    21562195.497    88293634.590       -1365.432          46.000  
G20  22603536.230   118782320.731       -3710.325          45.000                                                                  
G15  23202834.693   121931658.012        2091.815          44.000    23202833.488    95011733.751        1630.343          39.000  
R04  20277840.177   108587080.999       -3464.441          52.000    20277837.959    84456618.439       -2694.574          51.000  
R05  19282625.480   103076699.899         391.400          51.000    19282623.649    80170815.968         304.387          50.000  
R16  21200270.442   113248402.619        1689.015          50.000    21200275.812    88082250.761        1313.694          48.000  
G19  24281157.524   127598343.530        2157.832          42.000                                                                  
G13  20868019.955   109662383.577         938.214          48.000                                                                  
G17  23608734.804   124064992.227        2041.813          46.000    23608741.100    96674190.426        1590.854          41.000  
R14  22042295.436   117498319.905       -4313.742          50.000    22042295.108    91387543.874       -3355.039          45.000  
R15  19381013.606   103566619.074       -1717.771          52.000    19381012.123    80552022.908       -1336.103          50.000  
E19  23440577.512   123181251.307        -381.258          43.000    23440578.157    94385712.651        -292.222          46.000  
S31  38795947.547   203874018.771        -807.211          45.000  
G14  20484151.363   107645260.818       -2033.615          48.000    20484149.913    83879620.674       -1584.646          51.000  
G07  24602775.939   129288436.629       -3750.433          38.000    24602775.285                       -2921.868          29.000  
G30  22022579.514   115729749.922       -2851.651          47.000    22022577.364    90179399.357       -2222.152          40.000  
E21  23562798.178   123823703.254       -1058.730          47.000    23562800.384    94878095.556        -811.261          51.000  
G22  20300068.303   106677913.379         189.541          48.000                                                                  
E04  26510049.773   139311231.008        1548.234          35.000    26510052.234   106745061.935        1186.641          44.000  
E27  26475289.071   139128940.857       -3278.544          39.000    26475294.351   106605473.305       -2512.146          51.000  
> 2024 04 08 20 50 30.0000000  0 21                     
S33  39752783.720   208902215.837        -806.230          44.000  
G05  21572079.828   113362049.125       -1769.563          48.000    21572080.544    88334111.624       -1379.083          46.000  
G20  22624383.152   118891870.469       -3716.935          44.000                                                                  
G15  23191097.493   121869977.838        2089.475          45.000    23191096.629    94963671.358        1628.089          40.000  
R04  20296974.395   108689547.696       -3482.675          51.000    20296973.050    84536314.640       -2708.743          50.000  
R05  19280522.543   103065461.357         370.325          51.000    19280521.110    80162074.907         287.923          50.000  
R16  21190980.829   113198782.891        1674.809          50.000    21190986.630    88043658.023        1302.580          48.000  
G19  24269036.797   127534648.163        2160.082          42.000                                                                  
G13  20862771.114   109634801.723         931.573          48.000                                                                  
G17  23597282.120   124004809.676        2038.103          44.000    23597288.518    96627295.493        1588.227          42.000  
R14  22066171.496   117625600.907       -4315.748          50.000    22066173.120    91486540.192       -3356.630          46.000  
R15  19390541.866   103617530.901       -1734.056          52.000    19390539.213    80591621.070       -1348.802          50.000  
E19  23442736.986   123192602.368        -388.493          43.000    23442738.091    94394410.232        -297.585          46.000  
S31  38800475.987   203897818.330        -806.485          44.000  
G14  20495613.232   107705492.729       -2050.105          48.000    20495611.703    83926554.678       -1597.499          51.000  
G07  24623822.748   129399042.596       -3748.591          38.000    24623821.920                       -2920.894          31.000  
G30  22038594.983   115813911.457       -2854.516          46.000    22038593.441    90244979.779       -2224.193          41.000  
E21  23568773.782   123855104.687       -1070.376          48.000    23568775.657    94902156.461        -820.198          51.000  
G22  20299054.768   106672587.602         171.367          47.000                                                                  
E04  26501354.110   139265538.481        1548.993          36.000    26501357.149   106710050.898        1186.797          44.000  
E27  26493704.915   139225721.568       -3283.159          38.000    26493710.290   106679629.970       -2515.563          49.000  
> 2024 04 08 20 51 00.0000000  0 21                     
S33  39757385.413   208926398.928        -805.980          43.000  
G05  21582234.417   113415408.051       -1787.703          49.000    21582234.645    88375689.950       -1393.070          45.000  
G20  22645621.846   119003480.441       -3723.637          44.000                                                                  
G15  23179175.879   121807331.563        2086.842          44.000    23179176.047    94914856.159        1625.990          41.000  
R04  20316537.962   108794308.794       -3501.463          52.000    20316535.971    84617795.396       -2723.399          50.000  
R05  19278505.356   103054676.428         348.571          52.000    19278503.565    80153686.679         271.139          50.000  
R16  21181617.632   113148759.905        1660.014          52.000    21181621.434    88004751.662        1291.203          48.000  
G19  24256698.361   127469808.230        2162.482          42.000                                                                  
G13  20857473.122   109606962.504         924.524          48.000                                                                  
G17  23585657.902   123943725.474        2033.927          44.000    23585663.236    96579697.988        1584.997          41.000  
R14  22090466.986   117755103.296       -4317.888          50.000    22090467.435    91587264.280       -3358.276          45.000  
R15  19400323.379   103669804.028       -1750.924          51.000    19400321.032    80632278.017       -1361.803          49.000  
E19  23444977.017   123204368.409        -396.036          43.000    23444977.366    94403425.795        -303.364          46.000  
S31  38805080.078   203922011.998        -806.649          44.000  
G14  20507365.405   107767248.972       -2067.086          49.000    20507363.493    83974676.469       -1610.658          51.000  
G07  24645218.440   129511475.412       -3746.966          37.000    24645219.263   100918015.280       -2919.765          34.000  
G30  22054898.511   115899588.265       -2857.421          46.000    22054897.057    90311740.993       -2226.631          40.000  
E21  23574919.122   123887401.006       -1082.689          47.000    23574921.146    94926903.070        -829.614          51.000  
G22  20298129.627   106667727.631         152.385          47.000                                                                  
E04  26492514.098   139219073.102        1548.654          38.000    26492515.294   106674447.696        1186.713          44.000  
E27  26512458.979   139324280.434       -3287.615          39.000    26512465.336   106755149.118       -2519.084          49.000  
> 2024 04 08 20 51 30.0000000  0 21                     
S33  39761985.171   208950568.924        -806.746          44.000  
G05  21592489.659   113469300.822       -1806.737          49.000    21592489.774    88417684.276       -1407.927          44.000  
G20  22666899.563   119115290.375       -3731.610          44.000                                                                  
G15  23167269.543   121744764.467        2082.947          45.000    23167268.984    94866102.655        1622.828          40.000  
R04  20336205.448   108899627.719       -3521.365          52.000    20336203.383    84699709.986       -2738.846          51.000  
R05  19276609.743   103044541.363         325.636          52.000    19276607.517    80145803.881         253.165          49.000  
R16  21172334.690   113099176.212        1643.964          52.000    21172338.531    87966186.908        1278.677          49.000  
G19  24244346.979   127404902.951        2162.947          43.000                                                                  
G13  20852216.262   109579334.083         916.089          49.000                                                                  
G17  23574056.385   123882761.841        2028.630          45.000    23574061.849    96532194.407        1580.860          41.000  
R14  22114772.959   117884665.352       -4321.080          51.000    22114772.424    91688034.816       -3360.979          42.000  
R15  19410198.231   103722574.293       -1768.689          52.000    19410195.697    80673321.615       -1375.659          48.000  
E19  23447257.911   123216357.147        -404.794          43.000    23447258.793    94412611.998        -310.062          46.000  
S31  38809680.858   203946192.803        -806.948          44.000  
G14  20519213.128   107829508.433       -2085.023          49.000    20519210.290    84023190.377       -1624.770          50.000  
G07  24666601.756   129623857.055       -3746.372          37.000    24666606.092   101005585.387       -2919.270          32.000  
G30  22071218.202   115985351.407       -2861.403          45.000    22071218.251    90378569.402       -2229.589          42.000  
E21  23581133.642   123920059.591       -1096.100          48.000    23581135.781    94951927.259        -839.937          51.000  
G22  20297311.144   106663426.268         132.570          47.000                                                                  
E04  26483668.814   139172607.837        1547.421          37.000    26483672.925   106638844.532        1185.647          44.000  
E27  26531242.278   139422974.056       -3293.394          38.000    26531246.314   106830771.520       -2523.565          49.000  
> 2024 04 08 20 52 00.5000000  0 21                     
S33  39766666.579   208975173.148        -806.709          43.000  
G05  21603028.716   113524681.258       -1824.964          50.000    21603028.192    88460837.808       -1422.011          45.000  
G20  22688577.191   119229209.777       -3738.650          44.000                                                                  
G15  23155189.304   121681282.818        2079.656          44.000    23155189.493    94816636.506        1620.556          41.000  
R04  20356316.462   109007317.391       -3540.580          51.000    20356313.720    84783468.463       -2753.788          51.000  
R05  19274816.042   103034951.442         303.000          52.000    19274812.478    80138345.067         235.756          48.000  
R16  21162990.360   113049263.009        1628.717          51.000    21162995.019    87927365.906        1266.816          50.000  
G19  24231786.931   127338896.228        2164.901          43.000                                                                  
G13  20846921.050   109551508.138         908.350          49.000                                                                  
G17  23562294.716   123820952.643        2023.991          45.000    23562298.689    96484031.901        1577.302          40.000  
R14  22139503.616   118016490.427       -4323.415          52.000    22139502.787    91790565.414       -3362.512          45.000  
R15  19420341.381   103776776.310       -1785.752          51.000    19420338.632    80715478.791       -1388.989          49.000  
E19  23449629.287   123228819.762        -412.646          43.000    23449630.018    94422161.320        -316.314          46.000  
S31  38814365.068   203970807.525        -807.223          44.000  
G14  20531364.573   107893363.980       -2102.468          49.000    20531361.516    84072948.000       -1638.252          50.000  
G07  24688343.043   129738103.309       -3745.337          36.000    24688347.382   101094608.440       -2918.478          31.000  
G30  22087836.335   116072676.140       -2864.887          45.000    22087834.779    90446614.662       -2232.238          41.000  
E21  23587530.886   123953677.554       -1108.519          48.000    23587532.959    94977686.549        -849.466          51.000  
G22  20296596.880   106659670.835         113.215          47.000                                                                  
E04  26474688.522   139125413.691        1546.937          37.000    26474691.582   106602682.879        1185.466          43.000  
E27  26550370.706   139523493.411       -3298.017          37.000    26550374.258   106907792.835       -2527.131          49.000  
> 2024 04 08 20 52 30.5000000  0 21                     
S33  39771272.196   208999374.181        -806.901          44.000  
G05  21613498.103   113579701.303       -1843.245          48.000    21613497.789    88503710.525       -1436.479          44.000  
G20  22709940.840   119341469.808       -3745.702          45.000                                                                  
G15  23143325.468   121618938.391        2076.202          44.000    23143325.420    94768056.504        1618.075          40.000  
R04  20376203.982   109113813.386       -3559.535          52.000    20376201.908    84866298.540       -2768.507          51.000  
R05  19273176.953   103026192.367         280.599          51.000    19273173.479    80131532.486         218.292          48.000  
R16  21153885.365   113000626.033        1613.403          52.000    21153890.172    87889537.500        1254.820          49.000  
G19  24219422.112   127273924.598        2165.981          43.000                                                                  
G13  20841756.579   109524367.948         900.598          49.000                                                                  
G17  23550752.090   123760297.519        2019.306          45.000    23550756.324    96436768.667        1573.339          41.000  
R14  22163840.823   118146221.723       -4325.686          52.000    22163840.563    91891467.523       -3364.471          46.000  
R15  19430412.702   103830598.951       -1802.579          51.000    19430411.239    80757340.899       -1402.046          49.000  
E19  23452007.403   123241317.963        -420.894          42.000    23452008.410    94431737.908        -322.512          46.000  
S31  38818972.821   203995018.908        -807.174          44.000  
G14  20543414.424   107956689.293       -2119.618          48.000    20543412.331    84122292.472       -1651.612          51.000  
G07  24709717.680   129850437.420       -3744.154          34.000    24709723.908                       -2917.788          31.000  
G30  22104198.941   116158667.874       -2868.237          44.000    22104200.398    90513621.264       -2235.122          43.000  
E21  23593895.480   123987121.115       -1121.265          48.000    23593897.038    95003312.212        -859.232          51.000  
G22  20296003.311   106656554.267          94.165          47.000                                                                  
E04  26465858.266   139079008.328        1546.472          38.000    26465860.782   106567125.628        1184.854          43.000  
E27  26569213.175   139622510.300       -3302.946          37.000    26569216.454   106983662.949       -2531.039          49.000  
> 2024 04 08 20 53 00.5000000  0 22                     
S33  39775878.665   209023582.339        -807.219          44.000  
G05  21624072.287   113635269.639       -1861.507          48.000    21624072.834    88547010.458       -1450.400          45.000  
G20  22731343.507   119453940.007       -3752.483          45.000                                                                  
G15  23131481.506   121556698.642        2072.680          44.000    23131481.503    94719558.125        1614.901          40.000  
R06  23547307.568                3       3289.004          26.000                                                                  
R04  20396198.590   109220881.444       -3578.546          53.000    20396196.323    84949573.562       -2783.338          51.000  
R05  19271666.009   103018111.086         257.953          52.000    19271662.250    80125247.079         200.623          49.000  
R16  21144866.070   112952450.704        1598.036          52.000    21144870.290    87852068.139        1242.841          48.000  
G19  24207050.058   127208915.761        2167.317          42.000                                                                  
G13  20836636.819   109497463.962         892.627          49.000                                                                  
G17  23539237.071   123699792.109        2014.278          45.000    23539242.812    96389622.091        1569.396          42.000  
R14  22188191.636   118276024.035       -4327.947          52.000    22188191.836    91992424.859       -3366.301          45.000  
R15  19440581.237   103884931.083       -1819.652          52.000    19440578.748    80799599.297       -1415.330          49.000  
E19  23454432.457   123254061.724        -429.109          43.000    23454433.566    94441502.635        -328.582          46.000  
S31  38823581.253   204019236.898        -807.487          44.000  
G14  20555563.320   108020531.716       -2136.792          49.000    20555561.325    84172039.879       -1665.021          51.000  
G07  24731089.317   129962738.633       -3743.500          33.000    24731091.312                       -2916.249          26.000  
G30  22120583.181   116244763.394       -2871.467          43.000    22120583.217    90580708.693       -2237.680          43.000  
E21  23600330.586   124020944.145       -1133.810          47.000    23600333.070    95029228.636        -868.840          50.000  
G22  20295520.358   106654017.602          74.867          47.000                                                                  
E04  26457031.847   139032625.740        1545.368          38.000    26457034.479   106531585.823        1184.326          44.000  
E27  26588080.914   139721676.523       -3308.220          35.000    26588087.025   107059647.421       -2534.788          49.000  
> 2024 04 08 20 53 30.5000000  0 21                     
S33  39780487.051   209047800.158        -807.422          44.000  
G05  21634751.079   113691388.631       -1880.229          47.000    21634751.688    88590739.501       -1464.905          45.000  
G20  22752785.829   119566620.932       -3759.641          45.000                                                                  
G15  23119658.867   121494569.094        2068.923          45.000    23119657.857    94671145.537        1612.235          40.000  
R04  20416299.230   109328523.077       -3597.787          52.000    20416297.654    85033294.721       -2798.293          50.000  
R05  19270281.268   103010713.843         234.904          52.000    19270278.881    80119493.683         182.708          49.000  
R16  21135934.749   112904741.330        1582.340          51.000    21135938.961    87814961.175        1230.678          49.000  
G19  24194673.541   127143876.634        2168.156          43.000                                                                  
G13  20831563.503   109470801.701         884.497          49.000                                                                  
G17  23527753.015   123639442.667        2008.676          46.000    23527758.959    96342597.036        1565.264          42.000  
R14  22212555.202   118405898.507       -4330.563          53.000    22212554.006    92093438.356       -3368.303          43.000  
R15  19450844.544   103939773.489       -1836.869          52.000    19450841.342    80842254.580       -1428.687          48.000  
E19  23456905.562   123267055.849        -437.424          44.000    23456906.207    94451459.231        -335.186          46.000  
S31  38828191.548   204043465.473        -807.984          45.000  
G14  20567810.954   108084892.952       -2154.140          48.000    20567808.794    84222191.555       -1678.683          50.000  
G07  24752454.210   130075010.615       -3742.049          31.000    24752449.331                3      -2920.454          19.000  
G30  22136986.785   116330965.588       -2875.193          44.000    22136986.911    90647879.246       -2240.531          42.000  
E21  23606838.869   124055149.408       -1146.751          46.000    23606842.054    95055437.939        -878.627          50.000  
G22  20295148.888   106652064.726          55.208          47.000                                                                  
E04  26448210.488   138986270.510        1544.358          38.000    26448213.256   106496066.943        1183.515          44.000  
E27  26606981.572   139820993.871       -3313.163          38.000    26606986.568   107135747.741       -2538.746          49.000  
> 2024 04 08 20 54 00.0000000  0 21                     
S33  39785020.868   209071625.286        -807.886          44.000  
G05  21645354.599   113747108.522       -1897.906          48.000    21645355.357    88634157.533       -1478.859          45.000  
G20  22773909.717   119677627.099       -3766.209          44.000                                                                  
G15  23108054.033   121433585.219        2065.403          45.000    23108052.513    94623625.730        1609.600          39.000  
R04  20436169.888   109434928.963       -3616.285          51.000    20436168.442    85116054.713       -2812.690          51.000  
R05  19269045.494   103004110.019         212.559          51.000    19269043.568    80114357.394         165.291          49.000  
R16  21127237.834   112858283.282        1567.204          53.000    21127240.667    87778827.473        1218.910          48.000  
G19  24182496.579   127079895.523        2169.408          41.000                                                                  
G13  20826619.675   109444822.477         876.697          49.000                                                                  
G17  23516489.749   123580255.327        2003.853          46.000    23516496.213    96296477.523        1561.439          43.000  
R14  22236526.919   118533677.100       -4332.511          53.000    22236525.979    92192821.758       -3369.685          45.000  
R15  19461029.009   103994197.742       -1853.187          52.000    19461026.039    80884584.644       -1441.339          49.000  
E19  23459383.938   123280079.435        -445.598          44.000    23459384.592    94461438.379        -341.533          46.000  
S31  38832727.180   204067300.880        -808.186          45.000  
G14  20579949.766   108148686.474       -2170.960          48.000    20579948.036    84271900.826       -1691.602          50.000  
G07  24773457.249   130185383.375       -3741.171          31.000    24773456.769                3      -2927.506          14.000  
G30  22153136.275   116415835.294       -2878.603          43.000    22153136.658    90714011.495       -2243.019          42.000  
E21  23613310.215   124089157.374       -1158.976          46.000    23613313.511    95081496.076        -888.160          51.000  
G22  20294891.590   106650714.795          36.005          46.000                                                                  
E04  26439542.442   138940716.410        1543.970          39.000    26439544.758   106461161.979        1182.935          45.000  
E27  26625595.045   139918802.642       -3318.086          39.000    26625599.013   107210692.107       -2542.296          49.000  
> 2024 04 08 20 54 30.0000000  0 21                     
S33  39789633.105   209095862.998        -808.261          44.000  
G05  21656240.174   113804313.362       -1916.097          48.000    21656241.135    88678732.666       -1493.056          46.000  
G20  22795430.778   119790716.331       -3773.268          45.000                                                                  
G15  23096273.326   121371679.381        2061.411          45.000    23096272.588    94575387.501        1606.068          40.000  
R04  20456482.954   109543701.333       -3635.402          52.000    20456481.281    85200655.271       -2827.547          51.000  
R05  19267916.901   102998076.011         189.416          52.000    19267915.071    80109664.294         147.242          49.000  
R16  21118479.678   112811499.072        1551.520          52.000    21118483.061    87742440.112        1206.692          49.000  
G19  24170109.572   127014803.757        2170.029          41.000                                                                  
G13  20821638.140   109418644.538         868.298          48.000                                                                  
G17  23505066.015   123520224.708        1998.120          46.000    23505072.151    96249700.885        1556.920          43.000  
R14  22260916.318   118663685.792       -4334.883          53.000    22260915.792    92293939.618       -3371.545          46.000  
R15  19471479.169   104050043.523       -1870.175          52.000    19471477.130    80928020.297       -1454.560          49.000  
E19  23461951.196   123293572.137        -454.235          44.000    23461951.950    94471776.981        -347.986          46.000  
S31  38837341.647   204091549.058        -808.490          45.000  
G14  20592391.366   108214070.058       -2188.154          47.000    20592390.118    84322849.128       -1705.091          50.000  
G07  24794814.177   130297595.026       -3739.724          34.000                                                                  
G30  22169580.093   116502246.126       -2882.030          42.000    22169580.808    90781344.602       -2246.068          43.000  
E21  23619963.379   124124117.349       -1171.817          47.000    23619966.456    95108283.639        -897.881          51.000  
G22  20294740.129   106649920.513          16.655          47.000                                                                  
E04  26430730.793   138894417.600        1542.581          38.000    26430733.957   106425686.364        1181.947          44.000  
E27  26644552.645   140018414.031       -3323.060          41.000    26644554.414   107287017.697       -2546.193          49.000  
> 2024 04 08 20 55 00.5000000  0 22                     
S33  39794323.704   209120512.869        -808.190          44.000  
G05  21667413.566   113863028.173       -1934.364          48.000    21667414.667    88724484.391       -1507.137          45.000  
G20  22817347.752   119905894.075       -3779.773          44.000                                                                  
G15  23084319.467   121308858.108        2057.893          46.000    23084318.391    94526435.917        1603.453          40.000  
R06  23473424.956                        3278.337          26.000                                                                  
R04  20477241.741   109654865.520       -3654.287          52.000    20477240.162    85287116.190       -2842.115          50.000  
R05  19266902.055   102992647.728         166.295          52.000    19266899.622    80105442.330         129.286          49.000  
R16  21109664.871   112764412.504        1535.916          53.000    21109668.207    87705817.558        1194.616          49.000  
G19  24157512.750   126948602.144        2171.120          42.000                                                                  
G13  20816621.206   109392281.502         860.187          49.000                                                                  
G17  23493483.425   123459361.445        1992.761          45.000    23493488.814    96202275.455        1552.684          41.000  
R14  22285722.597   118795923.894       -4336.693          52.000    22285723.576    92396791.470       -3372.870          47.000  
R15  19482199.976   104107332.217       -1886.731          52.000    19482198.302    80972578.234       -1467.506          49.000  
E19  23464610.921   123307546.917        -462.330          44.000    23464611.072    94482484.956        -354.200          46.000  
S31  38842033.944   204116208.826        -808.486          44.000  
G14  20605140.740   108281066.593       -2205.182          48.000    20605138.959    84375054.242       -1718.410          50.000  
G07  24816518.281   130411642.984       -3739.027          34.000                                                                  
G30  22186316.872   116590201.743       -2885.530          43.000    22186317.730    90849881.427       -2248.503          42.000  
E21  23626800.598   124160046.513       -1184.387          47.000    23626803.453    95135813.850        -907.552          51.000  
G22  20294700.840   106649710.399          -2.979          47.000                                                                  
E04  26421779.359   138847375.723        1542.050          39.000    26421782.331   106389641.408        1181.451          45.000  
E27  26663849.102   140119832.740       -3327.610          39.000    26663853.721   107364728.176       -2549.732          49.000  
> 2024 04 08 20 55 30.5000000  0 22                     
S33  39798936.437   209144756.747        -808.049          43.000  
G05  21678505.179   113921317.444       -1951.821          48.000    21678506.164    88769904.554       -1520.955          45.000  
G20  22838943.087   120019372.089       -3786.144          42.000                                                                  
G15  23072581.692   121247173.741        2054.174          46.000    23072579.726    94478370.260        1600.662          40.000  
R06  23454996.156                3       3276.013          26.000                                                                  
R04  20497764.909   109764765.409       -3672.640          52.000    20497762.808    85372593.758       -2856.490          50.000  
R05  19266030.994   102987996.517         143.607          51.000    19266029.559    80101824.755         111.727          49.000  
R16  21101080.630   112718558.082        1520.661          52.000    21101083.718    87670153.355        1182.710          50.000  
G19  24145115.860   126883455.068        2171.689          43.000                                                                  
G13  20811732.526   109366590.342         852.191          49.000                                                                  
G17  23482120.682   123399654.502        1987.369          45.000    23482125.895    96155751.087        1548.490          41.000  
R14  22310132.836   118926044.257       -4338.360          53.000    22310134.134    92497996.169       -3374.336          46.000  
R15  19492836.793   104164173.584       -1902.937          52.000    19492835.179    81016788.248       -1479.939          49.000  
E19  23467273.360   123321537.352        -470.592          45.000    23467273.674    94493204.938        -360.567          47.000  
S31  38846649.483   204140463.446        -808.579          44.000  
G14  20617776.700   108347468.291       -2221.872          48.000    20617775.086    84426795.857       -1731.307          50.000  
G07  24837855.326                3      -3737.179          24.000    24837856.473                3      -2917.044          23.000  
G30  22202797.499   116676808.495       -2888.657          43.000    22202797.184    90917367.215       -2250.900          42.000  
E21  23633595.770   124195756.877       -1196.696          47.000    23633598.595    95163176.401        -916.850          51.000  
G22  20294771.985   106650082.407         -22.087          48.000                                                                  
E04  26412978.297   138801125.122        1541.112          39.000    26412981.295   106354202.718        1180.980          45.000  
E27  26682858.117   140219722.880       -3332.183          39.000    26682862.110   107441267.347       -2553.024          48.000  
> 2024 04 08 20 56 00.5000000  0 22                     
S33  39803549.745   209168996.651        -808.339          44.000  
G05  21689698.274   113980134.221       -1969.328          48.000    21689698.645    88815735.745       -1534.505          45.000  
G20  22860572.046   120133031.097       -3791.871          41.000                                                                  
G15  23060863.622   121185595.163        2050.689          47.000    23060862.296    94430387.041        1597.912          41.000  
R06  23436601.414                3       3273.762          25.000                                                                  
R04  20518389.903   109875213.850       -3690.821          52.000    20518388.205    85458497.980       -2870.557          50.000  
R05  19265288.787   102984027.211         120.924          51.000    19265286.492    80098737.551          93.824          49.000  
R16  21092581.636   112673158.261        1505.831          52.000    21092583.550    87634842.785        1171.059          47.000  
G19  24132711.997   126818277.990        2173.008          43.000                                                                  
G13  20806888.421   109341136.193         844.263          48.000                                                                  
G17  23470788.510   123340105.869        1982.214          46.000    23470793.380    96109350.076        1544.561          41.000  
R14  22334551.407   119056208.786       -4339.657          53.000    22334552.810    92599235.260       -3375.215          47.000  
R15  19503564.650   104221497.469       -1918.937          52.000    19503561.936    81061373.567       -1492.621          48.000  
E19  23469981.626   123335769.329        -478.494          44.000    23469982.019    94504109.988        -366.529          47.000  
S31  38851264.022   204164713.520        -808.314          45.000  
G14  20630506.844   108414364.790       -2238.215          48.000    20630505.064    84478923.060       -1744.037          50.000  
G30  22219294.901   116763504.418       -2891.330          43.000    22219294.492    90984922.469       -2252.950          42.000  
E21  23640460.233   124231830.917       -1208.785          47.000    23640463.105    95190817.623        -926.110          51.000  
G22  20294950.805   106651026.064         -41.028          47.000                                                                  
E04  26404181.118   138754892.922        1540.948          40.000    26404183.374   106318778.156        1180.578          46.000  
E27  26701890.646   140319741.634       -3336.109          39.000    26701895.399   107517905.103       -2556.336          49.000  
G07                                                                  24859179.290                       -2910.794          29.000  
> 2024 04 08 20 56 30.5000000  0 22                     
S33  39808162.082   209193234.671        -808.113          44.000  
G05  21700992.178   114039479.812       -1987.046          49.000    21700992.076    88861978.985       -1548.344          45.000  
G20  22882236.071   120246870.434       -3798.013          42.000                                                                  
G15  23049166.420   121124126.301        2047.074          47.000    23049164.582    94382489.292        1595.140          40.000  
R06  23418199.406                3       3269.691          26.000                                                                  
R04  20539118.738   109986210.674       -3709.053          53.000    20539116.549    85544828.682       -2884.779          50.000  
R05  19264675.379   102980744.572          97.865          52.000    19264672.385    80096184.405          76.101          49.000  
R16  21084167.032   112628215.415        1490.309          51.000    21084169.514    87599887.549        1159.087          48.000  
G19  24120303.816   126753076.085        2173.530          43.000                                                                  
G13  20802090.311   109315923.293         836.218          48.000                                                                  
G17  23459488.290   123280721.138        1976.702          46.000    23459490.933    96063076.703        1540.252          39.000  
R14  22358977.535   119186417.014       -4341.053          53.000    22358979.671    92700508.316       -3376.379          47.000  
R15  19514381.683   104279303.276       -1934.968          52.000    19514379.147    81106333.696       -1505.029          48.000  
E19  23472735.810   123350245.632        -486.535          43.000    23472736.661    94515202.271        -372.962          47.000  
S31  38855878.085   204188961.415        -808.349          45.000  
G14  20643331.465   108481756.022       -2254.806          49.000    20643328.920    84531435.750       -1756.935          50.000  
G30  22235810.002   116850290.729       -2894.464          43.000    22235810.749    91052548.140       -2255.354          43.000  
E21  23647395.128   124268269.704       -1220.714          48.000    23647397.130    95218738.336        -935.375          51.000  
G22  20295239.790   106652543.788         -60.296          48.000                                                                  
E04  26395387.185   138708682.167        1539.840          40.000    26395389.704   106283370.008        1179.886          46.000  
E27  26720948.848   140419889.333       -3340.460          40.000    26720952.738   107594641.640       -2559.602          48.000  
G07                                                                  24880503.855                       -2909.537          30.000  
> 2024 04 08 20 57 00.0000000  0 22                     
S33  39812697.822   209217069.088        -807.963          44.000  
G05  21712194.978   114098351.668       -2004.254          48.000    21712195.548    88907853.065       -1561.605          46.000  
G20  22903571.838   120358987.392       -3803.277          43.000                                                                  
G15  23037685.329   121063793.204        2043.411          46.000    23037682.705    94335476.549        1592.263          40.000  
R06  23400127.847                        3266.563          25.000                                                                  
R04  20559600.083   110095892.565       -3726.812          52.000    20559599.270    85630136.650       -2898.713          51.000  
R05  19264197.513   102978190.773          75.301          52.000    19264194.583    80094198.137          58.512          48.000  
R16  21075977.965   112584470.256        1475.448          51.000    21075980.923    87565863.896        1147.556          49.000  
G19  24108099.482   126688941.509        2174.658          42.000                                                                  
G07  24901469.854                1      -3732.705          27.000    24901467.375                       -2908.599          29.000  
G13  20797417.770   109291369.783         828.412          47.000                                                                  
G17  23448406.608   123222490.956        1971.248          46.000    23448410.868    96017702.975        1536.122          41.000  
R14  22383005.799   119314497.059       -4342.228          53.000    22383007.077    92800126.157       -3377.295          48.000  
R15  19525106.306   104336615.016       -1950.511          52.000    19525105.142    81150909.538       -1516.993          49.000  
E19  23475490.555   123364722.121        -494.899          44.000    23475491.271    94526294.679        -379.088          47.000  
S31  38860415.374   204212805.968        -808.201          44.000  
G14  20656033.602   108548506.718       -2270.702          49.000    20656030.817    84583449.319       -1769.353          50.000  
G30  22252066.834   116935720.365       -2897.365          43.000    22252066.891    91119116.683       -2257.602          43.000  
E21  23654280.962   124304458.219       -1232.651          47.000    23654283.402    95246467.267        -944.464          51.000  
G22  20295631.346   106654598.712         -78.948          48.000                                                                  
E04  26386743.884   138663265.699        1539.220          39.000    26386747.192   106248570.482        1179.367          46.000  
E27  26739711.554   140518494.221       -3344.721          41.000    26739716.778   107670196.044       -2562.722          49.000  
> 2024 04 08 20 57 30.0000000  0 21                     
S33  39817308.568   209241299.929        -807.593          44.000  
G05  21723685.812   114158736.517       -2021.348          49.000    21723686.451    88954906.118       -1575.004          46.000  
G20  22925301.612   120473171.935       -3808.908          43.000                                                                  
G15  23026029.937   121002544.979        2039.790          46.000    23026027.765    94287750.702        1589.594          40.000  
R04  20580529.601   110207967.313       -3744.747          52.000    20580528.728    85717305.747       -2912.494          51.000  
R05  19263838.704   102976274.083          52.416          51.000    19263836.066    80092707.425          40.807          49.000  
R16  21067733.492   112540432.575        1460.321          51.000    21067735.502    87531612.733        1135.832          48.000  
G19  24095683.109   126623695.461        2175.149          42.000                                                                  
G07  24922769.026                1      -3731.273          27.000    24922772.722                1      -2907.196          29.000  
G13  20792711.216   109266637.383         820.483          47.000                                                                  
G17  23437168.784   123163437.232        1965.796          46.000    23437172.140    95971687.545        1531.837          40.000  
R14  22407446.511   119444780.945       -4343.362          53.000    22407447.878    92901458.066       -3378.190          47.000  
R15  19536100.687   104395364.822       -1966.095          52.000    19536099.098    81196603.897       -1529.197          49.000  
E19  23478337.554   123379683.124        -502.801          44.000    23478338.561    94537758.336        -385.128          47.000  
S31  38865028.387   204237046.960        -807.682          44.000  
G14  20669042.443   108616870.071       -2286.829          48.000    20669039.710    84636719.505       -1781.990          49.000  
G30  22268615.442   117022681.033       -2900.164          43.000    22268615.661    91186878.241       -2259.572          44.000  
E21  23661351.148   124341614.705       -1244.537          47.000    23661354.292    95274937.891        -953.583          51.000  
G22  20296136.006   106657252.740         -97.963          47.000                                                                  
E04  26377958.573   138617097.571        1538.304          39.000    26377961.710   106213194.989        1178.778          47.000  
E27  26758817.593   140618889.674       -3348.449          41.000    26758821.363   107747122.428       -2565.750          48.000  
> 2024 04 08 20 58 00.0000000  0 22                     
S33  39821918.014   209265523.376        -807.559          44.000  
G05  21735275.057   114219638.818       -2039.033          48.000    21735275.780    89002362.403       -1588.794          46.000  
G20  22947062.563   120587522.122       -3814.689          44.000                                                                  
G15  23014395.646   120941406.812        2035.850          46.000    23014392.915    94240110.653        1586.432          39.000  
R06  23363434.326                3       3259.051          26.000                                                                  
R04  20601559.493   110320578.654       -3762.911          52.000    20601558.635    85804892.153       -2926.729          51.000  
R05  19263608.708   102975045.334          29.256          51.000    19263605.937    80091751.728          22.783          48.000  
R16  21059574.043   112496848.204        1445.017          51.000    21059576.722    87497714.120        1123.835          49.000  
G19  24083261.688   126558427.804        2175.381          43.000                                                                  
G07  24944067.394                       -3730.102          29.000    24944066.042                       -2906.671          27.000  
G13  20788051.179   109242146.623         812.054          48.000                                                                  
G17  23425963.436   123104551.407        1959.697          45.000    23425965.978    95925802.870        1527.031          40.000  
R14  22431893.939   119575095.302       -4344.553          52.000    22431894.539    93002813.691       -3379.138          48.000  
R15  19547183.134   104454582.982       -1981.989          52.000    19547181.163    81242662.530       -1541.632          49.000  
E19  23481230.364   123394886.148        -511.156          44.000    23481231.527    94549407.453        -391.613          47.000  
S31  38869640.074   204261280.391        -807.767          45.000  
G14  20682143.021   108685716.722       -2303.132          48.000    20682140.773    84690366.292       -1794.624          49.000  
G30  22285179.950   117109724.832       -2903.178          45.000    22285179.725    91254704.575       -2262.170          43.000  
E21  23668489.061   124379127.853       -1256.596          47.000    23668492.910    95303681.797        -962.895          51.000  
G22  20296749.132   106660476.637        -117.147          48.000                                                                  
E04  26369176.317   138570948.665        1537.727          40.000    26369179.768   106177834.257        1178.330          47.000  
E27  26777943.400   140719403.748       -3352.599          40.000    26777948.269   107824139.739       -2568.997          47.000  
> 2024 04 08 20 58 30.5000000  0 22                     
S33  39826603.391   209290144.280        -807.266          44.000  
G05  21747158.471   114282086.215       -2056.150          48.000    21747159.033    89051022.622       -1602.165          45.000  
G20  22969217.788   120703945.851       -3819.824          43.000                                                                  
G15  23002589.591   120879365.975        2032.077          47.000    23002586.832    94191767.217        1583.339          39.000  
R06  23344806.195                3       3256.596          25.000                                                                  
R04  20623042.045   110435615.337       -3780.714          52.000    20623040.686    85894364.981       -2940.572          50.000  
R05  19263507.558   102974505.011           5.891          51.000    19263505.149    80091331.519           4.504          49.000  
R16  21051366.118   112453003.430        1429.698          51.000    21051368.508    87463613.031        1112.019          49.000  
G19  24070631.989   126492054.117        2176.350          43.000                                                                  
G07  24965699.600                1      -3727.948          25.000    24965712.668                3      -2904.692          22.000  
G13  20783360.494   109217498.077         803.870          48.000                                                                  
G17  23414604.155   123044860.851        1954.157          44.000    23414608.181    95879291.239        1522.635          41.000  
R14  22456753.456   119707610.970       -4345.325          53.000    22456753.653    93105881.444       -3379.569          49.000  
R15  19558539.429   104515266.261       -1997.545          52.000    19558537.411    81289860.679       -1553.584          49.000  
E19  23484219.322   123410592.714        -519.203          44.000    23484220.332    94561442.380        -397.727          47.000  
S31  38874326.918   204285911.064        -807.595          45.000  
G14  20695555.657   108756205.163       -2319.232          47.000    20695554.425    84745292.427       -1807.239          49.000  
G30  22302034.662   117198304.923       -2905.632          42.000    22302035.975    91323728.045       -2264.162          44.000  
E21  23675817.958   124417631.903       -1268.407          48.000    23675820.108    95333184.956        -971.952          52.000  
G22  20297484.641   106664339.584        -136.292          48.000                                                                  
E04  26360252.872   138524052.556        1537.142          41.000    26360255.588   106141900.974        1177.963          47.000  
E27  26797413.401   140821714.075       -3356.594          40.000    26797417.430   107902533.348       -2571.837          48.000  
> 2024 04 08 20 59 00.5000000  0 22                     
S33  39831208.631   209314347.329        -806.436          44.000  
G05  21758944.297   114344021.871       -2073.020          48.000    21758944.916    89099284.126       -1615.269          45.000  
G20  22991038.612   120818616.050       -3824.614          42.000                                                                  
G15  22990997.453   120818451.545        2028.562          46.000    22990994.399    94144301.509        1580.768          38.000  
R06  23326497.072                        3254.852          28.000                                                                  
R04  20644270.996   110549296.283       -3798.042          52.000    20644270.561    85982783.301       -2954.005          51.000  
R05  19263537.194   102974666.262         -16.723          51.000    19263535.320    80091456.950         -13.084          48.000  
R16  21043376.968   112410329.308        1415.083          52.000    21043379.577    87430422.413        1100.441          50.000  
G19  24058203.685   126426746.753        2177.247          43.000                                                                  
G07  24986980.790                1      -3725.441          30.000    24986988.618                3      -2898.761          20.000  
G13  20778793.135   109193494.936         796.106          48.000                                                                  
G17  23403462.877   122986318.845        1948.713          44.000    23403467.261    95833674.555        1518.347          42.000  
R14  22481209.044   119837973.960       -4345.721          52.000    22481208.603    93207274.844       -3379.914          48.000  
R15  19569795.268   104575414.973       -2012.464          52.000    19569793.157    81336643.044       -1565.355          48.000  
E19  23487204.948   123426282.095        -526.911          44.000    23487205.726    94573464.136        -403.723          47.000  
S31  38878934.548   204310124.705        -806.791          45.000  
G14  20708840.516   108826015.239       -2334.839          47.000    20708838.551    84799689.943       -1819.324          49.000  
G30  22318629.420   117285509.597       -2908.013          44.000    22318629.548    91391679.728       -2265.951          43.000  
E21  23683092.084   124455856.518       -1279.930          48.000    23683093.927    95362473.990        -980.795          52.000  
G22  20298315.949   106668708.306        -155.007          48.000                                                                  
E04  26351477.634   138477940.917        1536.833          41.000    26351480.315   106106568.796        1177.564          46.000  
E27  26816582.380   140922457.403       -3359.952          38.000    26816588.273   107979726.329       -2574.427          47.000  
> 2024 04 08 20 59 30.5000000  0 22                     
S33  39835812.147   209338537.260        -805.929          44.000  
G05  21770827.066   114406464.523       -2089.756          48.000    21770827.429    89147940.658       -1628.480          45.000  
G20  23012888.858   120933436.996       -3829.752          42.000                                                                  
G15  22979426.994   120757647.978        2025.164          46.000    22979423.163    94096922.224        1577.900          38.000  
R06  23308212.477                        3250.966          29.000                                                                  
R04  20665598.581   110663501.153       -3815.426          53.000    20665597.837    86071609.124       -2967.476          51.000  
R05  19263697.078   102975517.095         -39.823          52.000    19263694.858    80092118.742         -30.937          49.000  
R16  21035472.127   112368104.080        1400.184          52.000    21035475.177    87397580.883        1089.037          50.000  
G19  24045771.562   126361421.317        2177.863          42.000                                                                  
G07  25008242.354   131419222.7431      -3723.325          28.000    25008256.155                3      -2902.065          26.000  
G13  20774271.049   109169733.572         788.019          49.000                                                                  
G17  23392356.337   122927949.057        1942.938          46.000    23392359.007    95788191.998        1514.014          42.000  
R14  22505666.667   119968353.921       -4346.115          50.000    22505668.520    93308681.471       -3380.319          49.000  
R15  19581135.745   104636017.860       -2027.501          52.000    19581133.841    81383778.675       -1576.982          48.000  
E19  23490236.292   123442210.964        -534.769          43.000    23490236.999    94585669.409        -409.917          48.000  
S31  38883539.760   204334325.224        -806.250          45.000  
G14  20722214.819   108896296.745       -2350.409          48.000    20722212.339    84854454.804       -1831.549          49.000  
G30  22335238.964   117372790.020       -2910.369          45.000    22335238.547    91459690.458       -2267.820          43.000  
E21  23690431.886   124494429.396       -1291.444          48.000    23690434.218    95392029.902        -989.626          52.000  
G22  20299254.960   106673641.871        -173.683          49.000                                                                  
E04  26342707.031   138431846.307        1536.426          42.000    26342708.629   106071249.652        1177.214          46.000  
E27  26835776.071   141023308.991       -3363.374          41.000    26835779.597   108057002.170       -2577.029          47.000  
