     3.00           OBSERVATION DATA    M: Mixed            RINEX VERSION / TYPE
CONVBIN 2.4.3                           20240408 234442 UTC PGM / RUN BY / DATE 
format: u-blox UBX                                          COMMENT             
log: data/2024-04-08/20240408233000.ubx                     COMMENT             
AQUI00CHL                                                   MARKER NAME         
                                                            MARKER NUMBER       
                                                            MARKER TYPE         
                                                            OBSERVER / AGENCY   
UNKNOWN             UBLOX-ZED-F9P                           REC # / TYPE / VERS 
UNKNOWN             TWIVSP6037L                             ANT # / TYPE        
  1713381.0000 -5047934.0000 -3490983.0000                  APPROX POSITION XYZ 
        0.0000        0.0000        0.0000                  ANTENNA: DELTA H/E/N
G    8 C1C L1C D1C S1C C2L L2L D2L S2L                      SYS / # / OBS TYPES 
R    8 C1C L1C D1C S1C C2C L2C D2C S2C                      SYS / # / OBS TYPES 
E    8 C1C L1C D1C S1C C7Q L7Q D7Q S7Q                      SYS / # / OBS TYPES 
S    4 C1C L1C D1C S1C                                      SYS / # / OBS TYPES 
  2024    04    08    23    30   00.0050000     GPS         TIME OF FIRST OBS   
  2024    04    08    23    44   30.0050000     GPS         TIME OF LAST OBS    
                                                            END OF HEADER       
> 2024 04 08 23 30 00.0050000  0 26                     
S33  41181710.196   216411358.4021       -802.917          45.000  
E26  29329163.870   154125822.4011       1485.993          42.000    29329166.227   118096445.9051       1138.649          47.000  
G24  22847869.427   120066473.0641        938.570          48.000    22847866.679    93558374.4791        731.332          47.000  
E09  27813701.463   146161929.9921       1473.676          42.000    27813702.909   111994315.9301       1129.265          47.000  
G15  22339553.383   117395116.9461      -2072.784          49.000    22339549.721    91476775.7861      -1615.320          46.000  
R06  21796883.522   116312386.4841      -2697.933          40.000                                                                  
R07  22840954.898   122269462.9751       1143.068          51.000    22840949.474    95098458.1211        889.000          47.000  
R05  24867244.297                3      -5297.869          19.000    24867428.046                3      -4129.727          16.000  
R16  21909834.498   117038894.2681      -1803.943          53.000    21909829.305    91030445.3101      -1403.176          49.000  
R09  22726379.261   121357885.0231        693.950          52.000    22726375.324    94389550.3021        539.764          49.000  
R19  24604253.354   131616333.5601       3061.661          36.000    24604259.304   102368370.2191       2381.234          43.000  
G19  22805587.245   119844588.3551      -1863.387          47.000                                                                  
G13  22919664.001   120443847.4441      -3603.156          48.000                                                                  
G17  23853281.341   125350276.4701      -3091.148          42.000    23853275.896    97675757.8031      -2408.469          45.000  
E31  26547455.820   139508128.7101        587.240          48.000    26547458.815   106895902.2141        449.874          50.000  
G12  23508199.101   123536726.7381        830.703          49.000    23508194.779    96262560.7311        647.331          44.000  
R17  24116320.068   129051355.8421      -1918.536          46.000    24116314.786   100373232.5071      -1492.161          43.000  
R15  24782014.467   132427556.9671      -3300.522          41.000    24782009.116   102999739.3721      -2566.965          44.000  
R18  23147874.746   123565171.6111       1311.105          50.000    23147871.009    96106212.1781       1019.783          47.000  
E19  26992232.788   141845302.7011      -3496.173          41.000    26992236.698   108686731.8901      -2678.905          46.000  
S31  40229415.391   211407017.1151       -802.646          44.000  
G25  25723205.724   135176361.5081       1592.920          39.000    25723215.331   105332278.5081       1241.767          32.000  
G06  26386243.043   138660675.9021       1595.726          40.000    26386245.442   108047291.9511       1243.140          40.000  
E21  27854725.620   146377971.1321      -2934.101          43.000    27854723.592   112159948.4101      -2248.126          47.000  
G22  24518509.144   128846025.7011      -3820.346          40.000                                                                  
E04  25127162.152   132044166.1961       -851.561          48.000    25127161.040   101176806.6011       -652.468          52.000  
> 2024 04 08 23 30 30.0050000  0 26                     
S33  41186293.556   216435445.601        -802.599          45.000  
E26  29320684.196   154081258.348        1484.902          44.000    29320685.640   118062299.723        1137.768          47.000  
G24  22842526.444   120038398.474         933.093          48.000    22842524.290    93536498.204         727.045          46.000  
E09  27805309.587   146117832.069        1466.256          42.000    27805311.074   111960526.677        1123.451          47.000  
G15  22351434.661   117457557.079       -2089.874          48.000    22351431.295    91525430.392       -1628.278          45.000  
R06  21812117.052   116393674.177       -2721.329          40.000                                                                  
R07  22834616.495   122235531.040        1119.165          51.000    22834610.226    95072066.657         870.336          47.000  
R05  24897124.309                1      -5303.974          27.000                                                                  
R16  21919977.272   117093077.176       -1808.008          52.000    21919972.535    91072587.585       -1406.288          50.000  
R09  22722493.834   121337142.246         688.955          51.000    22722491.024    94373417.110         535.816          50.000  
R19  24587089.851   131524523.643        3058.640          38.000    24587095.385   102296963.366        2379.224          42.000  
G19  22816279.193   119900773.452       -1882.560          48.000                                                                  
G13  22940271.190   120552138.838       -3616.062          47.000                                                                  
G17  23870972.812   125443246.129       -3107.009          41.000    23870967.164    97748201.711       -2421.109          44.000  
E31  26544121.376   139490608.048         581.094          47.000    26544124.255   106882477.405         445.211          50.000  
G12  23503483.699   123511947.472         821.292          49.000    23503479.202    96243252.341         639.932          44.000  
R17  24127145.508   129109280.245       -1942.885          48.000    24127139.588   100418284.807       -1511.185          42.000  
R15  24800538.167   132526546.398       -3299.084          39.000    24800534.152   103076731.068       -2565.865          45.000  
R18  23140563.396   123526133.547        1291.391          52.000    23140558.081    96075849.281        1004.372          47.000  
E19  27012211.503   141950291.516       -3502.675          42.000    27012215.344   108767177.628       -2684.027          45.000  
S31  40233997.052   211431095.075        -802.513          44.000  
G25  25714125.520   135128647.696        1587.874          41.000    25714135.197   105295099.802        1237.286          33.000  
G06  26377140.625   138612835.546        1593.805          42.000    26377142.193   108010014.053        1241.811          41.000  
E21  27871473.977   146465987.825       -2933.517          43.000    27871472.488   112227389.779       -2247.788          47.000  
G22  24540322.848   128960653.880       -3821.987          40.000                                                                  
E04  25132062.999   132069918.690        -865.124          48.000    25132061.515   101196539.011        -662.911          52.000  
> 2024 04 08 23 31 00.0050000  0 26                     
S33  41190875.814   216459527.207        -802.583          45.000  
E26  29312208.623   154036726.433        1483.858          44.000    29312211.116   118028178.145        1137.156          47.000  
G24  22837214.118   120010480.748         928.113          48.000    22837211.635    93514744.155         723.325          46.000  
E09  27796961.125   146073959.353        1458.934          43.000    27796962.252   111926909.990        1117.880          47.000  
G15  22363412.969   117520504.865       -2106.519          47.000    22363410.177    91574480.603       -1641.510          45.000  
R06  21827481.578   116475661.455       -2744.567          41.000                                                                  
R07  22828411.208   122202313.668        1095.615          51.000    22828405.428    95046230.949         852.030          48.000  
R05  24926906.185                3      -5298.331          21.000                                                                  
R16  21930142.616   117147376.527       -1811.695          53.000    21930137.778    91114820.438       -1409.065          49.000  
R09  22718638.423   121316550.619         684.060          51.000    22718634.996    94357401.475         532.026          50.000  
R19  24569942.017   131432795.657        3056.370          39.000    24569946.593   102225620.295        2376.971          43.000  
G19  22827079.561   119957531.553       -1901.288          48.000                                                                  
G13  22960950.507   120660810.806       -3628.525          47.000                                                                  
G17  23888756.567   125536698.949       -3122.778          42.000    23888750.403    97821022.121       -2433.398          45.000  
E31  26540821.284   139473265.521         575.294          47.000    26540824.093   106869189.086         440.804          50.000  
G12  23498821.548   123487449.563         812.132          49.000    23498817.867    96224163.183         632.716          44.000  
R17  24138105.382   129167935.069       -1967.176          47.000    24138100.689   100463905.273       -1529.908          42.000  
R15  24819055.544   132625492.639       -3297.447          39.000    24819051.035   103153689.281       -2564.508          46.000  
R18  23133359.389   123487685.736        1271.880          50.000    23133356.694    96045945.497         989.363          48.000  
E19  27032227.232   142055472.699       -3509.303          41.000    27032230.962   108847770.742       -2688.844          45.000  
S31  40238578.015   211455166.822        -802.023          44.000  
G25  25705074.502   135081085.087        1583.235          42.000    25705083.674   105258038.949        1233.428          36.000  
G06  26368047.839   138565053.577        1592.133          41.000    26368049.074   107972781.713        1240.386          41.000  
E21  27888219.454   146553986.984       -2932.712          42.000    27888218.581   112294817.743       -2247.158          48.000  
G22  24562147.321   129075344.251       -3823.996          39.000                                                                  
E04  25137040.328   132096075.213        -878.452          48.000    25137039.053   101216581.012        -673.091          52.000  
> 2024 04 08 23 31 30.0050000  0 26                     
S33  41195458.537   216483608.752        -802.720          45.000  
E26  29303742.180   153992234.087        1482.681          43.000    29303743.752   117994086.880        1136.004          46.000  
G24  22831932.246   119982726.806         922.631          48.000    22831930.347    93493117.726         718.856          47.000  
E09  27788656.937   146030318.796        1451.109          44.000    27788657.923   111893471.190        1111.727          47.000  
G15  22375488.248   117583964.369       -2123.560          47.000    22375485.837    91623929.484       -1654.663          45.000  
R06  21842977.243   116558350.385       -2767.582          39.000                                                                  
R07  22822342.078   122169818.471        1071.357          52.000    22822335.025    95020956.908         833.278          48.000  
R05  24956646.832                3      -5290.063          15.000                                                                  
R16  21940329.563   117201797.086       -1815.710          52.000    21940325.793    91157147.534       -1412.225          49.000  
R09  22714811.064   121296115.058         678.861          51.000    22714807.808    94341507.235         527.955          50.000  
R19  24552810.744   131341159.558        3052.938          39.000    24552815.604   102154348.685        2374.390          43.000  
G19  22837989.936   120014866.524       -1920.477          49.000                                                                  
G13  22981702.143   120769867.051       -3641.362          46.000                                                                  
G17  23906633.096   125630638.103       -3139.058          42.000    23906626.048    97894221.433       -2445.979          44.000  
E31  26537556.304   139456106.006         569.159          48.000    26537558.343   106856041.009         436.019          50.000  
G12  23494213.950   123463238.204         802.471          47.000    23494210.331    96205297.293         625.380          45.000  
R17  24149204.032   129227324.357       -1991.632          48.000    24149199.705   100510096.973       -1548.962          40.000  
R15  24837566.649   132724401.263       -3296.021          36.000    24837560.138   103230618.245       -2563.937          45.000  
R18  23126266.773   123449837.187        1251.862          49.000    23126264.198    96016507.793         973.589          45.000  
E19  27052279.650   142160850.091       -3515.453          41.000    27052283.679   108928514.230       -2693.862          45.000  
S31  40243158.266   211479238.603        -802.026          45.000  
G25  25696052.279   135033679.009        1577.792          43.000    25696060.347   105221100.056        1229.761          37.000  
G06  26358967.724   138517338.421        1589.567          43.000    26358968.417   107935601.361        1238.596          39.000  
E21  27904961.672   146641973.273       -2932.458          41.000    27904961.802   112362235.803       -2247.003          47.000  
G22  24583983.981   129190100.345       -3826.129          35.000                                                                  
E04  25142095.756   132122641.345        -892.085          49.000    25142094.635   101236936.874        -683.582          52.000  
> 2024 04 08 23 32 00.0050000  0 26                     
S33  41200039.548   216507682.977        -802.068          45.000  
E26  29295282.089   153947777.142        1481.459          43.000    29295284.069   117960022.714        1135.144          47.000  
G24  22826681.459   119955131.966         917.361          49.000    22826679.244    93471615.269         714.723          47.000  
E09  27780395.484   145986905.888        1443.471          43.000    27780396.652   111860206.805        1105.923          47.000  
G15  22387660.763   117647927.759       -2140.271          48.000    22387656.955    91673771.028       -1667.731          45.000  
R06  21858601.814   116641731.896       -2790.620          39.000                                                                  
R07  22816405.380   122138041.705        1047.427          52.000    22816398.868    94996241.675         814.573          48.000  
R05  24986399.874                3      -5302.506          16.000                                                                  
R16  21950538.710   117256331.616       -1819.458          53.000    21950534.964    91199563.265       -1415.125          50.000  
R09  22711011.930   121275828.329         673.950          51.000    22711008.873    94325728.758         524.185          50.000  
R19  24535697.051   131249613.695        3050.027          40.000    24535701.324   102083147.240        2372.334          44.000  
G19  22849008.813   120072770.723       -1939.399          49.000                                                                  
G13  23002528.113   120879298.954       -3653.733          48.000                                                                  
G17  23924598.866   125725054.632       -3155.020          42.000    23924593.203    97967792.754       -2458.415          44.000  
E31  26534324.458   139439122.916         563.307          48.000    26534326.767   106843028.078         431.697          50.000  
G12  23489658.992   123439306.645         793.321          47.000    23489656.531    96186649.445         618.029          45.000  
R17  24160438.119   129287440.782       -2015.775          49.000    24160433.505   100556854.162       -1567.596          39.000  
R15  24856068.602   132823265.669       -3294.626          35.000    24856059.815   103307512.978       -2562.520          43.000  
R18  23119287.836   123412585.258        1231.905          48.000    23119285.946    95987534.094         958.062          47.000  
E19  27072369.306   142266415.907       -3521.872          42.000    27072372.733   109009402.046       -2698.492          45.000  
S31  40247737.786   211503303.781        -801.733          44.000  
G25  25687058.887   134986423.254        1572.920          44.000    25687067.369   105184278.349        1225.337          39.000  
G06  26349899.490   138469686.833        1587.465          42.000    26349901.045   107898470.532        1237.107          42.000  
E21  27921699.847   146729939.690       -2931.780          40.000    27921700.932   112429638.649       -2246.408          47.000  
G22  24605832.562   129304914.315       -3827.688          37.000                                                                  
E04  25147228.169   132149611.147        -905.534          49.000    25147226.668   101257602.035        -693.825          52.000  
> 2024 04 08 23 32 30.0050000  0 25                     
S33  41204620.771   216531758.596        -802.879          45.000  
E26  29286830.814   153903364.915        1479.485          43.000    29286832.476   117925992.815        1133.552          46.000  
G24  22821462.444   119927704.982         911.267          49.000    22821460.215    93450243.606         710.048          47.000  
E09  27772180.327   145943729.454        1435.165          44.000    27772180.390   111827123.605        1099.609          47.000  
G15  22399929.854   117712400.758       -2157.739          48.000    22399926.172    91724009.681       -1681.451          45.000  
R06  21874358.058   116725810.033       -2814.417          38.000                                                                  
R07  22810604.380   122106993.364        1022.616          50.000    22810597.889    94972092.969         795.282          47.000  
R16  21960770.549   117310986.927       -1824.025          53.000    21960766.059    91242072.940       -1418.789          49.000  
R09  22707242.195   121255696.992         668.199          52.000    22707238.205    94310071.110         519.799          50.000  
R19  24518601.998   131158169.547        3046.332          38.000    24518606.068   102012024.965        2369.274          43.000  
G19  22860137.462   120131250.340       -1959.086          49.000                                                                  
G13  23023424.650   120989111.508       -3667.068          48.000                                                                  
G17  23942656.661   125819952.741       -3171.422          43.000    23942651.708    98041739.342       -2471.370          43.000  
E31  26531126.937   139422323.006         556.761          48.000    26531130.018   106830155.510         426.647          50.000  
G12  23485159.890   123415661.792         783.115          47.000    23485157.282    96168224.981         610.269          45.000  
R17  24171809.346   129348290.347       -2040.710          50.000    24171806.556   100604181.647       -1587.189          39.000  
R15  24874562.879   132922093.984       -3293.905          40.000    24874553.337   103384379.410       -2562.010          41.000  
R18  23112423.172   123375941.064        1211.110          49.000    23112422.646    95959033.133         941.858          48.000  
E19  27092495.083   142372175.837       -3528.760          41.000    27092498.529   109090438.577       -2703.805          45.000  
S31  40252317.238   211527369.567        -802.524          44.000  
G25  25678095.922   134939325.077        1567.208          45.000    25678104.160   105147579.390        1221.284          39.000  
G06  26340845.536   138422109.025        1584.665          41.000    26340846.906   107861397.260        1234.875          42.000  
E21  27938436.947   146817892.764       -2931.677          40.000    27938438.046   112497031.281       -2246.494          47.000  
G22  24627693.978   129419791.906       -3830.469          39.000                                                                  
E04  25152437.468   132176992.034        -919.640          48.000    25152437.076   101278582.189        -704.645          52.000  
> 2024 04 08 23 33 00.0050000  0 25                     
S33  41209202.259   216555834.108        -802.315          44.000  
E26  29278387.386   153858998.260        1478.464          42.000    29278389.759   117891997.838        1132.666          47.000  
G24  22816275.071   119900446.244         906.219          48.000    22816272.979    93429003.055         706.024          47.000  
E09  27764008.998   145900789.910        1427.686          44.000    27764009.127   111794221.935        1093.846          47.000  
G15  22412295.637   117777380.801       -2174.103          49.000    22412291.408    91774643.451       -1694.366          45.000  
R06  21890244.179   116810580.101       -2836.663          39.000                                                                  
R07  22804940.363   122076674.176         998.842          51.000    22804935.048    94948511.412         776.674          48.000  
R16  21971023.858   117365760.464       -1827.399          53.000    21971019.624    91284674.598       -1421.375          50.000  
R09  22703502.058   121235719.477         663.628          53.000    22703496.557    94294533.137         516.081          49.000  
R19  24501526.070   131066830.857        3042.947          39.000    24501530.181   101940984.701        2366.723          43.000  
G19  22871375.323   120190302.341       -1977.607          49.000                                                                  
G13  23044393.533   121099301.330       -3678.920          48.000                                                                  
G17  23960806.631   125915328.851       -3186.913          42.000    23960801.316    98116058.411       -2483.361          42.000  
E31  26527964.567   139405704.596         551.097          48.000    26527967.631   106817422.020         422.300          50.000  
G12  23480715.558   123392302.198         774.150          49.000    23480711.232    96150022.783         603.226          45.000  
R17  24183318.298   129409870.723       -2064.567          52.000    24183313.985   100652077.494       -1605.840          38.000  
R15  24893046.836   133020885.049       -3292.225          42.000    24893040.439   103461216.808       -2560.633          43.000  
R18  23105673.371   123339906.945        1191.101          50.000    23105670.461    95931006.670         926.491          46.000  
E19  27112658.195   142478127.312       -3534.584          43.000    27112660.641   109171621.895       -2708.334          46.000  
S31  40256897.016   211551434.871        -801.854          45.000  
G25  25669162.382   134892383.267        1562.330          43.000    25669169.945   105111002.296        1217.385          40.000  
G06  26331805.290   138374606.888        1582.165          40.000    26331807.407   107824382.920        1232.822          43.000  
E21  27955169.401   146905830.511       -2930.860          39.000    27955171.775   112564412.162       -2245.741          47.000  
G22  24649567.886   129534730.332       -3832.028          40.000                                                                  
E04  25157725.853   132204783.009        -933.017          48.000    25157725.387   101299876.563        -714.958          52.000  
> 2024 04 08 23 33 30.0050000  0 25                     
S33  41213781.683   216579899.765        -802.155          45.000  
E26  29269951.814   153814670.895        1477.114          42.000    29269953.974   117858032.948        1131.708          47.000  
G24  22811119.113   119873348.908         900.533          49.000    22811116.964    93407888.267         701.624          47.000  
E09  27755882.282   145858080.578        1419.893          44.000    27755881.736   111761496.643        1087.962          47.000  
G15  22424755.619   117842858.110       -2190.924          49.000    22424751.454    91825664.671       -1707.245          45.000  
R06  21906257.988   116896030.435       -2859.554          39.000                                                                  
R07  22799413.001   122047078.163         974.536          51.000    22799406.871    94925492.321         757.953          48.000  
R16  21981298.198   117420643.750       -1831.248          53.000    21981294.161    91327361.635       -1424.294          50.000  
R09  22699786.544   121215885.992         658.717          51.000    22699782.460    94279107.156         512.237          49.000  
R19  24484469.909   130975593.154        3039.620          40.000    24484473.077   101870022.974        2363.948          42.000  
G19  22882718.672   120249917.437       -1996.593          48.000                                                                  
G13  23065431.918   121209857.749       -3691.195          48.000                                                                  
G17  23979045.770   126011172.532       -3202.500          44.000    23979039.707    98190741.831       -2495.514          41.000  
E31  26524835.204   139389258.910         545.438          48.000    26524837.937   106804820.894         417.948          51.000  
G12  23476323.373   123369218.893         764.860          48.000    23476318.819    96132035.878         596.011          45.000  
R17  24194960.273   129472172.024       -2088.538          50.000    24194954.305   100700534.008       -1624.471          41.000  
R15  24911524.621   133119629.749       -3290.720          43.000    24911519.483   103538018.181       -2559.487          43.000  
R18  23099036.699   123304478.137        1170.852          50.000    23099032.832    95903450.964         910.642          46.000  
E19  27132854.137   142584260.213       -3540.590          43.000    27132857.264   109252944.231       -2712.963          46.000  
S31  40261474.492   211575490.918        -801.644          44.000  
G25  25660256.706   134845589.475        1557.458          43.000    25660265.197   105074540.512        1213.452          41.000  
G06  26322779.425   138327175.011        1579.895          41.000    26322781.426   107787423.322        1230.999          43.000  
E21  27971898.114   146993743.910       -2929.990          39.000    27971900.777   112631774.395       -2245.021          45.000  
G22  24671448.957   129649719.641       -3833.569          36.000                                                                  
E04  25163091.470   132232975.909        -946.250          48.000    25163090.504   101321478.900        -725.104          52.000  
> 2024 04 08 23 34 00.0050000  0 25                     
S33  41218359.068   216603953.764        -802.036          44.000  
E26  29261523.946   153770381.877        1475.415          42.000    29261525.824   117824097.438        1130.681          47.000  
G24  22805992.489   119846411.524         895.056          49.000    22805990.626    93386898.116         697.371          47.000  
E09  27747797.779   145815600.022        1411.885          43.000    27747797.974   111728946.662        1081.840          47.000  
G15  22437309.581   117908828.286       -2207.306          49.000    22437305.580    91877069.942       -1720.020          45.000  
R06  21922398.324   116982154.833       -2882.173          39.000                                                                  
R07  22794018.002   122018204.702         950.072          50.000    22794012.343    94903035.225         738.892          48.000  
R16  21991592.158   117475632.714       -1834.932          52.000    21991587.860    91370130.788       -1427.273          50.000  
R09  22696098.540   121196192.998         653.811          51.000    22696095.103    94263790.437         508.566          50.000  
R19  24467432.539   130884458.110        3035.990          40.000    24467434.637   101799141.070        2360.994          42.000  
G19  22894169.042   120310090.902       -2015.286          48.000                                                                  
G13  23086538.839   121320775.785       -3703.512          48.000                                                                  
G17  23997371.415   126107477.454       -3218.074          45.000    23997366.352    98265784.626       -2507.462          41.000  
E31  26521737.710   139372982.454         539.564          48.000    26521740.416   106792349.421         413.385          50.000  
G12  23471981.722   123346408.627         755.566          48.000    23471977.710    96114261.774         588.728          45.000  
R17  24206736.297   129535189.920       -2112.725          50.000    24206732.482   100749547.957       -1643.341          42.000  
R15  24929995.872   133218325.798       -3289.271          43.000    24929990.664   103614781.773       -2558.340          44.000  
R18  23092512.837   123269654.875        1150.454          50.000    23092510.627    95876366.277         894.820          48.000  
E19  27153083.699   142690569.959       -3546.800          42.000    27153087.479   109334402.058       -2717.771          45.000  
S31  40266049.765   211599534.824        -801.492          44.000  
G25  25651378.887   134798940.680        1552.252          43.000    25651387.549   105038191.681        1209.393          41.000  
G06  26313767.366   138279813.412        1577.454          41.000    26313768.113   107750518.455        1229.153          42.000  
E21  27988624.231   147081629.160       -2929.113          41.000    27988625.517   112699115.043       -2244.355          46.000  
G22  24693338.079   129764755.445       -3835.354          37.000                                                                  
E04  25168532.554   132261567.893        -959.926          48.000    25168531.553   101343387.029        -735.570          52.000  
> 2024 04 08 23 34 30.0050000  0 25                     
S33  41222933.744   216627995.595        -801.034          44.000  
E26  29253103.541   153726132.936        1474.522          43.000    29253105.498   117790192.665        1129.770          47.000  
G24  22800896.641   119819635.367         890.002          48.000    22800894.547    93366033.589         693.445          46.000  
E09  27739756.421   145773349.511        1405.015          41.000    27739757.868   111696572.961        1076.277          47.000  
G15  22449957.446   117975289.405       -2223.218          50.000    22449952.534    91928857.784       -1732.453          44.000  
R06  21938663.893   117068949.563       -2903.992          40.000                                                                  
R07  22788758.164   121990055.660         926.592          49.000    22788753.827    94881141.548         720.519          47.000  
R16  22001906.097   117530726.015       -1838.008          53.000    22001901.752    91412981.175       -1429.591          50.000  
R09  22692437.311   121176639.729         649.646          52.000    22692434.169    94248582.401         505.285          51.000  
R19  24450414.594   130793429.854        3032.898          40.000    24450416.710   101728342.213        2358.588          43.000  
G19  22905725.469   120370821.063       -2033.452          48.000                                                                  
G13  23107713.970   121432052.719       -3714.937          47.000                                                                  
G17  24015785.442   126204241.840       -3233.009          44.000    24015779.241    98341185.509       -2518.878          41.000  
E31  26518672.516   139356874.417         534.328          49.000    26518674.967   106780006.992         409.435          50.000  
G12  23467692.665   123323870.827         746.964          48.000    23467689.052    96096699.953         582.083          45.000  
R17  24218646.628   129598922.540       -2136.055          51.000    24218640.512   100799117.738       -1661.449          41.000  
R15  24948455.297   133316972.693       -3287.474          40.000    24948450.874   103691507.143       -2556.801          43.000  
R18  23086104.465   123235440.647        1130.480          51.000    23086102.391    95849755.267         879.254          50.000  
E19  27173347.983   142797054.690       -3552.323          42.000    27173351.020   109415993.959       -2721.766          45.000  
S31  40270622.926   211623566.559        -800.744          44.000  
G25  25642528.879   134752436.520        1547.865          44.000    25642536.926   105001955.602        1205.932          41.000  
G06  26304767.874   138232524.787        1575.240          39.000    26304769.932   107713670.437        1227.548          43.000  
E21  28005342.420   147169485.251       -2927.586          40.000    28005343.705   112766433.354       -2243.354          46.000  
G22  24715237.234   129879835.692       -3836.282          38.000                                                                  
E04  25174049.088   132290558.735        -972.689          48.000    25174048.270   101365600.788        -745.349          52.000  
> 2024 04 08 23 35 00.0050000  0 25                     
S33  41227511.854   216652053.644        -802.187          44.000  
E26  29244696.460   153681955.779        1471.643          43.000    29244698.583   117756342.863        1127.566          47.000  
G24  22795838.212   119793051.564         883.011          48.000    22795835.289    93345318.957         688.207          46.000  
E09  27731764.185   145731360.371        1395.511          40.000    27731767.535   111664399.505        1069.296          47.000  
G15  22462703.003   118042269.442       -2241.107          50.000    22462698.758    91981049.997       -1746.387          44.000  
R06  21955060.144   117156441.147       -2927.997          40.000                                                                  
R07  22783642.152   121962663.186         900.651          50.000    22783637.256    94859836.287         700.479          47.000  
R16  22012244.445   117585953.532       -1843.026          52.000    22012240.517    91455935.912       -1433.448          50.000  
R09  22688807.732   121157255.744         643.491          53.000    22688804.405    94233506.027         500.540          51.000  
R19  24433423.941   130702543.614        3027.131          40.000    24433426.382   101657653.810        2354.535          45.000  
G19  22917394.205   120432136.176       -2053.446          48.000                                                                  
G13  23128963.092   121543715.995       -3728.327          47.000                                                                  
G17  24034291.533   126301491.969       -3249.637          44.000    24034285.558    98416964.836       -2532.003          40.000  
E31  26515644.746   139340963.949         527.244          49.000    26515647.570   106767815.965         404.043          50.000  
G12  23463460.660   123301634.676         736.240          49.000    23463457.499    96079373.168         573.836          45.000  
R17  24230695.118   129663398.743       -2161.381          51.000    24230689.339   100849265.939       -1681.029          42.000  
R15  24966910.492   133415600.552       -3287.406          34.000    24966907.316   103768217.769       -2556.858          42.000  
R18  23079815.245   123201868.843        1108.382          51.000    23079813.196    95823643.907         862.168          49.000  
E19  27193649.330   142903742.506       -3559.464          41.000    27193653.387   109497741.464       -2727.422          45.000  
S31  40275199.238   211647614.627        -802.081          44.000  
G25  25633711.896   134706106.640        1541.617          44.000    25633719.929   104965855.261        1201.119          42.000  
G06  26295788.725   138185341.675        1571.199          40.000    26295790.844   107676904.694        1224.290          43.000  
E21  28022062.871   147257341.101       -2928.359          42.000    28022061.992   112833751.443       -2243.700          45.000  
G22  24737150.761   129994988.388       -3839.408          40.000                                                                  
E04  25179647.323   132319978.242        -987.574          47.000    25179646.729   101388143.000        -756.718          53.000  
> 2024 04 08 23 35 30.0050000  0 25                     
S33  41232088.808   216676107.397        -801.614          44.000  
E26  29236299.953   153637830.668        1470.252          43.000    29236301.480   117722532.946        1126.363          46.000  
G24  22790812.113   119766639.922         877.688          48.000    22790809.576    93324738.468         683.898          47.000  
E09  27723819.882   145689612.325        1387.859          40.000    27723823.068   111632410.796        1063.333          47.000  
G15  22475543.450   118109745.087       -2257.239          50.000    22475539.092    92033628.350       -1758.856          44.000  
R06  21971581.833   117244604.128       -2949.862          40.000                                                                  
R07  22778662.890   121936007.578         876.351          50.000    22778657.972    94839104.135         681.638          47.000  
R16  22022604.407   117641292.117       -1846.210          52.000    22022600.456    91498977.072       -1436.018          51.000  
R09  22685204.360   121138017.785         639.022          51.000    22685201.236    94218543.241         496.992          51.000  
R19  24416456.238   130611780.947        3023.661          39.000    24416458.759   101587061.496        2351.749          44.000  
G19  22929168.804   120494012.700       -2071.722          48.000                                                                  
G13  23150280.949   121655741.230       -3739.932          47.000                                                                  
G17  24052884.314   126399203.783       -3264.661          44.000    24052879.440    98493103.966       -2543.894          40.000  
E31  26512650.461   139325228.762         521.857          48.000    26512652.892   106755759.247         399.751          50.000  
G12  23459282.322   123279677.460         727.373          48.000    23459279.266    96062263.762         566.738          46.000  
R17  24242878.700   129728594.722       -2184.941          51.000    24242873.601   100899973.936       -1699.459          45.000  
R15  24985357.393   133514187.485       -3285.723          37.000    24985356.699   103844896.544       -2555.522          42.000  
R18  23073643.425   123168920.989        1087.984          51.000    23073640.264    95798017.852         846.167          48.000  
E19  27213985.571   143010609.809       -3564.978          41.000    27213989.693   109579626.492       -2731.570          45.000  
S31  40279774.068   211671657.872        -801.307          44.000  
G25  25624924.291   134659929.157        1536.845          44.000    25624932.556   104929873.669        1197.616          42.000  
G06  26286826.337   138138245.355        1568.806          41.000    26286827.787   107640206.536        1222.361          41.000  
E21  28038775.262   147345174.090       -2926.987          41.000    28038776.553   112901052.089       -2242.726          46.000  
G22  24759073.318   130110190.212       -3840.814          41.000                                                                  
E04  25185322.726   132349804.676       -1000.803          47.000    25185322.664   101410997.013        -766.799          53.000  
> 2024 04 08 23 36 00.0050000  0 25                     
S33  41236662.261   216700142.470        -800.405          44.000  
E26  29227911.094   153593746.011        1469.023          44.000    29227912.049   117688754.026        1125.626          46.000  
G24  22785816.867   119740388.343         872.626          48.000    22785814.528    93304282.690         680.051          47.000  
E09  27715920.021   145648093.378        1380.326          40.000    27715922.437   111600597.594        1057.663          47.000  
G15  22488474.461   118177701.252       -2273.027          48.000    22488470.575    92086581.138       -1771.116          44.000  
R06  21988225.453   117333421.266       -2971.099          39.000                                                                  
R07  22773817.332   121910076.763         852.454          49.000    22773813.733    94818935.751         663.046          48.000  
R16  22032982.171   117696727.115       -1849.193          53.000    22032978.111    91542093.162       -1438.231          51.000  
R09  22681625.967   121118911.497         634.867          51.000    22681622.589    94203682.833         493.884          50.000  
R19  24399509.435   130521132.890        3019.736          38.000    24399513.248   101516558.323        2348.713          44.000  
G19  22941048.040   120556435.599       -2089.587          48.000                                                                  
G13  23171664.499   121768112.710       -3751.156          48.000                                                                  
G17  24071562.443   126497361.087       -3279.040          45.000    24071557.864    98569590.152       -2554.879          39.000  
E31  26509687.092   139309654.721         516.648          48.000    26509689.008   106743826.000         395.813          50.000  
G12  23455154.808   123257985.595         718.799          47.000    23455151.151    96045361.087         559.987          45.000  
R17  24255193.317   129794495.183       -2208.196          50.000    24255188.866   100951229.870       -1717.478          47.000  
R15  25003794.708   133612719.720       -3283.429          34.000    25003795.824   103921532.774       -2553.711          42.000  
R18  23067585.474   123136586.585        1067.792          51.000    23067583.566    95772868.906         830.461          49.000  
E19  27234353.050   143117641.559       -3570.115          41.000    27234357.702   109661637.534       -2735.719          45.000  
S31  40284345.860   211695683.233        -800.289          44.000  
G25  25616163.381   134613890.334        1532.583          44.000    25616171.044   104894000.150        1194.341          42.000  
G06  26277878.922   138091225.207        1566.128          42.000    26277878.961   107603567.697        1220.657          41.000  
E21  28055483.281   147432970.037       -2925.583          42.000    28055483.509   112968324.302       -2241.707          46.000  
G22  24781001.785   130225426.124       -3841.638          41.000                                                                  
E04  25191073.423   132380024.553       -1013.645          47.000    25191073.261   101434152.506        -776.729          53.000  
> 2024 04 08 23 36 30.0050000  0 25                     
S33  41241231.477   216724155.912        -800.110          43.000  
E26  29219529.218   153549700.845        1467.644          42.000    29219530.466   117655005.341        1124.522          46.000  
G24  22780851.577   119714295.351         867.201          48.000    22780849.391    93283950.512         675.726          47.000  
E09  27708063.949   145606801.979        1372.807          43.000    27708065.144   111568958.803        1051.739          47.000  
G15  22501497.177   118246133.564       -2288.928          49.000    22501493.063    92139904.959       -1783.805          45.000  
R06  22004991.600   117422885.863       -2992.423          39.000                                                                  
R07  22769107.118   121884869.945         828.124          47.000    22769106.256    94799330.449         644.105          49.000  
R16  22043376.887   117752254.916       -1852.467          52.000    22043372.748    91585281.444       -1440.760          51.000  
R09  22678072.016   121099933.051         630.595          51.000    22678068.381    94188921.892         490.495          50.000  
R19  24382584.758   130430600.345        3015.864          39.000    24382587.897   101446145.042        2345.578          43.000  
G19  22953029.530   120619400.247       -2107.793          48.000                                                                  
G13  23193113.610   121880825.105       -3762.723          48.000                                                                  
G17  24090324.568   126595958.055       -3293.709          46.000    24090319.788    98646418.944       -2566.566          41.000  
E31  26506752.916   139294238.274         511.335          47.000    26506755.087   106732013.506         391.770          49.000  
G12  23451076.401   123236555.444         710.013          48.000    23451072.500    96028662.368         553.276          44.000  
R17  24267639.236   129861095.591       -2231.615          48.000    24267634.386   101003030.235       -1735.767          47.000  
R15  25022225.680   133711194.371       -3281.570          38.000    25022223.647   103998124.084       -2552.030          41.000  
R18  23061642.779   123104865.915        1047.123          50.000    23061640.671    95748197.309         814.449          48.000  
E19  27254751.027   143224832.994       -3575.717          41.000    27254755.876   109743770.891       -2739.711          45.000  
S31  40288913.887   211719686.051        -799.641          44.000  
G25  25607427.421   134567987.111        1527.756          44.000    25607434.777   104858232.304        1190.376          41.000  
G06  26268945.963   138044281.111        1563.590          43.000    26268945.189   107566988.145        1218.201          40.000  
E21  28072183.271   147520724.982       -2924.443          43.000    28072182.256   113035565.121       -2240.825          46.000  
G22  24802936.732   130340691.507       -3842.429          42.000                                                                  
E04  25196899.418   132410634.865       -1026.846          48.000    25196898.087   101457607.161        -786.842          53.000  
> 2024 04 08 23 37 00.0050000  0 26                     
S33  41245798.492   216748152.873        -799.615          44.000  
E26  29211156.899   153505702.812        1465.755          44.000    29211157.698   117621292.786        1123.099          46.000  
G24  22775918.450   119688368.178         861.359          49.000    22775915.595    93263747.517         671.317          47.000  
E09  27700250.285   145565745.527        1364.263          41.000    27700252.262   111537499.972        1045.531          48.000  
G15  22514611.007   118315045.255       -2305.104          49.000    22514605.605    92193602.297       -1796.171          44.000  
R06  22021879.104   117513000.440       -3014.218          40.000                                                                  
R07  22764536.858   121860395.067         803.663          49.000    22764533.661    94780294.419         624.935          48.000  
R05  25283796.002                3      -5296.360          16.000                                                                  
R16  22053789.521   117807880.843       -1855.927          52.000    22053785.464    91628546.054       -1443.438          49.000  
R09  22674542.991   121081087.459         625.817          52.000    22674538.843    94174264.270         486.720          50.000  
R19  24365683.386   130340194.404        3011.045          39.000    24365687.563   101375830.173        2342.214          45.000  
G19  22965114.282   120682910.779       -2126.185          48.000                                                                  
G13  23214627.559   121993881.572       -3774.381          48.000                                                                  
G17  24109171.066   126694997.664       -3308.723          44.000    24109165.874    98723592.710       -2578.578          40.000  
E31  26503849.281   139278984.558         505.657          47.000    26503852.595   106720325.689         387.474          50.000  
G12  23447049.190   123215392.439         700.865          47.000    23447045.385    96012171.834         546.109          44.000  
R17  24280216.890   129928400.131       -2255.448          49.000    24280211.663   101055378.199       -1754.090          47.000  
R15  25040646.583   133809616.790       -3279.974          38.000    25040641.495   104074674.956       -2551.284          41.000  
R18  23055816.789   123073768.074        1026.074          50.000    23055814.520    95724010.167         798.065          48.000  
E19  27275180.629   143332188.094       -3581.328          41.000    27275185.809   109826029.661       -2744.115          46.000  
S31  40293478.760   211743673.319        -799.664          45.000  
G25  25598718.845   134522225.056        1522.995          44.000    25598725.549   104822574.388        1186.643          41.000  
G06  26260028.851   137997421.774        1560.522          42.000    26260028.192   107530474.611        1216.188          41.000  
E21  28088874.925   147608443.996       -2923.523          44.000    28088875.558   113102778.412       -2240.158          47.000  
G22  24824877.832   130455990.562       -3843.888          40.000                                                                  
E04  25202798.636   132441641.293       -1040.257          48.000    25202798.329   101481365.339        -796.983          53.000  
> 2024 04 08 23 37 30.0050000  0 25                     
S33  41250361.741   216772133.798        -799.347          44.000  
E26  29202793.932   153461753.984        1463.943          44.000    29202794.500   117587617.882        1121.740          46.000  
G24  22771016.316   119662608.322         855.874          49.000    22771013.586    93243674.913         666.919          47.000  
E09  27692484.217   145524925.388        1356.727          43.000    27692484.271   111506222.259        1039.505          47.000  
G15  22527814.166   118384435.170       -2321.084          48.000    22527810.022    92247672.327       -1808.670          44.000  
R06  22038888.114   117603761.117       -3036.009          40.000                                                                  
R07  22760102.109   121836654.191         778.964          49.000    22760097.491    94761829.296         605.880          47.000  
R16  22064220.524   117863603.735       -1859.218          52.000    22064216.967    91671886.101       -1445.929          50.000  
R09  22671038.300   121062373.854         621.417          51.000    22671033.919    94159709.307         483.349          50.000  
R19  24348806.197   130249919.254        3007.057          37.000    24348810.049   101305617.003        2338.489          43.000  
G19  22977304.537   120746965.536       -2144.515          48.000                                                                  
G13  23236206.842   122107279.916       -3785.810          49.000                                                                  
G17  24128102.966   126794477.132       -3323.408          46.000    24128097.912    98801109.147       -2589.768          42.000  
E31  26500977.548   139263892.973         500.322          47.000    26500980.868   106708762.118         383.341          50.000  
G12  23443072.993   123194495.640         691.918          48.000    23443068.954    95995888.692         539.326          45.000  
R17  24292926.133   129996407.083       -2278.712          49.000    24292920.211   101108272.497       -1772.274          46.000  
R15  25059056.837   133907987.755       -3278.778          39.000    25059050.822   104151185.660       -2549.886          40.000  
R18  23050107.918   123043296.379        1005.124          50.000    23050104.760    95700309.988         781.831          47.000  
E19  27295640.689   143439705.251       -3586.771          41.000    27295645.649   109908412.576       -2748.172          46.000  
S31  40298039.714   211767643.626        -798.581          44.000  
G25  25590036.626   134476604.071        1518.001          44.000    25590043.747   104787026.431        1183.092          42.000  
G06  26251128.219   137950650.089        1557.563          42.000    26251128.588   107494029.439        1213.775          42.000  
E21  28105560.632   147696126.293       -2922.373          44.000    28105561.391   113169963.545       -2239.092          48.000  
G22  24846823.438   130571321.313       -3845.085          38.000                                                                  
E04  25208774.696   132473043.876       -1053.511          48.000    25208774.179   101505427.054        -807.169          53.000  
> 2024 04 08 23 38 00.0050000  0 25                     
S33  41254922.219   216796101.507        -798.853          45.000  
E26  29194441.098   153417859.642        1462.114          44.000    29194441.178   117553984.760        1120.383          46.000  
G24  22766146.953   119637020.646         849.901          48.000    22766143.801    93223736.493         662.292          47.000  
E09  27684761.763   145484346.489        1348.496          43.000    27684762.230   111475129.383        1033.293          47.000  
G15  22541110.033   118454304.791       -2337.085          48.000    22541105.386    92302116.103       -1821.134          43.000  
R06  22056017.442   117695167.873       -3057.724          40.000                                                                  
R07  22755805.998   121813651.764         754.351          49.000    22755799.676    94743938.551         586.652          47.000  
R16  22074671.092   117919426.468       -1862.514          52.000    22074667.047    91715303.829       -1448.610          49.000  
R09  22667558.421   121043794.968         616.853          51.000    22667555.183    94145259.090         479.912          50.000  
R19  24331955.222   130159782.560        3002.190          40.000    24331958.353   101235511.536        2334.958          44.000  
G19  22989597.370   120811566.048       -2162.634          47.000                                                                  
G13  23257851.498   122221020.805       -3797.160          49.000                                                                  
G17  24147117.543   126894396.899       -3338.235          46.000    24147111.763    98878968.635       -2601.010          42.000  
E31  26498137.074   139248966.329         494.874          47.000    26498140.356   106697324.925         379.022          50.000  
G12  23439147.960   123173868.419         682.958          49.000    23439143.951    95979815.635         532.397          46.000  
R17  24305767.619   130065117.970       -2302.311          47.000    24305760.867   101161714.322       -1790.570          48.000  
R15  25077456.514   134006310.227       -3276.896          39.000    25077450.861   104227658.708       -2548.593          39.000  
R18  23044518.212   123013457.608         983.900          50.000    23044515.600    95677102.079         765.232          48.000  
E19  27316132.049   143547386.228       -3592.171          41.000    27316136.652   109990921.013       -2752.356          45.000  
S31  40302598.415   211791601.425        -798.525          44.000  
G25  25581382.039   134431127.266        1513.327          44.000    25581388.329   104751590.873        1179.377          41.000  
G06  26242245.428   137903972.336        1554.144          41.000    26242246.368   107457657.397        1210.962          42.000  
E21  28122239.388   147783774.417       -2921.226          44.000    28122239.491   113237122.495       -2238.250          47.000  
G22  24868776.587   130686685.755       -3845.928          39.000                                                                  
E04  25214826.773   132504845.935       -1066.854          48.000    25214825.978   101529794.855        -817.396          53.000  
> 2024 04 08 23 38 30.0050000  0 25                     
S33  41259480.626   216820055.751        -798.189          44.000  
E26  29186099.082   153374021.597        1460.190          44.000    29186099.045   117520394.772        1118.878          46.000  
G24  22761311.312   119611606.433         844.176          49.000    22761307.537    93203933.230         657.882          47.000  
E09  27677085.068   145444010.122        1340.593          44.000    27677086.674   111444222.335        1027.126          47.000  
G15  22554496.738   118524651.907       -2352.757          48.000    22554491.985    92356931.985       -1833.450          44.000  
R06  22073267.982   117787216.886       -3079.080          40.000                                                                  
R07  22751646.913   121791390.326         729.651          50.000    22751641.716    94726624.097         567.559          47.000  
R16  22085139.574   117975348.256       -1865.687          52.000    22085136.190    91758798.547       -1451.069          50.000  
R09  22664104.288   121025350.049         612.646          51.000    22664101.646    94130913.102         476.522          51.000  
R19  24315132.830   130069788.789        2997.490          39.000    24315134.646   101165517.211        2331.292          45.000  
G19  23001993.601   120876710.202       -2180.697          47.000                                                                  
G13  23279560.562   122335101.913       -3808.354          48.000                                                                  
G17  24166214.629   126994754.304       -3352.565          47.000    24166208.722    98957169.227       -2612.480          43.000  
E31  26495328.469   139234203.808         489.324          48.000    26495331.140   106686013.478         374.902          50.000  
G12  23435273.783   123153509.210         674.207          49.000    23435269.070    95963951.442         525.446          45.000  
R17  24318739.206   130134530.901       -2325.476          47.000    24318731.507   101215702.185       -1808.754          46.000  
R15  25095844.588   134104584.399       -3274.815          38.000    25095841.578   104304094.158       -2547.205          37.000  
R18  23039049.010   122984254.668         962.724          52.000    23039046.112    95654388.734         748.875          49.000  
E19  27336654.848   143655228.919       -3597.497          41.000    27336658.700   110073553.361       -2756.490          45.000  
S31  40307154.579   211815544.994        -797.755          44.000  
G25  25572754.748   134385794.327        1508.744          45.000    25572760.509   104716267.358        1175.839          40.000  
G06  26233381.385   137857391.288        1550.828          41.000    26233382.029   107421360.691        1208.655          42.000  
E21  28138912.416   147871387.439       -2920.104          44.000    28138911.182   113304254.592       -2237.218          46.000  
G22  24890735.864   130802081.904       -3846.968          40.000                                                                  
E04  25220954.825   132537047.165       -1080.104          48.000    25220953.417   101554468.516        -827.606          52.000  
> 2024 04 08 23 39 00.0050000  0 25                     
S33  41264036.782   216843998.879        -797.710          44.000  
E26  29177767.602   153330244.173        1458.446          43.000    29177767.962   117486851.245        1117.546          46.000  
G24  22756508.723   119586369.615         838.439          48.000    22756504.979    93184268.189         653.482          46.000  
E09  27669456.456   145403920.206        1332.267          44.000    27669457.844   111413504.111        1020.949          47.000  
G15  22567974.222   118595477.609       -2368.642          49.000    22567970.633    92412120.784       -1845.565          44.000  
R06  22090637.049   117879906.664       -3100.201          39.000                                                                  
R07  22747628.875   121769873.915         704.883          51.000    22747621.795    94709889.120         548.262          47.000  
R16  22095627.217   118031370.553       -1868.903          52.000    22095623.315    91802371.464       -1453.571          50.000  
R09  22660675.766   121007040.820         608.219          50.000    22660672.672    94116672.657         473.023          50.000  
R19  24298336.358   129979944.896        2992.241          38.000    24298337.784   101095639.395        2327.662          45.000  
G19  23014493.732   120942398.847       -2198.380          47.000                                                                  
G13  23301332.668   122449523.003       -3819.521          46.000                                                                  
G17  24185394.610   127095548.982       -3366.976          46.000    24185390.350    99035710.513       -2623.522          44.000  
E31  26492550.548   139219607.133         483.895          48.000    26492553.149   106674829.115         370.856          50.000  
G12  23431451.028   123133419.961         665.372          50.000    23431446.333    95948297.577         518.544          45.000  
R17  24331841.166   130204646.672       -2348.803          44.000    24331833.770   101270236.701       -1826.677          47.000  
R15  25114225.995   134202812.321       -3273.223          38.000    25114225.191   104380493.692       -2545.928          37.000  
R18  23033697.453   122955693.123         941.468          51.000    23033694.665    95632174.239         732.382          48.000  
E19  27357206.428   143763234.017       -3602.588          40.000    27357211.960   110156310.151       -2760.500          46.000  
S31  40311708.891   211839477.775        -797.292          44.000  
G25  25564155.597   134340607.460        1503.902          45.000    25564160.798   104681057.644        1172.016          41.000  
G06  26224536.086   137810912.220        1547.768          42.000    26224537.437   107385143.471        1205.867          42.000  
E21  28155577.933   147958966.923       -2918.373          44.000    28155578.254   113371360.990       -2236.313          48.000  
G22  24912701.075   130917510.988       -3848.127          39.000                                                                  
E04  25227158.261   132569649.891       -1093.205          48.000    25227157.316   101579449.817        -837.683          52.000  
> 2024 04 08 23 39 30.0050000  0 25                     
S33  41268590.096   216867926.858        -797.468          44.000  
E26  29169448.502   153286526.267        1456.273          43.000    29169449.334   117453353.327        1115.715          46.000  
G24  22751739.259   119561308.574         832.489          47.000    22751735.954    93164740.139         648.658          46.000  
E09  27661875.097   145364075.071        1324.040          44.000    27661875.549   111382973.454        1014.692          47.000  
G15  22581542.519   118666776.729       -2384.441          49.000    22581538.840    92467678.462       -1857.957          44.000  
R06  22108125.841   117973230.336       -3121.443          39.000                                                                  
R07  22743748.222   121749100.909         680.109          50.000    22743739.887    94693732.337         529.034          46.000  
R16  22106132.998   118087489.421       -1872.187          52.000    22106129.429    91846019.489       -1456.067          51.000  
R09  22657272.665   120988863.091         603.750          51.000    22657268.506    94102534.501         469.620          50.000  
R19  24281567.321   129890252.219        2987.149          36.000    24281569.850   101025879.202        2323.462          44.000  
G19  23027097.175   121008627.245       -2216.521          48.000                                                                  
G13  23323170.049   122564278.407       -3830.546          46.000                                                                  
G17  24204657.335   127196775.202       -3381.405          47.000    24204653.467    99114588.097       -2634.862          45.000  
E31  26489803.195   139205172.591         478.489          48.000    26489806.001   106663768.999         366.592          50.000  
G12  23427678.737   123113597.328         656.407          50.000    23427673.781    95932851.489         511.441          45.000  
R17  24345075.237   130275460.056       -2371.995          43.000    24345067.922   101325313.803       -1844.644          48.000  
R15  25132599.514   134300991.375       -3271.593          40.000    25132598.864   104456855.047       -2544.961          40.000  
R18  23028466.951   122927773.040         919.971          51.000    23028463.511    95610458.641         715.543          48.000  
E19  27377790.349   143871396.802       -3607.834          41.000    27377794.946   110239187.740       -2764.519          45.000  
S31  40316260.234   211863395.695        -796.951          43.000  
G25  25555583.155   134295563.212        1499.288          46.000    25555588.293   104645959.061        1168.181          41.000  
G06  26215710.486   137764534.975        1544.395          42.000    26215711.103   107349005.544        1203.311          41.000  
E21  28172236.952   148046509.057       -2917.352          44.000    28172236.465   113438438.695       -2235.382          48.000  
G22  24934671.853   131032968.065       -3848.956          40.000                                                                  
E04  25233438.126   132602650.943       -1106.625          48.000    25233437.278   101604736.324        -847.938          52.000  
> 2024 04 08 23 40 00.0050000  0 25                     
S33  41273142.182   216891848.445        -797.270          44.000  
E26  29161141.858   153242877.531        1453.811          44.000    29161143.138   117419908.370        1113.925          46.000  
G24  22747005.113   119536432.532         826.166          46.000    22747002.249    93145356.239         643.804          46.000  
E09  27654341.845   145324483.845        1315.536          45.000    27654341.512   111352637.363        1008.064          47.000  
G15  22595201.946   118738555.275       -2400.611          50.000    22595197.323    92523609.740       -1870.591          44.000  
R06  22125734.210   118067192.136       -3142.469          40.000                                                                  
R07  22740007.045   121729080.941         654.720          50.000    22740001.143    94678161.283         509.409          47.000  
R16  22116657.685   118143712.214       -1875.770          52.000    22116653.652    91889748.330       -1458.868          50.000  
R09  22653895.010   120970823.848         599.025          51.000    22653890.124    94088504.034         465.941          50.000  
R19  24264829.789   129800722.968        2981.788          36.000    24264832.487   100956246.161        2318.922          44.000  
G19  23039803.491   121075401.049       -2234.816          47.000                                                                  
G13  23345072.599   122679373.525       -3842.083          47.000                                                                  
G17  24224003.020   127298437.694       -3395.962          47.000    24223998.686    99193805.632       -2646.245          45.000  
E31  26487088.938   139190907.275         472.776          48.000    26487091.371   106652838.540         362.165          50.000  
G12  23423958.075   123094048.309         647.140          50.000    23423952.967    95917618.562         504.120          44.000  
R17  24358436.569   130346977.076       -2395.664          39.000    24358433.106   101380938.160       -1863.239          48.000  
R15  25150965.769   134399129.563       -3270.416          43.000    25150964.061   104533184.675       -2544.146          36.000  
R18  23023359.498   122900505.390         898.007          51.000    23023356.286    95589250.495         698.519          49.000  
E19  27398403.662   143979723.052       -3613.527          41.000    27398409.292   110322190.599       -2768.870          46.000  
S31  40320810.226   211887305.942        -796.909          44.000  
G25  25547039.448   134250669.307        1494.033          45.000    25547044.878   104610977.588        1164.211          41.000  
G06  26206907.004   137718270.107        1540.351          43.000    26206906.332   107312955.204        1200.011          40.000  
E21  28188889.458   148134020.726       -2916.474          44.000    28188888.507   113505493.117       -2234.692          46.000  
G22  24956650.344   131148459.249       -3850.135          39.000                                                                  
E04  25239795.199   132636057.874       -1120.361          48.000    25239794.457   101630333.829        -858.524          52.000  
> 2024 04 08 23 40 30.0050000  0 25                     
S33  41277693.100   216915763.777        -797.173          44.000  
E26  29152848.602   153199301.307        1451.219          43.000    29152850.098   117386518.962        1112.094          44.000  
G24  22742306.631   119511744.340         819.785          46.000    22742304.271    93126118.739         638.573          46.000  
E09  27646856.661   145285149.421        1306.933          45.000    27646856.118   111322498.047        1001.441          47.000  
G15  22608952.355   118810812.241       -2416.292          49.000    22608948.425    92579913.808       -1882.970          45.000  
R06  22143462.150   118161789.443       -3163.844          41.000                                                                  
R07  22736409.513   121709817.655         629.609          52.000    22736403.297    94663178.730         489.705          47.000  
R16  22127202.592   118200039.696       -1879.230          52.000    22127198.443    91933558.644       -1461.615          50.000  
R09  22650541.851   120952923.915         594.442          50.000    22650537.563    94074581.916         462.405          49.000  
R19  24248124.061   129711363.046        2976.080          36.000    24248126.332   100886744.740        2314.431          42.000  
G19  23052613.811   121142720.043       -2252.849          47.000                                                                  
G13  23367039.207   122794807.260       -3853.382          47.000                                                                  
G17  24243431.525   127400535.159       -3410.548          47.000    24243426.199    99273362.082       -2657.385          44.000  
E31  26484406.635   139176811.891         467.230          48.000    26484409.087   106642038.292         357.922          50.000  
G12  23420289.696   123074773.778         638.016          49.000    23420285.941    95902599.510         497.128          45.000  
R17  24371930.305   130419197.025       -2418.614          37.000    24371928.434   101437109.245       -1881.386          47.000  
R15  25169324.517   134497227.751       -3269.178          44.000    25169321.809   104609483.309       -2542.891          37.000  
R18  23018373.779   122873894.710         876.106          51.000    23018371.053    95568553.350         681.355          49.000  
E19  27419049.197   144088212.491       -3618.999          42.000    27419054.544   110405318.469       -2772.866          45.000  
S31  40325359.195   211911211.051        -796.657          44.000  
G25  25538523.838   134205926.763        1488.935          44.000    25538529.810   104576114.062        1160.447          42.000  
G06  26198125.508   137672121.953        1536.517          44.000    26198124.419   107276995.808        1197.238          42.000  
E21  28205536.243   148221502.585       -2915.466          44.000    28205536.596   113572524.658       -2233.907          48.000  
G22  24978635.122   131263984.619       -3851.503          35.000                                                                  
E04  25246229.497   132669871.897       -1133.771          48.000    25246229.372   101656243.272        -868.799          53.000  
> 2024 04 08 23 41 00.0050000  0 25                     
S33  41282241.915   216939670.340        -796.549          45.000  
E26  29144568.842   153155796.694        1449.195          42.000    29144570.976   117353184.430        1110.203          43.000  
G24  22737644.218   119487242.724         813.701          46.000    22737641.993    93107026.559         634.137          46.000  
E09  27639418.924   145246070.426        1298.520          44.000    27639419.601   111292554.449         994.925          47.000  
G15  22622792.079   118883543.134       -2432.148          49.000    22622788.545    92636587.147       -1895.169          45.000  
R06  22161307.621   118257015.602       -3184.541          41.000                                                                  
R07  22732951.639   121691309.287         604.526          51.000    22732946.016    94648783.327         470.258          48.000  
R16  22137766.336   118256468.133       -1882.454          52.000    22137761.881    91977447.436       -1464.211          50.000  
R09  22647214.307   120935159.596         590.036          49.000    22647210.750    94060765.265         458.920          49.000  
R19  24231449.717   129622173.831        2970.073          36.000    24231452.187   100817376.071        2309.911          42.000  
G19  23065526.589   121210579.487       -2270.868          47.000                                                                  
G13  23389069.816   122910574.230       -3864.265          48.000                                                                  
G17  24262941.804   127503061.558       -3424.479          46.000    24262936.775    99353252.768       -2668.494          45.000  
E31  26481756.057   139162882.999         461.664          48.000    26481758.759   106631365.594         353.681          51.000  
G12  23416673.623   123055770.314         629.017          48.000    23416669.508    95887791.681         490.085          45.000  
R17  24385559.570   130492115.340       -2442.070          37.000    24385555.255   101493823.462       -1899.409          47.000  
R15  25187673.729   134595283.397       -3267.541          44.000    25187670.911                       -2542.279          31.000  
R18  23013511.868   122847940.993         854.288          51.000    23013508.790    95548367.133         664.442          49.000  
E19  27439724.650   144196860.570       -3624.173          42.000    27439729.520   110488567.885       -2776.850          45.000  
S31  40329906.177   211935106.846        -796.287          44.000  
G25  25530037.157   134161332.543        1484.196          44.000    25530042.340   104541366.104        1156.268          40.000  
G06  26189365.195   137626090.600        1532.411          44.000    26189365.464   107241127.475        1194.086          42.000  
E21  28222176.583   148308950.961       -2914.148          44.000    28222177.124   113639530.547       -2233.008          48.000  
G22  25000622.979   131379539.619       -3852.230          32.000                                                                  
E04  25252741.372   132704090.070       -1147.388          48.000    25252741.261   101682462.382        -879.132          53.000  
> 2024 04 08 23 41 30.0050000  0 24                     
S33  41286789.426   216963566.311        -796.465          45.000  
E26  29136304.549   153112364.476        1446.355          43.000    29136306.211   117319905.338        1108.050          44.000  
G24  22733017.092   119462927.884         807.215          46.000    22733015.583    93088079.947         629.131          47.000  
E09  27632030.727   145207247.081        1289.597          44.000    27632031.621   111262806.722         988.210          46.000  
G15  22636721.829   118956744.771       -2448.073          49.000    22636717.334    92693627.309       -1907.579          44.000  
R06  22179269.732   118352865.294       -3205.431          42.000                                                                  
R07  22729634.266   121673556.263         578.972          51.000    22729629.806    94634975.385         450.351          48.000  
R16  22148348.813   118312995.641       -1886.047          52.000    22148344.009    92021413.298       -1466.968          50.000  
R09  22643913.809   120917528.941         585.281          51.000    22643909.147    94047052.555         455.352          50.000  
R19  24214808.695   129533158.808        2964.035          39.000    24214811.107   100748142.921        2305.301          42.000  
G19  23078540.858   121278976.258       -2289.056          46.000                                                                  
G13  23411161.565   123026670.590       -3875.555          47.000                                                                  
G17  24282532.700   127606013.126       -3439.015          47.000    24282526.928    99433474.794       -2679.951          44.000  
E31  26479136.429   139149118.671         455.779          48.000    26479139.642   106620819.002         349.159          51.000  
G12  23413108.540   123037035.895         619.746          49.000    23413104.502    95873193.537         482.888          45.000  
R17  24399315.362   130565728.826       -2465.374          34.000    24399311.150   101551078.256       -1917.559          46.000  
R15  25206015.479   134693295.564       -3266.620          45.000    25206006.255                1      -2541.071          32.000  
R18  23008772.005   122822646.031         831.975          50.000    23008770.239    95528693.332         647.196          49.000  
E19  27460430.021   144305664.189       -3629.515          42.000    27460434.472   110571936.496       -2781.119          44.000  
S31  40334451.484   211958991.891        -796.142          44.000  
G25  25521579.060   134116885.224        1478.984          46.000    25521583.777   104506732.536        1152.406          41.000  
G06  26180628.270   137580177.682        1528.337          44.000    26180628.323   107205351.368        1190.788          41.000  
E21  28238811.589   148396363.961       -2913.305          45.000    28238810.598   113706509.331       -2232.426          47.000  
E04  25259329.330   132738710.974       -1160.885          48.000    25259329.407   101708990.069        -889.496          54.000  
> 2024 04 08 23 42 00.0050000  0 25                     
S33  41291335.272   216987456.646        -796.465          44.000  
E26  29128055.186   153069010.997        1443.517          44.000    29128056.661   117286686.617        1106.005          45.000  
G24  22728426.772   119438805.826         800.567          46.000    22728425.619    93069283.571         623.729          47.000  
E09  27624692.270   145168685.224        1280.877          44.000    27624693.333   111233259.360         981.362          46.000  
G15  22650742.423   119030419.868       -2463.919          49.000    22650737.709    92751036.403       -1919.803          44.000  
R06  22197348.909   118449339.501       -3226.459          40.000                                                                  
R07  22726459.669   121656564.804         553.383          50.000    22726455.857    94621759.802         430.434          48.000  
R16  22158950.434   118369625.969       -1889.607          53.000    22158945.511    92065459.112       -1469.703          51.000  
R09  22640637.276   120900035.570         580.553          51.000    22640632.925    94033446.658         451.597          50.000  
R19  24198204.511   129444327.214        2957.501          37.000    24198204.028   100679052.389        2300.537          42.000  
G19  23091660.042   121347912.697       -2307.084          48.000                                                                  
G13  23433317.736   123143098.218       -3886.655          46.000                                                                  
G17  24302205.654   127709391.449       -3453.291          47.000    24302199.681    99514029.326       -2690.824          44.000  
E31  26476550.339   139135522.673         450.176          48.000    26476552.322   106610401.387         344.889          51.000  
G12  23409595.582   123018574.057         610.635          49.000    23409591.131    95858807.803         475.599          45.000  
R17  24413199.480   130640039.408       -2489.265          33.000    24413197.268   101608875.383       -1935.754          46.000  
R15  25224349.426   134791268.760       -3265.247          45.000    25224344.199   104837600.6741      -2539.612          36.000  
R18  23004159.486   122798017.342         809.556          51.000    23004155.897    95509537.745         629.644          48.000  
E19  27481165.231   144414625.899       -3634.947          42.000    27481169.642   110655426.218       -2785.242          44.000  
S31  40338995.506   211982871.673        -796.218          43.000  
G25  25513149.772   134072588.943        1473.661          45.000    25513154.363   104472216.666        1148.282          42.000  
G06  26171915.327   137534390.516        1523.709          44.000    26171914.912   107169673.245        1187.591          41.000  
E21  28255440.785   148483745.166       -2912.403          46.000    28255439.396   113773463.788       -2231.565          48.000  
G22  25044613.000                3      -3853.843          29.000                                                                  
E04  25265994.729   132773738.853       -1174.646          48.000    25265994.941   101735829.604        -900.029          54.000  
> 2024 04 08 23 42 30.0050000  0 25                     
S33  41295880.985   217011344.612        -796.233          44.000  
E26  29119820.890   153025742.776        1440.898          43.000    29119822.275   117253533.230        1103.940          45.000  
G24  22723874.364   119414882.644         794.015          46.000    22723873.240    93050642.136         618.818          47.000  
E09  27617405.888   145130390.899        1272.016          44.000    27617406.103   111203916.975         974.613          46.000  
G15  22664852.740   119104571.093       -2479.730          49.000    22664848.157    92808816.501       -1932.214          43.000  
R06  22215545.319   118546438.683       -3247.156          41.000                                                                  
R07  22723428.156   121640340.927         527.831          50.000    22723424.131    94609141.232         410.659          47.000  
R16  22169571.803   118426363.178       -1893.153          52.000    22169567.748    92109588.053       -1472.425          51.000  
R09  22637387.899   120882683.945         576.001          51.000    22637383.930    94019951.027         447.992          50.000  
R19  24181634.511   129355687.805        2951.730          38.000    24181632.639   100610111.365        2295.421          41.000  
G19  23104881.835   121417391.661       -2325.025          47.000                                                                  
G13  23455536.846   123259858.996       -3897.558          47.000                                                                  
G17  24321959.937   127813198.150       -3467.423          47.000    24321954.209    99594917.660       -2701.721          45.000  
E31  26473995.033   139122098.928         444.496          47.000    26473997.414   106600115.751         340.618          51.000  
G12  23406135.087   123000389.008         601.582          50.000    23406130.177    95844637.718         468.824          45.000  
R17  24427221.470   130715050.042       -2511.983          38.000    24427214.159   101667216.863       -1953.906          44.000  
R15  25242677.536   134889207.589       -3264.172          44.000    25242675.655   104913775.259       -2538.641          38.000  
R18  22999671.851   122774062.465         787.089          50.000    22999668.678    95490906.213         612.269          49.000  
E19  27501930.982   144523748.724       -3640.236          42.000    27501935.288   110739039.369       -2789.110          44.000  
S31  40343539.250   212006749.063        -796.083          43.000  
G25  25504749.319   134028448.017        1468.827          46.000    25504754.440   104437821.806        1144.463          43.000  
G06  26163226.838   137488736.619        1519.591          43.000    26163226.777   107134099.049        1183.567          38.000  
E21  28272062.656   148571098.440       -2911.430          45.000    28272062.728   113840396.804       -2230.839          49.000  
G22  25066624.108   131725980.9851      -3855.656          36.000                                                                  
E04  25272738.165   132809178.110       -1188.204          48.000    25272738.702   101762984.346        -910.434          54.000  
> 2024 04 08 23 43 00.0050000  0 25                     
S33  41300426.599   217035231.298        -795.998          44.000  
E26  29111603.820   152982562.203        1437.961          43.000    29111605.614   117220447.046        1101.661          46.000  
G24  22719360.134   119391160.241         787.395          46.000    22719358.809    93032157.162         613.539          47.000  
E09  27610170.217   145092365.928        1263.138          44.000    27610170.157   111174780.992         967.730          46.000  
G15  22679053.427   119179197.000       -2495.332          48.000    22679048.374    92866966.486       -1944.695          43.000  
R06  22233857.896   118644159.428       -3267.505          40.000                                                                  
R07  22720542.548   121624886.940         502.293          51.000    22720535.919    94597121.451         390.773          47.000  
R16  22180212.110   118483207.054       -1896.467          51.000    22180208.715    92153799.959       -1475.062          51.000  
R09  22634165.619   120865472.506         571.330          51.000    22634161.445    94006564.428         444.419          50.000  
R19  24165100.740   129267245.858        2944.768          40.000    24165098.361   100541323.803        2290.638          41.000  
G19  23118206.049   121487411.553       -2342.819          47.000                                                                  
G13  23477818.896   123376951.031       -3908.500          48.000                                                                  
G17  24341794.259   127917430.786       -3481.418          45.000    24341788.842    99676137.935       -2712.778          44.000  
E31  26471473.316   139108847.198         438.948          47.000    26471475.545   106589961.931         336.271          51.000  
G12  23402727.782   122982480.680         592.451          50.000    23402722.906    95830683.277         461.510          45.000  
R17  24441370.420   130790758.882       -2535.133          40.000    24441362.170   101726101.485       -1971.940          44.000  
R15  25260999.879   134987112.466       -3263.049          43.000    25260999.370   104989923.504       -2537.317          36.000  
R18  22995311.046   122750784.859         764.673          50.000    22995307.730    95472801.501         594.753          48.000  
E19  27522727.625   144633031.257       -3645.362          43.000    27522731.364   110822774.915       -2793.065          44.000  
S31  40348082.226   212030624.299        -795.662          43.000  
G25  25496378.554   133984462.636        1463.754          46.000    25496383.940   104403548.108        1140.544          43.000  
G06  26154565.140   137443219.352        1514.735          43.000    26154564.661   107098631.210        1180.344          38.000  
E21  28288680.355   148658423.452       -2910.249          45.000    28288679.885   113907308.154       -2229.929          49.000  
G22  25088636.557   131841656.637       -3856.321          32.000                                                                  
E04  25279560.960   132845028.920       -1201.838          49.000    25279560.901   101790454.441        -920.923          53.000  
> 2024 04 08 23 43 30.0050000  0 25                     
S33  41304970.314   217059110.018        -795.894          44.000  
E26  29103403.507   152939464.456        1434.877          45.000    29103404.195   117187424.265        1099.572          45.000  
G24  22714883.437   119367633.377         780.684          46.000    22714881.207    93013824.527         608.339          46.000  
E09  27602983.718   145054604.959        1253.972          43.000    27602984.422   111145847.292         960.964          46.000  
G15  22693342.264   119254288.289       -2511.047          48.000    22693338.429    92925479.084       -1956.725          44.000  
R06  22252285.667   118742490.831       -3288.141          40.000                                                                  
R07  22717798.570   121610197.078         476.725          51.000    22717792.076    94585696.010         370.784          48.000  
R16  22190871.960   118540149.989       -1899.927          51.000    22190867.827    92198088.950       -1477.741          50.000  
R09  22630965.857   120848394.894         566.791          50.000    22630963.101    93993281.859         440.865          50.000  
R19  24148603.057   129178998.566        2938.015          40.000    24148601.698   100472687.639        2285.287          44.000  
G19  23131631.486   121557963.548       -2360.779          47.000                                                                  
G13  23500161.646   123494364.946       -3919.372          46.000                                                                  
G17  24361708.402   128022079.746       -3495.605          46.000    24361702.646    99757682.577       -2723.874          45.000  
E31  26468983.030   139095759.995         433.255          47.000    26468985.148   106579934.169         332.018          51.000  
G12  23399370.655   122964841.512         583.306          50.000    23399366.694    95816938.574         454.424          45.000  
R17  24455647.778   130867156.736       -2558.106          45.000    24455640.044   101785522.050       -1989.756          46.000  
R15  25279314.553   135084976.815       -3261.346          40.000    25279312.673   105066040.292       -2536.670          33.000  
R18  22991077.222   122728180.437         742.063          50.000    22991073.792    95455220.290         577.107          49.000  
E19  27543551.289   144742464.845       -3650.417          42.000    27543556.594   110906626.205       -2797.257          44.000  
S31  40352624.344   212054491.674        -795.751          44.000  
G25  25488036.140   133940625.687        1458.594          45.000    25488041.607   104369390.047        1136.585          43.000  
G06  26145928.540   137397834.740        1510.423          43.000    26145928.269   107063266.782        1176.827          39.000  
E21  28305290.864   148745712.667       -2909.347          45.000    28305290.643   113974192.097       -2229.104          49.000  
G22  25110653.565   131957355.504       -3856.870          33.000                                                                  
E04  25286460.315   132881284.276       -1215.458          49.000    25286459.788   101818234.498        -931.287          53.000  
> 2024 04 08 23 44 00.0050000  0 25                     
S33  41309512.292   217082978.857        -795.687          44.000  
E26  29095217.695   152896451.573        1432.333          44.000    29095218.808   117154466.492        1097.407          46.000  
G24  22710443.747   119344303.627         774.270          46.000    22710441.886    92995645.526         603.301          46.000  
E09  27595848.070   145017109.518        1245.285          43.000    27595849.310   111117117.061         954.211          46.000  
G15  22707719.802   119329843.127       -2526.313          48.000    22707716.502    92984352.901       -1968.475          44.000  
R06  22270826.481   118841429.106       -3308.234          40.000                                                                  
R07  22715196.373   121596272.660         451.236          51.000    22715191.814    94574865.921         351.086          48.000  
R16  22201550.117   118597191.575       -1903.064          51.000    22201545.500    92242454.640       -1480.206          50.000  
R09  22627793.179   120831449.670         562.610          50.000    22627788.436    93980102.311         437.526          48.000  
R19  24132142.643   129090950.740        2931.324          40.000    24132143.093   100404206.634        2279.914          46.000  
G19  23145157.919   121629045.673       -2378.293          47.000                                                                  
G13  23522565.408   123612098.198       -3929.701          46.000                                                                  
G17  24381700.900   128127142.035       -3508.982          44.000    24381694.996    99839549.299       -2734.346          44.000  
E31  26466524.243   139082836.704         427.908          48.000    26466525.648   106570032.028         327.842          51.000  
G12  23396065.111   122947470.667         574.414          50.000    23396060.692    95803402.905         447.550          45.000  
R17  24470053.669   130944241.779       -2581.117          47.000    24470045.700   101845477.112       -2007.380          46.000  
R15  25297621.502   135182800.830       -3260.437          39.000    25297619.756   105142125.643       -2535.394          33.000  
R18  22986968.853   122706252.110         719.598          50.000    22986966.130    95438164.951         559.540          49.000  
E19  27564405.466   144852047.798       -3655.192          42.000    27564410.155   110990591.900       -2800.823          44.000  
S31  40357164.369   212078350.267        -795.097          44.000  
G25  25479722.015   133896937.051        1453.815          45.000    25479727.683   104335347.531        1132.874          43.000  
G06  26137317.411   137352585.860        1506.068          42.000    26137315.884   107028008.014        1173.969          37.000  
E21  28321893.831   148832965.420       -2907.908          44.000    28321894.595   114041048.098       -2228.198          50.000  
G22  25132677.355   132073076.503       -3858.189          34.000                                                                  
E04  25293436.314   132917944.001       -1228.896          49.000    25293435.835   101846324.402        -941.641          53.000  
> 2024 04 08 23 44 30.0050000  0 25                     
S33  41314053.573   217106844.061        -795.581          45.000  
E26  29087050.111   152853530.365        1429.003          44.000    29087051.233   117121578.983        1094.958          47.000  
G24  22706042.866   119321177.409         767.432          46.000    22706041.229    92977625.115         597.945          47.000  
E09  27588764.878   144979885.878        1236.209          43.000    27588766.084   111088595.068         947.212          46.000  
G15  22722186.576   119405864.492       -2541.893          48.000    22722182.721    93043590.238       -1980.713          44.000  
R06  22289482.253   118940975.058       -3328.363          41.000                                                                  
R07  22712740.673   121583120.417         425.483          51.000    22712735.486    94564636.391         330.941          49.000  
R16  22212247.809   118654336.056       -1906.714          52.000    22212243.199    92286900.324       -1482.904          50.000  
R09  22624645.134   120814641.500         557.849          50.000    22624640.377    93967029.357         433.942          49.000  
R19  24115721.871   129003111.870        2924.270          40.000    24115722.151   100335888.123        2274.402          45.000  
G19  23158785.623   121700661.401       -2396.313          47.000                                                                  
G13  23545031.268   123730152.952       -3940.562          48.000                                                                  
G17  24401772.852   128232619.801       -3523.081          42.000    24401766.123    99921739.812       -2745.135          44.000  
E31  26464096.242   139070081.544         422.320          48.000    26464098.377   106560258.689         323.603          51.000  
G12  23392810.782   122930372.320         565.187          49.000    23392807.263    95790079.599         440.475          46.000  
R17  24484586.040   131022016.435       -2604.164          48.000    24484579.291   101905968.504       -2025.457          45.000  
R15  25315921.417   135280589.428       -3259.118          40.000    25315920.016   105218183.409       -2535.028          33.000  
R18  22982988.875   122685007.580         696.664          50.000    22982987.384    95421641.446         541.733          50.000  
E19  27585286.652   144961783.081       -3660.585          41.000    27585292.277   111074674.322       -2804.763          44.000  
S31  40361703.623   212102204.327        -795.334          44.000  
G25  25471436.965   133853401.246        1448.566          46.000    25471442.033   104301424.107        1128.882          44.000  
G06  26128733.681   137307480.406        1500.883          41.000    26128733.033   106992861.166        1169.636          39.000  
E21  28338491.866   148920185.870       -2906.954          44.000    28338491.346   114107879.319       -2227.321          49.000  
G22  25154702.420   132188822.593       -3858.550          28.000                                                                  
E04  25300490.166   132955012.692       -1242.616          49.000    25300489.829   101874727.657        -952.064          53.000  
