     3.00           OBSERVATION DATA    M: Mixed            RINEX VERSION / TYPE
CONVBIN 2.4.3                           20240408 185942 UTC PGM / RUN BY / DATE 
format: u-blox UBX                                          COMMENT             
log: data/2024-04-08/20240408184500.ubx                     COMMENT             
AQUI00CHL                                                   MARKER NAME         
                                                            MARKER NUMBER       
                                                            MARKER TYPE         
                                                            OBSERVER / AGENCY   
UNKNOWN             UBLOX-ZED-F9P                           REC # / TYPE / VERS 
UNKNOWN             TWIVSP6037L                             ANT # / TYPE        
  1713381.0000 -5047934.0000 -3490983.0000                  APPROX POSITION XYZ 
        0.0000        0.0000        0.0000                  ANTENNA: DELTA H/E/N
G    8 C1C L1C D1C S1C C2L L2L D2L S2L                      SYS / # / OBS TYPES 
R    8 C1C L1C D1C S1C C2C L2C D2C S2C                      SYS / # / OBS TYPES 
E    8 C1C L1C D1C S1C C7Q L7Q D7Q S7Q                      SYS / # / OBS TYPES 
S    4 C1C L1C D1C S1C                                      SYS / # / OBS TYPES 
  2024    04    08    18    45   00.4960000     GPS         TIME OF FIRST OBS   
  2024    04    08    18    59   30.4970000     GPS         TIME OF LAST OBS    
                                                            END OF HEADER       
> 2024 04 08 18 45 00.4960000  0 27                     
S33  38583019.106   202755029.7831       -827.970          43.000  
G05  22260187.294   116978043.4941       2242.436          45.000    22260188.779    91151762.3841       1747.132          41.000  
E07  25489051.939   133945744.0821      -2436.059          42.000    25489063.878   102633742.0341      -1866.715          47.000  
G20  19801800.000   104059221.5001        266.838          48.000                                                                  
E12  25707791.988   135095344.9581      -1363.716          42.000    25707798.822   103514656.9551      -1044.917          46.000  
R13  20680004.475   110430335.1281      -4413.726          40.000    20680007.055    85890337.6261      -3432.717          43.000  
R04  18828716.180   100827103.0431        915.929          52.000    18828713.941    78421082.5091        712.255          51.000  
R05  22042316.716                1       2461.452          31.000                                                                  
R02  23168434.823                3      -3866.877          17.000                                                                  
R03  19271434.277   103161540.4931      -2127.308          52.000    19271434.378    80236805.8201      -1654.591          49.000  
E33  25293983.692   132920572.3871      -3345.475          43.000    25294004.982   101848231.1471      -2563.417          47.000  
G09  21102912.917   110896532.1741      -2544.858          46.000    21102917.191    86412941.5071      -1983.102          43.000  
G13  22790609.608   119765524.3141       1440.379          42.000                                                                  
G11  22209198.867   116709981.4571      -2972.302          38.000    22209209.806    90942846.9551      -2316.297          43.000  
G06  23072815.028   121248182.0961      -4006.948          34.000    23072839.597    94479038.2691      -3122.340          39.000  
R14  18033131.030    96127175.4581       -301.857          53.000    18033134.465    74765532.0651       -234.883          51.000  
R15  20496912.722   109529380.3171       3074.491          50.000    20496926.402    85189659.4471       2391.167          49.000  
E19  23749724.028   124805773.9331        511.004          43.000    23749728.729    95630462.3811        391.721          46.000  
S31  37630188.059   197747870.4171       -827.902          42.000  
G14  20869973.051   109672578.5411       2220.420          46.000    20869981.580    85459302.3331       1730.160          46.000  
G07  19460562.747   102266156.2861      -2939.655          49.000    19460560.279    79687808.3691      -2290.613          43.000  
G30  19095453.885   100347570.2831       -769.169          49.000    19095456.513    78193276.5371       -599.487          46.000  
E21  24273701.027   127559353.8991       1788.647          45.000    24273716.019    97740430.4691       1370.437          50.000  
E30  26341567.221   138425894.9911      -2878.677          43.000    26341574.966   106066811.1471      -2205.820          44.000  
G22  23070323.081   121235316.6611       2833.491          42.000                                                                  
E27  23447444.727   123217444.8121       -557.442          49.000    23447451.642    94413532.3491       -427.197          53.000  
E10                                                                  26560919.688                1       -230.794          28.000  
> 2024 04 08 18 45 30.4960000  0 27                     
S33  38587745.352   202779866.231        -828.052          44.000  
G05  22247407.721   116910885.613        2234.373          45.000    22247409.029    91099431.736        1740.990          41.000  
E07  25502966.878   134018865.114       -2438.811          42.000    25502977.906   102689769.794       -1868.714          47.000  
G20  19800328.307   104051487.139         248.587          48.000                                                                  
E12  25715614.556   135136456.832       -1377.368          42.000    25715621.858   103546158.194       -1055.305          46.000  
R13  20704833.391   110562920.939       -4425.655          39.000    20704836.085    85993459.943       -3442.167          43.000  
R04  18823611.913   100799765.915         906.400          52.000    18823609.204    78399820.348         704.939          49.000  
R05  22028494.874   117754922.3931       2463.560          37.000    22028496.992                3       1916.347          24.000  
R03  19283394.735   103225569.062       -2141.389          51.000    19283395.248    80286605.758       -1665.633          49.000  
E33  25313094.653   133021000.170       -3349.748          39.000    25313116.579   101925181.442       -2566.741          47.000  
G09  21117458.392   110972965.807       -2550.715          47.000    21117462.344    86472500.173       -1987.691          43.000  
G13  22782385.366   119722307.532        1440.515          39.000                                                                  
G11  22226197.457   116799310.482       -2983.080          39.000    22226209.194    91012453.426       -2324.287          44.000  
G06  23095684.388   121368371.275       -4005.490          35.000    23095711.023    94572692.578       -3121.594          40.000  
R14  18034903.531    96136624.075        -328.161          53.000    18034906.898    74772881.096        -255.210          51.000  
R15  20479684.459   109437325.293        3062.301          51.000    20479698.690    85118061.961        2381.657          48.000  
E19  23746808.164   124790451.722         510.118          43.000    23746813.059    95618722.073         390.874          46.000  
S31  37634915.850   197772715.571        -828.479          41.000  
G14  20857323.042   109606108.890        2210.635          45.000    20857332.373    85407508.275        1722.598          47.000  
G07  19477376.222   102354512.823       -2950.917          49.000    19477374.926    79756657.654       -2299.409          44.000  
G30  19099886.338   100370860.136        -783.621          50.000    19099888.215    78211424.580        -610.647          45.000  
E21  24263509.113   127505794.857        1781.769          45.000    24263523.388    97699392.132        1365.320          51.000  
E30  26358028.536   138512399.483       -2888.410          42.000    26358036.333   106133093.886       -2213.154          45.000  
G22  23054148.385   121150316.120        2833.355          42.000                                                                  
E27  23450667.148   123234381.938        -571.891          48.000    23450674.527    94426510.232        -438.214          54.000  
E10                                                                  26562674.769                3       -244.601          21.000  
R02                                                                  23190205.364                3      -3009.140          15.000  
> 2024 04 08 18 46 00.4960000  0 26                     
S33  38592472.151   202804704.174        -828.169          44.000  
G05  22234673.228   116843967.443        2226.395          45.000    22234675.309    91047287.845        1734.854          41.000  
E07  25516893.793   134092062.511       -2441.101          39.000    25516907.603   102745855.995       -1870.628          48.000  
G20  19798960.349   104044297.252         230.530          48.000                                                                  
E12  25723515.643   135177973.661       -1390.526          42.000    25723522.490   103577969.761       -1065.570          46.000  
R13  20729730.056   110695864.903       -4437.534          38.000    20729732.012    86096860.819       -3451.480          42.000  
R04  18818558.489   100772708.927         897.175          52.000    18818556.817    78378776.086         697.659          50.000  
R05  22014661.665   117680963.740        2466.044          34.000    22014675.565                1       1918.623          28.000  
R03  19295435.243   103290017.815       -2155.404          52.000    19295435.402    80336732.465       -1676.406          50.000  
E33  25332230.473   133121553.761       -3354.128          39.000    25332252.162   102002228.106       -2569.825          47.000  
G09  21132035.878   111049574.323       -2556.534          47.000    21132040.593    86532195.074       -1992.397          43.000  
G13  22774160.677   119679085.932        1440.369          41.000                                                                  
G11  22243253.776   116888939.239       -2992.720          42.000    22243264.623    91082293.499       -2332.035          43.000  
G06  23118549.941   121488525.222       -4004.467          38.000    23118575.861    94666319.335       -3120.751          39.000  
R14  18036823.844    96146859.079        -354.397          53.000    18036827.460    74780841.752        -275.647          51.000  
R15  20462525.411   109345635.020        3050.105          51.000    20462538.806    85046748.160        2372.279          48.000  
E19  23743897.729   124775156.529         509.428          43.000    23743902.152    95607002.461         390.263          46.000  
S31  37639643.988   197797563.295        -828.297          43.000  
G14  20844729.267   109539929.224        2201.059          47.000    20844737.496    85355940.177        1715.056          46.000  
G07  19494252.823   102443200.480       -2961.810          48.000    19494252.328    79825764.951       -2307.965          45.000  
G30  19104399.938   100394578.329        -797.850          50.000    19104401.068    78229906.352        -621.720          45.000  
E21  24253354.708   127452435.095        1775.200          45.000    24253369.235    97658506.514        1360.213          51.000  
E30  26374543.305   138599187.500       -2897.610          42.000    26374551.390   106199593.878       -2220.318          44.000  
G22  23037971.699   121065308.502        2833.500          41.000                                                                  
E27  23453970.985   123251746.071        -585.979          48.000    23453978.797    94439815.324        -449.027          54.000  
E10                                                                  26564521.733                3       -247.663          13.000  
> 2024 04 08 18 46 30.4960000  0 26                     
S33  38597199.260   202829546.027        -827.775          43.000  
G05  22221985.378   116777293.081        2218.482          45.000    22221987.470    90995333.913        1728.641          42.000  
E07  25530837.610   134165338.019       -2443.599          39.000    25530851.187   102802002.055       -1872.479          47.000  
G20  19797696.232   104037654.515         212.218          48.000                                                                  
E12  25731493.186   135219896.183       -1404.052          41.000    25731500.210   103610092.142       -1075.885          46.000  
R13  20754692.807   110829164.643       -4449.002          39.000    20754694.015    86200538.408       -3460.384          41.000  
R04  18813558.671   100745936.488         887.736          51.000    18813556.556    78357953.138         690.370          49.000  
R05  22000801.763   117606862.8761       2469.056          33.000                                                                  
R03  19307553.617   103354888.785       -2169.299          52.000    19307553.724    80387187.566       -1687.158          50.000  
E33  25351390.940   133222232.387       -3357.946          39.000    25351411.507   102079370.586       -2572.833          47.000  
G09  21146647.720   111126359.463       -2562.309          46.000    21146652.834    86592027.599       -1996.572          43.000  
G13  22765934.302   119635861.036        1440.570          41.000                                                                  
G11  22260367.767   116978866.357       -3002.659          44.000    22260377.921    91152366.033       -2339.594          44.000  
G06  23141409.147   121608642.258       -4003.514          38.000    23141431.978    94759917.339       -3119.076          37.000  
R14  18038892.257    96157881.027        -380.451          53.000    18038894.850    74789414.483        -295.995          51.000  
R15  20445435.747   109254313.932        3037.826          52.000    20445448.655    84975721.496        2362.797          48.000  
E19  23740992.741   124759889.946         508.255          44.000    23740996.870    95595304.755         389.745          46.000  
S31  37644373.170   197822414.320        -828.170          43.000  
G14  20832191.788   109474044.037        2191.335          47.000    20832199.706    85304601.529        1707.469          46.000  
G07  19511192.628   102532218.444       -2972.662          48.000    19511191.216    79895129.613       -2316.272          45.000  
G30  19108994.938   100418725.136        -812.078          50.000    19108995.929    78248722.142        -632.921          44.000  
E21  24243239.218   127399277.940        1768.507          46.000    24243253.302    97617776.114        1355.092          51.000  
E30  26391112.968   138686258.983       -2907.127          42.000    26391120.902   106266311.078       -2227.624          45.000  
G22  23021794.412   120980297.819        2833.892          40.000                                                                  
E27  23457357.136   123269538.929        -600.235          49.000    23457364.509    94453448.917        -459.842          54.000  
E10                                                                  26566454.175                3       -254.445          20.000  
> 2024 04 08 18 47 00.4960000  0 26                     
S33  38601926.570   202854386.770        -828.022          43.000  
G05  22209343.967   116710860.412        2210.456          44.000    22209345.237    90943568.323        1722.492          41.000  
E07  25544796.614   134238687.621       -2446.185          41.000    25544808.984   102858204.909       -1874.345          46.000  
G20  19796535.708   104031555.950         194.367          48.000                                                                  
E12  25739547.159   135262218.944       -1417.436          41.000    25739554.328   103642521.190       -1085.988          46.000  
R13  20779720.681   110962811.390       -4460.244          39.000    20779721.593    86304485.892       -3469.181          41.000  
R04  18808612.226   100719446.554         878.439          51.000    18808609.593    78337349.893         683.274          49.000  
R05  21986942.144                3       2471.753          27.000    21986973.775                1       1921.922          29.000  
R03  19319750.503   103420178.640       -2183.258          52.000    19319751.139    80437968.466       -1697.985          50.000  
E33  25370571.075   133323029.322       -3361.544          38.000    25370592.871   102156603.745       -2575.834          46.000  
G09  21161292.669   111203317.022       -2567.999          46.000    21161296.867    86651994.456       -2001.097          43.000  
G13  22757706.782   119592628.202        1441.083          42.000                                                                  
G11  22277536.039   117069084.310       -3011.895          45.000    22277547.125    91222665.188       -2346.880          45.000  
G06  23164256.662   121728714.913       -4001.786          36.000    23164280.152    94853480.774       -3117.866          37.000  
R14  18041106.060    96169685.780        -406.445          53.000    18041108.523    74798596.072        -316.024          51.000  
R15  20428414.182   109163361.177        3025.681          51.000    20428427.043    84904981.295        2353.404          47.000  
E19  23738091.721   124744647.832         507.880          43.000    23738096.484    95583625.857         389.099          46.000  
S31  37649102.376   197847264.588        -828.135          42.000  
G14  20819709.546   109408451.823        2181.519          47.000    20819717.918    85253491.196        1699.866          47.000  
G07  19528193.311   102621559.946       -2983.295          48.000    19528192.410    79964746.379       -2324.713          45.000  
G30  19113669.458   100443294.992        -825.902          49.000    19113671.602    78267867.580        -643.648          45.000  
E21  24233161.005   127346320.744        1761.840          45.000    24233175.170    97577198.913        1350.061          50.000  
E30  26407734.184   138773607.784       -2916.037          43.000    26407742.814   106333240.829       -2234.615          45.000  
G22  23005616.119   120895282.634        2834.008          41.000                                                                  
E27  23460824.223   123287756.224        -614.262          49.000    23460830.914    94467407.761        -470.745          53.000  
E10                                                                  26568447.414                3       -266.558          21.000  
> 2024 04 08 18 47 30.4960000  0 26                     
S33  38606654.054   202879230.485        -827.834          43.000  
G05  22196749.187   116644675.663        2202.062          44.000    22196751.183    90891995.920        1715.782          41.000  
E07  25558769.795   134312114.798       -2448.951          41.000    25558782.597   102914467.241       -1876.400          47.000  
G20  19795479.709   104026005.911         175.844          48.000                                                                  
E12  25747676.414   135304944.116       -1430.837          40.000    25747684.581   103675258.586       -1096.245          46.000  
R13  20804812.847   111096804.272       -4472.302          38.000    20804814.047    86408702.568       -3478.484          41.000  
R04  18803718.853   100693244.913         868.594          51.000    18803716.168    78316970.928         675.483          49.000  
R05  21973069.486   117458619.4501       2473.797          37.000    21973078.956    91356779.8671       1923.221          33.000  
R03  19332025.855   103485890.686       -2197.334          51.000    19332026.089    80489077.779       -1709.077          49.000  
E33  25389776.559   133423945.587       -3365.572          39.000    25389797.475   102233928.303       -2578.869          46.000  
G09  21175970.661   111280450.560       -2574.145          46.000    21175974.882    86712098.462       -2005.724          42.000  
G13  22749479.410   119549390.514        1441.089          41.000                                                                  
G11  22294759.796   117159593.299       -3021.747          45.000    22294770.698    91293191.126       -2354.721          45.000  
G06  23187096.717   121848743.283       -4000.715          37.000    23187119.399    94947009.742       -3117.009          36.000  
R14  18043466.700    96182276.235        -432.690          52.000    18043471.163    74808388.743        -336.618          51.000  
R15  20411463.034   109072783.440        3012.938          50.000    20411476.251    84834532.773        2343.319          49.000  
E19  23735196.828   124729433.677         506.721          44.000    23735200.966    95571968.353         388.213          46.000  
S31  37653831.956   197872116.293        -828.474          42.000  
G14  20807284.181   109343158.730        2171.353          46.000    20807292.844    85202613.918        1692.047          46.000  
G07  19545256.386   102711225.770       -2994.250          48.000    19545255.532    80034615.872       -2333.136          45.000  
G30  19118426.188   100468289.921        -840.232          50.000    19118428.666    78287344.227        -654.608          45.000  
E21  24223121.604   127293568.483        1754.844          45.000    24223136.756    97536778.745        1344.759          50.000  
E30  26424409.701   138861235.647       -2925.684          41.000    26424417.420   106400384.346       -2241.452          43.000  
G22  22989438.424   120810268.482        2834.048          39.000                                                                  
E27  23464372.284   123306401.299        -628.531          49.000    23464378.834    94481694.365        -481.609          53.000  
E10                                                                  26570520.278                        -284.146          29.000  
> 2024 04 08 18 48 00.4960000  0 26                     
S33  38611380.660   202904068.254        -827.714          43.000  
G05  22184200.964   116578734.420        2194.178          45.000    22184202.257    90840613.256        1709.529          42.000  
E07  25572756.737   134385613.319       -2451.047          42.000    25572768.733   102970784.195       -1878.043          47.000  
G20  19794526.952   104020999.009         157.927          47.000                                                                  
E12  25755881.673   135348064.064       -1443.647          40.000    25755890.199   103708298.471       -1106.173          45.000  
R13  20829968.566   111231132.642       -4482.967          40.000    20829970.481    86513180.193       -3486.987          41.000  
R04  18798879.027   100667327.631         859.290          51.000    18798875.819    78296813.078         668.330          48.000  
R05  21959164.271   117384406.3861       2476.671          32.000    21959187.426    91298994.4521       1926.194          37.000  
R03  19344379.076   103552019.135       -2211.022          51.000    19344379.139    80540510.947       -1719.801          49.000  
E33  25409003.310   133524972.202       -3369.295          38.000    25409023.080   102311337.417       -2581.592          45.000  
G09  21190681.549   111357753.652       -2579.508          46.000    21190685.584    86772334.562       -2009.925          43.000  
G13  22741248.180   119506141.287        1442.053          41.000                                                                  
G11  22312037.017   117250383.601       -3031.020          46.000    22312048.266    91363936.229       -2361.577          45.000  
G06  23209927.729   121968717.814       -3998.086          36.000    23209949.917    95040496.710       -3115.734          38.000  
R14  18045975.184    96195645.159        -458.474          53.000    18045978.526    74818786.913        -356.620          51.000  
R15  20394581.782   108982577.127        3000.924          51.000    20394593.216    84764373.134        2333.823          47.000  
E19  23732305.874   124714241.125         506.209          44.000    23732309.548    95560327.400         387.954          45.000  
S31  37658559.714   197896963.333        -827.862          41.000  
G14  20794915.054   109278161.022        2161.888          45.000    20794923.587    85151966.859        1684.511          46.000  
G07  19562379.260   102801206.448       -3004.456          49.000    19562378.739    80104730.717       -2341.077          45.000  
G30  19123262.661   100493702.096        -853.883          50.000    19123263.794    78307145.976        -665.388          45.000  
E21  24213121.619   127241016.341        1748.380          45.000    24213135.861    97496511.903        1339.750          50.000  
E30  26441134.862   138949134.197       -2934.248          42.000    26441144.086   106467735.362       -2248.348          44.000  
G22  22973260.586   120725251.523        2834.006          39.000                                                                  
E27  23467999.855   123325467.661        -642.345          48.000    23468006.776    94496303.818        -492.252          53.000  
E10                                                                  26572675.168                3       -294.638          25.000  
> 2024 04 08 18 48 30.4960000  0 26                     
S33  38616105.928   202928898.032        -827.433          43.000  
G05  22171697.969   116513034.873        2185.959          45.000    22171700.577    90789418.929        1703.039          42.000  
E07  25586755.011   134459179.451       -2453.441          41.000    25586767.398   103027152.951       -1879.885          46.000  
G20  19793676.809   104016532.217         139.640          47.000                                                                  
E12  25764161.916   135391573.772       -1457.021          40.000    25764169.667   103741636.989       -1116.308          45.000  
R13  20855185.164   111365787.909       -4493.725          40.000    20855186.741    86617912.082       -3494.897          40.000  
R04  18794091.498   100641692.930         849.718          50.000    18794088.778    78276875.023         660.825          49.000  
R05  21945292.471                3       2471.096          23.000    21945280.814    91241181.976        1928.005          35.000  
R03  19356809.907   103618560.478       -2224.934          52.000    19356809.269    80592265.205       -1730.463          49.000  
E33  25428248.642   133626102.691       -3372.560          34.000    25428268.228   102388826.126       -2584.304          44.000  
G09  21205423.339   111435222.445       -2584.931          46.000    21205426.849    86832699.798       -2014.220          42.000  
G13  22733014.565   119462876.376        1442.358          42.000                                                                  
G11  22329366.732   117341448.037       -3040.046          47.000    22329376.507    91434894.951       -2368.652          44.000  
G06  23232744.281   122088631.360       -3996.520          35.000    23232767.832    95133936.075       -3114.207          36.000  
R14  18048628.804    96209788.314        -484.332          53.000    18048632.563    74829787.252        -376.778          51.000  
R15  20377769.715   108892741.367        2988.248          51.000    20377781.961    84694501.698        2324.298          47.000  
E19  23729417.256   124699065.934         505.584          43.000    23729421.772    95548699.771         387.384          45.000  
S31  37663286.454   197921802.763        -827.765          43.000  
G14  20782602.182   109213457.513        2151.886          45.000    20782610.751    85101549.021        1676.702          46.000  
G07  19579560.475   102891495.494       -3014.819          47.000    19579560.555    80175085.836       -2349.152          46.000  
G30  19128176.328   100519526.131        -867.640          50.000    19128178.357    78327268.662        -676.101          45.000  
E21  24203159.556   127188661.923        1741.703          46.000    24203173.009    97456396.581        1334.611          51.000  
E30  26457912.393   139037297.775       -2943.358          41.000    26457921.351   106535289.336       -2255.177          44.000  
G22  22957081.237   120640230.132        2833.962          40.000                                                                  
E27  23471707.485   123344951.257        -656.426          49.000    23471714.451    94511232.958        -502.992          53.000  
E10                                                                  26574913.438                3       -302.917          19.000  
> 2024 04 08 18 49 00.4960000  0 25                     
S33  38620828.526   202953716.215        -826.910          44.000  
G05  22159240.815   116447577.328        2177.866          44.000    22159244.231    90738413.167        1697.082          42.000  
E07  25600766.333   134532811.039       -2455.601          41.000    25600778.934   103083571.913       -1881.446          45.000  
G20  19792929.272   104012604.319         121.760          47.000                                                                  
E12  25772515.583   135435469.718       -1469.523          40.000    25772522.767   103775271.499       -1126.003          45.000  
R13  20880461.803   111500763.821       -4504.514          42.000    20880463.011    86722893.378       -3503.553          40.000  
R04  18789356.629   100616340.838         840.328          51.000    18789354.517    78257156.800         653.682          48.000  
R05  21931430.287                2       2481.522          27.000    21931359.241    91183307.706        1930.383          37.000  
R03  19369316.948   103685512.797       -2238.508          51.000    19369317.676    80644339.141       -1741.090          50.000  
E33  25447513.108   133727332.575       -3376.431          31.000    25447531.759   102466390.935       -2586.690          42.000  
G09  21220196.331   111512854.659       -2590.462          47.000    21220199.664    86893192.404       -2018.753          43.000  
G13  22724778.267   119419593.080        1442.761          42.000                                                                  
G11  22346747.387   117432781.066       -3048.915          46.000    22346757.749    91506063.016       -2375.739          45.000  
G06  23255551.135   122208478.337       -3994.050          38.000    23255574.204    95227323.613       -3111.609          37.000  
R14  18051427.311    96224702.734        -509.991          53.000    18051429.496    74841387.483        -396.630          51.000  
R15  20361027.289   108803277.372        2975.920          51.000    20361039.591    84624919.388        2314.436          47.000  
E19  23726532.474   124683906.079         505.020          43.000    23726536.723    95537083.902         387.015          45.000  
S31  37668010.881   197946630.214        -827.159          42.000  
G14  20770344.692   109149048.722        2142.121          45.000    20770353.365    85051360.781        1669.130          46.000  
G07  19596799.892   102982088.217       -3024.750          47.000    19596798.864    80245677.578       -2357.001          45.000  
G30  19133168.133   100545758.387        -881.073          50.000    19133169.085    78347709.435        -686.642          44.000  
E21  24193233.671   127136504.567        1735.276          47.000    24193247.180    97416432.252        1329.632          50.000  
E30  26474739.190   139125722.231       -2951.718          41.000    26474747.058   106603043.301       -2261.795          44.000  
G22  22940902.244   120555204.492        2834.188          41.000                                                                  
E27  23475494.978   123364849.745        -670.206          49.000    23475500.901    94526480.005        -513.481          53.000  
> 2024 04 08 18 49 30.4960000  0 25                     
S33  38625548.180   202978518.010        -826.736          44.000  
G05  22146830.473   116382359.142        2169.736          44.000    22146833.515    90687593.910        1690.750          42.000  
E07  25614791.288   134606503.296       -2457.558          42.000    25614802.478   103140037.324       -1883.010          46.000  
G20  19792283.574   104009211.480         103.937          47.000                                                                  
E12  25780942.208   135479745.828       -1482.225          41.000    25780948.504   103809197.301       -1135.739          45.000  
R13  20905796.895   111636050.812       -4515.097          42.000    20905798.497    86828116.622       -3511.983          40.000  
R04  18784675.388   100591268.852         830.801          51.000    18784672.675    78237656.403         646.301          49.000  
R05  21917451.782                3       2484.619          26.000    21917418.780    91125369.054        1932.436          32.000  
R03  19381900.430   103752871.460       -2252.186          52.000    19381900.284    80696729.145       -1751.747          49.000  
E33  25466790.439                       -3379.241          28.000    25466813.590   102544026.135       -2588.858          42.000  
G09  21234999.425   111590645.503       -2595.916          46.000    21235002.197    86953808.595       -2022.942          42.000  
G13  22716537.180   119376286.274        1443.756          43.000                                                                  
G11  22364177.213   117524374.555       -3057.625          45.000    22364189.079    91577433.935       -2382.514          46.000  
G06  23278343.781   122328250.669       -3991.147          37.000    23278366.491    95320653.041       -3110.025          36.000  
R14  18054367.480    96240382.639        -535.609          53.000    18054370.995    74853583.099        -416.628          51.000  
R15  20344353.040   108714183.076        2963.456          51.000    20344365.861    84555624.557        2304.811          48.000  
E19  23723649.583   124668756.783         504.643          43.000    23723653.932    95525476.119         386.746          45.000  
S31  37672732.790   197971440.951        -827.027          43.000  
G14  20758143.501   109084932.399        2132.286          46.000    20758152.308    85001400.474        1661.323          46.000  
G07  19614094.937   103072976.650       -3034.698          47.000    19614094.359    80316499.771       -2364.648          45.000  
G30  19138236.067   100572392.550        -894.706          50.000    19138237.061    78368463.394        -697.197          44.000  
E21  24183344.716   127084540.936        1728.785          47.000    24183358.639    97376616.361        1324.566          51.000  
E30  26491614.068   139214400.867       -2960.368          41.000    26491622.210   106670991.971       -2268.312          45.000  
G22  22924721.756   120470172.222        2834.252          39.000                                                                  
E27  23479358.683   123385158.025        -683.880          49.000    23479365.238    94542041.059        -524.039          53.000  
> 2024 04 08 18 50 00.4960000  0 25                     
S33  38630266.849   203003315.168        -826.663          44.000  
G05  22134467.428   116317395.043        2160.873          43.000    22134470.558    90636972.678        1683.794          42.000  
E07  25628827.994   134680268.461       -2460.329          42.000    25628839.574   103196558.654       -1885.109          45.000  
G20  19791742.038   104006366.926          85.646          48.000                                                                  
E12  25789441.465   135524412.999       -1495.812          40.000    25789448.773   103843422.724       -1146.174          45.000  
R13  20931191.670   111771657.024       -4525.784          43.000    20931192.830    86933588.127       -3520.285          40.000  
R04  18780048.968   100566491.812         820.743          51.000    18780045.787    78218385.452         638.282          48.000  
R05  21903475.691                        2486.938          28.000    21903472.583    91067376.306        1933.378          34.000  
R03  19394561.112   103820649.155       -2266.487          51.000    19394562.035    80749445.069       -1762.806          49.000  
E33  25486099.859   133930291.3751      -3382.858          31.000    25486115.045   102621739.069       -2591.757          43.000  
G09  21249834.344   111668607.114       -2601.545          45.000    21249838.767    87014557.877       -2027.320          42.000  
G13  22708294.125   119332968.026        1443.744          43.000                                                                  
G11  22381658.493   117616237.104       -3066.688          44.000    22381669.970    91649014.553       -2389.649          46.000  
G06  23301123.012   122447957.308       -3989.584          39.000    23301145.833    95413931.228       -3108.466          38.000  
R14  18057455.837    96256840.101        -561.706          53.000    18057458.651    74866383.522        -436.976          51.000  
R15  20327752.240   108625473.521        2950.399          51.000    20327765.116    84486629.005        2294.537          49.000  
E19  23720771.056   124653629.932         503.552          43.000    23720775.624    95513885.520         385.855          46.000  
S31  37677453.248   197996247.761        -826.975          42.000  
G14  20746001.606   109021123.412        2121.570          47.000    20746008.633    84951679.599        1653.249          45.000  
G07  19631447.868   103164170.648       -3045.099          47.000    19631448.178    80387560.072       -2372.797          45.000  
G30  19143382.654   100599439.278        -908.874          50.000    19143384.785    78389538.821        -708.196          45.000  
E21  24173495.044   127032784.748        1721.425          46.000    24173509.184    97336959.397        1319.032          50.000  
E30  26508539.203   139303343.959       -2969.076          40.000    26508547.262   106739143.283       -2275.322          45.000  
G22  22908541.531   120385147.769        2833.671          40.000                                                                  
E27  23483303.589   123405888.140        -698.233          49.000    23483310.027    94557925.323        -535.102          53.000  
> 2024 04 08 18 50 30.4960000  0 25                     
S33  38634985.997   203028114.720        -826.735          44.000  
G05  22122156.196   116252695.080        2152.282          44.000    22122158.150    90586557.250        1677.044          41.000  
E07  25642879.676   134754113.922       -2463.087          42.000    25642892.069   103253141.450       -1887.075          45.000  
G20  19791306.569   104004078.620          66.867          48.000                                                                  
E12  25798016.908   135569477.105       -1508.867          40.000    25798024.165   103877952.285       -1156.198          45.000  
R13  20956646.079   111907585.311       -4536.304          43.000    20956648.204    87039310.146       -3528.325          40.000  
R04  18775479.461   100542019.225         810.611          51.000    18775475.732    78199351.256         630.388          49.000  
R05  21889535.995                3       2488.024          25.000    21889515.932    91009336.359        1935.617          32.000  
R03  19407303.370   103888854.043       -2280.640          52.000    19407303.822    80802493.229       -1773.915          50.000  
E33  25505424.622                       -3386.666          31.000    25505436.781   102699533.399       -2594.468          44.000  
G09  21264704.420   111746746.793       -2607.812          45.000    21264708.316    87075445.833       -2031.927          42.000  
G13  22700049.983   119289644.992        1444.031          43.000                                                                  
G11  22399191.691   117708373.011       -3075.561          43.000    22399203.643    91720808.164       -2396.712          45.000  
G06  23323890.217   122567602.222       -3987.318          39.000    23323913.478    95507161.343       -3106.823          39.000  
R14  18060689.466    96274081.198        -587.768          53.000    18060692.348    74879793.390        -457.254          50.000  
R15  20311224.319   108537159.637        2937.094          51.000    20311237.543    84417941.086        2284.347          49.000  
E19  23717898.749   124638533.015         502.646          43.000    23717902.982    95502317.866         385.248          46.000  
S31  37682174.044   198021056.499        -826.898          42.000  
G14  20733919.412   108957631.630        2111.093          47.000    20733926.992    84902205.901        1644.905          47.000  
G07  19648859.913   103255674.386       -3055.280          47.000    19648861.438    80458861.701       -2380.762          46.000  
G30  19148609.445   100626904.293        -922.505          50.000    19148611.189    78410940.192        -719.005          45.000  
E21  24163686.555   126981244.710        1714.385          46.000    24163700.612    97297468.061        1313.572          50.000  
E30  26525515.216   139392556.806       -2978.154          40.000    26525523.316   106807501.289       -2281.974          45.000  
G22  22892365.298   120300140.725        2833.117          40.000                                                                  
E27  23487329.476   123427047.085        -712.433          49.000    23487336.015    94574138.152        -545.970          53.000  
> 2024 04 08 18 51 00.4960000  0 25                     
S33  38639706.021   203052917.463        -827.005          44.000  
G05  22109894.943   116188261.954        2142.951          44.000    22109896.485    90536349.753        1670.138          41.000  
E07  25656949.813   134828041.152       -2465.883          44.000    25656959.451   103309786.892       -1889.439          45.000  
G20  19790977.841   104002349.033          48.170          48.000                                                                  
E12  25806666.716   135614938.210       -1522.281          38.000    25806675.226   103912786.035       -1166.315          45.000  
R13  20982160.906   112043833.031       -4547.099          42.000    20982162.992    87145280.613       -3536.572          40.000  
R04  18770965.607   100517854.817         800.110          51.000    18770963.639    78180556.800         622.234          49.000  
R05  21875550.244                1       2490.096          31.000    21875535.107                1       1936.688          28.000  
R03  19420124.983   103957487.667       -2295.150          52.000    19420125.579    80855874.843       -1785.202          50.000  
E33  25524773.048                       -3390.178          30.000    25524778.540   102777408.225       -2597.483          43.000  
G09  21279607.829   111825065.833       -2613.718          45.000    21279611.423    87136473.591       -2036.659          41.000  
G13  22691804.821   119246318.357        1443.964          42.000                                                                  
G11  22416776.786   117800780.103       -3084.938          45.000    22416789.187    91792813.095       -2403.872          46.000  
G06  23346645.287   122687183.593       -3985.178          39.000    23346668.341    95600341.969       -3105.309          39.000  
R14  18064070.842    96292106.783        -614.072          53.000    18064073.805    74893813.410        -477.658          50.000  
R15  20294771.554   108449245.622        2923.539          49.000    20294785.048    84349564.258        2273.834          49.000  
E19  23715031.704   124623467.096         501.461          43.000    23715036.004    95490773.965         384.168          46.000  
S31  37686895.722   198045869.130        -827.185          43.000  
G14  20721897.754   108894461.042        2100.112          47.000    20721904.909    84852982.502        1636.303          45.000  
G07  19666332.103   103347486.678       -3065.778          48.000    19666332.282    80530403.754       -2388.953          46.000  
G30  19153915.377   100654787.508        -936.552          49.000    19153916.895    78432667.438        -729.868          45.000  
E21  24153920.823   126929923.742        1706.948          47.000    24153934.591    97258144.559        1307.838          50.000  
E30  26542543.781   139482039.018       -2987.495          41.000    26542551.308   106876065.640       -2288.967          44.000  
G22  22876192.745   120215155.068        2832.053          39.000                                                                  
E27  23491438.379   123448636.058        -726.886          49.000    23491444.218    94590680.470        -557.042          53.000  
> 2024 04 08 18 51 30.4960000  0 25                     
S33  38644427.066   203077727.824        -827.443          43.000  
G05  22097685.382   116124101.942        2133.827          43.000    22097687.040    90486355.072        1662.803          41.000  
E07  25671032.665   134902054.071       -2468.632          41.000    25671044.205   103366498.017       -1891.587          46.000  
G20  19790755.686   104001182.787          29.373          48.000                                                                  
E12  25815393.846   135660798.889       -1535.383          39.000    25815401.833   103947925.959       -1176.497          44.000  
R13  21007734.845   112180399.906       -4557.516          41.000    21007737.342    87251499.368       -3544.932          38.000  
R04  18766512.389   100494005.306         789.572          51.000    18766508.897    78162007.227         614.157          49.000  
R05  21861556.846   116862544.7761       2492.353          32.000    21861574.017                3       1938.775          20.000  
R03  19433026.762   104026554.341       -2309.645          52.000    19433028.546    80909593.295       -1796.370          49.000  
G09  21294547.584   111903568.164       -2619.895          46.000    21294550.850    87197644.177       -2041.564          42.000  
G13  22683560.054   119202991.538        1443.976          43.000                                                                  
G11  22434411.993   117893458.966       -3093.879          43.000    22434425.197    91865029.782       -2410.785          46.000  
G06  23369388.279   122806702.030       -3983.145          40.000    23369411.923    95693473.624       -3103.627          39.000  
R14  18067600.216    96310919.865        -640.426          53.000    18067602.854    74908445.945        -498.116          51.000  
R15  20278395.492   108361738.602        2909.935          50.000    20278407.677    84281503.983        2263.139          49.000  
E19  23712171.462   124608436.286         500.399          43.000    23712175.232    95479256.965         383.412          46.000  
S31  37691618.824   198070687.962        -827.716          42.000  
G14  20709939.002   108831618.324        2089.045          47.000    20709945.777    84804014.527        1627.965          45.000  
G07  19683861.866   103439608.678       -3075.995          48.000    19683862.516    80602187.147       -2396.851          46.000  
G30  19159300.855   100683091.319        -950.620          49.000    19159302.972    78454722.438        -740.886          45.000  
E21  24144197.224   126878827.228        1699.329          47.000    24144210.523    97218993.059        1302.124          50.000  
E30  26559622.903   139571792.456       -2996.434          40.000    26559630.593   106944837.856       -2295.998          43.000  
G22  22860025.160   120130197.113        2831.156          38.000                                                                  
E27  23495628.192   123470658.710        -741.480          48.000    23495634.981    94607555.090        -568.085          53.000  
E33                                                                  25544139.906   102855364.589       -2599.926          43.000  
> 2024 04 08 18 52 00.4960000  0 26                     
S33  38649149.318   203102545.305        -827.385          43.000  
G05  22085529.292   116060218.948        2124.920          43.000    22085530.151    90436576.209        1655.911          40.000  
E07  25685132.136   134976154.068       -2471.266          40.000    25685145.441   103423275.846       -1893.783          47.000  
G20  19790640.891   104000581.784          10.677          48.000                                                                  
E12  25824198.168   135707059.117       -1548.486          40.000    25824204.719   103983372.023       -1186.548          44.000  
R13  21033367.993   112317282.296       -4567.972          41.000    21033370.720    87357963.465       -3552.737          38.000  
R04  18762117.348   100470474.032         779.075          51.000    18762114.222    78143705.187         605.976          48.000  
R05  21847569.413   116787760.415        2493.329          36.000    21847586.657                1       1939.058          31.000  
R03  19446010.668   104096055.198       -2323.866          51.000    19446010.120    80963649.453       -1807.496          48.000  
E33  25563500.870                1      -3396.365          29.000    25563521.213   102933401.518       -2602.405          42.000  
G09  21309520.268   111982255.075       -2625.954          44.000    21309523.571    87258958.545       -2045.979          42.000  
G13  22675314.787   119159665.561        1444.122          42.000                                                                  
G11  22452100.830   117986407.516       -3102.692          44.000    22452113.569    91937456.561       -2417.516          45.000  
G06  23392119.361   122926155.631       -3980.669          40.000    23392142.275    95786554.653       -3101.855          39.000  
R14  18071276.981    96330520.858        -666.442          53.000    18071279.523    74923691.258        -518.396          50.000  
R15  20262095.709   108274642.710        2896.428          50.000    20262109.267    84213763.471        2252.690          50.000  
E19  23709318.165   124593441.819         499.284          44.000    23709321.965    95467767.810         382.532          47.000  
S31  37696343.513   198095515.692        -827.696          44.000  
G14  20698042.363   108769107.167        2078.256          47.000    20698049.676    84755304.996        1619.236          45.000  
G07  19701451.822   103532039.016       -3086.060          50.000    19701451.705    80674210.812       -2404.846          46.000  
G30  19164766.964   100711815.366        -964.362          49.000    19164768.803    78477104.867        -751.534          46.000  
E21  24134517.514   126827957.909        1691.812          47.000    24134530.538    97180015.640        1296.418          50.000  
E30  26576753.570   139661816.506       -3005.383          39.000    26576761.803   107013817.434       -2302.698          44.000  
G22  22843863.334   120045270.285        2830.242          39.000                                                                  
E27  23499901.752   123493116.006        -755.838          48.000    23499908.335    94624762.742        -579.169          53.000  
E10                                                                  26592752.855                        -379.512          25.000  
> 2024 04 08 18 52 30.4960000  0 26                     
S33  38653873.533   203127368.270        -827.705          44.000  
G05  22073424.988   115996612.526        2115.358          42.000    22073425.965    90387012.948        1648.340          41.000  
E07  25699248.570   135050338.208       -2474.338          40.000    25699262.266   103480118.141       -1895.993          47.000  
G20  19790633.827   104000544.109          -8.415          49.000                                                                  
E12  25833074.560   135753714.438       -1561.932          38.000    25833082.893   104019120.822       -1196.765          43.000  
R13  21059060.079   112454473.162       -4578.517          42.000    21059062.129    87464667.488       -3560.916          39.000  
R04  18757783.001   100447260.286         768.152          52.000    18757779.537    78125650.079         597.500          48.000  
R05  21833569.581   116712923.700        2495.119          37.000    21833572.477                        1941.268          28.000  
R03  19459073.967   104165987.778       -2338.502          52.000    19459074.180    81018041.369       -1818.763          48.000  
E33  25582899.102   134439080.7911      -3400.617          32.000    25582922.336   103011514.818       -2605.279          43.000  
G09  21324528.270   112061123.403       -2632.238          45.000    21324531.722    87320414.347       -2051.207          41.000  
G13  22667069.480   119116336.970        1443.951          43.000                                                                  
G11  22469838.970   118079619.198       -3111.541          45.000    22469851.829    92010088.481       -2424.727          46.000  
G06  23414837.275   123045538.119       -3978.666          40.000    23414859.204    95879580.327       -3100.365          39.000  
R14  18075101.104    96350905.609        -692.724          52.000    18075103.448    74939546.171        -538.796          50.000  
R15  20245873.033   108187957.989        2882.362          50.000    20245886.187    84146342.749        2241.772          49.000  
E19  23706471.064   124578480.638         498.044          43.000    23706475.077    95456304.155         381.559          47.000  
S31  37701069.096   198120347.874        -828.002          42.000  
G14  20686209.407   108706927.287        2066.736          47.000    20686217.713    84706853.551        1610.484          46.000  
G07  19719098.445   103624771.756       -3096.399          48.000    19719097.976    80746470.127       -2412.683          46.000  
G30  19170312.060   100740955.130        -978.419          49.000    19170314.064    78499811.230        -762.473          46.000  
E10  26595592.192                1       -510.052          28.000    26595603.746                        -390.482          29.000  
E21  24124880.289   126777314.241        1684.119          46.000    24124892.315    97141211.100        1290.489          49.000  
E30  26593935.828   139752106.253       -3014.368          39.000    26593943.187   107083000.561       -2309.554          43.000  
G22  22827707.865   119960374.028        2829.160          41.000                                                                  
E27  23504257.063   123516004.682        -770.440          47.000    23504264.021    94642300.902        -590.329          54.000  
> 2024 04 08 18 53 00.4960000  0 26                     
S33  38658597.901   203152194.591        -827.597          44.000  
G05  22061374.342   115933284.801        2106.362          41.000    22061375.098    90337666.792        1641.226          40.000  
E07  25713381.659   135124606.886       -2476.845          41.000    25713394.971   103537025.256       -1898.033          46.000  
G20  19790733.667   104001070.579         -27.007          48.000                                                                  
E12  25842029.364   135800763.895       -1574.878          40.000    25842036.129   104055171.625       -1206.692          43.000  
R13  21084808.495   112591968.659       -4588.314          42.000    21084810.075    87571608.491       -3568.433          39.000  
R04  18753507.796   100424366.883         757.800          52.000    18753504.773    78107844.144         589.309          49.000  
R05  21819559.152   116638037.079        2496.933          39.000    21819561.466    90718603.1901       1942.249          35.000  
R03  19472219.546   104236352.593       -2352.723          52.000    19472218.377    81072769.506       -1829.915          47.000  
E33  25602318.602   134541123.992       -3403.432          33.000    25602340.592   103089702.778       -2607.576          41.000  
G09  21339570.957   112140173.653       -2637.960          44.000    21339574.665    87382011.845       -2055.597          42.000  
G13  22658823.451   119073005.951        1444.238          43.000                                                                  
G11  22487626.818   118173091.283       -3120.020          45.000    22487639.153    92082923.201       -2431.140          46.000  
G06  23437540.465   123164846.738       -3975.738          40.000    23437562.522    95972548.379       -3098.197          37.000  
R14  18079071.688    96372074.145        -718.670          52.000    18079074.442    74956010.675        -558.885          50.000  
R15  20229730.114   108101687.721        2868.677          52.000    20229741.472    84079244.385        2231.122          49.000  
E19  23703629.561   124563553.227         496.928          43.000    23703634.450    95444866.383         380.778          47.000  
S31  37705795.083   198145183.971        -828.087          43.000  
G14  20674441.256   108645081.698        2055.776          47.000    20674448.026    84658662.557        1601.885          45.000  
G07  19736802.030   103717804.784       -3106.122          48.000    19736801.207    80818963.365       -2420.221          46.000  
G30  19175935.895   100770509.428        -991.944          49.000    19175938.313    78522840.638        -773.025          46.000  
E21  24115285.935   126726898.077        1676.750          46.000    24115298.489    97102580.919        1284.809          49.000  
E30  26611167.734   139842660.117       -3023.007          39.000    26611174.982   107152386.088       -2316.327          43.000  
G22  22811558.786   119875511.126        2828.208          41.000                                                                  
E27  23508693.024   123539324.826        -784.497          47.000    23508701.648    94660169.678        -601.119          54.000  
E10                                                                  26598551.492                        -400.979          29.000  
> 2024 04 08 18 53 30.4960000  0 26                     
S33  38663322.412   203177023.562        -827.879          44.000  
G05  22049376.791   115870236.112        2096.835          42.000    22049377.503    90288538.049        1633.839          41.000  
E07  25727528.851   135198957.759       -2479.914          40.000    25727543.806   103593995.287       -1900.036          47.000  
G20  19790940.813   104002159.720         -45.902          47.000                                                                  
E12  25851056.720   135848203.672       -1587.854          40.000    25851063.865   104091521.530       -1216.823          43.000  
R13  21110612.918   112729761.873       -4598.178          42.000    21110614.935    87678780.976       -3576.158          39.000  
R04  18749293.049   100401794.030         746.981          52.000    18749289.775    78090287.552         581.003          49.000  
R05  21805540.728   116563099.003        2498.642          34.000    21805542.671    90660318.357        1943.715          37.000  
R03  19485444.754   104307147.374       -2367.171          53.000    19485444.386    81127832.064       -1841.170          49.000  
E33  25621756.833                3      -3407.015          26.000    25621776.843   103167961.586       -2609.938          39.000  
G09  21354647.703   112219403.249       -2644.181          44.000    21354652.800    87443749.141       -2060.593          43.000  
G13  22650576.752   119029669.660        1444.427          44.000                                                                  
G11  22505462.943   118266817.783       -3128.528          45.000    22505475.440    92155956.201       -2437.720          46.000  
G06  23460229.052   123284075.767       -3972.817          40.000    23460250.069    96065454.422       -3096.260          37.000  
R14  18083189.731    96394022.076        -744.758          53.000    18083192.146    74973081.388        -579.219          50.000  
R15  20213662.547   108015832.538        2854.757          51.000    20213673.213    84012468.807        2220.406          48.000  
E19  23700794.810   124548656.966         495.905          43.000    23700799.316    95433452.466         379.924          46.000  
S31  37710522.020   198170022.935        -828.268          43.000  
G14  20662735.610   108583570.486        2044.579          47.000    20662742.726    84610732.119        1593.261          45.000  
G07  19754562.042   103811132.842       -3115.857          47.000    19754560.614    80891686.553       -2428.015          46.000  
G30  19181637.966   100800474.225       -1005.760          49.000    19181639.932    78546189.905        -783.868          46.000  
E10  26601574.669                1       -537.709          27.000    26601573.539                3       -400.581          22.000  
E21  24105734.016   126676708.477        1669.138          45.000    24105747.170    97064124.316        1278.895          49.000  
E30  26628448.957   139933473.655       -3031.513          38.000    26628456.289   107221970.589       -2322.755          44.000  
G22  22795415.406   119790681.685        2826.690          41.000                                                                  
E27  23513213.262   123563073.709        -798.898          47.000    23513220.886    94678366.963        -612.101          53.000  
> 2024 04 08 18 54 00.4960000  0 26                     
S33  38668046.414   203201849.058        -827.263          43.000  
G05  22037431.045   115807464.253        2087.733          41.000    22037432.639    90239625.047        1626.850          41.000  
E07  25741693.409   135273386.337       -2482.293          41.000    25741706.714   103651024.892       -1902.077          46.000  
G20  19791254.052   104003807.323         -64.335          47.000                                                                  
E12  25860156.522   135896027.770       -1600.741          38.000    25860165.246   104128165.916       -1226.509          44.000  
R13  21136470.865   112867843.867       -4607.412          40.000    21136472.671    87786178.123       -3583.413          40.000  
R04  18745136.353   100379538.912         736.412          52.000    18745133.301    78072978.052         572.676          49.000  
R05  21791513.237   116488106.543        2500.500          33.000    21791513.874    90601990.975        1944.772          40.000  
R03  19498750.076   104378367.939       -2381.244          53.000    19498749.184    81183225.737       -1852.118          49.000  
E33  25641199.762                3      -3411.607          23.000    25641230.429   103246285.809       -2611.567          37.000  
G09  21369757.617   112298807.658       -2649.930          43.000    21369763.067    87505622.605       -2064.784          42.000  
G13  22642327.721   118986323.207        1444.891          45.000                                                                  
G11  22523346.401   118360790.828       -3136.609          45.000    22523359.355    92229181.284       -2444.165          46.000  
G06  23482900.520   123403217.514       -3970.074          37.000    23482922.499    96158292.456       -3093.700          38.000  
R14  18087452.797    96416744.423        -770.365          53.000    18087455.287    74990754.410        -599.171          50.000  
R15  20197672.703   107930390.628        2840.981          52.000    20197683.488    83946014.705        2209.648          49.000  
E19  23697965.432   124533787.302         495.054          43.000    23697969.567    95422058.901         379.312          46.000  
S31  37715248.044   198194857.809        -827.852          44.000  
G14  20651093.348   108522391.721        2033.570          46.000    20651101.396    84563060.748        1584.604          46.000  
G07  19772376.252   103904748.851       -3125.372          48.000    19772375.481    80964634.121       -2435.455          46.000  
G30  19187416.679   100830843.436       -1019.283          49.000    19187419.138    78569854.304        -794.234          46.000  
E10  26604673.842   139808514.7881       -551.060          29.000    26604686.349                3       -422.454          21.000  
E21  24096225.886   126626742.330        1661.773          46.000    24096238.900    97025838.917        1273.299          50.000  
E30  26645777.025   140024540.504       -3039.812          36.000    26645785.740   107291749.157       -2329.316          44.000  
G22  22779278.867   119705883.414        2825.928          43.000                                                                  
E27  23517813.840   123587246.485        -812.921          48.000    23517820.484    94696889.037        -622.887          53.000  
> 2024 04 08 18 54 30.4960000  0 26                     
S33  38672769.320   203226667.333        -827.184          44.000  
G05  22025537.989   115744967.238        2078.530          42.000    22025540.114    90190926.178        1619.591          41.000  
E07  25755872.242   135347888.886       -2484.837          42.000    25755884.051   103708111.155       -1903.948          46.000  
G20  19791673.504   104006011.098         -82.757          47.000                                                                  
E12  25869327.288   135944230.978       -1613.451          37.000    25869338.066   104165100.722       -1236.183          45.000  
R13  21162381.485   113006206.467       -4617.135          40.000    21162384.205    87893793.464       -3590.598          40.000  
R04  18741039.852   100357600.346         725.853          52.000    18741035.822    78055914.773         564.624          49.000  
R05  21777478.325                3       2510.569          20.000    21777475.407    90543618.977        1945.785          35.000  
R03  19512132.614   104450010.659       -2395.276          52.000    19512132.606    81238947.779       -1862.921          49.000  
G09  21384901.438   112378383.050       -2655.570          44.000    21384905.473    87567629.323       -2069.179          42.000  
G13  22634076.608   118942962.577        1445.374          44.000                                                                  
G11  22541275.284   118455003.176       -3144.562          45.000    22541287.774    92302592.824       -2450.262          45.000  
G06  23505554.501   123522264.960       -3966.987          38.000    23505576.769    96251057.004       -3090.960          39.000  
R14  18091858.491    96440236.172        -796.069          51.000    18091861.870    75009025.841        -619.145          50.000  
R15  20181760.230   107845361.091        2827.245          51.000    20181770.644    83879881.317        2198.900          48.000  
E19  23695140.865   124518940.526         494.541          43.000    23695143.767    95410682.912         378.763          46.000  
S31  37719972.066   198219685.837        -827.639          44.000  
G14  20639514.488   108461544.187        2022.724          47.000    20639521.610    84515647.491        1575.960          46.000  
G07  19790244.935   103998646.092       -3134.817          49.000    19790243.653    81037800.813       -2442.816          46.000  
G30  19193272.054   100861611.628       -1032.448          50.000    19193274.930    78593829.597        -804.444          46.000  
E21  24086759.725   126576997.285        1654.348          47.000    24086772.575    96987722.945        1267.625          50.000  
E30  26663154.325   140115854.883       -3047.813          37.000    26663162.458   107361717.382       -2335.530          44.000  
G22  22763147.948   119621114.928        2824.841          43.000                                                                  
E27  23522493.628   123611838.960        -826.945          48.000    23522499.995    94715732.692        -633.603          53.000  
E33                                                                  25660698.462   103324670.590       -2613.563          36.000  
E10                                                                  26607879.467                3       -443.375          14.000  
> 2024 04 08 18 55 00.4960000  0 25                     
S33  38677490.033   203251475.386        -826.807          42.000  
G05  22013697.200   115682743.882        2069.628          41.000    22013699.498    90142440.526        1612.704          41.000  
E07  25770061.584   135422461.651       -2486.946          42.000    25770075.522   103765251.205       -1905.497          47.000  
G20  19792198.367   104008767.426        -101.028          48.000                                                                  
E12  25878572.869   135992808.041       -1625.264          38.000    25878582.262   104202322.019       -1245.462          45.000  
R13  21188343.408   113144841.370       -4625.720          41.000    21188346.029    88001620.675       -3597.851          41.000  
R04  18737001.648   100335976.541         715.547          52.000    18736998.517    78039096.329         556.544          49.000  
R05  21763427.947   116338003.2271       2504.781          32.000    21763424.458    90485200.795        1947.865          36.000  
R03  19525594.280   104522071.623       -2409.009          53.000    19525595.132    81294995.130       -1873.676          49.000  
G09  21400075.296   112458125.494       -2660.732          44.000    21400079.287    87629766.195       -2073.319          42.000  
G13  22625821.333   118899583.826        1446.021          44.000                                                                  
G11  22559248.182   118549447.651       -3151.953          44.000    22559259.908    92376185.251       -2456.079          44.000  
G06  23528189.330   123641211.084       -3963.096          38.000    23528211.125    96343742.619       -3088.058          39.000  
R14  18096408.623    96464492.012        -821.275          52.000    18096411.479    75027891.542        -638.727          49.000  
R15  20165924.431   107760743.066        2813.739          51.000    20165935.355    83814068.013        2188.448          49.000  
E19  23692318.357   124504112.891         493.904          41.000    23692322.053    95399321.570         378.470          46.000  
S31  37724694.632   198244503.186        -827.073          43.000  
G14  20627998.270   108401026.683        2011.670          47.000    20628004.527    84468491.387        1567.615          46.000  
G07  19808165.079   104092817.994       -3143.558          48.000    19808164.006    81111181.537       -2449.509          46.000  
G30  19199202.195   100892773.373       -1045.160          50.000    19199204.303    78618111.564        -814.441          46.000  
E21  24077335.696   126527471.026        1647.234          47.000    24077348.109    96949774.602        1262.203          50.000  
E30  26680578.743   140207411.076       -3056.147          37.000    26680584.582   107431870.851       -2341.513          43.000  
G22  22747022.360   119536374.809        2824.036          43.000                                                                  
E27  23527252.748   123636846.995        -840.440          48.000    23527258.443    94734894.773        -643.946          52.000  
E33                                                                  25680178.983   103403111.150       -2615.303          33.000  
> 2024 04 08 18 55 30.4960000  0 26                     
S33  38682208.659   203276271.843        -826.587          44.000  
G05  22001909.085   115620797.506        2059.987          41.000    22001911.557    90094170.752        1605.057          40.000  
E07  25784267.295   135497106.046       -2489.834          43.000    25784280.522   103822446.142       -1907.690          47.000  
G20  19792828.609   104012078.309        -119.885          48.000                                                                  
E12  25887888.138   136041758.843       -1637.904          39.000    25887896.813   104239829.720       -1255.175          44.000  
R13  21214355.533   113283745.858       -4634.922          39.000    21214357.682    88109657.546       -3604.931          41.000  
R04  18733023.026   100314671.407         704.514          52.000    18733020.250    78022525.746         547.908          50.000  
R05  21749364.797                        2506.150          31.000    21749361.949    90426738.639        1948.974          35.000  
R03  19539133.670   104594552.408       -2423.328          52.000    19539134.306    81351368.969       -1884.906          49.000  
G09  21415281.494   112538036.441       -2666.706          43.000    21415286.234    87692034.372       -2078.046          43.000  
G13  22617564.085   118856188.244        1446.381          44.000                                                                  
G11  22577264.384   118644122.155       -3159.985          44.000    22577276.891    92449956.928       -2462.170          44.000  
G06  23550804.146   123760054.184       -3960.324          37.000    23550825.765    96436347.919       -3085.818          39.000  
R14  18101102.258    96489512.183        -846.996          51.000    18101105.188    75047351.756        -658.966          48.000  
R15  20150167.761   107676540.839        2799.514          52.000    20150177.659    83748578.098        2177.344          49.000  
E19  23689500.066   124489305.726         492.925          41.000    23689504.151    95387975.912         377.600          45.000  
S31  37729414.645   198269309.137        -826.968          42.000  
G14  20616545.305   108340843.098        2000.233          48.000    20616551.555    84421595.496        1558.485          46.000  
G07  19826137.071   104187263.213       -3152.995          48.000    19826136.249    81184775.239       -2456.742          46.000  
G30  19205206.709   100924328.436       -1058.637          50.000    19205208.962    78642699.995        -824.847          46.000  
E21  24067952.629   126478166.326        1639.542          47.000    24067965.501    96911996.016        1256.179          50.000  
E30  26698047.035   140299208.443       -3064.351          35.000    26698052.819   107502209.108       -2347.859          42.000  
G22  22730903.339   119451666.896        2822.766          45.000                                                                  
E27  23532090.847   123662271.598        -854.723          49.000    23532096.545    94754376.063        -654.886          52.000  
E33                                                                  25699674.180   103481606.575       -2617.760          34.000  
E10                                                                  26614470.744                        -453.690          27.000  
> 2024 04 08 18 56 00.4960000  0 26                     
S33  38686927.858   203301069.279        -826.549          44.000  
G05  21990176.712   115559141.480        2050.279          43.000    21990177.990    90046127.165        1597.711          41.000  
E07  25798487.979   135571832.923       -2492.441          43.000    25798500.643   103879704.266       -1909.729          47.000  
G20  19793566.134   104015955.009        -138.740          48.000                                                                  
E12  25897277.537   136091092.816       -1650.590          41.000    25897284.907   104277631.005       -1264.972          44.000  
R13  21240419.779   113422926.805       -4644.105          40.000    21240421.860    88217909.426       -3612.119          41.000  
R04  18729107.080   100293698.523         693.419          52.000    18729103.881    78006213.573         539.306          50.000  
R05  21735290.550   116187626.888        2507.501          36.000    21735290.860    90368242.001        1949.961          33.000  
R03  19552754.948   104667463.847       -2437.677          52.000    19552754.505    81408077.770       -1895.880          48.000  
G09  21430522.764   112618126.576       -2672.792          44.000    21430526.753    87754442.126       -2082.469          43.000  
G13  22609303.882   118812785.781        1446.765          43.000                                                                  
G11  22595326.450   118739034.133       -3167.719          44.000    22595338.977    92523913.619       -2468.299          43.000  
G06  23573401.467   123878801.739       -3956.512          36.000    23573421.662    96528878.824       -3082.733          37.000  
R14  18105941.564    96515306.306        -872.794          52.000    18105943.470    75067413.916        -678.825          48.000  
R15  20134489.811   107592768.394        2785.161          52.000    20134501.144    83683422.421        2166.239          50.000  
E19  23686688.490   124474529.787         491.994          41.000    23686692.458    95376654.186         377.035          46.000  
S31  37734135.346   198294116.440        -827.060          43.000  
G14  20605158.118   108281006.810        1988.764          47.000    20605165.185    84374970.212        1549.542          46.000  
G07  19844163.235   104281990.011       -3162.157          48.000    19844161.795    81258588.366       -2464.078          46.000  
G30  19211287.972   100956285.940       -1071.949          50.000    19211289.892    78667602.043        -835.359          46.000  
E21  24058615.226   126429095.399        1631.687          47.000    24058627.216    96874396.562        1250.294          50.000  
E30  26715559.173                       -3073.176          30.000    26715569.094   107572738.889       -2354.351          41.000  
G22  22714791.572   119367004.376        2821.338          44.000                                                                  
E27  23537010.711   123688123.199        -868.937          49.000    23537016.103    94774184.537        -665.822          52.000  
E33                                                                  25719187.489   103560163.021       -2619.366          35.000  
E10                                                                  26617890.172   107179203.0251       -464.411          32.000  
> 2024 04 08 18 56 30.4960000  0 26                     
S33  38691644.050   203325854.293        -826.183          44.000  
G05  21978498.036   115497766.903        2040.965          44.000    21978498.589    89998302.925        1590.457          40.000  
E07  25812720.273   135646630.857       -2494.327          43.000    25812734.167   103937016.833       -1911.401          47.000  
G20  19794409.652   104020386.940        -156.918          48.000                                                                  
E12  25906736.292   136140796.945       -1662.908          41.000    25906743.132   104315715.914       -1274.156          43.000  
R13  21266533.145   113562367.609       -4652.460          39.000    21266535.022    88326363.397       -3618.775          41.000  
R04  18725249.606   100273048.268         682.835          52.000    18725247.068    77990152.314         531.020          50.000  
R05  21721205.395   116112361.969        2509.766          37.000    21721209.370                        1951.932          31.000  
R03  19566452.912   104740794.896       -2451.416          51.000    19566453.857    81465112.939       -1906.793          48.000  
G09  21445795.335   112698384.309       -2678.027          44.000    21445800.076    87816980.556       -2086.737          44.000  
G13  22601041.175   118769364.812        1447.375          43.000                                                                  
G11  22613429.698   118834168.693       -3174.951          43.000    22613443.154    92598043.736       -2474.097          42.000  
G06  23595975.083   123997439.224       -3952.453          32.000    23595996.850    96621323.985       -3080.272          34.000  
R14  18110923.351    96541861.738        -897.897          52.000    18110925.445    75088068.227        -698.304          48.000  
R15  20118892.541   107509416.809        2771.252          53.000    20118901.903    83618594.101        2155.427          50.000  
E19  23683880.603   124459773.687         491.641          42.000    23683884.901    95365347.680         376.505          46.000  
S31  37738853.811   198318911.545        -826.323          42.000  
G14  20593835.966   108221508.937        1977.467          47.000    20593841.713    84328608.595        1540.928          45.000  
G07  19862239.629   104376984.415       -3171.040          48.000    19862238.335    81332610.006       -2470.889          46.000  
G30  19217442.935   100988632.874       -1084.748          49.000    19217445.166    78692807.518        -845.246          47.000  
E21  24049319.350   126380248.241        1624.419          47.000    24049331.302    96836968.571        1244.737          50.000  
E30  26733124.382   140483539.569       -3080.227          34.000    26733129.982   107643449.972       -2360.154          40.000  
G22  22698687.953   119282378.493        2820.068          45.000                                                                  
E27  23542007.757   123714389.949        -882.528          48.000    23542014.296    94794311.108        -676.271          52.000  
E33                                                                  25738710.802   103638769.907       -2621.033          36.000  
E10                                                                  26621384.903   107193277.388        -474.507          32.000  
> 2024 04 08 18 57 00.4970000  0 26                     
S33  38696358.890   203350630.942        -825.918          44.000  
G05  21966873.061   115436675.073        2031.633          45.000    21966872.707    89950699.017        1582.869          40.000  
E07  25826968.282   135721504.104       -2496.981          43.000    25826981.950   103994387.091       -1913.301          47.000  
G20  19795359.313   104025376.655        -175.812          48.000                                                                  
E12  25916265.677   136190873.095       -1675.439          41.000    25916272.440   104354085.875       -1283.763          43.000  
R13  21292695.097   113702070.530       -4660.793          37.000    21292696.743    88435021.228       -3625.147          42.000  
R04  18721453.716   100252724.131         671.907          52.000    18721451.383    77974344.705         522.596          50.000  
R05  21707116.994   116037043.172        2511.129          40.000    21707105.648                1       1952.841          29.000  
R03  19580231.046   104814549.627       -2465.447          52.000    19580230.210    81522477.652       -1917.608          47.000  
E33  25758223.120                       -3423.074          31.000    25758246.719   103717429.181       -2623.010          37.000  
G09  21461099.791   112778814.049       -2683.889          42.000    21461106.086    87879652.979       -2091.431          45.000  
G13  22592774.417   118725925.322        1448.035          44.000                                                                  
G11  22631576.184   118929527.236       -3182.015          42.000    22631588.684    92672348.392       -2479.538          39.000  
G06  23618532.802                       -3949.197          32.000    23618552.029    96713685.247       -3077.200          33.000  
R14  18116047.686    96569179.775        -923.365          51.000    18116050.794    75109315.677        -718.100          49.000  
R15  20103372.098   107426487.949        2757.145          52.000    20103382.356    83554094.560        2144.305          50.000  
E19  23681075.709   124445038.784         490.761          42.000    23681080.772    95354057.409         376.030          46.000  
S31  37743570.162   198343697.162        -825.784          42.000  
G14  20582577.921   108162351.627        1965.985          47.000    20582584.878    84282512.387        1532.017          46.000  
G07  19880367.303   104472247.817       -3179.547          48.000    19880366.878    81406841.296       -2477.710          46.000  
G30  19223672.925   101021370.255       -1097.746          50.000    19223674.299    78718317.256        -855.320          46.000  
E21  24040066.642   126331626.290        1616.837          47.000    24040078.330    96799713.144        1238.813          50.000  
E30  26750731.180                       -3088.041          29.000    26750736.524   107714344.441       -2365.797          40.000  
G22  22682590.497   119197790.153        2818.690          45.000                                                                  
E27  23547085.798   123741073.923        -896.456          48.000    23547091.750    94814757.387        -686.829          51.000  
E10                                                                  26624958.868                        -484.487          31.000  
> 2024 04 08 18 57 30.4970000  0 26                     
S33  38701072.231   203375400.550        -825.391          43.000  
G05  21955303.306   115375878.107        2021.569          44.000    21955303.118    89903324.848        1575.275          39.000  
E07  25841230.865   135796452.792       -2499.666          43.000    25841244.112   104051815.183       -1915.372          46.000  
G20  19796415.846   104030929.235        -194.647          48.000                                                                  
E12  25925865.382   136241321.606       -1687.867          40.000    25925872.035   104392741.115       -1293.255          42.000  
R13  21318903.805   113842027.803       -4669.406          36.000    21318906.344    88543876.895       -3631.962          42.000  
R04  18717721.496   100232735.218         660.645          52.000    18717718.501    77958797.807         513.788          50.000  
R05  21693019.022   115961682.367        2512.738          40.000    21693011.925    90192383.9771       1954.518          32.000  
R03  19594089.471   104888728.439       -2479.750          52.000    19594089.284    81580172.211       -1928.724          49.000  
E33  25777761.141                       -3425.536          30.000    25777794.347   103796137.484       -2623.994          36.000  
G09  21476439.350   112859415.483       -2689.615          44.000    21476443.183    87942459.140       -2095.883          44.000  
G13  22584506.501   118682475.164        1448.307          44.000                                                                  
G11  22649764.165   119025105.143       -3189.419          41.000    22649778.488    92746823.977       -2485.426          39.000  
G06  23641065.480                       -3945.372          30.000    23641086.946    96805958.024       -3073.163          33.000  
R14  18121316.256    96597262.112        -948.958          52.000    18121319.280    75131157.566        -738.048          49.000  
R15  20087934.260   107343995.179        2742.476          52.000    20087944.799    83489934.200        2132.922          50.000  
E19  23678277.128   124430331.099         489.727          42.000    23678281.777    95342787.999         375.194          46.000  
S31  37748285.894   198368476.861        -825.977          43.000  
G14  20571387.212   108103546.533        1954.263          47.000    20571394.397    84236690.619        1522.694          46.000  
G07  19898546.276   104567777.018       -3189.032          47.000    19898545.600    81481279.636       -2484.796          46.000  
G30  19229976.706   101054499.397       -1110.992          49.000    19229978.491    78744132.265        -865.639          46.000  
E21  24030858.524   126283239.318        1608.972          47.000    24030870.320    96762637.776        1232.812          49.000  
G22  22666503.132   119113252.700        2816.978          45.000                                                                  
E27  23552243.300   123768178.059        -910.411          48.000    23552249.210    94835525.609        -697.737          51.000  
E10                                                                  26628611.753                3       -504.570          20.000  
E30                                                                  26768387.366   107785420.040       -2372.319          39.000  
> 2024 04 08 18 58 00.4970000  0 26                     
S33  38705785.131   203400166.914        -826.045          43.000  
G05  21943790.416   115315379.036        2011.605          45.000    21943790.089    89856182.820        1567.777          39.000  
E07  25855509.002   135871482.751       -2502.438          42.000    25855522.500   104109305.513       -1917.398          46.000  
G20  19797579.770   104037048.423        -213.422          48.000                                                                  
E12  25935537.024   136292145.740       -1700.297          39.000    25935543.879   104431684.186       -1302.716          42.000  
R13  21345162.961   113982242.308       -4677.798          36.000    21345163.797    88652932.630       -3638.715          42.000  
R04  18714052.271   100213086.333         649.209          51.000    18714049.418    77943515.390         504.985          50.000  
R05  21678912.727   115886281.376        2514.116          42.000    21678913.542    90133738.912        1955.245          35.000  
R03  19608026.746   104963336.785       -2494.185          52.000    19608026.936    81638200.844       -1939.912          48.000  
E33  25797319.027   135565861.0341      -3427.553          34.000    25797355.861   103874898.076       -2626.362          38.000  
G09  21491811.677   112940194.379       -2695.666          44.000    21491815.149    88005403.607       -2100.380          44.000  
G13  22576236.195   118639015.674        1448.557          43.000                                                                  
G11  22667994.822   119120905.400       -3197.231          39.000    22668009.730    92821472.822       -2490.899          37.000  
G06  23663578.939                       -3941.916          29.000    23663600.493                       -3071.409          29.000  
R14  18126729.489    96626111.670        -974.630          52.000    18126731.344    75153596.149        -757.951          49.000  
R15  20072579.290   107261942.193        2727.673          53.000    20072588.412    83426115.867        2121.442          50.000  
E19  23675484.933   124415653.331         488.669          42.000    23675488.602    95331541.479         374.611          46.000  
S31  37753000.463   198393253.729        -826.057          43.000  
G14  20560264.403   108045097.423        1942.152          46.000    20560271.328    84191146.229        1513.643          46.000  
G07  19916776.319   104663575.381       -3197.784          48.000    19916775.027    81555927.754       -2491.791          47.000  
G30  19236355.987   101088022.935       -1124.098          50.000    19236357.559    78770254.567        -875.873          46.000  
E21  24021695.686   126235090.352        1600.896          47.000    24021707.122    96725744.746        1226.795          49.000  
G22  22650425.632   119028769.030        2815.148          45.000                                                                  
E27  23557482.139   123795706.002        -924.640          48.000    23557487.563    94856618.576        -708.517          50.000  
E10                                                                  26632341.471                        -505.004          26.000  
E30                                                                  26786084.019   107856680.017       -2378.461          39.000  
> 2024 04 08 18 58 30.4970000  0 26                     
S33  38710498.579   203424936.059        -825.882          44.000  
G05  21932334.263   115255185.240        2001.177          43.000    21932335.492    89809278.680        1559.292          39.000  
E07  25869802.227   135946598.934       -2505.472          42.000    25869816.824   104166861.916       -1919.780          46.000  
G20  19798853.283   104043740.315        -232.733          48.000                                                                  
E12  25945280.588   136343348.955       -1713.177          39.000    25945287.420   104470917.703       -1312.669          42.000  
R13  21371469.751   114122715.406       -4686.345          33.000    21371469.991    88762189.515       -3645.359          41.000  
R04  18710448.106   100193784.952         637.332          52.000    18710444.399    77928503.265         495.751          50.000  
R05  21664801.264   115810847.167        2514.807          43.000    21664803.188    90075068.010        1955.339          35.000  
R03  19622046.273   105038380.689       -2508.981          52.000    19622045.864    81696568.249       -1951.319          49.000  
E33  25816902.151   135668722.262       -3430.451          36.000    25816929.861   103953712.820       -2628.109          38.000  
G09  21507217.698   113021155.668       -2701.859          44.000    21507221.355    88068490.276       -2105.434          44.000  
G13  22567965.157   118595551.819        1448.644          43.000                                                                  
G11  22686268.273   119216929.535       -3204.614          37.000    22686282.968    92896296.121       -2497.349          38.000  
G06  23686070.786                       -3938.078          26.000    23686098.258                       -3068.521          26.000  
R14  18132285.389    96655732.392       -1000.431          51.000    18132288.268    75176634.566        -778.003          50.000  
R15  20057307.186   107180336.510        2712.390          53.000    20057316.320    83362645.415        2109.668          51.000  
E19  23672697.910   124401010.659         487.311          42.000    23672702.207    95320321.882         373.410          47.000  
S31  37757716.140   198418032.480        -826.128          43.000  
G14  20549210.662   107987011.747        1929.979          47.000    20549217.732    84145885.064        1503.745          47.000  
G07  19935057.162   104759645.257       -3207.025          48.000    19935056.189    81630787.444       -2498.895          46.000  
G30  19242811.477   101121944.224       -1137.535          50.000    19242812.983    78796686.815        -886.355          47.000  
E21  24012579.589   126187185.782        1592.565          47.000    24012590.499    96689038.990        1220.333          49.000  
E30  26803814.692                3      -3114.455          24.000    26803828.208   107928126.654       -2384.854          39.000  
G22  22634359.247   118944346.342        2812.938          45.000                                                                  
E27  23562801.487   123823662.306        -939.122          48.000    23562807.348    94878039.763        -719.633          50.000  
E10                                                                  26636140.362                3       -516.123          25.000  
> 2024 04 08 18 59 00.4970000  0 26                     
S33  38715212.653   203449708.710        -825.963          44.000  
G05  21920939.606   115195300.450        1990.948          44.000    21920941.045    89762615.311        1551.321          40.000  
E07  25884113.497   136021803.140       -2508.569          43.000    25884127.867   104224485.766       -1922.034          47.000  
G20  19800236.458   104051006.762        -251.978          48.000                                                                  
E12  25955097.003   136394931.369       -1725.885          40.000    25955103.541   104510441.828       -1322.348          42.000  
R13  21397823.271   114263444.337       -4695.107          32.000    21397824.661    88871645.270       -3651.905          41.000  
R04  18706909.268   100174835.266         625.667          52.000    18706905.575    77913764.693         486.682          49.000  
R05  21650682.769   115735382.980        2515.889          43.000    21650685.483    90016373.850        1956.555          33.000  
R03  19636146.045   105113861.662       -2523.384          52.000    19636145.665    81755275.566       -1962.524          48.000  
E33  25836491.519   135771653.317       -3432.546          38.000    25836518.700   104032581.082       -2629.649          39.000  
G09  21522658.152   113102301.068       -2708.075          44.000    21522663.969    88131720.366       -2110.068          44.000  
G13  22559692.810   118552084.895        1448.778          44.000                                                                  
G11  22704583.823   119313175.804       -3211.932          39.000    22704598.377    92971292.469       -2502.690          37.000  
G06  23708545.102                       -3934.431          26.000    23708566.419                       -3066.704          26.000  
R14  18137985.200    96686124.602       -1026.003          50.000    18137989.579    75200273.021        -798.101          50.000  
R15  20042119.945   107099183.031        2697.443          52.000    20042128.232    83299526.687        2097.961          49.000  
E19  23669918.288   124386404.750         486.154          42.000    23669922.352    95309130.460         372.500          46.000  
S31  37762432.211   198442815.157        -826.257          44.000  
G14  20538227.540   107929293.807        1917.708          47.000    20538233.814    84100910.421        1494.219          46.000  
G07  19953390.046   104855985.885       -3216.040          48.000    19953389.484    81705858.087       -2505.927          46.000  
G30  19249341.717   101156263.295       -1150.548          49.000    19249344.104    78823429.017        -896.570          47.000  
E21  24003509.144   126139528.689        1584.314          47.000    24003521.658    96652522.902        1213.849          49.000  
E30  26821615.205                       -3120.087          28.000    26821618.912   107999759.798       -2390.963          40.000  
G22  22618305.851   118859988.895        2810.544          45.000                                                                  
E27  23568203.269   123852048.211        -953.533          48.000    23568209.043    94899790.134        -730.699          50.000  
E10                                                                  26640033.387                        -527.540          26.000  
> 2024 04 08 18 59 30.4970000  0 26                     
S33  38719927.063   203474483.256        -825.901          44.000  
G05  21909603.002   115135726.790        1980.380          43.000    21909604.409    89716194.373        1543.143          40.000  
E07  25898441.468   136097094.688       -2511.403          43.000    25898455.489   104282176.542       -1924.136          46.000  
G20  19801729.420   104058847.421        -271.118          49.000                                                                  
E12  25964983.374   136446890.827       -1738.383          39.000    25964991.659   104550254.846       -1332.183          42.000  
R13  21424223.068   114404424.082       -4703.153          32.000    21424225.815    88981296.148       -3658.226          42.000  
R04  18703435.420   100156238.894         613.740          51.000    18703432.490    77899300.912         477.421          50.000  
R05  21636559.956   115659889.356        2516.870          44.000    21636567.830    89957656.680        1957.451          36.000  
R03  19650327.476   105189778.159       -2537.904          51.000    19650327.590    81814321.669       -1973.958          48.000  
E33  25856093.866   135874650.941       -3434.761          40.000    25856118.767   104111500.379       -2631.773          39.000  
G09  21538134.620   113183629.769       -2714.220          45.000    21538139.580    88195093.260       -2114.709          43.000  
G13  22551421.091   118508614.069        1448.950          44.000                                                                  
G11  22722940.996   119409640.133       -3219.197          40.000    22722956.680    93046458.758       -2508.634          38.000  
G06  23731000.106                3      -3929.511          23.000    23731005.445                3      -3060.038          22.000  
R14  18143831.143    96717285.259       -1051.632          51.000    18143835.342    75224509.162        -817.908          49.000  
R15  20027016.990   107018483.632        2682.190          52.000    20027025.466    83236761.112        2086.133          50.000  
E19  23667145.451   124371835.130         484.984          42.000    23667149.938    95297966.840         371.499          46.000  
S31  37767148.018   198467599.553        -826.322          44.000  
G14  20527314.142   107871945.319        1905.394          47.000    20527319.710    84056223.674        1484.623          46.000  
G07  19971774.257   104952593.599       -3224.780          48.000    19971773.193    81781136.829       -2512.836          46.000  
G30  19255947.528   101190977.725       -1163.938          49.000    19255949.984    78850479.288        -906.867          47.000  
E21  23994488.223   126092119.817        1576.038          47.000    23994499.933    96616196.966        1207.606          50.000  
G22  22602266.022   118775698.547        2808.410          46.000                                                                  
E27  23573686.709   123880862.494        -967.727          48.000    23573692.310    94921868.748        -741.542          50.000  
E10                                                                  26644002.714                1       -537.385          28.000  
E30                                                                  26839454.006   108071577.431       -2397.007          40.000  
