     3.00           OBSERVATION DATA    M: Mixed            RINEX VERSION / TYPE
CONVBIN 2.4.3                           20240408 235942 UTC PGM / RUN BY / DATE 
format: u-blox UBX                                          COMMENT             
log: data/2024-04-08/20240408234500.ubx                     COMMENT             
AQUI00CHL                                                   MARKER NAME         
                                                            MARKER NUMBER       
                                                            MARKER TYPE         
                                                            OBSERVER / AGENCY   
UNKNOWN             UBLOX-ZED-F9P                           REC # / TYPE / VERS 
UNKNOWN             TWIVSP6037L                             ANT # / TYPE        
  1713381.0000 -5047934.0000 -3490983.0000                  APPROX POSITION XYZ 
        0.0000        0.0000        0.0000                  ANTENNA: DELTA H/E/N
G    8 C1C L1C D1C S1C C2L L2L D2L S2L                      SYS / # / OBS TYPES 
R    8 C1C L1C D1C S1C C2C L2C D2C S2C                      SYS / # / OBS TYPES 
E    8 C1C L1C D1C S1C C7Q L7Q D7Q S7Q                      SYS / # / OBS TYPES 
S    4 C1C L1C D1C S1C                                      SYS / # / OBS TYPES 
  2024    04    08    23    45   00.0050000     GPS         TIME OF FIRST OBS   
  2024    04    08    23    59   30.0060000     GPS         TIME OF LAST OBS    
                                                            END OF HEADER       
> 2024 04 08 23 45 00.0050000  0 25                     
S33  41318593.742   217130703.1351       -795.249          45.000  
E26  29078899.696   152810700.2171       1426.105          43.000    29078900.537   117088761.2371       1092.641          47.000  
G24  22701680.858   119298253.7131        760.568          47.000    22701678.969    92959762.5051        592.613          47.000  
E09  27581734.138   144942932.9031       1227.058          44.000    27581734.191   111060280.4721        940.335          46.000  
G15  22736740.641   119482347.9871      -2557.173          48.000    22736738.024    93103187.6701      -1992.655          45.000  
R06  22308249.923   119041121.9891      -3348.315          42.000                                                                  
R07  22710427.051   121570738.9231        399.772          51.000    22710421.896    94555006.3681        310.950          49.000  
R16  22222964.341   118711580.0851      -1909.894          52.000    22222960.159    92331423.4651      -1485.480          51.000  
R09  22621522.523   120797967.1011        553.468          50.000    22621519.423    93954060.4021        430.462          50.000  
R19  24099340.674   128915484.1411       2917.428          41.000    24099339.636   100267733.7951       2269.062          45.000  
G19  23172514.677   121772805.3621      -2413.654          48.000                                                                  
G13  23567557.290   123848524.3051      -3951.108          49.000                                                                  
G17  24421922.165   128338507.3861      -3536.462          39.000    24421916.528   100004249.5751      -2755.838          44.000  
E31  26461700.080   139057491.2811        416.903          48.000    26461702.193   106550611.6831        319.412          51.000  
G12  23389608.633   122913543.3771        556.303          49.000    23389604.366    95776966.2171        433.431          46.000  
R17  24499246.879   131100476.1061      -2626.904          47.000    24499242.612   101966992.7021      -2043.215          45.000  
R15  25334213.260   135378340.3411      -3257.983          39.000    25334213.011   105294211.7741      -2534.460          32.000  
R18  22979137.353   122664446.9941        673.791          50.000    22979134.886    95405649.9511        523.943          49.000  
E19  27606197.179   145071666.6011      -3665.409          41.000    27606202.894   111158870.3151      -2808.512          44.000  
S31  40366241.473   212126052.3251       -794.924          44.000  
G25  25463180.431   133810015.4911       1443.634          46.000    25463184.844   104267617.5751       1125.012          43.000  
G06  26120177.622   137262518.7801       1496.042          42.000    26120177.835   106957826.3011       1165.791          40.000  
E21  28355083.125   149007370.6921      -2905.792          45.000    28355082.020   114174683.2971      -2226.411          48.000  
G22  25176738.822   132304614.8571      -3858.470          31.000                                                                  
E04  25307622.043   132992487.5441      -1256.060          49.000    25307621.119   101903442.1261       -962.421          53.000  
> 2024 04 08 23 45 30.0050000  0 25                     
S33  41323133.015   217154556.403        -795.141          44.000  
E26  29070767.705   152767965.072        1422.818          42.000    29070768.326   117056016.308        1090.152          47.000  
G24  22697358.020   119275536.097         753.666          48.000    22697355.872    92942060.460         587.468          47.000  
E09  27574755.285   144906254.016        1217.891          45.000    27574754.593   111032175.893         933.288          47.000  
G15  22751383.009   119559293.267       -2572.610          48.000    22751380.167    93163144.933       -2004.691          45.000  
R06  22327129.368   119141867.942       -3368.189          41.000                                                                  
R07  22708260.100   121559131.183         373.934          52.000    22708253.308    94545978.134         290.775          50.000  
R16  22233699.178   118768925.426       -1913.275          52.000    22233696.276    92376025.393       -1488.055          51.000  
R09  22618425.065   120781427.443         548.982          51.000    22618422.659    93941196.270         427.085          50.000  
R19  24082998.848   128828073.675        2909.941          38.000    24082998.953   100199748.450        2263.320          45.000  
G19  23186344.026   121845477.721       -2431.222          48.000                                                                  
G13  23590142.911   123967211.552       -3961.510          48.000                                                                  
G17  24442149.689   128444803.616       -3550.605          37.000    24442143.466   100087077.799       -2766.178          43.000  
E31  26459336.430   139045067.208         411.237          48.000    26459337.727   106541092.015         315.083          50.000  
G12  23386457.640   122896985.511         547.359          49.000    23386452.955    95764064.077         426.437          45.000  
R17  24514037.816   131179620.528       -2649.605          48.000    24514031.168   102028549.457       -2060.697          43.000  
R15  25352499.413   135476055.618       -3256.812          38.000    25352498.985   105370212.514       -2532.776          36.000  
R18  22975414.746   122644575.228         650.804          50.000    22975411.043    95390194.194         506.127          47.000  
E19  27627135.825   145181698.488       -3670.189          41.000    27627141.908   111243179.986       -2812.256          44.000  
S31  40370778.560   212149893.984        -794.438          44.000  
G25  25454952.653   133766781.567        1438.586          46.000    25454956.887   104233929.342        1121.002          43.000  
G06  26111650.211   137217705.944        1491.138          43.000    26111650.500   106922907.345        1161.578          41.000  
E21  28371665.455   149094521.188       -2904.487          43.000    28371666.524   114241460.958       -2225.515          49.000  
G22  25198766.779   132420403.726       -3859.814          31.000                                                                  
E04  25314830.746   133030370.293       -1269.702          48.000    25314830.081   101932469.137        -972.901          53.000  
> 2024 04 08 23 46 00.0050000  0 25                     
S33  41327671.387   217178407.058        -795.446          44.000  
E26  29062654.501   152725329.112        1419.130          44.000    29062654.699   117023347.369        1087.528          47.000  
G24  22693074.673   119253028.344         746.510          48.000    22693072.882    92924521.994         581.560          47.000  
E09  27567828.240   144869852.841        1208.531          45.000    27567827.807   111004284.122         926.049          47.000  
G15  22766112.645   119636700.615       -2588.059          47.000    22766110.173    93223462.240       -2016.580          44.000  
R06  22346121.603   119243211.135       -3388.471          42.000                                                                  
R07  22706235.572   121548300.874         347.820          51.000    22706229.953    94537554.562         270.577          50.000  
R16  22244453.108   118826373.513       -1916.901          50.000    22244449.946    92420707.261       -1490.765          50.000  
R09  22615353.465   120765024.062         544.206          51.000    22615349.845    93928438.161         423.292          49.000  
R19  24066700.438   128740887.825        2902.172          40.000    24066700.093   100131937.819        2257.354          46.000  
G19  23200274.194   121918678.903       -2449.095          49.000                                                                  
G13  23612788.860   124086214.057       -3972.267          48.000                                                                  
G17  24462453.907   128551508.431       -3563.968          36.000    24462449.191   100170224.457       -2776.893          44.000  
E31  26457003.997   139032810.893         405.597          48.000    26457005.445   106531700.901         310.653          50.000  
G12  23383358.231   122880699.525         538.045          49.000    23383354.404    95751373.819         419.214          46.000  
R17  24528955.670   131259449.574       -2672.621          49.000    24528948.887   102090638.687       -2078.676          43.000  
R15  25370780.641   135573737.657       -3255.719          36.000    25370776.832   105446187.443       -2532.056          35.000  
R18  22971821.724   122625397.340         627.307          50.000    22971819.083    95375278.085         487.958          48.000  
E19  27648102.762   145291878.964       -3675.310          41.000    27648108.763   111327603.502       -2816.022          44.000  
S31  40375315.222   212173734.095        -794.999          44.000  
G25  25446754.275   133723701.395        1433.258          47.000    25446757.516   104200360.866        1116.730          42.000  
G06  26103152.716   137173047.005        1485.745          44.000    26103151.255   106888108.329        1157.417          41.000  
E21  28388243.350   149181638.905       -2903.483          44.000    28388244.394   114308213.476       -2224.784          49.000  
G22  25220797.976                       -3861.053          28.000                                                                  
E04  25322118.184   133068662.855       -1283.415          49.000    25322117.024   101961810.161        -983.396          53.000  
> 2024 04 08 23 46 30.0050000  0 25                     
S33  41332208.596   217202251.862        -794.833          44.000  
E26  29054559.329   152682791.341        1416.299          44.000    29054559.688   116990753.666        1085.078          46.000  
G24  22688831.366   119230729.040         739.865          48.000    22688829.663    92907145.935         576.378          47.000  
E09  27560953.118   144833727.842        1199.637          45.000    27560953.340   110976603.966         918.958          47.000  
G15  22780930.064   119714564.882       -2603.049          47.000    22780927.209    93284135.611       -2028.430          44.000  
R06  22365223.414   119345144.523       -3407.867          41.000                                                                  
R07  22704356.790   121538246.382         322.166          51.000    22704351.050    94529734.389         250.493          49.000  
R16  22255225.916   118883920.968       -1919.898          52.000    22255221.825    92465466.409       -1493.292          48.000  
R09  22612306.801   120748753.405         539.953          51.000    22612302.236    93915783.263         420.149          49.000  
R19  24050444.367   128653927.368        2894.980          41.000    24050443.275   100064302.430        2251.502          47.000  
G19  23214303.320   121992403.561       -2466.205          48.000                                                                  
G13  23635493.140   124205526.413       -3982.306          48.000                                                                  
G17  24482834.847   128658615.597       -3577.169          38.000    24482831.237   100253684.537       -2787.108          44.000  
E31  26454702.759   139020718.640         400.257          48.000    26454704.307   106522435.494         306.710          50.000  
G12  23380310.064   122864682.104         529.346          49.000    23380306.061    95738892.779         412.520          45.000  
R17  24544000.760   131339957.685       -2695.068          50.000    24543994.860   102153256.163       -2096.140          44.000  
R15  25389056.923                       -3254.297          30.000    25389048.366   105522134.296       -2531.848          34.000  
R18  22968359.553   122606912.852         604.524          49.000    22968356.155    95360901.313         470.125          48.000  
E19  27669097.774   145402203.398       -3680.050          41.000    27669103.374   111412137.344       -2819.705          44.000  
S31  40379850.293   212197567.068        -794.324          44.000  
G25  25438584.485   133680771.669        1428.571          46.000    25438587.699   104166909.636        1113.184          41.000  
G06  26094683.540   137128541.761        1480.914          42.000    26094682.532   106853429.116        1153.805          41.000  
E21  28404815.069   149268720.153       -2902.229          45.000    28404815.242   114374938.070       -2223.733          48.000  
G22  25242841.600   132652044.762       -3861.029          33.000                                                                  
E04  25329481.969   133107361.954       -1296.833          49.000    25329481.226   101991462.694        -993.710          53.000  
> 2024 04 08 23 47 00.0050000  0 25                     
S33  41336742.972   217226080.898        -793.871          44.000  
E26  29046481.239   152640344.691        1413.533          44.000    29046482.121   116958229.799        1083.056          45.000  
G24  22684626.294   119208630.701         733.319          48.000    22684624.009    92889926.459         571.433          47.000  
E09  27554129.483   144797871.418        1190.935          44.000    27554129.760   110949129.574         912.598          47.000  
G15  22795832.034   119792874.902       -2617.601          47.000    22795829.662    93345156.308       -2039.604          44.000  
R06  22384434.070   119447654.676       -3426.404          41.000                                                                  
R07  22702622.721   121528959.491         296.913          51.000    22702616.083    94522511.267         230.948          49.000  
R16  22266016.523   118941557.863       -1922.620          53.000    22266012.442    92510295.141       -1495.343          50.000  
R09  22609283.374   120732605.867         536.378          52.000    22609278.571    93903224.151         417.145          48.000  
R19  24034229.266   128567188.392        2887.736          40.000    24034227.748    99996839.275        2246.049          46.000  
G19  23228429.806   122066640.830       -2483.133          48.000                                                                  
G13  23658254.719   124325136.744       -3991.863          48.000                                                                  
G17  24503291.333   128766113.362       -3589.559          39.000    24503287.541   100337449.044       -2797.225          44.000  
E31  26452431.415   139008780.736         395.465          48.000    26452432.706   106513288.356         303.147          50.000  
G12  23377311.998   122848923.799         521.163          49.000    23377306.936    95726613.648         406.068          45.000  
R17  24559170.665   131421133.430       -2716.908          51.000    24559164.744   102216392.881       -2113.205          43.000  
R15  25407321.905   135769017.0401      -3252.802          34.000    25407311.873   105598045.794       -2529.663          32.000  
R18  22965024.349   122589115.231         581.935          49.000    22965021.462    95347058.712         452.704          48.000  
E19  27690117.906   145512661.077       -3683.824          42.000    27690123.225   111496773.280       -2822.742          44.000  
S31  40384382.516   212221384.720        -793.430          44.000  
G25  25430441.886   133637983.128        1424.091          46.000    25430445.326   104133568.405        1109.613          42.000  
G06  26086242.570   137084184.226        1476.147          42.000    26086242.409   106818864.955        1150.226          42.000  
E21  28421377.553   149355755.220       -2900.311          44.000    28421377.040   114441627.284       -2222.160          47.000  
G22  25264885.811   132767881.908       -3861.389          36.000                                                                  
E04  25336921.550   133146458.243       -1309.595          48.000    25336921.117   102021419.567       -1003.445          54.000  
> 2024 04 08 23 47 30.0050000  0 25                     
S33  41341271.007   217249876.804        -792.938          44.000  
E26  29038418.442   152597973.428        1410.722          43.000    29038418.758   116925763.670        1081.018          45.000  
G24  22680456.917   119186717.206         726.997          48.000    22680454.040    92872851.016         566.514          47.000  
E09  27547354.560   144762267.295        1182.284          44.000    27547354.431   110921848.505         905.925          47.000  
G15  22810815.106   119871610.883       -2631.846          47.000    22810812.235    93406508.936       -2050.822          44.000  
R06  22403748.344   119550719.479       -3444.977          41.000                                                                  
R07  22701027.949   121520423.713         271.860          51.000    22701022.139    94515872.345         211.373          49.000  
R16  22276819.245   118999265.731       -1924.988          52.000    22276815.193    92555179.022       -1497.211          50.000  
R09  22606278.754   120716562.200         532.730          51.000    22606274.529    93890745.792         414.441          49.000  
R19  24018052.324   128480657.034        2880.856          39.000    24018051.208    99929537.599        2240.428          47.000  
G19  23242650.727   122141370.893       -2499.441          48.000                                                                  
G13  23681069.058   124445025.020       -4001.130          48.000                                                                  
G17  24523818.861   128873981.194       -3601.962          40.000    24523814.454   100421501.871       -2806.651          45.000  
E31  26450185.599   138996978.816         390.936          48.000    26450187.081   106504245.415         299.491          51.000  
G12  23374359.093   122833405.616         513.064          49.000    23374354.164    95714521.634         399.722          45.000  
R17  24574461.001   131502956.482       -2738.362          51.000    24574454.421   102280033.041       -2129.845          43.000  
R15  25425573.617                       -3250.653          31.000    25425565.393   105673908.444       -2527.997          33.000  
R18  22961816.006   122571989.242         559.318          49.000    22961813.824    95333738.540         434.982          48.000  
E19  27711158.446   145623232.261       -3688.043          41.000    27711164.517   111581496.149       -2825.634          44.000  
S31  40388908.588   212245169.790        -792.594          44.000  
G25  25422323.085   133595317.708        1419.958          46.000    25422326.198   104100323.095        1106.586          42.000  
G06  26077826.454   137039959.594        1471.644          42.000    26077826.808   106784404.428        1146.526          42.000  
E21  28437927.217   149442725.778       -2898.266          44.000    28437927.450   114508267.062       -2220.666          48.000  
G22  25286927.313   132883707.342       -3861.047          36.000                                                                  
E04  25344433.606   133185933.684       -1322.449          48.000    25344433.336   102051666.968       -1013.263          54.000  
> 2024 04 08 23 48 00.0050000  0 25                     
S33  41345791.255   217273630.822        -791.329          44.000  
E26  29030367.826   152555671.473        1408.666          42.000    29030368.475   116893350.667        1079.499          43.000  
G24  22676320.556   119164982.106         721.401          48.000    22676318.029    92855914.590         562.180          47.000  
E09  27540626.733   144726908.818        1174.521          45.000    27540625.886   110894755.675         899.931          47.000  
G15  22825876.956   119950762.543       -2645.476          47.000    22825873.826    93468185.461       -2061.218          43.000  
R06  22423164.037   119654326.556       -3462.524          41.000                                                                  
R07  22699572.706   121512631.538         247.265          52.000    22699567.262    94509811.769         192.312          51.000  
R16  22287634.255   119057036.143       -1926.709          52.000    22287629.471    92600111.564       -1498.627          50.000  
R09  22603292.355   120700614.013         529.931          52.000    22603287.495    93878341.701         412.248          49.000  
R19  24001913.947   128394329.683        2874.169          39.000    24001912.820    99862394.571        2235.457          47.000  
G19  23256962.784   122216583.516       -2515.207          47.000                                                                  
G13  23703934.142   124565180.720       -4009.733          48.000                                                                  
G17  24544413.719   128982207.751       -3613.737          41.000    24544409.148   100505834.241       -2815.743          45.000  
E31  26447962.327   138985304.186         387.078          46.000    26447965.371   106495300.002         296.572          51.000  
G12  23371450.113   122818118.989         505.550          49.000    23371444.745    95702610.055         393.760          45.000  
R17  24589870.471   131585416.179       -2759.341          51.000    24589863.248   102344168.401       -2146.145          42.000  
R15  25443812.532                1      -3247.632          25.000    25443805.204   105749716.039       -2525.812          32.000  
R18  22958732.245   122555529.215         537.527          48.000    22958730.535    95320936.298         418.062          48.000  
E19  27732219.976   145733907.341       -3690.908          41.000    27732225.848   111666298.653       -2828.079          44.000  
S31  40393426.722   212268912.430        -790.751          44.000  
G25  25414225.899   133552767.179        1416.278          46.000    25414228.823   104067167.302        1103.491          41.000  
G06  26069434.215   136995862.709        1467.743          43.000    26069434.752   106750043.421        1143.710          41.000  
E21  28454463.142   149529623.055       -2895.400          44.000    28454463.547   114574850.686       -2218.557          48.000  
G22  25308964.705   132999511.814       -3859.833          37.000                                                                  
E04  25352015.152   133225779.961       -1334.535          47.000    25352015.941   102082198.510       -1022.494          54.000  
> 2024 04 08 23 48 30.0050000  0 25                     
S33  41350303.781   217297345.382        -790.253          44.000  
E26  29022331.600   152513442.095        1406.123          42.000    29022331.352   116860993.257        1077.487          41.000  
G24  22672218.813   119143428.305         715.140          48.000    22672216.356    92839119.444         557.238          47.000  
E09  27533945.843   144691798.714        1165.913          45.000    27533944.757   110867853.150         893.435          47.000  
G15  22841017.040   120030329.130       -2659.287          47.000    22841015.956    93530185.328       -2072.246          45.000  
R06  22442681.683   119758473.287       -3480.823          42.000                                                                  
R07  22698256.283   121505585.545         222.198          52.000    22698250.918    94504331.565         172.872          50.000  
R16  22298460.968   119114869.478       -1929.144          51.000    22298456.076    92645093.059       -1500.378          50.000  
R09  22600323.365   120684762.026         526.517          52.000    22600318.788    93866012.435         409.523          49.000  
R19  23985815.128   128308212.315        2867.170          39.000    23985813.659    99795414.866        2229.706          46.000  
G19  23271367.223   122292277.552       -2531.396          48.000                                                                  
G13  23726849.193   124685602.128       -4018.749          47.000                                                                  
G17  24565076.360   129090791.285       -3625.860          41.000    24565072.456   100590444.787       -2825.074          45.000  
E31  26445764.474   138973757.405         382.576          46.000    26445768.173   106486452.560         293.033          52.000  
G12  23368584.587   122803064.684         497.651          49.000    23368579.788    95690879.514         387.865          44.000  
R17  24605399.225   131668511.200       -2780.600          51.000    24605391.763   102408797.816       -2162.605          40.000  
R15  25462046.950                3      -3242.995          24.000    25462031.588                       -2524.621          29.000  
R18  22955774.715   122539739.052         514.914          49.000    22955773.182    95308655.084         400.344          48.000  
E19  27753300.300   145844685.477       -3694.412          41.000    27753306.873   111751180.129       -2830.849          44.000  
S31  40397937.304   212292614.942        -789.755          44.000  
G25  25406150.353   133510332.496        1412.176          45.000    25406152.879   104034101.811        1100.342          42.000  
G06  26061067.755   136951897.871        1463.018          42.000    26061068.642   106715785.357        1139.850          40.000  
E21  28470984.627   149616447.751       -2893.145          42.000    28470985.636   114641378.678       -2216.855          47.000  
G22  25330996.653   133115295.367       -3859.436          39.000                                                                  
E04  25359668.569   133265997.979       -1347.012          47.000    25359668.928   102113014.894       -1032.111          54.000  
> 2024 04 08 23 49 00.0050000  0 25                     
S33  41354809.357   217321022.165        -789.115          45.000  
E26  29014311.262   152471291.385        1403.478          43.000    29014310.787   116828696.084        1075.501          42.000  
G24  22668153.210   119122061.496         708.911          49.000    22668150.275    92822469.990         552.409          47.000  
E09  27527312.293   144656942.471        1157.434          45.000    27527311.625   110841145.158         886.885          47.000  
G15  22856238.459   120110312.848       -2673.351          48.000    22856236.414    93592510.201       -2083.037          45.000  
R06  22462300.918   119863159.557       -3498.657          42.000                                                                  
R07  22697080.295   121499290.821         197.078          51.000    22697074.700    94499435.671         153.250          50.000  
R16  22309300.136   119172769.833       -1931.366          52.000    22309295.118    92690126.673       -1502.148          50.000  
R09  22597373.275   120669009.591         523.112          51.000    22597369.175    93853760.577         406.906          50.000  
R19  23969756.181   128222313.491        2859.496          38.000    23969754.651    99728605.116        2223.823          46.000  
G19  23285863.303   122368455.818       -2547.579          48.000                                                                  
G13  23749815.288   124806290.882       -4027.677          46.000                                                                  
G17  24585807.132   129199733.319       -3637.384          40.000    24585802.538   100675334.692       -2834.558          44.000  
E31  26443592.729   138962341.950         377.876          46.000    26443595.785   106477705.719         289.698          52.000  
G12  23365764.804   122788246.290         489.814          49.000    23365760.144    95679332.799         381.516          45.000  
R17  24621045.989   131752243.397       -2801.921          50.000    24621038.804   102473922.898       -2179.257          42.000  
R15  25480267.914                1      -3243.616          29.000    25480251.344                       -2522.461          31.000  
R18  22952943.852   122524625.389         492.179          50.000    22952940.644    95296900.002         382.831          47.000  
E19  27774401.091   145955569.318       -3698.081          41.000    27774408.104   111836142.574       -2833.626          45.000  
S31  40402440.670   212316281.096        -788.834          44.000  
G25  25398097.284   133468017.423        1408.325          45.000    25398100.358   104001129.508        1097.418          42.000  
G06  26052727.807   136908072.118        1458.007          41.000    26052728.004   106681635.578        1136.503          37.000  
E21  28487494.506   149703203.296       -2890.793          44.000    28487494.221   114707853.702       -2215.104          46.000  
G22  25353026.611   133231060.600       -3858.588          40.000                                                                  
E04  25367393.867   133306591.511       -1359.691          47.000    25367393.744   102144119.020       -1041.787          54.000  
> 2024 04 08 23 49 30.0050000  0 25                     
S33  41359310.190   217344674.622        -788.144          44.000  
E26  29006307.689   152429232.795        1400.181          43.000    29006307.737   116796469.533        1073.103          43.000  
G24  22664125.740   119100894.754         702.055          49.000    22664122.114    92805976.437         547.048          47.000  
E09  27520729.470   144622353.004        1148.375          45.000    27520729.389   110814641.578         879.824          47.000  
G15  22871540.730   120190722.728       -2687.643          48.000    22871538.473    93655167.136       -2094.102          46.000  
R06  22482021.593   119968392.744       -3517.115          42.000                                                                  
R07  22696046.494   121493760.020         171.423          51.000    22696041.634    94495133.936         133.358          50.000  
R16  22320153.130   119230748.085       -1934.107          52.000    22320148.897    92735220.899       -1504.248          49.000  
R09  22594444.255   120653367.780         519.397          51.000    22594439.485    93841594.777         403.961          49.000  
R19  23953742.391   128136649.815        2851.115          39.000    23953740.104    99661978.254        2217.765          45.000  
G19  23300453.206   122445127.157       -2563.994          48.000                                                                  
G13  23772835.098   124927255.863       -4036.922          47.000                                                                  
G17  24606608.168   129309042.287       -3649.888          41.000    24606603.326   100760510.505       -2844.130          43.000  
E31  26441448.605   138951068.560         373.230          47.000    26441450.383   106469067.759         285.942          52.000  
G12  23362992.252   122773674.265         481.493          49.000    23362986.827    95667978.037         375.226          45.000  
R17  24636814.838   131836621.728       -2823.494          50.000    24636806.861   102539550.507       -2196.340          41.000  
R15  25498472.086                3      -3241.252          26.000    25498449.700                3      -2522.052          24.000  
R18  22950243.198   122510202.526         468.962          51.000    22950238.936    95285682.262         364.810          47.000  
E19  27795523.850   146066568.456       -3702.240          41.000    27795530.976   111921193.357       -2836.557          45.000  
S31  40406939.105   212339921.751        -787.852          44.000  
G25  25390068.997   133425833.226        1403.729          45.000    25390072.083   103968259.169        1093.896          42.000  
G06  26044416.809   136864399.731        1452.809          41.000    26044415.940   106647605.310        1132.054          37.000  
E21  28503993.240   149789900.503       -2889.227          44.000    28503992.769   114774284.028       -2213.709          47.000  
G22  25375054.354   133346817.436       -3858.667          41.000                                                                  
E04  25375190.952   133347571.648       -1372.563          47.000    25375191.803   102175519.381       -1051.747          54.000  
> 2024 04 08 23 50 00.0050000  0 25                     
S33  41363806.629   217368303.999        -787.379          44.000  
E26  28998321.739   152387270.306        1396.996          43.000    28998323.065   116764316.661        1070.225          45.000  
G24  22660136.739   119079931.710         695.255          49.000    22660132.507    92789641.617         541.893          47.000  
E09  27514199.084   144588033.749        1139.113          45.000    27514198.831   110788345.028         873.058          48.000  
G15  22886923.481   120271558.558       -2701.627          48.000    22886921.319    93718155.981       -2105.083          46.000  
R06  22501843.580   120074170.640       -3535.024          42.000                                                                  
R07  22695156.140   121488996.433         145.915          50.000    22695150.531    94491428.927         113.479          49.000  
R16  22331022.606   119288806.231       -1936.701          52.000    22331017.851    92780377.240       -1506.219          50.000  
R09  22591536.625   120637837.790         515.670          52.000    22591531.244    93829515.945         401.127          49.000  
R19  23937773.287   128051227.496        2843.435          40.000    23937771.494    99595539.064        2211.419          44.000  
G19  23315136.914   122522291.327       -2580.436          47.000                                                                  
G13  23795906.789   125048496.291       -4046.019          47.000                                                                  
G17  24627479.376   129418717.375       -3662.036          42.000    24627473.572   100845971.615       -2853.516          43.000  
E31  26439330.014   138939938.575         368.440          47.000    26439332.159   106460539.663         282.336          52.000  
G12  23360265.805   122759349.859         473.288          49.000    23360261.382    95656816.212         368.863          46.000  
R17  24652702.499   131921645.898       -2844.984          48.000    24652696.905   102605680.440       -2212.813          43.000  
R15  25516665.115                3      -3244.733          21.000    25516648.903                3      -2521.992          19.000  
R18  22947670.169   122496474.885         445.975          50.000    22947666.402    95275005.271         346.818          46.000  
E19  27816668.927   146177683.053       -3705.878          42.000    27816676.027   112006332.629       -2839.464          45.000  
S31  40411433.358   212363539.456        -786.954          44.000  
G25  25382065.762   133383781.569        1399.420          45.000    25382069.735   103935492.126        1090.253          43.000  
G06  26036136.468   136820885.756        1447.731          42.000    26036134.542   106613698.479        1128.043          37.000  
E21  28520479.780   149876540.781       -2887.153          44.000    28520480.190   114840670.735       -2212.227          47.000  
G22  25397080.998   133462566.559       -3858.044          41.000                                                                  
E04  25383062.818   133388940.039       -1385.514          47.000    25383063.787   102207217.222       -1061.673          53.000  
> 2024 04 08 23 50 30.0050000  0 25                     
S33  41368299.092   217391912.057        -786.618          44.000  
E26  28990356.169   152345408.819        1393.753          44.000    28990356.567   116732241.127        1067.725          45.000  
G24  22656187.165   119059176.833         688.371          49.000    22656182.972    92773468.990         536.467          47.000  
E09  27507718.982   144553988.926        1130.315          44.000    27507720.374   110762258.791         865.981          48.000  
G15  22902386.743   120352820.921       -2715.737          47.000    22902385.093    93781477.226       -2116.401          45.000  
R06  22521768.816   120180492.100       -3553.084          42.000                                                                  
R07  22694410.577   121485003.485         120.251          51.000    22694405.010    94488323.322          93.497          50.000  
R16  22341905.770   119346946.192       -1939.423          52.000    22341901.404    92825597.227       -1508.472          49.000  
R09  22588649.146   120622422.098         512.035          51.000    22588645.209    93817526.023         398.209          50.000  
R19  23921850.894   127966054.769        2834.789          40.000    23921848.650    99529293.939        2204.884          45.000  
G19  23329914.367   122599948.944       -2596.665          47.000                                                                  
G13  23819030.302   125170012.424       -4055.088          47.000                                                                  
G17  24648419.798   129528758.195       -3674.214          42.000    24648414.145   100931717.691       -2863.070          42.000  
E31  26437239.067   138928954.208         363.748          47.000    26437241.764   106452123.151         278.728          52.000  
G12  23357587.009   122745275.319         465.107          48.000    23357583.318    95645849.095         362.464          46.000  
R17  24668712.723   132007316.201       -2866.345          49.000    24668707.850   102672312.894       -2229.290          44.000  
R18  22945229.458   122483447.795         422.498          49.000    22945226.636    95264873.100         328.577          48.000  
E19  27837835.928   146288914.293       -3709.619          42.000    27837843.355   112091561.271       -2842.411          45.000  
S31  40415923.507   212387135.738        -786.110          44.000  
G25  25374089.714   133341865.063        1394.934          45.000    25374092.716   103902830.364        1086.932          43.000  
G06  26027887.354   136777536.031        1441.952          42.000    26027886.677   106579919.624        1123.934          39.000  
E21  28536957.081   149963126.399       -2885.344          44.000    28536956.570   114907015.551       -2210.919          47.000  
G22  25419105.845   133578309.616       -3857.996          41.000                                                                  
E04  25391009.873   133430699.174       -1398.377          47.000    25391010.262   102239214.459       -1071.553          53.000  
R15                                                                  25534843.670                3      -2515.923          19.000  
> 2024 04 08 23 51 00.0050000  0 24                     
S33  41372788.691   217415506.037        -786.392          44.000  
E26  28982411.132   152303656.058        1389.808          44.000    28982411.114   116700248.917        1064.917          45.000  
G24  22652278.655   119038637.514         681.149          49.000    22652274.587    92757464.342         530.756          47.000  
E09  27501293.997   144520225.752        1120.640          44.000    27501295.614   110736388.327         858.732          48.000  
G15  22917931.706   120434513.600       -2730.311          47.000    22917930.691    93845133.755       -2127.616          45.000  
R06  22541795.733   120287358.425       -3571.513          42.000                                                                  
R07  22693811.352   121481788.141          94.182          52.000    22693804.557    94485822.530          73.211          50.000  
R16  22352805.709   119405173.840       -1942.395          52.000    22352801.923    92870885.412       -1510.748          50.000  
R09  22585784.545   120607125.846         507.806          51.000    22585780.818    93805628.966         395.034          50.000  
R19  23905976.599   127881141.428        2826.031          39.000    23905975.641    99463250.622        2198.025          47.000  
G19  23344787.131   122678103.648       -2613.481          48.000                                                                  
G13  23842207.599   125291807.606       -4064.525          47.000                                                                  
G17  24669430.062   129639167.637       -3686.518          42.000    24669424.024   101017751.040       -2872.717          42.000  
E31  26435178.127   138918120.537         358.357          48.000    26435180.143   106443822.088         274.701          52.000  
G12  23354956.589   122731455.617         456.371          48.000    23354953.464    95635080.557         355.592          46.000  
R17  24684843.190   132093635.871       -2888.087          48.000    24684838.881   102739450.475       -2246.409          45.000  
R18  22942921.478   122471129.606         398.657          50.000    22942918.957    95255292.297         310.081          47.000  
E19  27859025.697   146400266.035       -3713.731          41.000    27859033.363   112176882.236       -2845.680          45.000  
S31  40420410.763   212410717.222        -785.848          44.000  
G25  25366139.990   133300089.108        1390.070          45.000    25366142.491   103870278.112        1083.264          43.000  
G06  26019670.781   136734359.122        1436.300          42.000    26019670.659   106546275.419        1119.377          40.000  
E21  28553424.405   150049662.439       -2883.751          45.000    28553423.658   114973322.415       -2209.657          46.000  
G22  25441131.540   133694050.952       -3858.179          42.000                                                                  
E04  25399032.048   133472854.416       -1411.781          47.000    25399032.048   102271515.198       -1081.815          53.000  
> 2024 04 08 23 51 30.0050000  0 24                     
S33  41377275.945   217439086.511        -786.387          44.000  
E26  28974486.725   152262016.398        1385.854          42.000    28974487.419   116668343.335        1061.740          45.000  
G24  22648411.746   119018317.804         673.170          49.000    22648408.689    92741630.841         524.529          48.000  
E09  27494923.198   144486747.972        1110.678          44.000    27494925.073   110710736.540         851.152          48.000  
G15  22933559.915   120516636.490       -2745.012          47.000    22933558.574    93909125.485       -2138.888          46.000  
R06  22561923.536   120394767.981       -3589.462          41.000                                                                  
R07  22693357.136   121479353.482          67.717          51.000    22693349.644    94483928.898          52.621          50.000  
R16  22363722.129   119463491.179       -1945.807          51.000    22363720.310    92916243.331       -1513.391          51.000  
R09  22582942.624   120591951.075         503.452          51.000    22582938.831    93793826.405         391.541          50.000  
R19  23890153.160   127796494.835        2816.897          40.000    23890151.307    99397414.763        2190.800          46.000  
G19  23359754.515   122756755.586       -2630.333          48.000                                                                  
G13  23865438.126   125413881.332       -4073.955          48.000                                                                  
G17  24690510.257   129749944.929       -3699.010          42.000    24690504.232   101104071.001       -2882.375          42.000  
E31  26433145.700   138907439.192         353.219          48.000    26433147.333   106435637.755         270.615          51.000  
G12  23352376.138   122717892.518         447.476          48.000    23352372.390    95624511.949         348.769          45.000  
R17  24701096.026   132180604.478       -2910.143          48.000    24701091.064   102807092.699       -2263.419          45.000  
R18  22940747.362   122459524.992         374.512          50.000    22940745.490    95246266.504         291.171          48.000  
E19  27880238.781   146511738.821       -3718.285          41.000    27880246.459   112262295.949       -2849.029          45.000  
S31  40424896.090   212434285.537        -785.871          44.000  
G25  25358217.570   133258455.772        1385.132          47.000    25358219.129   103837837.011        1079.321          42.000  
G06  26011489.043   136691360.494        1429.925          41.000    26011487.536   106512770.107        1114.153          39.000  
E21  28569882.065   150136150.734       -2882.640          44.000    28569882.241   115039592.669       -2208.659          46.000  
G22  25463155.500   133809791.524       -3858.307          41.000                                                                  
E04  25407129.724   133515407.683       -1425.451          47.000    25407129.524   102304120.922       -1092.160          52.000  
> 2024 04 08 23 52 00.0050000  0 25                     
S33  41381760.604   217462653.932        -785.223          44.000  
E26  28966583.932   152220491.907        1382.346          40.000    28966585.527   116636526.018        1059.079          45.000  
G24  22644586.577   118998219.342         666.335          49.000    22644584.181    92725969.734         519.204          48.000  
E09  27488607.355   144453557.062        1101.669          45.000    27488609.070   110685304.579         844.065          48.000  
G15  22949269.164   120599187.372       -2758.762          48.000    22949267.893    93973450.756       -2149.601          46.000  
R06  22582153.664   120502716.447       -3607.042          41.000                                                                  
R07  22693046.921   121477700.486          42.167          51.000    22693040.954    94482643.223          32.747          50.000  
R16  22374656.418   119521897.425       -1948.279          52.000    22374653.704    92961670.428       -1515.356          50.000  
R09  22580123.143   120576897.112         499.877          50.000    22580119.199    93782117.820         388.764          50.000  
R19  23874380.095   127712119.687        2807.984          42.000    23874376.081    99331789.968        2184.064          44.000  
G19  23374815.150   122835902.625       -2646.416          48.000                                                                  
G13  23888721.223   125536230.777       -4082.784          48.000                                                                  
G17  24711660.316   129861087.584       -3710.960          43.000    24711654.012   101190675.663       -2891.633          41.000  
E31  26431141.856   138896909.617         348.552          48.000    26431143.493   106427569.728         267.061          51.000  
G12  23349844.255   122704585.174         439.385          49.000    23349840.088    95614142.656         342.330          45.000  
R17  24717469.388   132268219.783       -2931.108          48.000    24717464.119   102875237.911       -2279.736          43.000  
R08  25761898.503                3       2555.748          12.000                                                                  
R18  22938708.620   122448636.382         351.072          50.000    22938705.778    95237797.618         273.113          48.000  
E19  27901473.851   146623330.844       -3721.531          40.000    27901482.085   112347801.017       -2851.462          45.000  
S31  40429378.201   212457840.506        -784.807          44.000  
G25  25350322.131   133216964.821        1380.743          47.000    25350323.545   103805506.844        1075.757          42.000  
G06  26003340.255   136648543.016        1424.425          40.000    26003339.925   106479405.999        1109.703          40.000  
E21  28586330.391   150222590.752       -2880.416          44.000    28586330.826   115105825.920       -2207.143          46.000  
G22  25485180.644   133925530.160       -3857.619          40.000                                                                  
E04  25415302.835   133558358.715       -1438.258          47.000    25415302.976   102337031.431       -1102.077          53.000  
> 2024 04 08 23 52 30.0050000  0 25                     
S33  41386243.486   217486211.528        -784.987          44.000  
E26  28958702.474   152179087.631        1378.099          38.000    28958706.297   116604800.807        1055.937          45.000  
G24  22640804.896   118978346.942         658.531          49.000    22640802.300    92710484.753         513.154          47.000  
E09  27482348.080   144420657.573        1091.575          46.000    27482348.548   110660095.892         836.425          48.000  
G15  22965059.610   120682167.611       -2773.228          48.000    22965058.437    94038110.574       -2160.940          46.000  
R06  22602484.648   120611202.814       -3625.233          42.000                                                                  
R07  22692884.904   121476833.054          15.698          51.000    22692880.034    94481968.570          12.184          51.000  
R16  22385608.988   119580395.794       -1951.587          52.000    22385604.805    93007169.168       -1517.920          51.000  
R09  22577326.415   120561966.602         495.468          49.000    22577323.244    93770505.270         385.417          50.000  
R19  23858658.351   127628023.455        2798.178          40.000    23858655.866    99266382.066        2176.572          46.000  
G19  23389970.204   122915545.641       -2663.062          48.000                                                                  
G13  23912055.767   125658856.693       -4092.238          47.000                                                                  
G17  24732879.191   129972595.379       -3723.036          44.000    24732872.759   101277564.860       -2901.294          40.000  
E31  26429167.824   138886534.250         343.286          48.000    26429169.200   106419619.854         262.908          51.000  
G12  23347361.074   122691536.098         430.553          49.000    23347356.563    95603974.594         335.524          45.000  
R17  24733962.997   132356482.168       -2952.826          47.000    24733957.731   102943886.444       -2296.535          42.000  
R18  22936802.867   122438469.312         326.715          50.000    22936800.251    95229889.927         254.135          47.000  
E19  27922732.697   146735043.575       -3725.599          40.000    27922740.662   112433398.591       -2854.950          44.000  
S31  40433858.452   212481385.887        -784.813          44.000  
G25  25342454.631   133175619.059        1375.696          46.000    25342455.029   103773289.810        1072.052          42.000  
G06  25995227.682   136605912.899        1417.731          40.000    25995226.341   106446187.827        1104.689          40.000  
E21  28602770.840   150308985.056       -2879.195          44.000    28602771.233   115172024.132       -2205.906          45.000  
G22  25507204.277   134041268.844       -3858.139          38.000                                                                  
E04  25423553.132   133601710.147       -1451.920          48.000    25423552.863   102370248.739       -1112.467          53.000  
R08                                                                  25748776.552                3       2519.779          15.000  
> 2024 04 08 23 53 00.0050000  0 24                     
S33  41390725.970   217509768.514        -785.548          44.000  
E26  28950849.563   152137815.206        1373.478          39.000    28950852.232   116573176.602        1052.289          45.000  
G24  22637068.282   118958711.782         650.366          49.000    22637065.706    92695184.645         506.822          47.000  
E09  27476145.358   144388060.374        1081.534          46.000    27476145.405   110635118.852         828.648          49.000  
G15  22980934.042   120765584.039       -2787.982          48.000    22980931.313    94103110.255       -2172.295          45.000  
R06  22622916.830   120720232.211       -3643.609          42.000                                                                  
R07  22692872.079   121476761.760         -11.128          51.000    22692866.256    94481913.116          -8.562          50.000  
R16  22396578.391   119638995.567       -1955.170          52.000    22396574.977    93052746.781       -1520.679          50.000  
R09  22574554.442   120547168.772         490.965          49.000    22574552.608    93758995.880         381.887          50.000  
R19  23842991.833   127544220.863        2788.194          39.000    23842990.150    99201202.652        2168.650          47.000  
G19  23405221.674   122995692.271       -2680.144          48.000                                                                  
G13  23935444.995   125781765.649       -4101.820          46.000                                                                  
G17  24754169.017   130084475.305       -3735.572          45.000    24754162.526   101364743.997       -2910.997          39.000  
E31  26427224.661   138876321.958         337.577          48.000    26427225.641   106411794.920         258.654          51.000  
G12  23344929.437   122678754.211         421.540          49.000    23344924.118    95594014.737         328.328          45.000  
R17  24750580.483   132445398.435       -2974.863          47.000    24750573.180   103013043.558       -2313.764          42.000  
R18  22935035.970   122429035.599         302.120          50.000    22935033.713    95222552.597         234.991          48.000  
E19  27944015.450   146846884.616       -3730.141          40.000    27944023.354   112519094.478       -2858.181          44.000  
S31  40438338.821   212504930.218        -784.764          44.000  
G25  25334616.032   133134427.689        1370.319          46.000    25334616.650   103741193.107        1067.792          42.000  
G06  25987153.573   136563482.490        1411.090          41.000    25987152.825   106413125.324        1099.561          41.000  
E21  28619204.433   150395342.578       -2878.186          43.000    28619203.928   115238194.192       -2205.302          44.000  
G22  25529229.516   134157015.637       -3858.445          38.000                                                                  
E04  25431879.882   133645471.049       -1465.548          48.000    25431880.442   102403779.802       -1122.992          53.000  
> 2024 04 08 23 53 30.0060000  0 24                     
S33  41395208.698   217533326.712        -785.075          44.000  
E26  28943022.435   152096676.004        1368.944          41.000    28943023.711   116541654.481        1048.968          45.000  
G24  22633377.733   118939315.657         642.578          49.000    22633375.082    92680070.782         500.726          47.000  
E09  27469999.514   144355766.637        1071.426          46.000    27469999.977   110610374.323         820.988          48.000  
G15  22996890.615   120849438.010       -2802.146          48.000    22996888.377    94168450.883       -2183.504          45.000  
R06  22643450.859   120829804.852       -3661.072          41.000                                                                  
R07  22693007.477   121477488.026         -37.421          51.000    22693001.585    94482478.003         -29.126          50.000  
R16  22407567.232   119697699.129       -1958.288          51.000    22407562.708    93098405.106       -1523.052          49.000  
R09  22571808.986   120532503.119         486.768          50.000    22571805.536    93747589.302         378.644          50.000  
R19  23827382.405   127460714.180        2778.531          42.000    23827378.736    99136253.375        2161.164          46.000  
G19  23420569.382   123076343.311       -2696.409          48.000                                                                  
G13  23958888.130   125904960.271       -4110.927          45.000                                                                  
G17  24775529.966   130196728.678       -3747.787          44.000    24775523.125   101452214.180       -2920.349          38.000  
E31  26425312.533   138866272.465         332.351          48.000    26425313.333   106404094.734         254.620          51.000  
G12  23342547.737   122666238.959         412.854          49.000    23342542.992    95584262.672         321.700          46.000  
R17  24767318.693   132534969.927       -2996.245          45.000    24767312.453   103082710.272       -2330.402          43.000  
R18  22933407.526   122420337.971         277.670          51.000    22933403.715    95215787.795         216.064          48.000  
E19  27965322.990   146958856.822       -3734.249          39.000    27965331.424   112604890.899       -2861.258          44.000  
S31  40442819.217   212528474.673        -784.583          43.000  
G25  25326806.219   133093389.828        1365.319          46.000    25326807.201   103709215.975        1063.897          42.000  
G06  25979118.526   136521254.264        1404.143          43.000    25979117.521   106380220.325        1094.295          42.000  
E21  28635631.047   150481666.376       -2876.574          43.000    28635631.026   115304338.432       -2204.068          44.000  
G22  25551257.189   134272774.015       -3858.575          39.000                                                                  
E04  25440285.302   133689643.324       -1479.122          47.000    25440286.129   102437626.067       -1133.422          53.000  
> 2024 04 08 23 54 00.0060000  0 25                     
S33  41399690.990   217556880.854        -785.107          44.000  
E26  28935219.736   152055672.188        1364.481          41.000    28935220.464   116510236.104        1045.591          45.000  
G24  22629732.276   118920158.935         634.601          49.000    22629729.751    92665143.465         494.476          48.000  
E09  27463911.676   144323777.292        1061.298          45.000    27463912.439   110585863.028         813.225          48.000  
G15  23012928.560   120933719.208       -2816.470          47.000    23012926.472    94234124.411       -2194.723          45.000  
R06  22664083.447   120939906.597       -3678.796          41.000                                                                  
R07  22693291.189   121479009.910         -63.898          51.000    22693285.834    94483661.667         -49.707          50.000  
R16  22418574.315   119756499.486       -1961.634          52.000    22418571.043    93144138.721       -1525.752          50.000  
R09  22569087.240   120517967.518         482.416          51.000    22569082.802    93736283.873         375.220          50.000  
R19  23811827.150   127377511.323        2768.603          40.000    23811824.199    99071540.325        2153.158          45.000  
G19  23436011.509   123157488.718       -2713.026          48.000                                                                  
G13  23982383.751   126028426.967       -4120.174          46.000                                                                  
G17  24796959.392   130309342.400       -3759.617          45.000    24796952.730   101539965.128       -2929.629          36.000  
E31  26423430.253   138856383.215         326.998          48.000    26423431.420   106396517.317         250.570          51.000  
G12  23340215.925   122653987.890         403.958          49.000    23340211.651    95574716.456         314.827          46.000  
R17  24784177.016   132625185.106       -3017.999          44.000    24784170.445   103152877.633       -2347.225          44.000  
R18  22931915.489   122412376.666         253.026          51.000    22931913.088    95209595.694         196.871          50.000  
E19  27986653.857   147070948.367       -3738.471          39.000    27986662.656   112690778.737       -2864.552          45.000  
S31  40447299.012   212552015.883        -784.712          43.000  
G25  25319025.806   133052505.305        1360.343          46.000    25319027.144   103677358.340        1060.039          43.000  
G06  25971122.341   136479231.235        1397.624          43.000    25971121.165   106347475.245        1089.032          41.000  
E21  28652049.978   150567947.617       -2875.375          43.000    28652049.875   115370450.041       -2203.173          44.000  
G22  25573284.568   134388532.274       -3858.594          38.000                                                                  
E04  25448768.606   133734220.887       -1492.746          48.000    25448768.853   102471782.862       -1143.678          53.000  
R08                                                                  25706486.287                3       2459.000          13.000  
> 2024 04 08 23 54 30.0060000  0 24                     
S33  41404173.382   217580436.410        -785.241          44.000  
E26  28927443.723   152014808.356        1359.582          42.000    28927444.374   116478924.982        1041.768          45.000  
G24  22626133.489   118901246.593         626.178          49.000    22626130.546    92650406.569         487.866          47.000  
E09  27457883.602   144292096.581        1050.643          45.000    27457883.557   110561588.230         805.130          48.000  
G15  23029048.719   121018432.038       -2831.057          46.000    23029046.670    94300134.279       -2205.962          45.000  
R06  22684815.971   121050540.833       -3697.076          41.000                                                                  
R07  22693724.596   121481331.848         -90.881          51.000    22693720.032    94485467.612         -70.715          50.000  
R16  22429601.170   119815402.438       -1965.248          52.000    22429597.038    93189952.189       -1528.547          49.000  
R09  22566391.090   120503565.481         477.698          51.000    22566386.330    93725082.337         371.667          50.000  
R19  23796330.434   127294617.581        2757.729          40.000    23796327.639    99007067.659        2144.961          47.000  
G19  23451546.578   123239132.807       -2729.952          46.000                                                                  
G13  24005931.604   126152170.867       -4129.465          47.000                                                                  
G17  24818458.201   130422321.255       -3772.070          45.000    24818452.551   101628000.638       -2939.521          38.000  
E31  26421578.996   138846657.139         321.375          48.000    26421580.942   106389064.929         246.239          52.000  
G12  23337935.257   122642003.791         394.886          49.000    23337930.725    95565378.256         307.633          46.000  
R17  24801156.757   132716048.197       -3039.585          41.000    24801149.005   103223548.894       -2363.982          44.000  
R18  22930562.560   122405157.640         228.121          50.000    22930561.045    95203980.926         177.380          50.000  
E19  28008008.609   147183165.082       -3742.964          38.000    28008017.573   112776762.452       -2867.710          45.000  
S31  40451778.886   212575557.906        -784.909          43.000  
G25  25311274.870   133011776.420        1354.974          45.000    25311276.655   103645621.952        1055.792          42.000  
G06  25963165.236   136437418.981        1390.059          43.000    25963164.620   106314894.392        1083.206          41.000  
E21  28668462.380   150654192.583       -2874.503          44.000    28668461.543   115436533.872       -2202.466          43.000  
G22  25595313.699   134504297.376       -3859.076          38.000                                                                  
E04  25457329.335   133779208.707       -1506.660          48.000    25457329.746   102506254.044       -1154.382          53.000  
> 2024 04 08 23 55 00.0060000  0 25                     
S33  41408657.471   217603999.910        -785.428          44.000  
E26  28919696.027   151974092.715        1354.692          42.000    28919695.403   116447727.387        1038.106          44.000  
G24  22622582.542   118882586.534         617.963          49.000    22622579.317    92635866.262         481.482          47.000  
E09  27451915.074   144260732.156        1040.144          46.000    27451915.170   110537555.789         797.085          48.000  
G15  23045251.920   121103580.259       -2845.429          47.000    23045249.396    94366483.429       -2217.109          44.000  
R06  22705649.389   121161709.355       -3714.111          41.000                                                                  
R07  22694309.639   121484460.703        -117.609          51.000    22694304.329    94487901.179         -91.394          50.000  
R16  22440648.805   119874414.180       -1968.744          51.000    22440644.656    93235850.195       -1531.164          49.000  
R09  22563719.527   120489301.959         473.169          51.000    22563715.242    93713988.531         368.018          50.000  
R19  23780895.109   127212044.382        2747.273          41.000    23780891.777    98942844.348        2136.638          47.000  
G19  23467178.298   123321279.363       -2746.406          47.000                                                                  
G13  24029532.655   126276195.691       -4138.692          47.000                                                                  
G17  24840027.710   130535668.445       -3784.039          46.000    24840022.207   101716323.133       -2948.568          38.000  
E31  26419760.794   138837099.811         315.824          48.000    26419762.121   106381741.835         242.109          52.000  
G12  23335706.273   122630292.120         385.974          49.000    23335701.946    95556252.366         300.703          46.000  
R17  24818257.160   132807562.818       -3061.547          39.000    24818250.437   103294726.850       -2380.903          43.000  
R18  22929350.553   122398689.046         203.199          51.000    22929349.073    95198949.828         158.042          49.000  
E19  28029388.022   147295511.451       -3747.225          38.000    28029396.770   112862845.514       -2870.985          45.000  
S31  40456259.861   212599106.865        -784.879          43.000  
G25  25303554.852   132971209.039        1349.614          45.000    25303556.425   103614011.382        1051.666          43.000  
G06  25955250.361   136395826.702        1382.825          41.000    25955249.764   106282484.940        1077.676          41.000  
E21  28684868.398   150740406.930       -2873.227          44.000    28684868.173   115502594.242       -2201.421          44.000  
G22  25617344.287   134620074.055       -3859.296          38.000                                                                  
E04  25465970.009   133824612.601       -1520.352          48.000    25465970.021   102541044.023       -1164.882          53.000  
R08                                                                  25675393.114                3       2412.309          14.000  
> 2024 04 08 23 55 30.0060000  0 25                     
S33  41413142.418   217627568.216        -785.663          44.000  
E26  28911975.655   151933525.896        1349.696          41.000    28911975.696   116416643.860        1033.959          44.000  
G24  22619079.577   118864179.093         609.418          49.000    22619076.244    92621522.816         474.805          47.000  
E09  27446006.714   144229684.002        1029.749          46.000    27446006.875   110513765.698         788.996          48.000  
G15  23061537.243   121189160.362       -2859.799          47.000    23061535.033    94433169.074       -2228.475          44.000  
R06  22726581.709   121273406.238       -3731.690          40.000                                                                  
R07  22695046.101   121488395.833        -144.580          52.000    22695040.277    94490961.851        -112.457          51.000  
R16  22451715.765   119933532.765       -1972.433          51.000    22451711.136    93281831.356       -1534.034          50.000  
R09  22561073.945   120475175.786         468.488          51.000    22561069.448    93703001.540         364.471          50.000  
R19  23765519.337   127129795.078        2736.341          41.000    23765515.986    98878872.939        2128.124          46.000  
G19  23482905.813   123403924.915       -2763.128          47.000                                                                  
G13  24053186.879   126400497.713       -4148.126          47.000                                                                  
G17  24861666.335   130649379.891       -3796.555          47.000    24861660.798   101804929.431       -2958.274          38.000  
E31  26417972.872   138827709.163         310.263          47.000    26417974.900   106374546.482         237.782          51.000  
G12  23333529.415   122618850.857         376.958          49.000    23333525.209    95547337.150         293.729          46.000  
R17  24835478.878   132899724.466       -3082.926          43.000    24835472.838   103366408.182       -2397.597          42.000  
R18  22928280.470   122392971.861         178.095          51.000    22928277.489    95194503.166         138.513          49.000  
E19  28050790.892   147407984.347       -3751.205          38.000    28050799.739   112949025.533       -2874.268          45.000  
S31  40460741.967   212622661.132        -785.266          43.000  
G25  25295863.876   132930801.463        1344.230          44.000    25295867.145   103582525.360        1047.440          44.000  
G06  25947376.625   136354455.893        1375.187          41.000    25947376.363   106250248.109        1071.936          41.000  
E21  28701268.560   150826588.831       -2871.995          44.000    28701268.201   115568629.725       -2200.848          44.000  
G22  25639377.896   134735859.649       -3859.479          39.000                                                                  
E04  25474689.193   133870430.632       -1534.060          48.000    25474689.157   102576151.340       -1175.515          54.000  
R08                                                                  25658971.403                3       2382.468          16.000  
> 2024 04 08 23 56 00.0060000  0 24                     
S33  41417627.957   217651140.187        -785.604          44.000  
E26  28904284.678   151893107.825        1345.158          42.000    28904284.186   116385674.320        1030.615          45.000  
G24  22615624.747   118846023.882         601.245          49.000    22615621.799    92607375.893         468.542          47.000  
E09  27440158.123   144198951.490        1019.116          45.000    27440158.526   110490217.432         781.096          48.000  
G15  23077903.858   121275167.853       -2873.752          47.000    23077902.282    94500187.776       -2239.271          45.000  
R06  22747612.239   121385625.208       -3749.152          41.000                                                                  
R07  22695931.427   121493135.203        -171.173          52.000    22695925.624    94494648.020        -133.075          51.000  
R16  22462802.218   119992755.569       -1975.579          52.000    22462798.106    93327893.503       -1536.547          50.000  
R09  22558452.823   120461183.823         464.471          50.000    22558449.585    93692118.951         361.218          50.000  
R19  23750204.350   127047872.315        2725.704          41.000    23750200.226    98815155.476        2119.855          46.000  
G19  23498727.500   123487064.887       -2779.274          47.000                                                                  
G13  24076893.434   126525071.528       -4156.665          47.000                                                                  
G17  24883373.331   130763449.914       -3807.973          46.000    24883367.042   101893815.237       -2967.659          36.000  
E31  26416217.009   138818482.483         305.010          48.000    26416218.826   106367476.758         233.659          51.000  
G12  23331402.990   122607677.286         368.279          49.000    23331398.782    95538630.529         286.940          47.000  
R17  24852821.954   132992528.390       -3103.876          43.000    24852815.791   103438589.004       -2414.182          44.000  
R18  22927350.574   122388005.820         153.291          51.000    22927347.416    95190640.735         119.166          48.000  
E19  28072217.911   147520579.703       -3754.897          39.000    28072226.125   113035299.398       -2877.227          44.000  
S31  40465224.993   212646219.285        -785.438          43.000  
G25  25288204.309   132890551.339        1339.344          44.000    25288207.777   103551161.963        1043.604          43.000  
G06  25939546.161   136313307.479        1368.483          40.000    25939546.192   106218184.558        1066.298          41.000  
E21  28717662.027   150912735.662       -2870.845          44.000    28717661.035   115634638.333       -2199.711          43.000  
G22  25661413.096   134851650.781       -3859.619          40.000                                                                  
E04  25483486.329   133916660.285       -1547.736          48.000    25483486.014   102611574.029       -1185.860          53.000  
> 2024 04 08 23 56 30.0060000  0 25                     
S33  41422113.499   217674712.062        -785.791          44.000  
E26  28896621.600   151852836.599        1340.034          43.000    28896621.226   116354817.267        1026.844          46.000  
G24  22612218.040   118828118.559         592.804          49.000    22612214.527    92593423.700         461.884          47.000  
E09  27434368.833   144168531.926        1008.907          45.000    27434370.180   110466908.967         773.063          48.000  
G15  23094351.446   121361596.523       -2887.794          48.000    23094348.816    94567534.611       -2250.299          44.000  
R06  22768738.082   121498357.849       -3765.948          39.000                                                                  
R07  22696966.084   121498675.634        -197.900          51.000    22696960.165    94498957.220        -153.876          50.000  
R16  22473907.056   120052078.786       -1978.993          51.000    22473903.698    93374033.816       -1539.167          50.000  
R09  22555858.018   120447321.807         460.004          50.000    22555854.488    93681337.453         357.751          50.000  
R19  23734949.888   126966276.312        2714.640          40.000    23734946.208    98751692.166        2111.337          45.000  
G19  23514641.719   123570692.726       -2795.569          46.000                                                                  
G13  24100648.486   126649910.836       -4165.536          45.000                                                                  
G17  24905147.100   130877872.137       -3819.680          47.000    24905141.003   101982975.401       -2976.498          36.000  
E31  26414492.345   138809415.044         299.827          48.000    26414493.433   106360529.041         229.684          51.000  
G12  23329326.668   122596766.637         359.495          49.000    23329322.249    95530128.770         280.104          46.000  
R17  24870283.631   133085967.881       -3125.167          41.000    24870277.916   103511264.112       -2430.445          46.000  
R08  25630529.647                3       2312.000          13.000                                                                  
R18  22926559.909   122383789.016         128.232          51.000    22926556.812    95187361.030          99.760          48.000  
E19  28093666.601   147633292.111       -3758.823          39.000    28093675.206   113121662.973       -2880.228          43.000  
S31  40469707.776   212669776.407        -785.064          44.000  
G25  25280573.440   132850454.335        1334.122          43.000    25280577.609   103519917.857        1039.635          43.000  
G06  25931757.808   136272380.437        1360.783          40.000    25931758.189   106186293.465        1060.172          41.000  
E21  28734047.229   150998842.901       -2869.448          44.000    28734046.559   115700616.640       -2198.719          43.000  
G22  25683447.805   134967442.695       -3859.570          40.000                                                                  
E04  25492361.598   133963297.003       -1561.044          49.000    25492360.402   102647308.633       -1196.205          53.000  
> 2024 04 08 23 57 00.0060000  0 24                     
S33  41426598.117   217698279.262        -785.426          44.000  
E26  28888986.163   151812710.706        1335.125          44.000    28888986.065   116324071.591        1022.996          47.000  
G24  22608857.969   118810461.408         584.485          49.000    22608854.589    92579664.877         455.432          47.000  
E09  27428640.044   144138423.278         998.507          45.000    27428640.646   110443838.729         765.016          49.000  
G15  23110877.881   121448439.996       -2901.653          49.000    23110874.636    94635204.721       -2260.962          44.000  
R06  22789957.877   121611596.056       -3782.857          38.000                                                                  
R07  22698148.970   121505013.801        -224.585          50.000    22698143.494    94503886.923        -174.628          49.000  
R16  22485032.573   120111498.413       -1982.221          52.000    22485027.031    93420249.064       -1541.644          49.000  
R09  22553285.590   120433585.808         455.847          50.000    22553281.352    93670653.918         354.584          50.000  
R19  23719757.580   126885008.291        2703.605          41.000    23719754.487    98688483.961        2102.712          45.000  
G19  23530646.883   123654803.465       -2811.581          46.000                                                                  
G13  24124455.320   126775009.513       -4174.167          46.000                                                                  
G17  24926986.467   130992640.269       -3831.232          46.000    24926981.448   102072405.120       -2985.266          40.000  
E31  26412796.501   138800502.720         294.646          48.000    26412797.488   106353700.189         225.639          52.000  
G12  23327299.586   122586114.487         350.774          48.000    23327295.084    95521828.444         273.328          46.000  
R17  24887863.707   133180036.232       -3146.048          45.000    24887857.452   103584428.295       -2446.902          47.000  
R18  22925910.392   122380319.898         103.242          51.000    22925906.501    95184662.865          80.241          48.000  
E19  28115136.558   147746115.937       -3762.746          39.000    28115145.419   113208111.906       -2883.175          43.000  
S31  40474189.504   212693328.769        -784.888          43.000  
G25  25272972.164   132810506.650        1329.254          44.000    25272975.620   103488790.117        1035.569          43.000  
G06  25924011.770   136231674.272        1353.214          41.000    25924012.124   106154574.468        1054.844          42.000  
E21  28750425.041   151084906.619       -2868.068          44.000    28750423.730   115766561.562       -2197.471          43.000  
G22  25705481.685   135083230.169       -3859.436          42.000                                                                  
E04  25501313.225   134010336.827       -1574.668          50.000    25501311.836   102683352.103       -1206.513          53.000  
> 2024 04 08 23 57 30.0060000  0 26                     
S33  41431083.475   217721850.226        -785.794          44.000  
E26  28881379.639   151772740.436        1329.836          43.000    28881380.234   116293445.130        1018.880          47.000  
G24  22605546.981   118793062.331         575.720          49.000    22605543.971    92566107.174         448.572          48.000  
E09  27422972.349   144108635.142         987.773          45.000    27422972.058   110421014.066         756.759          48.000  
G15  23127483.500   121535704.610       -2915.790          48.000    23127480.620    94703202.973       -2272.164          44.000  
R06  22811274.894   121725343.733       -3799.792          38.000                                                                  
R07  22699483.568   121512158.475        -251.581          51.000    22699477.616    94509443.874        -195.703          49.000  
R16  22496174.000   120171022.545       -1985.858          49.000    22496170.821    93466545.632       -1544.617          49.000  
R09  22550737.622   120419983.500         451.221          51.000    22550733.991    93660074.362         350.964          50.000  
R19  23704629.391   126804081.086        2691.864          41.000    23704625.981    98625540.812        2093.553          45.000  
G19  23546745.838   123739402.367       -2828.099          45.000                                                                  
G13  24148311.559   126900372.621       -4183.115          46.000                                                                  
G17  24948893.273   131107758.813       -3843.070          46.000    24948887.588   102162107.901       -2994.551          39.000  
E31  26411131.030   138791753.074         288.922          48.000    26411132.487   106346995.997         221.437          52.000  
G12  23325323.367   122575728.199         341.733          48.000    23325318.480    95513735.283         266.235          46.000  
R17  24905562.277   133274738.580       -3167.308          48.000    24905554.869   103658085.649       -2463.538          48.000  
R18  22925403.013   122377608.738          77.717          51.000    22925398.464    95182554.215          60.421          48.000  
E19  28136628.813   147859057.760       -3766.472          40.000    28136638.178   113294651.247       -2886.022          44.000  
S31  40478672.044   212716884.465        -785.334          43.000  
G25  25265399.878   132770716.201        1323.926          45.000    25265402.764   103457784.872        1031.611          42.000  
G06  25916310.082   136191200.045        1345.731          42.000    25916309.767   106123036.199        1048.216          42.000  
E21  28766794.973   151170934.525       -2866.960          44.000    28766794.399   115832479.070       -2196.673          43.000  
G22  25727515.692   135199020.676       -3859.625          42.000                                                                  
E04  25510342.453   134057787.460       -1588.363          49.000    25510341.427   102719710.351       -1217.117          53.000  
E13                                                                  29698029.253                        -300.514          30.000  
R08                                                                  25606921.693                3       2308.000          12.000  
> 2024 04 08 23 58 00.0060000  0 25                     
S33  41435569.551   217745425.790        -785.940          44.000  
E26  28873802.800   151732928.335        1324.495          42.000    28873803.616   116262939.838        1014.950          47.000  
G24  22602285.710   118775923.651         566.992          49.000    22602282.603    92552752.375         441.736          48.000  
E09  27417365.411   144079169.470         976.678          46.000    27417364.824   110398436.495         748.393          48.000  
G15  23144168.843   121623388.574       -2929.699          48.000    23144167.354    94771527.991       -2282.977          45.000  
R06  22832685.878   121839597.194       -3816.881          38.000                                                                  
R07  22700969.162   121520110.465        -278.448          51.000    22700963.928    94515628.749        -216.589          50.000  
R16  22507337.076   120230651.475       -1989.288          49.000    22507333.595    93512923.706       -1547.247          50.000  
R09  22548215.722   120406515.164         446.771          51.000    22548210.810    93649599.041         347.418          49.000  
R19  23689565.943   126723499.942        2680.268          41.000    23689560.808    98562866.786        2084.396          45.000  
G19  23562936.101   123824487.439       -2844.274          44.000                                                                  
G13  24172217.498   127025998.400       -4191.867          46.000                                                                  
G17  24970865.700   131223226.010       -3854.424          46.000    24970860.441   102252082.360       -3003.478          41.000  
E31  26409496.862   138783166.064         283.588          49.000    26409498.426   106340416.421         217.245          52.000  
G12  23323397.559   122565607.715         332.941          48.000    23323392.800    95505849.237         259.484          47.000  
R17  24923378.175   133370072.982       -3188.359          48.000    24923370.613   103732234.606       -2479.752          48.000  
R18  22925035.961   122375658.167          52.290          49.000    22925034.018    95181037.089          40.762          49.000  
E19  28158142.867   147972116.291       -3770.519          39.000    28158152.643   113381280.037       -2889.139          43.000  
S31  40483155.509   212740445.349        -785.461          44.000  
G25  25257858.487   132731083.247        1318.548          45.000    25257859.338   103426902.334        1027.237          41.000  
G06  25908653.261   136150961.331        1337.026          42.000    25908651.776   106091681.483        1042.237          41.000  
E21  28783158.914   151256926.749       -2865.786          44.000    28783158.110   115898369.215       -2195.808          42.000  
G22  25749550.780   135314813.385       -3859.967          42.000                                                                  
E04  25519450.206   134105648.959       -1602.351          49.000    25519449.270   102756383.414       -1227.753          53.000  
E13                                                                  29700303.674                        -310.303          28.000  
> 2024 04 08 23 58 30.0060000  0 25                     
S33  41440055.529   217769000.862        -785.551          44.000  
E26  28866256.194   151693271.491        1319.563          41.000    28866257.168   116232553.530        1010.993          46.000  
G24  22599073.124   118759042.095         558.533          49.000    22599070.371    92539597.925         435.114          48.000  
E09  27411818.516   144050022.660         966.370          45.000    27411818.130   110376103.241         740.498          48.000  
G15  23160933.318   121711484.400       -2943.118          49.000    23160931.034    94840173.955       -2293.347          44.000  
R06  22854189.791   121954346.723       -3832.858          37.000                                                                  
R07  22702604.668   121528864.821        -305.048          51.000    22702599.130    94522437.691        -237.280          50.000  
R16  22518517.892   120290380.223       -1992.474          50.000    22518514.056    93559379.421       -1549.695          50.000  
R09  22545718.230   120393175.382         442.676          51.000    22545713.657    93639223.707         344.183          50.000  
R19  23674566.272   126643265.017        2669.024          41.000    23674561.730    98500462.073        2075.822          45.000  
G19  23579218.770   123910051.577       -2860.000          45.000                                                                  
G13  24196172.174   127151879.463       -4200.131          46.000                                                                  
G17  24992902.948   131339033.877       -3865.837          45.000    24992898.062   102342322.251       -3012.352          42.000  
E31  26407892.577   138774736.017         278.648          49.000    26407894.112   106333957.095         213.510          51.000  
G12  23321521.059   122555747.507         324.531          49.000    23321516.697    95498166.038         252.708          46.000  
R17  24941309.151   133466031.262       -3208.766          47.000    24941303.266   103806868.837       -2495.687          47.000  
R18  22924813.204   122374464.745          27.323          50.000    22924810.074    95180108.906          21.306          49.000  
E19  28179678.543   148085285.016       -3773.962          39.000    28179688.195   113467993.253       -2891.755          42.000  
S31  40487638.483   212764004.533        -785.162          43.000  
G25  25250345.320   132691602.478        1313.677          45.000    25250344.987   103396138.411        1023.675          41.000  
G06  25901040.533   136110956.165        1329.709          42.000    25901038.498   106060508.762        1036.154          40.000  
E21  28799515.764   151342877.892       -2864.197          44.000    28799513.263   115964227.886       -2194.634          40.000  
G22  25771583.792   135430602.469       -3858.905          40.000                                                                  
E04  25528634.580   134153915.748       -1615.319          49.000    25528634.190   102793367.029       -1237.871          53.000  
E13                                                                  29702654.242                3       -319.159          22.000  
> 2024 04 08 23 59 00.0060000  0 25                     
S33  41444541.266   217792573.976        -785.744          44.000  
E26  28858739.260   151653770.827        1314.042          41.000    28858740.185   116202286.887        1006.899          46.000  
G24  22595909.688   118742418.310         549.841          49.000    22595906.891    92526644.332         428.497          48.000  
E09  27406332.774   144021195.033         955.666          45.000    27406332.241   110354014.560         732.291          47.000  
G15  23177775.678   121799988.749       -2956.886          50.000    23177773.541    94909138.248       -2304.267          45.000  
R06  22875785.819   122069587.054       -3849.720          37.000                                                                  
R07  22704389.865   121538421.078        -331.799          51.000    22704384.503    94529870.331        -258.044          50.000  
R16  22529719.344   120350207.411       -1995.880          52.000    22529714.891    93605911.712       -1552.362          49.000  
R09  22543243.582   120379962.336         438.269          51.000    22543239.525    93628946.942         340.973          50.000  
R19  23659632.492   126563379.149        2657.268          41.000    23659628.476    98438328.824        2066.661          46.000  
G19  23595592.099   123996091.533       -2875.850          45.000                                                                  
G13  24220174.396   127278011.470       -4208.553          46.000                                                                  
G17  25015004.449   131455178.012       -3877.009          45.000    25014999.715   102432824.173       -3021.133          43.000  
E31  26406318.154   138766461.226         273.354          49.000    26406319.347   106327616.736         209.416          51.000  
G12  23319693.775   122546145.802         315.817          48.000    23319689.695    95490684.274         245.996          47.000  
R17  24959357.730   133562609.292       -3229.462          46.000    24959351.396   103881985.076       -2511.738          43.000  
R18  22924730.869   122374029.258           1.831          49.000    22924729.400    95179770.214           1.526          50.000  
E19  28201234.610   148198560.773       -3777.826          38.000    28201244.551   113554788.439       -2894.371          42.000  
S31  40492121.482   212787562.212        -785.220          44.000  
G25  25242860.376   132652272.508        1308.532          45.000    25242860.055   103365491.995        1019.659          41.000  
G06  25893472.372   136071186.413        1321.874          44.000    25893471.014   106029519.451        1030.095          42.000  
E21  28815863.997   151428786.379       -2862.869          44.000    28815860.961   116030053.885       -2193.505          39.000  
G22  25793617.644   135546385.662       -3859.294          42.000                                                                  
E04  25537896.748   134202586.249       -1629.015          49.000    25537895.939   102830659.974       -1248.232          53.000  
R08                                                                  25562406.528                3       2254.352          12.000  
> 2024 04 08 23 59 30.0060000  0 25                     
S33  41449026.647   217816145.524        -785.499          44.000  
E26  28851252.906   151614429.144        1308.719          40.000    28851253.706   116172142.060        1002.818          46.000  
G24  22592795.437   118726054.800         541.119          50.000    22592792.867    92513893.569         421.619          48.000  
E09  27400908.502   143992688.697         944.918          45.000    27400907.352   110332172.065         724.076          47.000  
G15  23194694.876   121888899.810       -2970.359          50.000    23194692.309    94978419.439       -2314.520          44.000  
R06  22897473.845   122185314.375       -3865.489          38.000                                                                  
R07  22706324.286   121548779.948        -358.533          51.000    22706320.246    94537927.229        -278.851          50.000  
R16  22540936.020   120410133.435       -1999.005          49.000    22540932.178    93652520.764       -1554.773          49.000  
R09  22540792.751   120366876.265         434.216          51.000    22540787.768    93618768.946         337.769          49.000  
R19  23644764.394   126483848.580        2645.036          40.000    23644761.286    98376471.898        2057.322          46.000  
G19  23612055.170   124082605.530       -2891.303          44.000                                                                  
G13  24244224.459   127404392.908       -4216.674          46.000                                                                  
G17  25037169.874   131571656.221       -3888.120          43.000    25037164.393   102523586.412       -3029.630          42.000  
E31  26404773.197   138758341.762         268.280          49.000    26404774.133   106321395.391         205.469          51.000  
G12  23317915.798   122536802.637         307.129          48.000    23317911.793    95483403.940         239.622          47.000  
R17  24977520.486   133659804.935       -3250.035          44.000    24977514.601   103957581.722       -2527.894          41.000  
R18  22924791.026   122374354.394         -23.364          49.000    22924790.235    95180023.128         -18.154          50.000  
E19  28222811.065   148311942.572       -3780.804          39.000    28222820.406   113641664.920       -2896.971          42.000  
S31  40496604.080   212811118.101        -785.061          44.000  
G25  25235404.412   132613093.769        1303.981          43.000    25235404.593   103334963.424        1015.985          41.000  
G06  25885950.004   136031655.775        1313.919          44.000    25885947.965   105998716.405        1023.842          42.000  
E21  28832203.231   151514652.529       -2861.251          44.000    28832201.473   116095847.442       -2192.318          40.000  
G22  25815649.067   135662162.490       -3858.960          42.000                                                                  
E04  25547234.870   134251660.604       -1642.350          49.000    25547234.506   102868262.378       -1258.427          53.000  
R08                                                                  25548103.928                3       2232.227          14.000  
