     3.00           OBSERVATION DATA    M: Mixed            RINEX VERSION / TYPE
CONVBIN 2.4.3                           20240409 122941 UTC PGM / RUN BY / DATE 
format: u-blox UBX                                          COMMENT             
log: data/2024-04-09/20240409121500.ubx                     COMMENT             
AQUI00CHL                                                   MARKER NAME         
                                                            MARKER NUMBER       
                                                            MARKER TYPE         
                                                            OBSERVER / AGENCY   
UNKNOWN             UBLOX-ZED-F9P                           REC # / TYPE / VERS 
UNKNOWN             TWIVSP6037L                             ANT # / TYPE        
  1713381.0000 -5047934.0000 -3490983.0000                  APPROX POSITION XYZ 
        0.0000        0.0000        0.0000                  ANTENNA: DELTA H/E/N
G    8 C1C L1C D1C S1C C2L L2L D2L S2L                      SYS / # / OBS TYPES 
R    8 C1C L1C D1C S1C C2C L2C D2C S2C                      SYS / # / OBS TYPES 
E    8 C1C L1C D1C S1C C7Q L7Q D7Q S7Q                      SYS / # / OBS TYPES 
S    4 C1C L1C D1C S1C                                      SYS / # / OBS TYPES 
  2024    04    09    12    15   00.0040000     GPS         TIME OF FIRST OBS   
  2024    04    09    12    29   30.0050000     GPS         TIME OF LAST OBS    
                                                            END OF HEADER       
> 2024 04 09 12 15 00.0040000  0 24                     
S33  40980445.470   215353821.5001       -768.218          44.000  
G28  25047420.611   131625113.8391        428.180          44.000    25047418.338   102565030.9551        333.636          44.000  
G04  24027589.964   126265880.4931       2726.438          43.000    24027588.279    98388940.1701       2124.429          44.000  
R01  21724171.630   116128047.5681      -3653.431          48.000    21724168.407    90321882.9061      -2841.535          43.000  
R17  21456315.970   114817201.3681       1893.864          52.000    21456310.661    89302245.8511       1473.015          50.000  
R23  24662537.993   131927897.3841      -4493.397          46.000                                                                  
R03  23766362.460   127223232.4831       2778.838          47.000    23766358.765    98951362.7871       2161.443          45.000  
R24  20823086.361   111350414.8421      -1989.093          52.000    20823081.679    86605931.0181      -1547.068          49.000  
G21  20888195.417   109768236.7981       -503.592          47.000                                                                  
G02  21411549.582   112518458.8011        238.401          47.000                                                                  
G08  23100313.892   121392953.2761      -3838.912          46.000    23100312.701    94591881.7361      -2991.079          44.000  
R02  20567413.644   109751451.4241       -102.945          52.000    20567410.439    85362419.0951        -80.016          49.000  
E05  23466606.709   123317775.0441        557.728          48.000    23466607.654    94490281.6741        427.270          52.000  
S31  40027275.401   210344748.3451       -768.442          43.000  
G03  22784696.668   119734377.4201        398.024          48.000    22784694.889    93299535.9101        310.252          45.000  
E34  25643052.340   134755166.1621        813.823          46.000    25643053.882   103253953.1931        623.602          52.000  
E36  25162305.563   132228851.2761      -1275.012          46.000    25162306.194   101318259.4541       -976.848          51.000  
G31  25482889.383   133913499.0501       1352.047          43.000    25482888.458   104348199.3741       1053.392          43.000  
E11  27487774.206   144449378.8761      -2771.912          39.000    27487775.350   110682078.4351      -2123.912          43.000  
E03  28159128.446   147977187.0731       2180.118          42.000    28159131.984   113385164.2941       1670.631          47.000  
E09  25988024.217   136567985.6601      -2272.692          49.000    25988023.950   104642983.0261      -1741.475          48.000  
G32  24978122.356   131260880.5491      -4090.857          46.000    24978122.561   102281215.0071      -3187.378          38.000  
G27                                                                  25562607.981                       -3585.370          27.000  
G17                                                                  24866162.068   101822772.7951       1856.135          34.000  
> 2024 04 09 12 15 30.0040000  0 24                     
S33  40984835.377   215376890.470        -769.965          44.000  
G28  25045019.275   131612496.969         412.885          44.000    25045017.752   102555199.659         321.777          44.000  
G04  24012051.172   126184225.310        2717.066          44.000    24012049.280    98325312.811        2117.220          44.000  
G17  24852608.893                1       2368.882          29.000    24852603.477   101767252.514        1844.787          33.000  
R01  21744710.815   116237840.379       -3666.109          47.000    21744708.693    90407277.249       -2851.436          44.000  
R17  21445741.088   114760610.601        1878.657          52.000    21445735.314    89258230.796        1461.189          50.000  
R23  24687767.944   132062860.317       -4504.128          45.000                                                                  
R03  23750824.733   127140055.726        2766.062          48.000    23750821.200    98886669.889        2151.557          45.000  
R24  20834309.456   111410430.521       -2012.092          51.000    20834305.437    86652609.819       -1564.897          50.000  
G21  20891124.796   109783628.371        -522.610          48.000                                                                  
G02  21410233.372   112511541.425         222.605          48.000                                                                  
G08  23122264.806   121508305.507       -3851.365          45.000    23122263.888    94681766.528       -3001.038          44.000  
R02  20568057.714   109754891.841        -126.614          51.000    20568054.927    85365094.993         -98.461          48.000  
E05  23463462.472   123301250.596         543.797          49.000    23463463.066    94477620.090         416.679          51.000  
S31  40031668.280   210367831.474        -770.145          43.000  
G03  22782448.138   119722559.777         389.652          47.000    22782446.183    93290327.324         303.682          45.000  
E34  25638419.336   134730818.571         809.255          46.000    25638420.708   103235297.249         620.001          52.000  
E36  25169607.849   132267229.450       -1283.752          46.000    25169609.339   101347666.081        -983.649          51.000  
G31  25475190.532   133873043.881        1345.038          42.000    25475190.309   104316675.931        1047.837          43.000  
E11  27503617.711   144532633.432       -2778.751          40.000    27503617.860   110745870.751       -2129.136          42.000  
E03  28146696.595   147911854.796        2174.956          42.000    28146699.608   113335104.575        1666.684          47.000  
E09  26001033.991   136636351.273       -2285.168          49.000    26001033.143   104695367.039       -1750.960          48.000  
G32  25001505.021   131383753.080       -4100.738          48.000    25001504.394   102376959.720       -3195.123          38.000  
G27                                                                  25588883.336                       -3587.611          25.000  
> 2024 04 09 12 16 00.0040000  0 24                     
S33  40989235.107   215400011.381        -771.347          44.000  
G28  25042706.143   131600343.621         397.388          44.000    25042704.465   102545729.550         310.065          43.000  
G04  23996566.167   126102852.849        2707.917          44.000    23996564.755    98261905.751        2110.032          45.000  
G17  24839129.476                3       2354.931          32.000    24839121.729   101712047.595        1836.045          32.000  
R01  21765320.573   116348012.332       -3678.381          48.000    21765317.825    90492966.493       -2860.986          44.000  
R17  21435250.413   114704475.420        1863.769          52.000    21435245.176    89214570.119        1449.591          50.000  
R23  24713058.615   132198143.218       -4514.503          46.000                                                                  
R03  23735358.225   127057266.541        2753.354          47.000    23735354.691    98822278.383        2141.527          45.000  
R24  20845661.300   111471136.090       -2034.737          51.000    20845657.380    86699825.214       -1582.525          49.000  
G21  20894161.908   109799588.191        -541.338          48.000                                                                  
G02  21409007.666   112505099.417         207.061          48.000                                                                  
G08  23144286.427   121624033.076       -3863.619          45.000    23144285.946    94771943.798       -3010.809          44.000  
R02  20568835.462   109759044.113        -150.039          52.000    20568832.496    85368324.520        -116.661          48.000  
E05  23460398.364   123285146.115         530.001          49.000    23460398.320    94465280.303         406.146          51.000  
S31  40036070.979   210390967.306        -771.912          43.000  
G03  22780248.968   119711000.949         381.342          47.000    22780247.015    93281320.443         297.074          46.000  
E34  25633812.522   134706612.509         804.793          46.000    25633814.444   103216749.733         616.624          52.000  
E36  25176962.540   132305877.152       -1292.639          46.000    25176963.711   101377279.228        -990.363          51.000  
G31  25467531.367   133832794.158        1338.016          43.000    25467530.616   104285312.533        1042.947          43.000  
E11  27519499.747   144616093.130       -2785.435          40.000    27519499.833   110809820.237       -2133.934          43.000  
E03  28134293.794   147846682.012        2169.808          42.000    28134297.541   113285167.102        1662.553          47.000  
E09  26014114.144   136705091.470       -2297.403          49.000    26014113.783   104748038.067       -1760.270          48.000  
G32  25024942.928   131506920.185       -4110.193          47.000    25024942.638   102472933.977       -3202.814          38.000  
G27                                                                  25615170.647                3      -3591.792          23.000  
> 2024 04 09 12 16 30.0040000  0 24                     
S33  40993644.610   215423182.619        -773.211          44.000  
G28  25040480.763   131588654.287         381.921          43.000    25040480.916   102536621.044         297.845          44.000  
G04  23981135.690   126021763.886        2698.455          45.000    23981134.281    98198719.611        2102.685          45.000  
G17  24825725.874                1       2341.192          30.000    24825717.884                        1823.844          32.000  
R01  21786000.186   116458557.767       -3690.852          48.000    21785996.945    90578946.244       -2870.896          43.000  
R17  21424845.311   114648797.845        1848.478          52.000    21424841.034    89171265.327        1437.725          50.000  
R23  24738408.244   132333742.249       -4524.982          46.000                                                                  
R03  23719965.153   126974864.952        2740.394          47.000    23719960.992    98758188.325        2131.335          45.000  
R24  20857143.255   111532529.941       -2057.764          51.000    20857137.935    86747575.980       -1600.533          49.000  
G21  20897306.687   109816116.190        -560.222          47.000                                                                  
G02  21407872.490   112499132.815         191.136          48.000                                                                  
G08  23166379.234   121740131.240       -3875.944          45.000    23166378.806    94862409.839       -3020.207          44.000  
R02  20569745.873   109763905.168        -173.704          52.000    20569743.831    85372105.345        -135.062          49.000  
E05  23457412.560   123269460.421         516.084          48.000    23457413.020    94453261.400         395.452          51.000  
S31  40040483.082   210414152.829        -773.488          43.000  
G03  22778097.924   119699698.648         372.709          48.000    22778095.924    93272513.464         290.425          45.000  
E34  25629233.293   134682547.438         799.983          47.000    25629234.998   103198310.240         612.999          52.000  
E36  25184367.071   132344793.368       -1301.389          46.000    25184369.562   101407098.131        -997.226          52.000  
G31  25459911.557   133792750.975        1331.307          43.000    25459910.158   104254110.104        1037.391          42.000  
E11  27535419.250   144699756.226       -2791.824          40.000    27535420.592   110873925.614       -2139.183          43.000  
E03  28121922.204   147781668.424        2164.482          42.000    28121925.750   113235351.615        1658.593          48.000  
E09  26027265.602   136774203.064       -2309.707          49.000    26027265.709   104800993.673       -1769.688          48.000  
G32  25048436.399   131630377.285       -4119.971          47.000    25048435.738   102569134.166       -3210.114          38.000  
G27                                                                  25641486.247                3      -3595.519          22.000  
> 2024 04 09 12 17 00.0040000  0 24                     
S33  40998063.850   215446405.783        -774.810          44.000  
G28  25038345.736   131577433.281         366.205          43.000    25038344.957   102527877.469         285.541          43.000  
G04  23965760.034   125940962.945        2688.890          46.000    23965757.814    98135757.905        2094.998          45.000  
R01  21806749.987   116569475.651       -3703.271          49.000    21806747.106    90665215.665       -2880.489          45.000  
R17  21414528.064   114593583.573        1832.849          52.000    21414522.679    89128320.877        1425.630          49.000  
R23  24763815.994   132469656.999       -4535.559          47.000                                                                  
R03  23704644.720   126892855.327        2727.248          45.000    23704640.189    98694403.118        2121.158          45.000  
R24  20868753.707   111594614.367       -2080.930          52.000    20868748.620    86795863.835       -1618.573          49.000  
G21  20900560.184   109833215.712        -579.419          47.000                                                                  
G02  21406828.576   112493645.727         174.937          48.000                                                                  
G08  23188542.464   121856599.069       -3888.210          45.000    23188541.749    94953163.899       -3029.750          44.000  
R02  20570791.432   109769477.187        -197.457          53.000    20570788.237    85376439.137        -153.586          48.000  
E05  23454507.553   123254196.179         501.936          48.000    23454508.352    94441565.441         384.504          51.000  
S31  40044905.027   210437391.238        -775.157          43.000  
G03  22775995.940   119688654.359         363.940          48.000    22775993.517    93263907.529         283.341          45.000  
E34  25624681.385   134658626.577         795.080          47.000    25624682.987   103179981.255         609.143          52.000  
E36  25191824.968   132383981.032       -1310.488          46.000    25191826.792   101437124.999       -1004.288          52.000  
G31  25452332.004   133752919.041        1324.308          43.000    25452330.650   104223072.251        1031.855          43.000  
E11  27551379.123   144783624.830       -2798.869          40.000    27551380.492   110938188.435       -2144.562          44.000  
E03  28109581.166   147716817.584        2159.062          42.000    28109584.680   113185660.830        1654.259          47.000  
E09  26040487.698   136843686.719       -2322.247          49.000    26040488.001   104854234.370       -1779.408          48.000  
G32  25071984.492   131754123.658       -4129.565          47.000    25071984.245   102665559.752       -3217.914          41.000  
G27                                                                  25667810.949                3      -3601.939          19.000  
G17                                                                  24812389.532                        1813.567          29.000  
> 2024 04 09 12 17 30.0040000  0 24                     
S33  41002493.209   215469683.860        -776.549          44.000  
G28  25036300.361   131566684.402         350.531          42.000    25036299.588   102519501.794         273.004          44.000  
G04  23950439.832   125860454.249        2678.923          45.000    23950437.671    98073023.925        2087.388          45.000  
R01  21827569.071   116680763.789       -3715.511          49.000    21827566.650    90751773.066       -2889.975          45.000  
R17  21404297.766   114538838.119        1817.089          52.000    21404291.560    89085741.068        1413.351          50.000  
R23  24789283.723   132605887.237       -4546.140          46.000                                                                  
R03  23689399.579   126811241.501        2714.056          45.000    23689394.418    98630925.735        2110.861          46.000  
R24  20880492.633   111657390.852       -2103.923          52.000    20880488.114    86844689.953       -1636.321          49.000  
G21  20903923.200   109850890.171        -598.586          46.000                                                                  
G02  21405876.235   112488641.632         158.820          48.000                                                                  
G08  23210776.024   121973435.227       -3900.589          46.000    23210774.495    95044205.038       -3039.375          43.000  
R02  20571968.746   109775760.295        -221.201          52.000    20571965.309    85381325.969        -172.177          48.000  
E05  23451683.526   123239355.607         487.787          48.000    23451684.429    94430194.087         373.806          51.000  
S31  40049337.591   210460683.633        -777.122          43.000  
G03  22773943.215   119677869.184         355.400          48.000    22773941.218    93255503.454         277.133          45.000  
E34  25620157.640   134634852.772         790.134          47.000    25620159.021   103161764.938         605.481          52.000  
E36  25199333.815   132423442.566       -1319.663          46.000    25199336.057   101467361.709       -1011.205          52.000  
G31  25444793.486   133713303.078        1317.087          43.000    25444791.165   104192202.704        1026.217          42.000  
E11  27567378.945   144867700.611       -2805.846          40.000    27567379.622   111002610.007       -2149.811          43.000  
E03  28097272.138   147652132.586        2153.526          42.000    28097275.600   113136097.123        1650.126          47.000  
E09  26053781.093   136913542.647       -2334.486          49.000    26053781.490   104907760.305       -1788.804          49.000  
G32  25095587.543   131878158.170       -4139.044          47.000    25095586.304   102762209.870       -3225.049          39.000  
G27                                                                  25694145.493                3      -3588.374          18.000  
G17                                                                  24799143.966                1       1802.548          29.000  
> 2024 04 09 12 18 00.0040000  0 24                     
S33  41006932.903   215493014.412        -778.790          44.000  
G28  25034345.133   131556408.290         334.357          43.000    25034344.090   102511494.459         260.699          45.000  
G04  23935175.725   125780238.622        2668.674          46.000    23935172.711    98010518.295        2079.420          45.000  
R01  21848455.935   116792417.233       -3728.011          49.000    21848453.465    90838614.582       -2899.649          45.000  
R17  21394155.498   114484563.530        1800.953          53.000    21394149.308    89043527.496        1400.840          50.000  
R23  24814808.949   132742429.092       -4556.777          45.000                                                                  
R03  23674228.458   126730024.104        2700.405          44.000    23674221.828    98567756.745        2100.335          45.000  
R24  20892361.027   111720857.965       -2127.285          51.000    20892357.075    86894053.220       -1654.554          49.000  
G21  20907396.385   109869139.595        -618.173          47.000                                                                  
G02  21405016.185   112484120.626         142.403          48.000                                                                  
G08  23233078.071   122090635.097       -3913.093          46.000    23233077.263    95135529.555       -3048.792          44.000  
R02  20573278.757   109782752.219        -245.072          52.000    20573275.987    85386764.105        -190.603          49.000  
E05  23448940.524   123224937.692         473.387          48.000    23448940.808    94419146.586         362.755          51.000  
S31  40053780.071   210484028.571        -779.210          43.000  
G03  22771939.639   119667340.895         346.671          48.000    22771938.068    93247299.608         269.897          46.000  
E34  25615661.348   134611225.621         784.887          47.000    25615662.745   103143661.000         601.463          52.000  
E36  25206895.385   132463177.228       -1329.089          46.000    25206897.194   101497807.726       -1018.448          51.000  
G31  25437296.244   133673904.057        1309.379          45.000    25437294.071   104161502.225        1020.421          42.000  
E11  27583416.324   144951981.854       -2813.177          39.000    27583417.934   111067189.024       -2155.444          43.000  
E03  28084994.209   147587613.356        2147.723          43.000    28084997.675   113086660.409        1645.699          47.000  
E09  26067144.292   136983767.804       -2347.159          49.000    26067145.078   104961569.161       -1798.281          49.000  
G32  25119244.262   132002476.453       -4148.853          47.000    25119244.246   102859081.105       -3233.020          42.000  
G27                                                                  25720514.977                3      -3596.802          18.000  
G17                                                                  24785977.304                        1791.594          29.000  
> 2024 04 09 12 18 30.0040000  0 23                     
S33  41011383.315   215516400.685        -780.177          43.000  
G28  25032480.881   131546610.207         318.854          42.000    25032478.903   102503859.641         248.438          44.000  
G04  23919968.273   125700321.679        2659.336          46.000    23919965.029    97948245.405        2072.046          44.000  
R01  21869410.447   116904435.462       -3739.676          48.000    21869408.236    90925739.785       -2908.540          44.000  
R17  21384101.749   114430766.911        1785.442          52.000    21384096.596    89001685.682        1388.773          50.000  
R23  24840392.078   132879283.353       -4566.665          45.000                                                                  
R03  23659131.953   126649207.948        2687.204          42.000    23659123.900    98504899.786        2090.378          44.000  
R24  20904359.831   111785018.916       -2149.993          52.000    20904355.280    86943956.140       -1672.149          49.000  
G21  20910979.297   109887968.517        -636.979          46.000                                                                  
G02  21404248.543   112480087.935         126.532          48.000                                                                  
G08  23255450.437   122208198.776       -3924.643          46.000    23255449.132    95227137.555       -3058.118          43.000  
R02  20574722.320   109790455.227        -268.338          52.000    20574719.612    85392755.347        -208.698          48.000  
E05  23446277.571   123210946.040         459.564          48.000    23446278.487    94408425.700         352.190          51.000  
S31  40058232.796   210507428.686        -780.504          43.000  
G03  22769985.830   119657072.068         338.442          48.000    22769984.357    93239297.886         263.602          46.000  
E34  25611193.952   134587749.434         780.351          47.000    25611195.443   103125672.751         597.892          52.000  
E36  25214509.699   132503188.938       -1338.100          46.000    25214511.220   101528466.024       -1025.302          51.000  
G31  25429841.849   133634728.129        1302.344          46.000    25429839.620   104130975.582        1015.185          43.000  
E11  27599495.158   145036471.708       -2819.522          39.000    27599496.153   111131927.856       -2160.393          43.000  
E03  28072747.671   147523264.393        2142.409          42.000    28072752.428   113037354.175        1641.576          47.000  
E09  26080578.244   137054363.847       -2359.064          49.000    26080578.981   105015662.215       -1807.579          48.000  
G32  25142955.395   132127078.751       -4157.812          47.000    25142955.344   102956173.637       -3239.832          42.000  
G17                                                                  24772889.643                        1781.132          30.000  
> 2024 04 09 12 19 00.0040000  0 23                     
S33  41015841.742   215539828.830        -781.628          43.000  
G28  25030705.421   131537279.052         303.168          41.000    25030702.828   102496588.642         236.133          43.000  
G04  23904814.793   125620692.595        2649.491          46.000    23904811.747    97886196.801        2064.645          43.000  
R01  21890431.987   117016801.616       -3751.318          49.000    21890429.136    91013135.610       -2917.621          45.000  
R17  21374136.071   114377438.381        1769.724          52.000    21374131.316    88960207.929        1376.408          51.000  
R23  24866031.215   133016434.263       -4576.753          46.000                                                                  
R03  23644107.731   126568781.635        2674.197          43.000    23644099.495    98442346.051        2080.124          44.000  
R24  20916485.569   111849859.648       -2172.689          52.000    20916480.561    86994387.789       -1689.985          49.000  
G21  20914670.423   109907365.009        -656.094          47.000                                                                  
G02  21403572.122   112476531.888         110.558          49.000                                                                  
G08  23277888.081   122326109.915       -3936.070          46.000    23277887.586    95319016.321       -3067.148          43.000  
R02  20576296.693   109798854.674        -291.605          52.000    20576293.500    85399288.266        -226.831          49.000  
E05  23443693.656   123197367.885         445.676          48.000    23443694.812    94398021.654         341.497          52.000  
S31  40062693.978   210530871.696        -782.097          43.000  
G03  22768078.989   119647048.791         329.878          48.000    22768077.420    93231487.527         257.079          46.000  
E34  25606753.203   134564412.096         775.470          46.000    25606754.463   103107790.876         594.217          52.000  
E36  25222173.713   132543465.130       -1347.031          46.000    25222175.348   101559326.968       -1032.045          51.000  
G31  25422427.655   133595764.533        1295.270          47.000    25422426.266   104100614.431        1009.256          43.000  
E11  27615609.974   145121156.834       -2826.453          39.000    27615611.441   111196816.316       -2165.540          43.000  
E03  28060532.598   147459073.854        2136.777          41.000    28060537.621   112988169.293        1637.357          47.000  
E09  26094079.913   137125316.015       -2370.932          49.000    26094080.594   105070028.130       -1816.734          48.000  
G32  25166717.959   132251948.994       -4166.809          46.000    25166717.299   103053474.974       -3247.113          43.000  
G17                                                                  24759881.371                        1770.794          31.000  
> 2024 04 09 12 19 30.0040000  0 23                     
S33  41020308.326   215563302.095        -783.190          43.000  
G28  25029019.003   131528418.960         287.158          39.000    25029016.236   102489684.732         223.749          43.000  
G04  23889717.419   125541355.915        2639.675          46.000    23889714.709    97824376.074        2056.665          44.000  
G17  24746962.784                3       2257.672          29.000    24746952.713                        1759.162          31.000  
R01  21911517.080   117129514.021       -3762.909          48.000    21911515.404    91100800.771       -2926.849          46.000  
R17  21364258.769   114324583.920        1753.726          52.000    21364254.153    88919098.901        1364.018          50.000  
R23  24891724.767   133153881.582       -4586.579          46.000                                                                  
R03  23629154.878   126488749.266        2660.957          42.000    23629149.099    98380098.652        2069.710          45.000  
R24  20928737.976   111915382.812       -2195.657          51.000    20928733.797    87045350.191       -1707.690          49.000  
G21  20918470.473   109927332.541        -675.383          47.000                                                                  
G02  21402987.027   112473456.431          94.265          48.000                                                                  
G08  23300392.012   122444367.617       -3947.623          46.000    23300391.415    95411165.116       -3076.326          43.000  
R02  20578000.991   109807951.824        -314.945          52.000    20577997.948    85406363.808        -245.085          48.000  
E05  23441189.252   123184205.834         431.700          48.000    23441190.320    94387936.444         330.766          52.000  
S31  40067163.516   210554359.181        -783.693          43.000  
G03  22766218.581   119637272.499         321.643          48.000    22766216.903    93223869.638         250.436          47.000  
E34  25602339.249   134541216.886         770.673          46.000    25602340.470   103090017.917         590.534          51.000  
E36  25229889.003   132584008.721       -1356.106          46.000    25229890.632   101590392.802       -1039.113          51.000  
G31  25415053.909   133557018.341        1287.814          46.000    25415051.985   104070422.669        1003.488          42.000  
E11  27631762.104   145206039.211       -2832.336          38.000    27631764.004   111261855.956       -2170.433          43.000  
E03  28048347.391   147395045.223        2131.375          41.000    28048353.322   112939108.499        1633.110          47.000  
E09  26107649.554   137196624.954       -2382.973          49.000    26107649.936   105124667.410       -1825.870          48.000  
G32  25190531.185   132377086.460       -4175.797          44.000    25190530.995   103150984.506       -3253.887          43.000  
> 2024 04 09 12 20 00.0040000  0 23                     
S33  41024783.775   215586819.582        -784.499          44.000  
G28  25027423.325   131520033.270         271.411          40.000    25027420.092   102483150.433         211.755          43.000  
G04  23874675.803   125462315.207        2630.019          45.000    23874673.452    97762785.961        2049.352          43.000  
R01  21932666.480   117242570.268       -3774.060          49.000    21932664.405    91188733.368       -2935.315          45.000  
R17  21354471.635   114272208.284        1737.973          52.000    21354466.018    88878362.288        1351.787          50.000  
R23  24917473.986   133291624.622       -4596.131          45.000                                                                  
R03  23614278.577   126409114.505        2647.920          41.000    23614274.146    98318160.489        2059.717          47.000  
R24  20941118.500   111981589.162       -2218.127          51.000    20941114.826    87096843.981       -1725.124          49.000  
G21  20922379.112   109947873.740        -694.174          47.000                                                                  
G02  21402493.436   112470864.527          78.538          49.000                                                                  
G08  23322960.637   122562969.982       -3959.075          44.000    23322960.674    95503582.488       -3084.914          43.000  
R02  20579836.729   109817746.656        -337.986          52.000    20579834.450    85413981.982        -262.844          49.000  
E05  23438764.106   123171461.532         418.038          48.000    23438765.309    94378171.319         320.319          52.000  
S31  40071641.689   210577891.501        -784.969          43.000  
G03  22764405.479   119627743.772         313.691          48.000    22764403.105    93216444.651         244.524          46.000  
E34  25597953.560   134518166.130         766.139          47.000    25597953.890   103072355.640         587.046          51.000  
E36  25237655.665   132624821.526       -1364.755          47.000    25237657.151   101621664.911       -1045.727          51.000  
G31  25407722.543   133518493.118        1280.486          46.000    25407720.624   104040403.102         997.780          42.000  
E11  27647952.059   145291120.009       -2839.209          37.000    27647954.547   111327047.573       -2175.320          43.000  
E03  28036195.559   147331181.104        2126.063          42.000    28036200.147   112890173.737        1629.263          47.000  
E09  26121287.098   137268290.309       -2394.642          49.000    26121287.399   105179579.793       -1834.779          48.000  
G32  25214394.923   132502489.453       -4184.256          44.000    25214394.330   103248701.004       -3260.628          43.000  
G17                                                                  24734103.329                        1748.997          30.000  
> 2024 04 09 12 20 30.0040000  0 23                     
S33  41029268.233   215610385.271        -786.393          44.000  
G28  25025919.045   131512125.682         255.585          39.000    25025915.251   102476988.659         198.975          42.000  
G04  23859692.163   125383574.570        2619.613          45.000    23859688.866    97701429.641        2041.450          43.000  
R01  21953879.547   117355968.311       -3785.645          49.000    21953877.505    91276931.792       -2944.489          45.000  
R17  21344773.951   114220316.890        1721.518          51.000    21344768.902    88838002.300        1338.931          49.000  
R23  24943278.917   133429662.377       -4606.140          48.000                                                                  
R03  23599475.896   126329880.275        2634.361          43.000    23599472.304    98256533.921        2048.956          45.000  
R24  20953628.815   112048480.075       -2241.145          52.000    20953623.729    87148870.205       -1743.060          49.000  
G21  20926398.047   109968991.841        -713.761          47.000                                                                  
G02  21402093.151   112468759.579          61.941          48.000                                                                  
G08  23345595.427   122681915.510       -3970.464          45.000    23345595.932    95596267.256       -3094.007          43.000  
R02  20581802.590   109828239.916        -361.521          52.000    20581801.490    85422143.405        -281.183          49.000  
E05  23436419.298   123159137.090         403.745          49.000    23436420.157    94368727.889         309.347          52.000  
S31  40076128.856   210601472.020        -786.923          43.000  
G03  22762639.537   119618463.614         305.298          49.000    22762636.825    93209213.378         237.812          46.000  
E34  25593594.881   134495262.653         760.958          47.000    25593595.516   103054806.207         583.069          51.000  
E36  25245473.917   132665906.065       -1373.928          46.000    25245475.445   101653145.238       -1052.838          51.000  
G31  25400433.442   133480193.608        1272.741          44.000    25400432.147   104010559.391         991.868          42.000  
E11  27664181.439   145376400.646       -2845.921          38.000    27664183.166   111392392.329       -2180.742          43.000  
E03  28024075.414   147267484.542        2120.315          43.000    28024079.235   112841367.358        1624.579          47.000  
E09  26134993.097   137340312.215       -2406.705          49.000    26134992.719   105234765.370       -1844.113          47.000  
G32  25238308.684   132628156.842       -4193.463          40.000    25238308.523   103346623.474       -3267.521          45.000  
G17                                                                  24721333.347   101229733.4851       1737.599          29.000  
> 2024 04 09 12 21 00.0040000  0 23                     
S33  41033761.157   215633996.464        -787.934          44.000  
G28  25024505.416   131504695.935         240.051          38.000    25024502.269   102471199.265         186.761          42.000  
G04  23844765.229   125305134.212        2609.624          45.000    23844762.404    97640307.305        2033.484          44.000  
R01  21975157.244   117469702.651       -3796.717          50.000    21975153.866    91365391.760       -2953.021          46.000  
R17  21335167.304   114168911.124        1705.295          51.000    21335162.366    88798020.036        1326.328          49.000  
R23  24969137.692   133567990.302       -4615.760          42.000                                                                  
R03  23584750.179   126251046.588        2620.920          45.000    23584745.795    98195218.889        2038.560          46.000  
R24  20966265.859   112116053.177       -2263.760          52.000    20966260.796    87201427.032       -1760.777          50.000  
G21  20930526.645   109990685.867        -732.733          47.000                                                                  
G02  21401784.759   112467141.398          45.731          48.000                                                                  
G08  23368294.380   122801198.951       -3981.825          46.000    23368294.642    95689215.307       -3102.856          43.000  
R02  20583899.780   109839428.046        -384.563          52.000    20583897.484    85430845.273        -299.089          48.000  
E05  23434152.999   123147230.708         389.931          48.000    23434154.147    94359604.802         298.856          52.000  
S31  40080624.446   210625096.522        -788.218          44.000  
G03  22760920.274   119609429.209         296.887          49.000    22760917.371    93202173.566         231.377          45.000  
E34  25589263.728   134472505.437         756.196          47.000    25589264.933   103037368.840         579.360          51.000  
E36  25253343.689   132707260.795       -1383.030          47.000    25253344.878   101684832.595       -1059.720          51.000  
G31  25393189.048   133442120.431        1265.274          44.000    25393186.282   103980892.003         985.771          41.000  
E11  27680448.074   145461878.939       -2852.886          39.000    27680449.371   111457888.512       -2185.866          43.000  
E03  28011986.697   147203954.742        2114.790          43.000    28011989.821   112792688.740        1620.447          48.000  
E09  26148765.929   137412686.951       -2418.313          50.000    26148765.145   105290221.296       -1853.138          47.000  
G32  25262271.865   132754083.608       -4201.507          36.000    25262271.722   103444748.042       -3274.259          44.000  
G17                                                                  24708641.744                1       1725.651          26.000  
> 2024 04 09 12 21 30.0040000  0 23                     
S33  41038263.428   215657654.989        -789.191          44.000  
G28  25023183.032   131497748.563         223.474          40.000    25023181.533   102465785.826         174.329          44.000  
G04  23829896.823   125226998.985        2599.535          45.000    23829894.975    97579422.763        2025.562          46.000  
R01  21996495.723   117583772.267       -3807.898          49.000    21996493.855    91454112.491       -2961.688          46.000  
R17  21325652.684   114117997.362        1689.142          51.000    21325647.026    88758420.465        1313.694          49.000  
R23  24995051.785   133706608.838       -4625.519          37.000                                                                  
R03  23570099.660   126172617.971        2607.627          46.000    23570094.158    98134218.920        2028.216          44.000  
R24  20979030.113   112184310.824       -2286.674          52.000    20979025.686    87254516.277       -1778.454          50.000  
G21  20934765.305   110012959.709        -751.960          47.000                                                                  
G02  21401570.061   112466013.919          29.490          47.000                                                                  
G08  23391057.660   122920819.646       -3992.793          47.000    23391057.164    95782426.177       -3111.282          43.000  
R02  20586127.068   109851312.602        -407.635          52.000    20586124.227    85440088.790        -317.060          48.000  
E05  23431966.750   123135745.328         376.008          48.000    23431968.345    94350804.294         288.043          52.000  
S31  40085129.193   210648769.048        -789.791          44.000  
G03  22759247.363   119600642.362         288.809          48.000    22759245.808    93195326.680         224.951          46.000  
E34  25584961.595   134449898.143         751.243          47.000    25584963.104   103020046.344         575.631          52.000  
E36  25261264.552   132748888.901       -1392.104          46.000    25261266.613   101716729.410       -1066.690          51.000  
G31  25385987.422   133404278.578        1257.807          44.000    25385985.776   103951404.877         979.716          42.000  
E11  27696751.851   145547557.200       -2859.966          38.000    27696753.200   111523537.922       -2190.870          42.000  
E03  27999929.084   147140595.506        2109.267          42.000    27999933.269   112744140.842        1616.167          48.000  
E09  26162605.581   137485415.451       -2430.007          49.000    26162604.747   105345948.279       -1862.035          47.000  
G32  25286285.048   132880269.380       -4210.146          35.000    25286283.708   103543074.462       -3280.830          43.000  
G17                                                                  24696027.428                3       1714.099          26.000  
> 2024 04 09 12 22 00.0040000  0 23                     
S33  41042772.637   215681351.458        -790.473          44.000  
G28  25021950.570   131491276.888         208.038          38.000    25021949.084   102460743.028         162.109          42.000  
G04  23815085.651   125149162.520        2589.647          45.000    23815083.547    97518771.012        2017.977          46.000  
R01  22017894.934   117698164.719       -3818.341          49.000    22017893.914    91543084.332       -2969.678          47.000  
R17  21316229.329   114067569.985        1672.852          51.000    21316223.193    88719199.187        1301.082          49.000  
R23  25021017.006                       -4634.406          31.000                                                                  
R03  23555522.894   126094586.955        2594.463          47.000    23555515.624    98073528.173        2017.931          42.000  
R24  20991919.982   112253243.782       -2308.880          51.000    20991915.940    87308130.738       -1795.788          49.000  
G21  20939112.013   110035805.671        -770.972          47.000                                                                  
G02  21401447.486   112465370.076          13.497          48.000                                                                  
G08  23413883.498   123040765.749       -4003.549          48.000    23413881.892    95875890.608       -3119.665          42.000  
R02  20588483.069   109863883.255        -430.398          52.000    20588480.428    85449865.973        -334.649          49.000  
E05  23429859.412   123124672.543         362.333          47.000    23429861.218    94342319.918         277.713          51.000  
S31  40089641.230   210672479.753        -790.957          44.000  
G03  22757620.202   119592093.683         281.183          47.000    22757619.753    93188665.371         218.958          47.000  
E34  25580686.525   134427433.154         746.641          47.000    25580688.180   103002832.897         572.109          52.000  
E36  25269236.624   132790782.383       -1400.826          46.000    25269238.580   101748829.547       -1073.331          51.000  
G31  25378830.043   133366662.099        1250.311          44.000    25378827.387   103922093.344         974.282          42.000  
E11  27713093.120   145633426.471       -2865.419          40.000    27713093.829   111589333.721       -2195.576          42.000  
E03  27987903.142   147077399.454        2103.846          42.000    27987907.460   112695718.002        1612.091          48.000  
E09  26176510.849   137558487.424       -2441.318          49.000    26176509.774   105401938.446       -1870.649          47.000  
G32  25310339.268                       -4218.193          27.000    25310343.260   103641593.649       -3287.120          43.000  
G17                                                                  24683530.973                        1703.654          28.000  
> 2024 04 09 12 22 30.0040000  0 23                     
S33  41047287.426   215705076.936        -791.207          44.000  
G28  25020807.991   131485272.605         192.279          37.000    25020806.420   102456064.354         150.055          41.000  
G04  23800329.217   125071616.888        2579.906          44.000    23800327.613    97458345.887        2010.468          47.000  
G17  24671093.845                1       2173.293          29.000    24671082.924                        1693.018          29.000  
R01  22039353.030   117812865.944       -3828.394          50.000    22039350.355    91632296.381       -2977.618          46.000  
R17  21306895.404   114017622.662        1656.930          51.000    21306890.129    88680351.246        1288.748          49.000  
R23  25047032.195                       -4643.280          28.000                                                                  
R03  23541018.293   126016945.500        2581.564          47.000    23541012.095    98013140.488        2007.773          40.000  
R24  21004934.984   112322841.303       -2331.014          51.000    21004931.478    87362262.115       -1813.051          50.000  
G21  20943566.147   110059214.832        -789.708          46.000                                                                  
G02  21401414.176   112465201.304          -2.294          48.000                                                                  
G08  23436768.125   123161023.874       -4013.618          47.000    23436766.580    95969598.194       -3127.490          43.000  
R02  20590963.826   109877128.584        -452.716          51.000    20590962.559    85460167.901        -352.233          49.000  
E05  23427829.422   123114002.478         349.032          48.000    23427830.630    94334144.139         267.547          51.000  
S31  40094158.468   210696219.138        -791.677          44.000  
G03  22756037.236   119583772.242         273.556          48.000    22756036.256    93182181.128         213.094          47.000  
E34  25576436.586   134405101.358         742.233          47.000    25576438.780   102985721.505         568.739          52.000  
E36  25277256.328   132832931.643       -1409.219          46.000    25277259.349   101781125.709       -1079.695          51.000  
G31  25371713.200   133329263.419        1242.725          44.000    25371711.362   103892951.579         968.365          42.000  
E11  27729466.375   145719476.410       -2871.205          38.000    27729468.261   111655267.885       -2199.883          42.000  
E03  27975907.113   147014357.712        2098.828          42.000    27975910.875   112647413.372        1608.130          47.000  
E09  26190478.947   137631891.017       -2452.212          49.000    26190478.078   105458182.699       -1878.931          47.000  
G32                                                                  25334446.753   103740295.355       -3292.856          42.000  
> 2024 04 09 12 23 00.0040000  0 23                     
S33  41051806.558   215728823.371        -791.693          44.000  
G28  25019754.032   131479730.633         177.203          39.000    25019751.240   102451746.007         138.116          41.000  
G04  23785626.750   124994357.565        2570.757          45.000    23785625.244    97398143.876        2003.241          46.000  
G17  24658716.130                        2159.155          29.000    24658715.159                1       1682.040          30.000  
R01  22060866.891   117927865.262       -3838.025          51.000    22060862.591    91721740.242       -2985.187          45.000  
R17  21297650.206   113968151.645        1641.356          51.000    21297646.175    88641873.800        1276.616          50.000  
R23  25073100.661                3      -4650.421          24.000                                                                  
R03  23526586.070   125939688.243        2569.098          48.000    23526580.102    97953051.583        1998.328          39.000  
R24  21018072.226   112393095.765       -2352.523          50.000    21018069.710    87416904.442       -1829.852          50.000  
G21  20948127.114   110083181.724        -807.829          46.000                                                                  
G02  21401472.329   112465502.485         -17.696          48.000                                                                  
G08  23459709.491   123281584.038       -4023.427          46.000    23459709.482    96063541.093       -3135.141          44.000  
R02  20593570.136   109891040.183        -474.628          51.000    20593569.428    85470988.008        -369.109          49.000  
E05  23425875.062   123103728.591         336.174          49.000    23425875.573    94326271.942         257.558          51.000  
S31  40098680.156   210719979.662        -792.055          44.000  
G03  22754495.781   119575670.435         266.642          48.000    22754494.277    93175868.067         207.703          47.000  
E34  25572211.307   134382897.025         738.396          47.000    25572213.479   102968707.781         565.658          52.000  
E36  25285324.702   132875330.535       -1417.096          45.000    25285327.703   101813613.139       -1085.933          51.000  
G31  25364636.856   133292078.523        1236.194          46.000    25364635.427   103863976.395         963.414          42.000  
E11  27745874.437   145805699.944       -2876.501          37.000    27745875.772   111721335.109       -2203.995          40.000  
E03  27963938.718   146951464.727        2094.012          42.000    27963942.310   112599222.713        1604.660          46.000  
E09  26204508.419   137705617.813       -2462.749          48.000    26204508.288   105514674.596       -1886.976          48.000  
G32                                                                  25358593.575   103839172.138       -3298.856          42.000  
> 2024 04 09 12 23 30.0040000  0 23                     
S33  41056329.484   215752590.621        -792.421          44.000  
G28  25018787.927   131474652.656         161.713          39.000    25018785.683   102447789.198         125.946          41.000  
G04  23770979.500   124917386.606        2561.061          45.000    23770977.899    97338166.548        1995.713          46.000  
R01  22082433.994   118043158.753       -3847.809          50.000    22082430.828    91811412.896       -2992.761          45.000  
R17  21288495.355   113919160.556        1625.146          51.000    21288491.078    88603769.615        1264.045          50.000  
R23  25099220.519                3      -4665.714          15.000                                                                  
R03  23512226.393   125862816.172        2555.982          50.000    23512219.828    97893262.218        1988.074          36.000  
R24  21031334.774   112464006.685       -2374.374          51.000    21031330.455    87472057.377       -1846.783          50.000  
G21  20952794.275   110107707.272        -826.572          47.000                                                                  
G02  21401620.176   112466275.116         -33.353          49.000                                                                  
G08  23482708.607   123402442.675       -4033.318          47.000    23482708.299    96157716.581       -3143.027          45.000  
R02  20596302.967   109905616.535        -496.820          52.000    20596301.159    85482325.197        -386.421          49.000  
E05  23423995.646   123093850.937         322.786          49.000    23423996.082    94318703.345         247.313          51.000  
S31  40103205.752   210743761.084        -792.534          44.000  
G03  22752995.543   119567787.302         259.221          48.000    22752994.397    93169725.377         201.986          47.000  
E34  25568010.186   134360820.979         733.883          47.000    25568012.673   102951792.348         562.380          52.000  
E36  25293441.498   132917979.373       -1425.729          46.000    25293443.479   101846292.106       -1092.426          51.000  
G31  25357601.472   133255109.311        1228.733          45.000    25357599.780   103835169.286         957.365          42.000  
E11  27762315.986   145892096.630       -2882.990          37.000    27762317.220   111787534.979       -2208.678          41.000  
E03  27951998.933   146888721.455        2089.196          41.000    27952002.638   112551146.776        1600.737          46.000  
E09  26218599.591   137779665.854       -2473.467          48.000    26218599.560   105571412.642       -1895.272          49.000  
G32  25382786.980   133387413.8501      -4240.683          35.000    25382782.518   103938221.385       -3304.278          43.000  
G17                                                                  24646429.394                        1671.382          31.000  
> 2024 04 09 12 24 00.0040000  0 23                     
S33  41060856.738   215776383.294        -793.251          44.000  
G28  25017910.551   131470044.846         145.728          39.000    25017909.415   102444198.750         113.501          40.000  
G04  23756388.880   124840710.593        2550.887          45.000    23756386.628    97278419.040        1987.729          46.000  
R01  22104056.231   118158747.512       -3857.874          49.000    22104053.878    91901315.204       -3000.616          45.000  
R17  21279432.052   113870657.147        1608.695          52.000    21279426.541    88566044.749        1251.205          50.000  
R23  25125377.679                3      -4672.945          18.000                                                                  
R03  23497938.537   125786335.831        2542.842          49.000    23497931.925    97833777.602        1977.761          39.000  
R24  21044718.863   112535577.858       -2396.625          52.000    21044714.663    87527723.784       -1864.045          50.000  
G21  20957568.813   110132796.932        -845.699          47.000                                                                  
G02  21401858.159   112467524.940         -49.610          49.000                                                                  
G08  23505764.630   123523600.965       -4043.634          47.000    23505763.591    96252125.551       -3150.812          44.000  
R02  20599160.727   109920860.368        -519.250          53.000    20599157.237    85494181.527        -403.981          48.000  
E05  23422193.057   123084374.053         309.202          50.000    23422192.824    94311441.828         236.935          52.000  
S31  40107735.985   210767567.445        -794.009          44.000  
G03  22751537.476   119560126.392         251.648          47.000    22751536.594    93163755.838         196.125          47.000  
E34  25563834.675   134338878.651         729.166          47.000    25563837.350   102934979.377         558.780          53.000  
E36  25301605.789   132960883.036       -1434.396          46.000    25301607.740   101879166.313       -1099.050          51.000  
G31  25350608.811   133218362.962        1221.064          46.000    25350607.302   103806535.838         951.763          41.000  
E11  27778791.124   145978670.427       -2889.119          38.000    27778792.186   111853870.619       -2213.610          42.000  
E03  27940087.433   146826133.513        2083.635          39.000    27940092.006   112503189.868        1596.559          45.000  
E09  26232752.098   137854037.833       -2484.398          48.000    26232752.125   105628398.898       -1903.629          49.000  
G32  25407017.031   133514750.001       -4247.863          33.000    25407014.801   104037444.254       -3310.270          42.000  
G17                                                                  24634227.478                        1659.666          32.000  
> 2024 04 09 12 24 30.0040000  0 23                     
S33  41065389.673   215800203.845        -794.345          44.000  
G28  25017124.666   131465912.386         130.145          38.000    25017120.929   102440978.649         101.520          39.000  
G04  23741854.284   124764335.043        2540.921          44.000    23741852.046    97218905.685        1979.924          45.000  
R01  22125735.327   118274630.824       -3867.536          50.000    22125732.831    91991446.611       -3008.081          45.000  
R17  21270461.507   113822648.396        1592.135          52.000    21270454.753    88528704.608        1238.365          49.000  
R23  25151545.091                3      -4688.141          15.000                                                                  
R03  23483725.362   125710252.575        2529.709          48.000    23483721.362    97774601.790        1967.540          40.000  
R24  21058226.754   112607812.093       -2418.746          52.000    21058222.483    87583905.914       -1881.250          49.000  
G21  20962451.161   110158455.113        -864.722          46.000                                                                  
G02  21402187.053   112469256.811         -65.606          49.000                                                                  
G08  23528877.152   123645058.937       -4053.433          47.000    23528876.262    96346768.046       -3158.454          44.000  
R02  20602143.278   109936774.072        -541.479          52.000    20602139.434    85506558.849        -421.108          49.000  
E05  23420466.738   123075301.491         295.877          50.000    23420466.760    94304490.123         226.667          52.000  
S31  40112271.517   210791402.322        -794.659          44.000  
G03  22750122.756   119552690.281         244.268          48.000    22750121.109    93157961.463         190.311          47.000  
E34  25559685.437   134317074.433         724.728          47.000    25559688.284   102918272.247         555.213          53.000  
E36  25309820.541   133004045.443       -1442.895          47.000    25309821.345   101912238.762       -1105.593          51.000  
G31  25343660.776   133181845.593        1213.353          46.000    25343657.660   103778080.836         945.642          41.000  
E11  27795300.214   146065424.397       -2894.577          39.000    27795300.965   111920344.323       -2217.905          41.000  
E03  27928209.471   146763705.484        2078.510          40.000    27928212.271   112455355.463        1592.596          44.000  
E09  26246967.126   137928735.375       -2495.200          49.000    26246966.477   105685634.625       -1911.832          49.000  
G17                                                                  24622108.230                        1648.671          30.000  
G32                                                                  25431289.091   104136841.075       -3316.121          43.000  
> 2024 04 09 12 25 00.0040000  0 22                     
S33  41069928.766   215824057.363        -795.684          44.000  
G28  25016429.434   131462260.770         113.702          37.000    25016425.459   102438133.277          88.635          37.000  
G04  23727379.034   124688266.111        2530.369          46.000    23727376.591    97159631.224        1971.772          46.000  
G17  24610060.343   129326761.9801       2101.057          33.000    24610063.106                        1637.724          30.000  
R01  22147469.310   118390809.252       -3877.563          49.000    22147466.950    92081807.533       -3015.894          45.000  
R17  21261582.670   113775141.933        1575.136          52.000    21261577.423    88491755.135        1225.043          50.000  
R03  23469587.398   125634571.467        2516.013          47.000    23469582.367    97715738.752        1957.033          37.000  
R24  21071859.984   112680712.789       -2441.129          52.000    21071854.996    87640606.401       -1898.686          49.000  
G21  20967443.684   110184686.712        -883.951          47.000                                                                  
G02  21402609.483   112471476.268         -82.257          48.000                                                                  
G08  23552047.022   123766817.216       -4063.650          47.000    23552045.298    96441644.559       -3166.400          43.000  
R02  20605250.100   109953359.430        -564.086          51.000    20605248.492    85519458.567        -438.748          49.000  
E05  23418817.792   123066637.313         281.924          49.000    23418818.339    94297851.327         216.056          52.000  
S31  40116813.145   210815268.857        -796.130          44.000  
G03  22748751.780   119545482.008         236.591          48.000    22748749.459    93152344.627         184.290          47.000  
E34  25555563.871   134295413.244         719.630          47.000    25555566.294   102901674.704         551.360          53.000  
E36  25318084.191   133047471.017       -1451.999          47.000    25318084.779   101945512.867       -1112.641          51.000  
G31  25336756.322   133145563.434        1205.344          45.000    25336753.193   103749809.075         939.510          40.000  
E11  27811845.000   146152362.229       -2901.158          40.000    27811844.463   111986958.873       -2222.955          41.000  
E03  27916361.427   146701442.424        2072.705          40.000    27916363.823   112407647.457        1588.095          44.000  
E09  26261244.059   138003760.626       -2506.409          48.000    26261243.494   105743121.461       -1920.391          49.000  
G32  25455597.288                1      -4262.998          27.000    25455606.225   104236412.520       -3321.689          43.000  
> 2024 04 09 12 25 30.0040000  0 22                     
S33  41074473.944   215847940.504        -796.519          44.000  
G28  25015823.611   131459090.094          98.071          35.000    25015821.301   102435662.698          75.964          38.000  
G04  23712962.074   124612504.316        2520.390          45.000    23712959.563    97100596.118        1963.823          45.000  
G17  24598109.583   129263935.141        2086.753          35.000    24598107.503                        1625.922          31.000  
R01  22169257.042   118507277.659       -3887.042          50.000    22169254.518    92172394.018       -3023.224          45.000  
R17  21252799.455   113728139.585        1558.406          52.000    21252793.802    88455197.740        1212.075          50.000  
R03  23455524.436   125559292.772        2502.508          45.000    23455518.459    97657188.793        1946.562          38.000  
R24  21085616.965   112754277.391       -2463.108          52.000    21085611.399    87697823.279       -1915.769          48.000  
G21  20972543.698   110211491.250        -903.063          46.000                                                                  
G02  21403124.310   112474183.010         -98.268          48.000                                                                  
G08  23575272.809   123888870.879       -4073.229          47.000    23575270.872    96536751.223       -3173.770          42.000  
R02  20608483.176   109970613.653        -586.200          51.000    20608481.355    85532878.532        -456.002          49.000  
E05  23417245.954   123058380.027         268.599          49.000    23417247.034    94291524.305         205.788          52.000  
S31  40121360.893   210839166.027        -797.119          44.000  
G03  22747422.094   119538499.186         229.142          47.000    22747420.567    93146903.469         178.594          47.000  
E34  25551469.296   134273894.502         715.006          48.000    25551471.351   102885186.296         547.860          53.000  
E36  25326397.503   133091158.668       -1460.611          48.000    25326398.485   101978987.791       -1119.094          51.000  
G31  25329896.180   133109517.551        1197.695          45.000    25329894.411   103721721.449         933.075          41.000  
E11  27828423.265   146239481.876       -2907.118          40.000    27828423.148   112053712.727       -2227.318          41.000  
E03  27904544.357   146639343.864        2067.322          39.000    27904547.075   112360065.525        1584.071          44.000  
E09  26275581.754   138079110.218       -2516.955          48.000    26275582.127   105800856.828       -1928.483          49.000  
G32  25479958.521   133898091.2681      -4270.361          36.000    25479964.896   104336155.077       -3327.639          42.000  
> 2024 04 09 12 26 00.0040000  0 22                     
S33  41079023.468   215871850.055        -797.308          44.000  
G28  25015312.423   131456398.571          81.769          34.000    25015311.837   102433565.422          63.599          40.000  
G04  23698603.108   124537048.168        2510.074          46.000    23698600.858    97041799.166        1955.845          45.000  
G17  24586236.531   129201545.329        2071.746          35.000    24586234.926                        1615.286          30.000  
R01  22191097.474   118624028.206       -3896.241          49.000    22191094.481    92263199.946       -3030.396          43.000  
R17  21244109.588   113681640.721        1541.572          52.000    21244104.762    88419031.954        1199.031          50.000  
R03  23441536.080   125484414.188        2489.270          44.000    23441532.560    97598950.100        1935.660          36.000  
R24  21099496.577   112828501.678       -2485.158          51.000    21099491.912    87755553.223       -1932.879          49.000  
G21  20977752.931   110238865.982        -921.913          46.000                                                                  
G02  21403732.248   112477375.099        -114.451          49.000                                                                  
G08  23598553.414   124011212.932       -4082.736          47.000    23598551.800    96632082.677       -3181.360          42.000  
R02  20611841.583   109988531.611        -608.376          52.000    20611839.488    85546814.695        -473.032          49.000  
E05  23415750.840   123050526.173         254.977          48.000    23415752.577    94285506.394         195.549          52.000  
S31  40125913.415   210863088.967        -797.738          44.000  
G03  22746135.301   119531737.317         221.781          47.000    22746133.800    93141634.489         172.778          47.000  
E34  25547401.108   134252515.600         710.355          48.000    25547403.108   102868805.036         544.350          52.000  
E36  25334759.823   133135105.269       -1469.254          48.000    25334761.584   102012661.136       -1125.724          52.000  
G31  25323081.915   133073706.746        1189.787          46.000    25323079.700   103693816.956         927.170          41.000  
E11  27845034.164   146326779.376       -2912.788          40.000    27845035.941   112120602.853       -2231.750          41.000  
E03  27892760.325   146577407.424        2061.825          40.000    27892760.957   112312607.781        1579.962          45.000  
E09  26289981.067   138154778.781       -2527.555          48.000    26289981.320   105858836.594       -1936.677          49.000  
G32  25504362.147   134026307.310       -4277.318          39.000    25504363.265   104436063.554       -3332.971          41.000  
> 2024 04 09 12 26 30.0040000  0 22                     
S33  41083578.370   215895784.757        -798.168          44.000  
G28  25014892.511   131454186.144          65.729          38.000    25014890.273   102431841.562          51.105          36.000  
G04  23684302.629   124461898.324        2500.048          46.000    23684300.468    96983240.884        1948.016          45.000  
G17  24574444.804   129139593.598        2057.688          33.000    24574449.122   100628216.1981       1603.856          33.000  
R01  22212990.247   118741055.945       -3905.427          48.000    22212987.416    92354221.421       -3037.389          44.000  
R17  21235514.483   113635647.659        1524.727          51.000    21235510.077    88383259.544        1185.952          50.000  
R03  23427624.505   125409935.876        2476.018          47.000    23427617.910    97541022.632        1925.286          32.000  
R24  21113500.188   112903383.218       -2506.958          52.000    21113495.155    87813794.351       -1949.796          49.000  
G21  20983070.955   110266810.504        -940.904          46.000                                                                  
G02  21404431.990   112481052.576        -130.581          49.000                                                                  
G08  23621888.279   124133838.607       -4092.078          47.000    23621887.582    96727635.071       -3188.540          43.000  
R02  20615323.411   110007109.812        -630.160          52.000    20615320.718    85561264.404        -490.121          49.000  
E05  23414332.712   123043074.281         241.848          48.000    23414334.488    94279796.501         185.335          52.000  
S31  40130470.207   210887035.957        -798.517          44.000  
G03  22744890.281   119525194.084         214.556          47.000    22744888.951    93136535.839         167.167          47.000  
E34  25543358.991   134231276.026         705.654          48.000    25543361.382   102852530.541         540.749          53.000  
E36  25343171.088   133179309.766       -1477.671          47.000    25343173.411   102046532.084       -1132.273          52.000  
G31  25316312.147   133038131.831        1181.713          45.000    25316310.261   103666096.271         920.918          43.000  
E11  27861678.929   146414252.801       -2918.276          39.000    27861681.548   112187627.776       -2236.181          42.000  
E03  27881004.675   146515632.678        2056.496          39.000    27881005.444   112265273.931        1575.849          44.000  
E09  26304441.041   138230763.019       -2538.046          48.000    26304440.773   105917058.230       -1944.727          49.000  
G32  25528800.797   134154731.810       -4284.417          38.000    25528801.714   104536134.434       -3338.141          40.000  
> 2024 04 09 12 27 00.0040000  0 22                     
S33  41088135.649   215919732.663        -798.385          44.000  
G28  25014561.503   131452444.486          50.049          37.000    25014556.378   102430484.497          38.550          34.000  
G04  23670058.531   124387046.878        2490.247          46.000    23670056.642    96924915.104        1940.498          45.000  
G17  24562737.584   129078072.304        2043.488          33.000    24562744.290                        1592.244          32.000  
R01  22234932.116   118858347.068       -3913.972          49.000    22234929.882    92445447.808       -3044.185          44.000  
R17  21227012.507   113590153.450        1508.246          51.000    21227008.670    88347875.159        1172.939          50.000  
R03  23413785.150   125335849.288        2463.164          48.000    23413782.758    97483399.785        1915.231          36.000  
R24  21127624.918   112978911.092       -2528.279          52.000    21127618.826    87872538.210       -1966.525          48.000  
G21  20988494.715   110295315.495        -959.501          46.000                                                                  
G02  21405222.705   112485206.526        -146.361          49.000                                                                  
G08  23645274.428   124256734.483       -4100.682          46.000    23645274.426    96823398.018       -3195.552          43.000  
R02  20618926.295   110026336.284        -651.597          52.000    20618923.692    85576218.344        -506.761          49.000  
E05  23412989.819   123036014.477         228.996          49.000    23412991.083    94274387.036         175.354          52.000  
S31  40135030.180   210910997.673        -799.072          44.000  
G03  22743685.580   119518858.639         207.946          46.000    22743683.250    93131599.123         162.052          46.000  
E34  25539342.249   134210166.795         701.612          48.000    25539344.656   102836355.921         537.617          53.000  
E36  25351629.837   133223762.636       -1485.771          47.000    25351632.362   102080593.338       -1138.437          52.000  
G31  25309585.695   133002785.554        1174.490          46.000    25309584.600   103638553.787         915.188          43.000  
E11  27878356.615   146501891.760       -2923.771          39.000    27878358.921   112254779.517       -2240.301          42.000  
E03  27869276.865   146454010.737        2051.508          38.000    27869278.991   112218057.191        1572.023          43.000  
E09  26318958.586   138307051.108       -2547.844          48.000    26318958.107   105975512.704       -1952.343          50.000  
G32  25553276.497   134283351.896       -4290.632          38.000    25553277.051   104636357.659       -3342.943          40.000  
> 2024 04 09 12 27 30.0040000  0 22                     
S33  41092695.352   215943692.522        -798.651          44.000  
G28  25014317.720   131451171.843          34.125          36.000    25014315.058   102429492.804          27.130          36.000  
G04  23655871.827   124312492.469        2480.321          46.000    23655868.537    96866820.775        1932.760          44.000  
G17  24551110.482                        2029.677          30.000    24551119.946                        1581.452          30.000  
R01  22256922.117   118975894.346       -3922.440          48.000    22256919.474    92536873.409       -3050.747          44.000  
R17  21218604.333   113545158.101        1491.570          51.000    21218599.911    88312878.754        1160.111          50.000  
R03  23400017.108   125262152.028        2450.102          47.000    23400012.549    97426079.708        1905.938          34.000  
R24  21141868.458   113055081.156       -2549.570          51.000    21141862.867    87931781.554       -1982.943          49.000  
G21  20994025.352   110324378.409        -978.080          46.000                                                                  
G02  21406103.298   112489834.841        -162.037          49.000                                                                  
G08  23668711.248   124379893.812       -4109.548          46.000    23668710.624    96919366.224       -3202.229          43.000  
R02  20622650.010   110046206.007        -672.936          52.000    20622647.099    85591672.592        -523.388          49.000  
E05  23411720.644   123029343.295         216.059          49.000    23411721.423    94269275.350         165.543          52.000  
S31  40139591.582   210934969.461        -799.176          44.000  
G03  22742518.915   119512726.577         201.116          47.000    22742516.880    93126820.889         156.794          47.000  
E34  25535349.714   134189185.430         697.352          47.000    25535352.188   102820279.278         534.339          53.000  
E36  25360136.672   133268460.905       -1493.998          48.000    25360138.057   102114842.634       -1144.747          52.000  
G31  25302903.150   132967666.820        1166.854          47.000    25302901.574   103611188.598         909.263          44.000  
E11  27895064.923   146589692.421       -2929.341          39.000    27895066.679   112322055.148       -2244.661          42.000  
E03  27857578.020   146392539.264        2046.743          37.000    27857580.738   112170955.717        1568.252          42.000  
E09  26333531.976   138383637.785       -2557.792          47.000    26333532.225   106034195.959       -1959.863          50.000  
G32  25577788.192   134412160.955       -4296.904          39.000    25577788.896   104736728.171       -3348.069          39.000  
> 2024 04 09 12 28 00.0050000  0 23                     
S33  41097256.117   215967660.939        -799.201          44.000  
G28  25014163.470   131450367.985          18.965          34.000    25014162.460   102428866.437          14.462          37.000  
G04  23641740.531   124238233.045        2470.125          45.000    23641736.418    96808956.333        1924.837          42.000  
G17  24539566.112   128956318.484        2014.655          29.000    24539579.718                        1570.009          30.000  
R01  22278958.742   119093696.273       -3930.811          48.000    22278956.370    92628497.057       -3057.208          42.000  
R17  21210288.466   113500661.891        1474.753          51.000    21210284.035    88278270.595        1146.927          50.000  
R03  23386321.658   125188841.560        2437.138          48.000    23386320.599    97369060.582        1895.303          37.000  
R24  21156233.058   113131892.951       -2571.053          51.000    21156227.867    87991524.042       -1999.740          49.000  
R18  24894365.043                3       3284.695          19.000    24894248.289                3       2546.187          25.000  
G21  20999661.947   110353999.547        -996.628          45.000                                                                  
G02  21407074.587   112494937.941        -177.985          49.000                                                                  
G08  23692198.053   124503315.591       -4118.208          47.000    23692196.539    97015538.970       -3208.644          42.000  
R02  20626493.617   110066716.200        -694.331          52.000    20626491.825    85607624.966        -540.066          50.000  
E05  23410524.068   123023058.968         202.938          48.000    23410525.452    94264460.081         155.489          52.000  
S31  40144155.180   210958950.298        -799.651          44.000  
G03  22741388.797   119506795.244         194.267          45.000    22741388.548    93122199.076         151.425          47.000  
E34  25531380.929   134168330.598         692.969          47.000    25531383.730   102804299.596         530.940          53.000  
E36  25368689.350   133313404.784       -1502.058          48.000    25368690.811   102149280.148       -1150.992          52.000  
G31  25296263.637   132932775.184        1159.119          47.000    25296262.408   103584000.337         903.253          45.000  
E11  27911803.288   146677655.563       -2935.062          39.000    27911805.820   112389455.300       -2248.924          43.000  
E03  27845906.907   146331215.683        2041.773          36.000    27845910.910   112123967.546        1564.245          41.000  
E09  26348162.429   138460522.138       -2567.678          47.000    26348162.960   106093107.307       -1967.364          50.000  
G32  25602335.470   134541158.670       -4302.934          42.000    25602337.305   104837245.632       -3352.864          39.000  
> 2024 04 09 12 28 30.0050000  0 23                     
S33  41101820.096   215991644.234        -799.714          44.000  
G28  25014102.227   131450041.404           2.971          37.000    25014101.824   102428612.038           1.936          37.000  
G04  23627668.863   124164282.637        2459.921          47.000    23627664.916    96751332.669        1916.783          44.000  
G17  24528110.167                        1999.421          30.000    24528107.460                3       1557.621          23.000  
R01  22301042.785   119211748.484       -3939.197          46.000    22301039.886    92720315.365       -3063.708          42.000  
R17  21202069.880   113456677.998        1457.584          52.000    21202064.299    88244060.868        1133.707          49.000  
R03  23372701.851   125115931.281        2423.765          48.000    23372699.167    97312352.581        1885.404          37.000  
R24  21170716.950   113209347.796       -2592.532          51.000    21170712.284    88051766.644       -2016.496          49.000  
R18  24875894.611                3       3275.386          25.000    24875860.496                1       2546.358          31.000  
G21  21005406.104   110384185.034       -1015.673          45.000                                                                  
G02  21408137.687   112500523.323        -194.247          49.000                                                                  
G08  23715734.005   124626995.239       -4126.871          47.000    23715732.031    97111912.711       -3216.072          42.000  
R02  20630458.123   110087870.782        -715.823          52.000    20630455.408    85624078.492        -556.733          49.000  
E05  23409403.423   123017168.810         189.982          48.000    23409404.290    94259946.843         145.438          52.000  
S31  40148721.560   210982946.498        -800.102          44.000  
G03  22740298.813   119501071.122         187.411          44.000    22740298.989    93117738.699         146.045          46.000  
E34  25527437.925   134147611.648         688.403          47.000    25527440.990   102788424.025         527.539          53.000  
E36  25377289.108   133358598.694       -1510.608          48.000    25377291.115   102183909.230       -1157.459          52.000  
G31  25289669.087   132898122.662        1151.025          46.000    25289667.489   103556998.411         896.979          44.000  
E11  27928573.867   146765781.883       -2940.471          40.000    27928576.254   112456980.482       -2252.938          44.000  
E03  27834268.890   146270052.154        2036.407          36.000    27834272.092   112077102.003        1560.225          42.000  
E09  26362849.716   138537704.160       -2577.619          47.000    26362850.425   106152246.746       -1975.058          50.000  
G32  25626918.180   134670340.411       -4309.158          45.000    25626920.381   104937906.524       -3357.292          39.000  
> 2024 04 09 12 29 00.0050000  0 23                     
S33  41106387.955   216015646.991        -800.961          44.000  
G28  25014133.914   131450199.002         -13.274          39.000    25014132.422   102428734.883         -10.313          38.000  
G04  23613656.196   124090646.079        2449.184          46.000    23613652.193    96693953.561        1908.279          43.000  
R01  22323174.862   119330056.461       -3947.931          46.000    22323171.134    92812332.577       -3070.465          42.000  
R17  21193948.259   113413213.966        1439.920          52.000    21193942.134    88210255.510        1119.957          49.000  
R03  23359157.248   125043425.686        2410.014          47.000    23359156.176    97255959.369        1874.204          37.000  
R24  21185322.598   113287452.691       -2614.498          51.000    21185318.583    88112514.860       -2033.481          50.000  
R18  24857451.647                        3273.032          27.000    24857457.975   103203855.5451       2545.778          34.000  
G21  21011259.881   110414941.630       -1034.866          47.000                                                                  
G02  21409293.277   112506597.917        -210.781          49.000                                                                  
G08  23739319.512   124750938.754       -4135.880          47.000    23739318.214    97208491.985       -3222.803          43.000  
R02  20634544.373   110109673.906        -737.809          52.000    20634540.733    85641036.454        -573.860          49.000  
E05  23408358.478   123011677.965         176.184          48.000    23408359.310    94255739.568         134.985          52.000  
S31  40153291.783   211006962.143        -800.858          44.000  
G03  22739250.101   119495558.416         180.154          45.000    22739248.835    93113443.089         140.265          45.000  
E34  25523522.681   134127034.155         683.426          47.000    25523525.065   102772656.847         523.632          53.000  
E36  25385938.142   133404049.836       -1519.512          48.000    25385940.114   102218735.418       -1164.247          52.000  
G31  25283121.778   132863715.506        1142.743          46.000    25283119.837   103530187.690         890.448          44.000  
E11  27945376.667   146854079.201       -2946.238          40.000    27945378.460   112524636.687       -2257.641          43.000  
E03  27822660.864   146209052.983        2030.651          37.000    27822664.284   112030362.386        1555.857          42.000  
E09  26377594.730   138615189.855       -2587.871          47.000    26377595.491   106211618.862       -1983.094          50.000  
G32  25651537.063   134799712.749       -4315.590          46.000    25651538.683   105038715.987       -3362.357          38.000  
G17                                                                  24516753.393                        1546.917          27.000  
> 2024 04 09 12 29 30.0050000  0 23                     
S33  41110960.757   216039679.027        -801.825          43.000  
G28  25014255.644   131450849.145         -30.447          37.000    25014257.331   102429241.566         -23.672          40.000  
G04  23599704.651   124017332.372        2438.034          45.000    23599700.335    96636826.014        1899.614          43.000  
R01  22345355.591   119448623.771       -3956.720          47.000    22345352.508    92904551.531       -3077.539          43.000  
R17  21185925.071   113370280.141        1421.924          52.000    21185919.358    88176862.531        1105.887          50.000  
R03  23345689.757   124971333.467        2395.937          45.000    23345692.231    97199887.618        1863.434          34.000  
R24  21200050.983   113366213.718       -2636.578          51.000    21200048.518    88173773.399       -2050.678          50.000  
R18  24839059.532   132592637.3911       3271.821          32.000    24839066.046   103127490.533        2545.150          38.000  
G21  21017223.081   110446277.138       -1054.512          47.000                                                                  
G02  21410544.243   112513169.911        -227.715          49.000                                                                  
G08  23762956.385   124875149.688       -4145.175          47.000    23762955.327    97305279.620       -3230.145          44.000  
R02  20638752.517   110132130.791        -759.716          51.000    20638749.163    85658502.910        -590.931          49.000  
E05  23407391.085   123006593.299         162.438          49.000    23407391.783    94251843.536         124.462          52.000  
S31  40157866.937   211031004.411        -802.213          44.000  
G03  22738242.687   119490263.157         172.627          45.000    22738240.717    93109316.926         134.550          45.000  
E34  25519635.123   134106606.071         678.011          47.000    25519637.681   102757004.137         519.599          53.000  
E36  25394637.482   133449765.529       -1528.667          48.000    25394639.651   102253764.311       -1171.261          52.000  
G31  25276622.103   132829563.232        1133.826          45.000    25276620.702   103503575.574         883.398          44.000  
E11  27962212.210   146942553.946       -2952.486          39.000    27962214.813   112592428.839       -2262.129          43.000  
E03  27811085.721   146148226.164        2024.310          38.000    27811089.532   111983754.835        1551.175          43.000  
E09  26392398.677   138692984.347       -2598.591          47.000    26392399.030   106271227.543       -1991.000          50.000  
G32  25676193.216   134929279.712       -4322.436          46.000    25676194.427   105139677.074       -3368.182          38.000  
G17                                                                  24505457.235                        1534.803          30.000  
