     3.00           OBSERVATION DATA    M: Mixed            RINEX VERSION / TYPE
CONVBIN 2.4.3                           20240409 111442 UTC PGM / RUN BY / DATE 
format: u-blox UBX                                          COMMENT             
log: data/2024-04-09/20240409110000.ubx                     COMMENT             
AQUI00CHL                                                   MARKER NAME         
                                                            MARKER NUMBER       
                                                            MARKER TYPE         
                                                            OBSERVER / AGENCY   
UNKNOWN             UBLOX-ZED-F9P                           REC # / TYPE / VERS 
UNKNOWN             TWIVSP6037L                             ANT # / TYPE        
  1713381.0000 -5047934.0000 -3490983.0000                  APPROX POSITION XYZ 
        0.0000        0.0000        0.0000                  ANTENNA: DELTA H/E/N
G    8 C1C L1C D1C S1C C2L L2L D2L S2L                      SYS / # / OBS TYPES 
R    8 C1C L1C D1C S1C C2C L2C D2C S2C                      SYS / # / OBS TYPES 
E    8 C1C L1C D1C S1C C7Q L7Q D7Q S7Q                      SYS / # / OBS TYPES 
S    4 C1C L1C D1C S1C                                      SYS / # / OBS TYPES 
  2024    04    09    11    00   00.0020000     GPS         TIME OF FIRST OBS   
  2024    04    09    11    14   30.0030000     GPS         TIME OF LAST OBS    
                                                            END OF HEADER       
> 2024 04 09 11 00 00.0020000  0 24                     
S33  40418823.234   212402508.8321       -619.887          44.000  
E30  27918060.125                3       -984.800          26.000    27918058.647                        -755.149          26.000  
G27  22073897.718   115999154.2591      -3284.951          47.000    22073895.317    90388937.8321      -2559.703          46.000  
R01  19805440.889   105871355.4191       -605.784          48.000    19805438.170    82344460.4181       -471.140          45.000  
R17  23619525.148   126392815.9131       2794.677          37.000    23619510.490                        2174.041          31.000  
R23  21718641.981   116180107.7671      -2453.457          49.000                                                                  
R24  20466266.345   109442353.3251        822.619          52.000    20466260.374    85121887.3011        639.626          49.000  
R08  22578700.436   120907915.2991      -4380.710          46.000    22578694.025    94039488.4571      -3407.375          47.000  
E02  27242466.863   143160163.9711      -2826.432          42.000    27242467.666   109694187.4131      -2165.694          48.000  
G21  21448198.586   112711085.4691       1473.309          48.000                                                                  
G02  22403525.454   117731332.2111       1763.087          49.000                                                                  
E10  28893652.001   151837332.9031      -2389.767          42.000    28893656.268   116342997.3211      -1830.972          45.000  
G08  20880699.204   109728832.6381      -1183.445          49.000    20880698.027    85502964.0911       -922.220          48.000  
R02  21923276.163   116986605.5371       3047.621          50.000    21923273.185    90989762.8071       2370.350          50.000  
E05  24720185.493   129905384.2751       2126.823          45.000    24720186.267    99537932.1001       1629.602          50.000  
S31  39465097.931   207390596.5591       -620.741          44.000  
G03  23716945.533   124633381.8771       1738.210          42.000    23716942.867    97116944.1621       1354.365          42.000  
E34  26524947.454   139389560.3221       1081.282          43.000    26524947.522   106804984.9731        828.399          47.000  
E36  24537739.455   128946753.7461       -368.496          49.000    24537739.079    98803410.1991       -282.376          51.000  
E04  27436230.639   144178352.8851      -2533.091          39.000    27436227.865   110474322.1401      -1941.118          45.000  
G10  24123016.209   126767369.8551      -3785.282          41.000    24123013.999    98779772.0101      -2949.613          42.000  
E11  25518972.166   134103315.5911      -1945.876          41.000    25518970.074   102754590.6891      -1491.024          46.000  
E09  24948686.054   131106248.0861       -146.769          48.000    24948685.805   100458019.6441       -112.521          50.000  
G32  22390887.643   117664919.7271      -1721.023          47.000    22390886.226    91686953.4701      -1341.283          45.000  
> 2024 04 09 11 00 30.0020000  0 24                     
S33  40422360.922   212421097.940        -619.567          44.000  
E30  27923725.877                3       -997.874          22.000    27923719.561                        -764.826          27.000  
G27  22092689.861   116097904.760       -3298.877          47.000    22092686.981    90465886.212       -2570.449          46.000  
R01  19808910.245   105889900.459        -630.894          48.000    19808907.841    82358884.335        -490.709          45.000  
R17  23603847.431   126308932.780        2796.804          39.000    23603832.102                        2175.351          30.000  
R23  21732439.720   116253913.160       -2467.323          50.000                                                                  
R24  20461683.147   109417845.872         810.707          52.000    20461677.451    85102825.917         630.494          49.000  
R08  22603270.670   121039489.253       -4391.121          48.000    22603263.558    94141823.678       -3415.369          47.000  
E02  27258615.581   143245021.654       -2831.086          41.000    27258615.739   109759208.170       -2169.284          48.000  
G21  21439805.915   112666980.542        1466.565          48.000                                                                  
G02  22393471.374   117678498.461        1758.635          49.000                                                                  
E10  28907301.012   151909055.092       -2392.226          43.000    28907304.660   116397953.023       -1832.862          44.000  
G08  20887510.515   109764625.891       -1203.273          49.000    20887509.370    85530854.902        -937.599          47.000  
R02  21906181.964   116895382.908        3033.352          51.000    21906178.151    90918811.861        2359.262          50.000  
E05  24708059.579   129841660.860        2121.269          45.000    24708060.232    99489105.042        1625.210          50.000  
S31  39468639.697   207409208.416        -620.516          44.000  
G03  23707045.156   124581354.345        1730.104          42.000    23707042.743    97076403.219        1348.039          43.000  
E34  26518772.169   139357104.376        1082.103          43.000    26518771.029   106780116.084         829.081          47.000  
E36  24539850.050   128957847.718        -371.481          49.000    24539850.175    98811910.717        -284.561          51.000  
E04  27450720.098   144254498.516       -2543.294          39.000    27450718.236   110532667.373       -1948.894          45.000  
G10  24144624.019   126880923.710       -3785.413          40.000    24144622.437    98868255.375       -2949.689          43.000  
E11  25530088.477   134161731.646       -1949.130          41.000    25530086.046   102799350.944       -1493.472          46.000  
E09  24949562.924   131110855.210        -160.706          48.000    24949562.405   100461549.741        -123.126          50.000  
G32  22400769.730   117716846.806       -1740.979          48.000    22400767.091    91727416.063       -1356.657          44.000  
> 2024 04 09 11 01 00.0020000  0 24                     
S33  40425898.573   212439688.577        -619.533          44.000  
G27  22111561.739   116197079.912       -3312.892          46.000    22111559.620    90543165.491       -2581.392          46.000  
R01  19812523.154   105909209.861        -656.345          48.000    19812520.565    82373902.732        -510.211          46.000  
R17  23588163.289   126225003.814        2798.414          40.000    23588145.256    98174965.870        2177.035          32.000  
R23  21746316.529   116328143.041       -2481.352          50.000                                                                  
R24  20457168.714   109393703.929         798.758          53.000    20457163.216    85084048.797         621.240          49.000  
R08  22627900.251   121171381.878       -4401.577          48.000    22627892.284    94244406.725       -3423.373          46.000  
E02  27274792.047   143330027.773       -2835.906          41.000    27274791.703   109824342.672       -2172.981          47.000  
G21  21431453.923   112623088.905        1459.625          48.000                                                                  
G02  22383444.785   117625808.813        1753.933          49.000                                                                  
E10  28920964.816   151980857.639       -2394.747          43.000    28920968.306   116452970.307       -1834.797          44.000  
G08  20894437.771   109801024.496       -1223.278          50.000    20894434.938    85559217.420        -953.186          46.000  
R02  21889169.620   116804600.867        3018.789          52.000    21889166.023    90848203.583        2347.960          49.000  
E05  24695966.585   129778111.489        2115.438          45.000    24695967.277    99440411.331        1620.952          50.000  
S31  39472181.862   207427821.978        -620.352          44.000  
G03  23697190.863   124529575.557        1722.174          41.000    23697189.337    97036056.129        1341.791          43.000  
E34  26512593.002   139324633.405        1082.769          43.000    26512592.166   106755235.702         829.627          47.000  
E36  24541978.698   128969033.809        -374.339          48.000    24541978.837    98820481.830        -286.850          51.000  
E04  27465268.402   144330949.057       -2553.195          39.000    27465266.170   110591246.247       -1956.405          45.000  
G10  24166236.459   126994493.296       -3785.896          42.000    24166235.000    98956751.012       -2949.977          43.000  
E11  25541224.891   134220253.690       -1952.224          40.000    25541222.540   102844192.376       -1495.767          45.000  
E09  24950520.676   131115886.415        -174.731          49.000    24950519.744   100465404.776        -133.773          50.000  
G32  22410765.961   117769376.978       -1760.948          47.000    22410762.728    91768348.585       -1372.199          44.000  
E30                                                                  27929453.347                        -774.461          26.000  
> 2024 04 09 11 01 30.0020000  0 24                     
S33  40429435.726   212458276.262        -620.035          44.000  
G27  22130513.940   116296671.446       -3327.095          47.000    22130511.274    90620769.216       -2592.584          46.000  
R01  19816277.440   105929276.311        -681.828          49.000    19816274.406    82389509.948        -530.608          45.000  
R17  23572467.774   126141024.673        2799.656          40.000    23572455.001    98109648.756        2177.675          36.000  
R23  21760271.816   116402791.328       -2495.729          50.000                                                                  
R24  20452721.762   109369923.723         786.087          52.000    20452716.317    85065553.051         611.451          49.000  
R08  22652587.555   121303581.681       -4412.247          48.000    22652579.198    94347228.679       -3431.686          45.000  
E02  27290993.323   143415174.079       -2840.903          40.000    27290994.551   109889584.583       -2176.893          46.000  
G21  21423141.770   112579405.945        1452.112          48.000                                                                  
G02  22373444.496   117573258.644        1748.885          49.000                                                                  
E10  28934642.346   152052734.796       -2397.486          42.000    28934646.658   116508044.730       -1837.084          46.000  
G08  20901478.012   109838022.082       -1243.800          50.000    20901475.618    85588046.659        -969.164          47.000  
R02  21872237.665   116714256.679        3003.632          50.000    21872235.237    90777935.832        2336.226          49.000  
E05  24683906.346   129714731.801        2109.475          46.000    24683906.361    99391847.609        1616.297          49.000  
S31  39475723.193   207446431.348        -620.790          43.000  
G03  23687384.538   124478039.723        1713.217          42.000    23687382.156    96995898.298        1334.985          42.000  
E34  26506408.622   139292141.479        1082.993          42.000    26506409.441   106730339.290         829.758          47.000  
E36  24544123.742   128980306.553        -377.681          48.000    24544123.860    98829119.336        -289.369          51.000  
E04  27479872.502   144407696.949       -2563.661          39.000    27479870.885   110650052.945       -1964.373          44.000  
G10  24187849.357   127108070.897       -3786.784          41.000    24187848.669    99045252.892       -2950.576          43.000  
E11  25552381.800   134278876.063       -1956.124          41.000    25552378.524   102889110.702       -1498.872          46.000  
E09  24951557.987   131121335.869        -189.120          49.000    24951556.581   100469580.292        -144.889          49.000  
G32  22420875.228   117822502.832       -1781.202          47.000    22420872.041    91809745.299       -1387.957          44.000  
E30                                                                  27935261.342                1       -783.979          26.000  
> 2024 04 09 11 02 00.0020000  0 24                     
S33  40432972.387   212476862.210        -619.556          44.000  
G27  22149544.934   116396680.259       -3340.554          47.000    22149542.913    90698698.082       -2602.974          46.000  
R01  19820173.672   105950101.959        -706.773          49.000    19820169.697    82405707.647        -549.574          45.000  
R17  23556763.680   126057000.318        2801.538          42.000    23556754.311    98044296.432        2178.905          36.000  
R23  21774304.706   116477861.465       -2509.321          50.000                                                                  
R24  20448343.674   109346511.098         774.236          52.000    20448338.190    85047343.197         602.229          49.000  
R08  22677332.967   121436088.687       -4421.793          48.000    22677324.703    94450289.587       -3439.306          46.000  
E02  27307222.075   143500461.559       -2845.139          39.000    27307224.056   109954934.682       -2180.061          45.000  
G21  21414869.174   112535937.363        1445.392          48.000                                                                  
G02  22363472.606   117520852.617        1744.514          49.000                                                                  
E10  28948334.801   152124689.977       -2399.868          41.000    28948339.838   116563178.899       -1838.750          46.000  
G08  20908632.694   109875621.462       -1263.298          50.000    20908630.235    85617344.815        -984.393          46.000  
R02  21855391.110   116624356.816        2989.250          51.000    21855388.473    90708013.680        2325.084          49.000  
E05  24671878.807   129651526.617        2103.922          47.000    24671878.967    99343417.592        1612.131          50.000  
S31  39479264.237   207465039.686        -620.209          43.000  
G03  23677624.465   124426749.990        1705.615          42.000    23677621.108    96955932.277        1328.992          41.000  
E34  26500222.152   139259631.898        1084.107          42.000    26500223.181   106705429.328         830.631          48.000  
E36  24546286.696   128991669.683        -380.221          49.000    24546286.477    98837826.097        -291.327          51.000  
E04  27494533.679   144484743.615       -2572.986          39.000    27494532.539   110709088.615       -1971.629          44.000  
G10  24209465.357   127221657.944       -3786.432          41.000    24209464.007    99133762.106       -2950.260          43.000  
E11  25563556.369   134337602.307       -1959.202          40.000    25563554.323   102934108.628       -1501.237          47.000  
E09  24952674.357   131127206.885        -202.713          48.000    24952673.522   100474078.825        -155.217          49.000  
G32  22431097.794   117876226.186       -1800.699          45.000    22431096.023    91851607.589       -1403.205          44.000  
E30                                                                  27941138.657                        -793.818          26.000  
> 2024 04 09 11 02 30.0020000  0 24                     
S33  40436509.247   212495447.772        -619.497          44.000  
G27  22168655.297   116497105.039       -3354.492          47.000    22168653.376    90776951.061       -2613.889          47.000  
R01  19824210.999   105971686.447        -732.273          48.000    19824206.757    82422495.548        -569.506          44.000  
R17  23541054.052   125972933.662        2802.802          44.000    23541043.462    97978911.186        2179.998          35.000  
R23  21788417.697   116553354.591       -2523.542          50.000                                                                  
R24  20444034.727   109323469.629         761.794          52.000    20444029.465    85029422.015         592.412          49.000  
R08  22702134.144   121568899.521       -4432.102          47.000    22702126.222    94553586.792       -3447.308          46.000  
E02  27323478.920   143585888.839       -2849.759          39.000    27323480.363   110020391.943       -2183.833          44.000  
G21  21406638.721   112492685.620        1438.037          47.000                                                                  
G02  22353528.126   117468592.834        1739.535          50.000                                                                  
E10  28962042.243   152196724.267       -2402.246          40.000    28962046.952   116618373.703       -1840.894          45.000  
G08  20915902.858   109913823.180       -1283.425          50.000    20915899.282    85647112.345       -1000.098          46.000  
R02  21838627.960   116534904.852        2974.159          51.000    21838625.370    90638439.891        2313.163          49.000  
E05  24659885.055   129588498.484        2097.957          47.000    24659885.705    99295123.255        1607.539          50.000  
S31  39482805.045   207483646.794        -620.361          43.000  
G03  23667911.215   124375707.483        1697.236          42.000    23667907.939    96916158.879        1322.531          41.000  
E34  26494032.385   139227105.700        1084.447          41.000    26494034.029   106680506.633         830.882          48.000  
E36  24548466.377   129003124.707        -383.403          49.000    24548466.457    98846603.275        -293.751          51.000  
E04  27509249.549   144562088.492       -2582.713          36.000    27509250.317   110768352.748       -1979.213          43.000  
G10  24231082.726   127335253.702       -3786.584          42.000    24231081.254    99222278.126       -2950.531          43.000  
E11  25574751.091   134396433.844       -1962.843          39.000    25574749.641   102979187.207       -1503.867          47.000  
E09  24953872.852   131133500.555        -216.897          49.000    24953871.110   100478901.215        -166.223          49.000  
G32  22441433.775   117930546.529       -1820.659          46.000    22441432.765    91893935.071       -1418.666          43.000  
E30                                                                  27947086.436                3       -804.964          24.000  
> 2024 04 09 11 03 00.0020000  0 24                     
S33  40440046.025   212514033.603        -619.905          44.000  
G27  22187844.903   116597944.747       -3368.630          47.000    22187842.434    90855527.389       -2624.853          46.000  
R01  19828390.288   105994029.745        -757.852          48.000    19828386.168    82439873.662        -589.416          44.000  
R17  23525337.535   125888827.507        2803.726          44.000    23525325.703    97913495.265        2180.521          37.000  
R23  21802609.325   116629272.002       -2538.203          49.000                                                                  
R24  20439796.050   109300803.283         748.857          52.000    20439790.450    85011792.604         582.508          49.000  
R08  22726991.370   121702010.932       -4442.386          48.000    22726985.134    94657117.794       -3455.179          48.000  
E02  27339762.727   143671455.068       -2854.777          40.000    27339762.771   110085955.613       -2187.365          43.000  
G21  21398449.480   112449653.459        1430.432          47.000                                                                  
G02  22343611.680   117416482.025        1734.100          50.000                                                                  
E10  28975766.002   152268839.226       -2405.515          42.000    28975770.209   116673630.323       -1843.154          45.000  
G08  20923287.082   109952628.089       -1303.892          50.000    20923283.869    85677349.885       -1016.050          46.000  
R02  21821949.411   116445905.402        2958.568          51.000    21821946.668    90569218.046        2301.145          49.000  
E05  24647925.101   129525650.332        2091.582          46.000    24647925.893    99246966.856        1602.628          50.000  
S31  39486345.929   207502255.453        -620.601          43.000  
G03  23658245.249   124324913.585        1688.379          41.000    23658242.630    96876579.200        1315.713          42.000  
E34  26487840.585   139194564.285        1084.669          41.000    26487841.577   106655572.274         831.087          48.000  
E36  24550664.226   129014673.488        -386.922          49.000    24550664.431    98855452.301        -296.465          52.000  
E04  27524024.531   144639731.114       -2593.377          38.000    27524025.053   110827845.035       -1987.116          43.000  
G10  24252701.518   127448857.767       -3787.184          42.000    24252699.733    99310800.620       -2951.279          44.000  
E11  25585966.263   134455372.309       -1966.619          39.000    25585965.243   103024347.757       -1506.859          47.000  
E09  24955151.107   131140218.275        -231.352          49.000    24955149.648   100484048.533        -177.199          49.000  
G32  22451885.988   117985463.732       -1840.957          47.000    22451882.586    91936727.632       -1434.657          43.000  
E30                                                                  27953109.690                3       -813.855          26.000  
> 2024 04 09 11 03 30.0020000  0 24                     
S33  40443582.346   212532617.320        -619.282          44.000  
G27  22207112.325   116699193.871       -3381.754          48.000    22207108.638    90934422.741       -2635.084          45.000  
R01  19832712.026   106017126.955        -782.332          49.000    19832706.802    82457838.150        -608.701          43.000  
R17  23509612.186   125804680.963        2805.505          43.000    23509603.430    97848047.929        2182.262          39.000  
R23  21816879.300   116705610.815       -2551.680          48.000                                                                  
R24  20435627.546   109278511.476         736.847          52.000    20435621.371    84994454.517         573.091          48.000  
R08  22751904.288   121835415.132       -4451.737          49.000    22751897.171    94760876.535       -3462.431          48.000  
E02  27356071.603   143757154.764       -2858.999          41.000    27356071.043   110151621.535       -2190.511          43.000  
G21  21390302.068   112406839.722        1423.358          47.000                                                                  
G02  22333722.942   117364518.403        1729.615          49.000                                                                  
E10  28989505.360   152341031.829       -2407.644          43.000    28989508.287   116728946.420       -1844.973          44.000  
G08  20930785.458   109992032.573       -1323.425          50.000    20930782.162    85708054.637       -1031.356          47.000  
R02  21805356.604   116357358.259        2943.873          52.000    21805353.940    90500348.006        2289.692          50.000  
E05  24635999.640   129462980.632        2085.908          47.000    24635999.896    99198947.159        1598.378          50.000  
S31  39489886.724   207520860.968        -620.099          43.000  
G03  23648626.084   124274365.141        1680.842          42.000    23648624.196    96837190.797        1309.840          43.000  
E34  26481644.392   139162004.549        1085.652          42.000    26481646.011   106630623.881         831.788          49.000  
E36  24552878.899   129026313.364        -389.526          48.000    24552879.503    98864371.135        -298.449          52.000  
E04  27538856.667   144717666.633       -2602.699          40.000    27538855.904   110887561.741       -1994.254          42.000  
G10  24274320.257   127562465.199       -3786.883          42.000    24274318.221    99399325.755       -2950.903          43.000  
E11  25597202.663   134514414.957       -1970.011          39.000    25597200.684   103069588.101       -1509.286          46.000  
E09  24956510.097   131147356.935        -244.927          49.000    24956508.324   100489518.401        -187.751          49.000  
G32  22462449.533   118040973.058       -1860.087          47.000    22462445.486    91979981.591       -1449.604          44.000  
E30                                                                  27959202.547                        -822.586          26.000  
> 2024 04 09 11 04 00.0020000  0 24                     
S33  40447117.664   212551196.078        -619.458          44.000  
G27  22226456.590   116800848.615       -3395.498          48.000    22226453.041    91013634.163       -2646.014          44.000  
R01  19837173.344   106040975.657        -807.738          48.000    19837167.985    82476387.103        -628.233          44.000  
R17  23493877.926   125720493.668        2806.816          41.000    23493870.861    97782568.948        2182.885          36.000  
R23  21831229.019   116782369.246       -2565.958          48.000                                                                  
R24  20431528.453   109256594.977         723.985          51.000    20431523.074    84977408.313         563.026          48.000  
R08  22776870.743   121969107.128       -4461.315          48.000    22776863.990    94864859.095       -3470.000          47.000  
E02  27372404.289   143842984.115       -2863.129          41.000    27372403.868   110217386.819       -2194.089          42.000  
G21  21382197.007   112364244.986        1415.778          48.000                                                                  
G02  22323862.780   117312701.874        1724.518          50.000                                                                  
E10  29003258.389   152413300.787       -2410.648          43.000    29003260.666   116784321.029       -1846.974          44.000  
G08  20938397.526   110032034.647       -1343.711          50.000    20938395.454    85739225.023       -1046.929          48.000  
R02  21788847.800   116269264.889        2928.664          52.000    21788845.147    90431830.900        2277.847          49.000  
E05  24624108.324   129400489.473        2079.821          47.000    24624108.726    99151064.287        1593.536          50.000  
S31  39493426.531   207539462.213        -620.164          43.000  
G03  23639053.497   124224060.782        1672.411          42.000    23639052.871    96797992.587        1303.077          44.000  
E34  26475444.663   139129425.063        1086.137          42.000    26475446.085   106605660.369         832.199          48.000  
E36  24555110.993   129038043.418        -392.830          48.000    24555111.890    98873359.056        -300.902          52.000  
E04  27553742.291   144795891.828       -2612.587          40.000    27553741.541   110947500.443       -2001.860          42.000  
G10  24295939.491   127676072.827       -3787.414          41.000    24295937.227    99487851.018       -2951.093          43.000  
E11  25608457.914   134573560.515       -1973.452          40.000    25608455.571   103114907.329       -1512.254          46.000  
E09  24957948.279   131154915.172        -259.159          49.000    24957947.063   100495309.739        -198.694          49.000  
G32  22473124.213   118097071.516       -1879.995          46.000    22473121.212    92023694.607       -1465.123          43.000  
E30                                                                  27965364.189                3       -833.026          25.000  
> 2024 04 09 11 04 30.0020000  0 24                     
S33  40450652.725   212569773.060        -619.366          44.000  
G27  22245878.001   116902909.418       -3409.136          48.000    22245874.990    91093161.964       -2656.355          45.000  
R01  19841774.658   106065576.923        -832.690          47.000    19841771.408    82495521.391        -647.894          45.000  
R17  23478138.247   125636270.864        2807.749          41.000    23478130.309    97717062.317        2183.796          35.000  
R23  21845656.996   116859550.217       -2580.094          48.000                                                                  
R24  20427501.024   109235059.211         711.203          52.000    20427495.802    84960658.222         553.132          48.000  
R08  22801889.519   122103084.781       -4471.016          48.000    22801884.108    94969063.798       -3477.440          48.000  
E02  27388762.343   143928943.818       -2867.546          42.000    27388760.965   110283251.974       -2197.174          40.000  
G21  21374134.088   112321873.632        1408.282          48.000                                                                  
G02  22314031.273   117261036.157        1719.303          50.000                                                                  
E10  29017025.138   152485649.077       -2413.170          42.000    29017029.204   116839756.437       -1849.017          45.000  
G08  20946124.042   110072636.639       -1363.595          50.000    20946120.877    85770862.881       -1062.595          47.000  
R02  21772425.577   116181631.391        2913.116          53.000    21772422.309    90363671.479        2265.785          49.000  
E05  24612250.986   129338181.372        2073.559          47.000    24612251.725    99103321.654        1588.837          50.000  
S31  39496965.731   207558061.188        -620.133          43.000  
G03  23629527.809   124174003.366        1664.119          41.000    23629526.997    96758986.759        1296.605          43.000  
E34  26469241.684   139096828.864        1086.451          42.000    26469242.560   106580684.041         832.494          48.000  
E36  24557361.254   129049867.082        -396.009          48.000    24557362.097    98882418.710        -303.445          52.000  
E04  27568683.620   144874407.981       -2622.355          40.000    27568682.652   111007662.025       -2009.167          41.000  
G10  24317557.900   127789681.907       -3787.323          41.000    24317556.222    99576377.390       -2951.251          42.000  
E11  25619733.853   134632812.421       -1977.009          40.000    25619730.780   103160308.015       -1514.807          46.000  
E09  24959466.767   131162895.877        -273.380          48.000    24959465.704   100501424.782        -209.486          49.000  
G32  22483911.324   118153760.432       -1899.721          46.000    22483909.021    92067867.748       -1480.531          43.000  
E30                                                                  27971599.481                3       -842.641          25.000  
> 2024 04 09 11 05 00.0020000  0 24                     
S33  40454187.512   212588347.978        -619.548          44.000  
G27  22265376.130   117005373.470       -3422.231          48.000    22265371.834    91173004.021       -2666.719          44.000  
R01  19846517.575   106090929.070        -857.708          47.000    19846514.376    82515239.672        -667.043          44.000  
R17  23462392.853   125552013.655        2808.879          42.000    23462384.465    97651528.857        2185.147          36.000  
R23  21860163.702   116937153.004       -2594.028          49.000                                                                  
R24  20423545.626   109213906.444         698.555          52.000    20423540.448    84944206.039         543.256          48.000  
R08  22826961.760   122237343.860       -4480.076          47.000    22826955.139    95073487.428       -3484.431          47.000  
E02  27405144.299   144015031.097       -2872.000          42.000    27405142.435   110349214.851       -2200.628          38.000  
G21  21366113.576   112279726.997        1401.050          48.000                                                                  
G02  22304228.692   117209522.781        1714.487          50.000                                                                  
E10  29030807.541   152558076.490       -2415.636          42.000    29030811.094   116895252.444       -1850.982          44.000  
G08  20953964.606   110113837.537       -1383.420          50.000    20953960.773    85802967.434       -1077.977          46.000  
R02  21756089.506   116094460.028        2897.837          52.000    21756085.733    90295871.499        2253.936          48.000  
E05  24600429.634   129276057.434        2067.514          47.000    24600429.828    99055720.148        1584.197          50.000  
S31  39500504.530   207576658.456        -620.123          43.000  
G03  23620049.850   124124192.424        1656.332          42.000    23620048.056    96720172.979        1290.601          44.000  
E34  26463034.956   139064215.504        1087.284          42.000    26463036.085   106555694.574         833.157          47.000  
E36  24559629.003   129061784.392        -398.865          48.000    24559629.896    98891550.113        -305.640          52.000  
E04  27583678.960   144953212.771       -2631.524          39.000    27583678.735   111068044.865       -2016.767          41.000  
G10  24339176.814   127903290.177       -3787.134          40.000    24339174.470    99664903.171       -2950.989          41.000  
E11  25631029.580   134692170.364       -1980.417          41.000    25631026.576   103205790.006       -1517.456          46.000  
E09  24961065.214   131171298.607        -287.216          48.000    24961064.601   100507863.210        -220.185          49.000  
G32  22494810.191   118211037.746       -1919.120          45.000    22494808.665    92112499.383       -1495.194          43.000  
E30                                                                  27977903.281                3       -851.486          25.000  
> 2024 04 09 11 05 30.0020000  0 25                     
S33  40457722.168   212606922.508        -619.228          44.000  
G27  22284951.372   117108240.786       -3435.817          48.000    22284946.813    91253160.288       -2677.096          44.000  
R01  19851400.784   106117032.716        -882.699          48.000    19851397.209    82535542.459        -686.679          44.000  
R17  23446640.410   125467726.421        2809.891          41.000    23446636.343    97585972.139        2185.191          38.000  
R23  21874752.180   117015180.390       -2608.095          50.000                                                                  
R24  20419662.703   109193141.696         685.553          53.000    20419657.080    84928055.638         533.166          49.000  
R08  22852086.467   122371882.232       -4489.345          47.000    22852079.455    95178128.262       -3491.775          48.000  
E02  27421550.713   144101246.006       -2875.905          42.000    27421548.919   110415275.579       -2203.894          37.000  
G21  21358136.551   112237809.344        1393.298          48.000                                                                  
G02  22294455.688   117158165.198        1709.112          50.000                                                                  
E10  29044606.591   152630585.514       -2418.402          44.000    29044609.508   116950810.985       -1853.032          44.000  
G08  20961918.872   110155639.137       -1403.501          50.000    20961915.757    85835540.077       -1093.667          47.000  
R02  21739841.485   116007756.224        2882.220          53.000    21739836.396    90228435.192        2241.587          46.000  
E05  24588643.053   129214121.601        2061.385          47.000    24588643.585    99008262.776        1579.395          50.000  
S31  39504043.857   207595255.438        -620.046          43.000  
G03  23610618.590   124074630.411        1647.854          42.000    23610616.384    96681553.191        1283.999          43.000  
E34  26456826.709   139031587.556        1087.664          43.000    26456826.996   106530693.919         833.523          47.000  
E36  24561915.017   129073798.344        -402.275          48.000    24561916.157    98900755.541        -308.205          52.000  
E04  27598731.544   145032306.975       -2641.476          41.000    27598730.604   111128649.378       -2024.021          42.000  
G10  24360796.202   128016898.435       -3786.957          40.000    24360793.393    99753428.946       -2950.836          40.000  
E11  25642346.235   134751637.242       -1984.136          41.000    25642343.017   103251355.452       -1520.316          47.000  
E09  24962745.153   131180125.782        -301.457          48.000    24962744.491   100514626.849        -230.956          49.000  
G32  22505822.344   118268904.334       -1938.814          46.000    22505820.416    92157590.147       -1510.847          43.000  
E30                                                                  27984278.506                3       -859.457          23.000  
G28                                                                  26003582.049                3       1245.738          25.000  
> 2024 04 09 11 06 00.0020000  0 25                     
S33  40461256.223   212625492.964        -619.157          44.000  
G27  22304601.204   117211504.616       -3448.964          47.000    22304597.949    91333625.524       -2687.532          44.000  
R01  19856423.457   106143882.201        -907.657          47.000    19856420.291    82556425.364        -706.000          44.000  
R17  23430882.109   125383406.651        2810.946          41.000    23430880.627    97520389.993        2186.326          35.000  
R23  21889417.505   117093627.941       -2622.285          50.000                                                                  
R24  20415852.143   109172763.079         672.569          53.000    20415845.884    84912205.566         523.114          48.000  
R08  22877260.926   122506691.414       -4498.415          47.000    22877254.625    95282979.756       -3498.709          49.000  
E02  27437980.695   144187582.051       -2880.075          43.000    27437978.730   110481429.116       -2206.901          36.000  
G21  21350203.527   112196118.180        1385.632          48.000                                                                  
G02  22284711.464   117106960.549        1703.925          49.000                                                                  
E10  29058419.468   152703172.046       -2421.037          43.000    29058423.137   117006428.910       -1855.141          45.000  
G08  20969987.653   110198036.553       -1423.500          51.000    20969984.475    85868576.980       -1109.235          48.000  
R02  21723679.967   115921518.312        2866.527          51.000    21723676.063    90161361.222        2229.538          48.000  
E05  24576892.252   129152371.211        2055.032          47.000    24576893.245    98960947.504        1574.589          50.000  
S31  39507581.556   207613847.807        -619.946          43.000  
G03  23601233.651   124025312.996        1639.391          43.000    23601230.361    96643124.023        1277.478          42.000  
E34  26450613.932   138998940.818        1088.163          43.000    26450614.514   106505678.873         833.934          47.000  
E36  24564219.173   129085905.175        -405.387          48.000    24564219.844    98910032.153        -310.567          52.000  
E04  27613837.726   145111684.551       -2650.874          42.000    27613836.253   111189471.019       -2031.052          42.000  
G10  24382414.700   128130500.735       -3786.871          41.000    24382411.502    99841950.015       -2950.708          41.000  
E11  25653682.580   134811209.157       -1987.744          41.000    25653679.213   103297001.347       -1523.153          47.000  
E09  24964505.621   131189373.121        -315.564          48.000    24964504.255   100521712.418        -241.717          49.000  
G32  22516945.823   118327354.210       -1958.245          45.000    22516942.624    92203135.398       -1525.898          43.000  
E30                                                                  27990724.848                3       -869.312          25.000  
G28                                                                  25994407.795                        1251.694          26.000  
> 2024 04 09 11 06 30.0020000  0 25                     
S33  40464789.133   212644058.259        -618.899          44.000  
G27  22324327.861   117315162.426       -3462.065          49.000    22324322.392    91414397.751       -2697.795          44.000  
R01  19861584.767   106171475.474        -932.336          47.000    19861581.947    82577886.751        -725.287          44.000  
R17  23415118.837   125299055.819        2812.211          41.000    23415116.121    97454783.817        2187.808          32.000  
R23  21904160.100   117172495.161       -2636.015          49.000                                                                  
R24  20412113.746   109152773.025         659.610          52.000    20412107.812    84896657.708         513.065          49.000  
R08  22902485.400   122641766.823       -4507.134          45.000    22902480.173    95388038.266       -3505.578          49.000  
E02  27454431.744   144274036.735       -2884.009          43.000    27454431.469   110547673.557       -2209.882          37.000  
G21  21342313.383   112154655.120        1378.076          49.000                                                                  
G02  22274996.651   117055909.978        1698.934          49.000                                                                  
E10  29072245.017   152775836.048       -2423.725          43.000    29072251.078   117062106.230       -1856.961          45.000  
G08  20978168.168   110241028.956       -1443.178          50.000    20978165.769    85902077.491       -1124.519          47.000  
R02  21707607.085   115835749.261        2851.027          51.000    21707603.741    90094651.928        2217.396          49.000  
E05  24565177.571   129090807.679        2048.795          47.000    24565177.849    98913775.406        1569.940          50.000  
S31  39511118.579   207632434.937        -619.603          43.000  
G03  23591895.457   123976240.022        1631.695          43.000    23591891.658    96604885.359        1271.108          42.000  
E34  26444397.518   138966275.242        1089.115          43.000    26444398.686   106480649.406         834.336          47.000  
E36  24566540.723   129098105.315        -408.413          48.000    24566541.271    98919380.259        -312.945          52.000  
E04  27628996.050   145191343.599       -2660.210          42.000    27628994.451   111250508.355       -2038.361          41.000  
G10  24404031.555   128244095.252       -3786.639          41.000    24404028.675    99930465.040       -2950.641          40.000  
E11  25665039.103   134870886.175       -1990.956          41.000    25665035.328   103342727.795       -1525.702          47.000  
E09  24966343.979   131199040.427        -329.418          47.000    24966343.776   100529119.786        -252.402          50.000  
G32  22528178.509   118386385.517       -1977.390          45.000    22528176.105    92249133.757       -1540.817          43.000  
E30                                                                  27997240.117                3       -878.696          23.000  
G28                                                                  25985236.151                3       1253.444          26.000  
> 2024 04 09 11 07 00.0020000  0 25                     
S33  40468321.566   212662621.309        -618.971          44.000  
G28  25976069.968                3       1603.963          26.000    25976066.719                        1250.826          29.000  
G27  22344128.489   117419214.643       -3474.966          49.000    22344123.077    91495477.328       -2707.665          44.000  
R01  19866886.119   106199814.020        -957.002          47.000    19866883.403    82599927.819        -744.250          44.000  
R17  23399353.443   125214679.170        2812.844          42.000    23399349.715    97389157.556        2187.935          34.000  
R23  21918982.348   117251785.189       -2650.146          48.000                                                                  
R24  20408449.324   109133176.861         646.662          53.000    20408443.442    84881416.188         502.911          48.000  
R08  22927759.263   122777107.310       -4515.827          45.000    22927754.109    95493302.965       -3512.342          49.000  
E02  27470906.206   144360610.723       -2887.822          43.000    27470905.863   110614009.391       -2212.452          36.000  
G21  21334468.189   112113424.793        1370.361          49.000                                                                  
G02  22265312.238   117005017.919        1693.719          49.000                                                                  
E10  29086089.224   152848580.618       -2426.299          43.000    29086094.557   117117845.323       -1858.967          46.000  
G08  20986462.576   110284618.604       -1462.762          49.000    20986460.125    85936043.403       -1139.863          47.000  
R02  21691623.012   115750454.938        2835.129          52.000    21691619.085    90028311.865        2205.133          48.000  
E05  24553498.831   129029435.489        2042.553          47.000    24553499.122    98866749.925        1565.122          50.000  
S31  39514655.321   207651020.394        -619.714          43.000  
G03  23582604.122   123927414.437        1623.231          44.000    23582601.183    96566839.438        1264.956          42.000  
E34  26438179.245   138933593.894        1089.643          43.000    26438180.058   106455607.816         834.976          47.000  
E36  24568881.133   129110402.212        -411.574          49.000    24568881.344    98928802.512        -315.323          52.000  
E04  27644209.369   145271285.266       -2669.408          44.000    27644208.108   111311762.236       -2045.249          42.000  
G10  24425646.071   128357683.292       -3786.340          38.000    24425644.004   100018975.026       -2950.275          39.000  
E11  25676416.376   134930671.598       -1994.402          41.000    25676412.108   103388537.306       -1528.175          46.000  
E09  24968264.303   131209130.610        -343.402          47.000    24968264.159   100536851.187        -263.071          50.000  
G32  22539522.582   118445999.613       -1996.888          45.000    22539520.677    92295586.205       -1555.831          44.000  
E30                                                                  28003823.844                3       -877.560          22.000  
> 2024 04 09 11 07 30.0020000  0 25                     
S33  40471853.927   212681183.715        -618.929          44.000  
G28  25966907.845                        1604.766          28.000    25966909.288                        1249.862          29.000  
G27  22364003.577   117523660.078       -3488.055          48.000    22363998.717    91576863.310       -2717.792          44.000  
R01  19872327.362   106228897.705        -982.023          48.000    19872324.135    82622548.460        -763.885          44.000  
R17  23383582.428   125130279.518        2813.742          44.000    23383589.400    97323513.335        2188.120          32.000  
R23  21933882.044   117331498.838       -2664.333          46.000                                                                  
R24  20404858.782   109113978.346         633.113          52.000    20404852.873    84866483.970         492.472          48.000  
R08  22953082.038   122912709.973       -4524.694          44.000    22953075.981    95598771.570       -3519.146          49.000  
E02  27487402.404   144447302.900       -2891.767          42.000    27487403.655   110680435.804       -2215.993          37.000  
G21  21326667.265   112072429.849        1362.469          49.000                                                                  
G02  22255658.523   116954286.987        1688.235          49.000                                                                  
E10  29099947.482   152921407.098       -2428.974          42.000    29099952.547   117173647.132       -1861.314          44.000  
G08  20994871.438   110328806.015       -1483.047          49.000    20994868.313    85970475.099       -1155.530          47.000  
R02  21675727.741   115665639.417        2819.050          51.000    21675724.800    89962344.205        2192.469          49.000  
E05  24541857.282   128968257.407        2035.881          47.000    24541857.438    98819873.182        1559.910          50.000  
S31  39518191.774   207669604.502        -619.425          43.000  
G03  23573360.735   123878837.455        1615.051          44.000    23573357.938    96528987.203        1258.345          43.000  
E34  26431957.589   138900898.023        1090.156          44.000    26431958.439   106430555.115         835.179          48.000  
E36  24571239.864   129122797.645        -414.895          48.000    24571239.962    98938300.271        -317.909          51.000  
E04  27659475.723   145351509.053       -2678.922          44.000    27659473.727   111373232.273       -2052.818          42.000  
G10  24447260.877   128471264.304       -3786.053          39.000    24447257.344   100107479.552       -2950.385          39.000  
E11  25687811.965   134990567.022       -1998.688          39.000    25687809.964   103434431.108       -1531.399          46.000  
E09  24970264.994   131219644.815        -357.656          47.000    24970265.025   100544907.497        -274.006          50.000  
G32  22550977.887   118506195.879       -2016.409          45.000    22550975.488    92342492.331       -1571.534          43.000  
E30                                                                  28010479.664                3       -899.041          21.000  
> 2024 04 09 11 08 00.0020000  0 25                     
S33  40475385.864   212699743.321        -619.043          44.000  
G28  25957753.918   136408922.9871       1603.212          28.000    25957754.298                        1249.673          31.000  
G27  22383953.296   117628495.781       -3501.349          47.000    22383949.718    91658553.394       -2728.346          46.000  
R01  19877907.820   106258723.929       -1006.754          48.000    19877904.212    82645746.595        -783.041          45.000  
R17  23367807.584   125045858.725        2814.170          44.000    23367820.597                        2189.017          28.000  
R23  21948862.825   117411635.806       -2678.513          46.000                                                                  
R24  20401342.928   109095179.604         619.723          52.000    20401337.128    84851862.678         481.941          48.000  
R08  22978452.507   123048570.368       -4532.976          43.000    22978446.842    95704440.594       -3525.885          48.000  
E02  27503922.631   144534110.602       -2895.650          43.000    27503921.898   110746950.671       -2218.764          34.000  
G21  21318910.991   112031672.020        1354.401          49.000                                                                  
G02  22246035.609   116903718.095        1682.676          49.000                                                                  
E10  29113821.239   152994315.198       -2431.842          42.000    29113826.908   117229511.499       -1863.351          44.000  
G08  21003393.486   110373590.022       -1502.968          49.000    21003390.582    86005371.683       -1171.107          47.000  
R02  21659924.544   115581305.392        2802.731          52.000    21659920.935    89896751.041        2180.065          49.000  
E05  24530252.648   128907274.581        2029.249          47.000    24530252.998    98773146.038        1554.872          50.000  
S31  39521727.926   207688186.604        -619.707          43.000  
G03  23564163.708   123830508.512        1606.665          45.000    23564161.234    96491328.272        1251.957          44.000  
E34  26425733.048   138868187.402        1090.298          43.000    26425734.042   106405491.104         835.396          48.000  
E36  24573618.264   129135291.741        -418.516          49.000    24573617.615    98947873.621        -320.578          51.000  
E04  27674795.373   145432012.764       -2688.280          45.000    27674792.861   111434916.828       -2059.806          41.000  
G10  24468871.385   128584836.336       -3786.121          37.000    24468870.129   100195977.081       -2950.177          38.000  
E11  25699230.371   135050572.380       -2002.527          38.000    25699228.526   103480409.100       -1534.229          46.000  
E09  24972345.861   131230582.542        -371.876          46.000    24972346.770   100553288.333        -284.958          50.000  
G32  22562543.718   118566972.200       -2035.827          45.000    22562541.191    92389850.426       -1586.330          43.000  
E30                                                                  28017201.815                3       -902.469          18.000  
> 2024 04 09 11 08 30.0020000  0 25                     
S33  40478918.735   212718308.277        -619.272          45.000  
G28  25948606.561   136360855.869        1600.648          30.000    25948607.661   106255212.3451       1247.863          34.000  
G27  22403977.526   117733726.207       -3514.453          46.000    22403974.861    91740551.019       -2738.528          46.000  
R01  19883627.621   106289297.911       -1031.842          48.000    19883623.812    82669526.310        -802.469          45.000  
R17  23352029.748   124961425.557        2814.167          43.000    23352064.177                3       2190.658          21.000  
R23  21963924.368   117492202.857       -2693.101          47.000                                                                  
R24  20397904.545   109076790.314         605.835          52.000    20397897.807    84837559.864         471.257          48.000  
R08  23003871.774   123184690.677       -4542.020          41.000    23003866.682    95810311.790       -3532.528          49.000  
E02  27520463.573   144621038.392       -2899.708          42.000    27520462.976   110813557.649       -2222.333          35.000  
G21  21311202.111   111991160.229        1345.965          49.000                                                                  
G02  22236444.934   116853319.513        1676.738          48.000                                                                  
E10  29127711.066   153067311.922       -2434.942          40.000    29127717.823   117285443.772       -1865.693          43.000  
G08  21012030.463   110418976.804       -1523.226          50.000    21012027.827    86040737.952       -1186.731          47.000  
R02  21644213.069   115497462.320        2786.175          53.000    21644208.864    89831539.722        2167.087          49.000  
E05  24518686.519   128846495.443        2022.334          47.000    24518687.333    98726574.971        1549.584          51.000  
S31  39525264.929   207706774.167        -619.935          43.000  
G03  23555015.244   123782434.509        1597.925          45.000    23555012.873    96453867.978        1245.440          43.000  
E34  26419506.847   138835469.054        1090.507          44.000    26419507.878   106380421.151         835.664          48.000  
E36  24576015.888   129147891.956        -422.056          49.000    24576015.436    98957528.294        -323.351          52.000  
E04  27690168.660   145512801.581       -2697.927          45.000    27690166.418   111496819.842       -2067.314          41.000  
G10  24490480.155   128698404.676       -3785.645          35.000    24490481.471   100284471.765       -2949.463          36.000  
E11  25710670.702   135110694.740       -2006.052          38.000    25710670.115   103526476.826       -1537.253          46.000  
E09  24974510.276   131241950.659        -386.397          47.000    24974509.963   100561998.930        -296.063          51.000  
G32  22574219.763   118628333.736       -2055.340          45.000    22574217.547    92437664.518       -1601.551          42.000  
E30                                                                  28023997.689                3       -917.583          19.000  
> 2024 04 09 11 09 00.0020000  0 25                     
S33  40482452.282   212736879.049        -618.921          45.000  
G28  25939468.073   136312832.185        1600.365          35.000    25939467.771   106217791.451        1247.246          37.000  
G27  22424076.780   117839348.971       -3527.127          47.000    22424074.016    91822854.378       -2748.349          46.000  
R01  19889484.939   106320617.974       -1056.181          46.000    19889482.614    82693886.302        -821.619          44.000  
R17  23336249.326   124876982.113        2815.201          41.000                                                                  
R23  21979067.772   117573199.683       -2706.916          48.000                                                                  
R24  20394542.864   109058813.012         592.500          53.000    20394536.517    84823577.477         460.903          49.000  
R08  23029338.991   123321067.122       -4549.891          39.000    23029333.903    95916382.264       -3538.764          48.000  
E02  27537027.787   144708084.137       -2903.226          42.000    27537027.306   110880254.968       -2224.702          35.000  
G21  21303539.947   111950896.757        1338.251          49.000                                                                  
G02  22226886.921   116803092.851        1671.603          49.000                                                                  
E10  29141619.811   153140397.645       -2437.257          41.000    29141626.240   117341444.196       -1867.643          44.000  
G08  21020781.685   110464965.704       -1542.749          49.000    21020779.953    86076573.415       -1202.160          48.000  
R02  21628592.964   115414113.238        2770.272          52.000    21628589.624    89766712.633        2154.713          50.000  
E05  24507159.970   128785921.707        2015.964          47.000    24507160.719    98680161.304        1544.647          51.000  
S31  39528802.975   207725365.932        -619.475          43.000  
G03  23545916.436   123734615.546        1590.045          45.000    23545913.233    96416606.433        1238.869          43.000  
E34  26413278.600   138802743.259        1091.079          44.000    26413280.192   106355345.508         836.036          48.000  
E36  24578433.253   129160599.037        -425.230          49.000    24578433.475    98967264.838        -325.794          52.000  
E04  27705595.912   145593873.805       -2706.913          45.000    27705594.416   111558940.018       -2074.095          41.000  
G10  24512091.227   128811967.917       -3785.101          37.000    24512092.393   100372962.440       -2949.506          36.000  
E11  25722133.022   135170934.777       -2009.542          37.000    25722133.611   103572634.702       -1539.889          46.000  
E09  24976755.883   131253749.216        -400.232          47.000    24976755.237   100571039.317        -306.694          51.000  
G32  22586008.724   118690278.847       -2074.216          46.000    22586004.400    92485933.366       -1616.379          42.000  
E30                                                                  28030865.815                3       -920.133          21.000  
> 2024 04 09 11 09 30.0020000  0 25                     
S33  40485986.484   212755450.312        -619.010          45.000  
G28  25930336.938   136264851.853        1598.497          39.000    25930337.523   106180404.296        1245.703          40.000  
G27  22444249.588   117945358.494       -3539.967          47.000    22444246.970    91905459.134       -2758.485          45.000  
R01  19895483.073   106352679.593       -1081.075          48.000    19895480.526    82718823.065        -840.781          44.000  
R17  23320467.701   124792526.997        2815.441          40.000    23320484.662                3       2177.609          16.000  
R23  21994288.371   117654623.234       -2721.192          48.000                                                                  
R24  20391257.850   109041246.816         578.697          52.000    20391252.011    84809914.858         450.009          49.000  
R08  23054853.187   123457692.500       -4558.276          41.000    23054848.301    96022646.301       -3545.399          48.000  
E02  27553612.969   144795242.501       -2907.111          41.000    27553613.799   110947038.609       -2227.412          36.000  
G21  21295924.562   111910879.673        1329.675          48.000                                                                  
G02  22217361.470   116753036.457        1665.651          48.000                                                                  
E10  29155545.912   153213569.345       -2440.430          43.000    29155550.429   117397510.509       -1869.940          43.000  
G08  21029647.384   110511552.846       -1562.874          50.000    21029645.038    86112875.046       -1217.904          47.000  
R02  21613065.765   115331258.092        2753.578          52.000    21613063.095    89702269.729        2141.694          50.000  
E05  24495672.623   128725551.873        2008.893          47.000    24495672.557    98633903.852        1539.337          51.000  
S31  39532341.169   207743959.532        -619.837          43.000  
G03  23536864.003   123687048.446        1581.356          45.000    23536860.629    96379541.139        1232.243          42.000  
E34  26407049.636   138770007.085        1091.379          45.000    26407050.739   106330261.904         836.248          48.000  
E36  24580871.251   129173410.439        -428.699          49.000    24580871.669    98977081.319        -328.525          52.000  
E04  27721076.448   145675224.672       -2716.283          45.000    27721075.014   111621273.723       -2081.259          41.000  
G10  24533700.941   128925521.309       -3784.924          40.000    24533698.692                       -2949.561          32.000  
E11  25733619.595   135231289.773       -2013.827          39.000    25733618.857   103618880.619       -1542.824          46.000  
E09  24979081.382   131265974.967        -414.492          46.000    24979081.925   100580407.056        -317.699          51.000  
G32  22597906.556   118752802.672       -2093.724          47.000    22597902.195    92534653.160       -1631.427          41.000  
E30                                                                  28037803.779                3       -934.126          23.000  
> 2024 04 09 11 10 00.0020000  0 26                     
S33  40489520.639   212774022.701        -619.312          44.000  
G28  25921216.021   136216916.863        1597.016          42.000    25921214.463   106143052.415        1244.130          41.000  
G27  22464496.078   118051751.669       -3552.962          47.000    22464492.471    91988362.841       -2768.679          45.000  
R01  19901620.460   106385479.787       -1105.776          49.000    19901616.188    82744334.312        -859.767          44.000  
R17  23304683.800   124708061.978        2815.625          36.000    23304698.599                        2189.243          29.000  
R23  22009589.438   117736472.712       -2735.468          48.000                                                                  
R15  25334889.928                3      -2514.259          12.000                                                                  
R24  20388050.293   109024094.086         564.776          52.000    20388044.453    84796573.792         439.246          49.000  
R08  23080413.732   123594562.189       -4566.407          42.000    23080406.830    96129100.312       -3551.512          48.000  
E02  27570219.977   144882510.547       -2911.046          41.000    27570219.871   111013906.259       -2230.513          37.000  
G21  21288356.829   111871110.424        1321.466          48.000                                                                  
G02  22207869.402   116703151.320        1659.893          49.000                                                                  
E10  29169486.844   153286826.510       -2443.373          43.000    29169491.183   117453642.334       -1872.369          42.000  
G08  21038626.508   110558736.764       -1582.819          50.000    21038623.839    86149641.690       -1233.251          47.000  
R02  21597631.503   115248898.704        2737.016          52.000    21597629.094    89638212.371        2128.726          50.000  
E05  24484223.937   128665386.820        2001.969          47.000    24484223.678    98587803.312        1534.052          51.000  
S31  39535879.704   207762553.957        -619.896          43.000  
G03  23527859.516   123639732.552        1573.058          46.000    23527856.461    96342671.582        1225.517          42.000  
E34  26400819.061   138737260.069        1091.817          45.000    26400819.204   106305169.997         836.506          48.000  
E36  24583329.434   129186326.169        -432.291          49.000    24583329.479    98986977.728        -331.215          52.000  
E04  27736609.259   145756851.721       -2725.543          45.000    27736608.340   111683818.985       -2088.236          42.000  
G10  24555308.298   129039062.653       -3784.546          41.000    24555303.099                       -2948.566          31.000  
E11  25745129.099   135291759.286       -2017.646          41.000    25745125.461   103665214.314       -1546.195          45.000  
E09  24981489.354   131278627.197        -428.871          46.000    24981489.894   100590101.589        -328.701          52.000  
G32  22609913.995   118815902.755       -2112.948          47.000    22609909.801    92583821.994       -1646.529          41.000  
E30                                                                  28044806.417                3       -944.213          25.000  
> 2024 04 09 11 10 30.0020000  0 25                     
S33  40493055.105   212792596.900        -619.390          44.000  
G28  25912103.990   136169030.423        1595.327          43.000    25912100.378   106105738.382        1243.152          40.000  
G27  22484813.972   118158526.478       -3565.572          47.000    22484811.431    92071563.926       -2778.316          45.000  
R01  19907894.593   106419017.336       -1130.280          49.000    19907889.718    82770419.065        -878.983          44.000  
R17  23288901.892   124623589.499        2815.578          35.000    23288903.520    96929526.4551       2189.374          33.000  
R23  22024970.867   117818748.474       -2749.748          48.000                                                                  
R24  20384920.661   109007357.641         550.740          52.000    20384915.321    84783556.524         428.346          50.000  
R08  23106018.336   123731672.156       -4574.524          42.000    23106011.379    96235741.232       -3557.798          47.000  
E02  27586846.684   144969886.591       -2914.558          40.000    27586846.750   111080856.628       -2233.144          37.000  
G21  21280837.222   111831591.815        1312.976          48.000                                                                  
G02  22198409.396   116653439.154        1654.130          48.000                                                                  
E10  29183442.410   153360169.870       -2446.158          41.000    29183447.013   117509840.164       -1874.431          41.000  
G08  21047719.143   110606517.196       -1602.822          50.000    21047715.838    86186873.157       -1249.014          47.000  
R02  21582290.730   115167038.612        2720.227          52.000    21582288.130    89574543.366        2115.710          50.000  
E05  24472812.576   128605428.710        1994.947          45.000    24472813.983    98541861.335        1528.655          51.000  
S31  39539418.218   207781149.585        -620.059          43.000  
G03  23518904.074   123592668.399        1564.598          46.000    23518901.488    96305998.162        1219.139          43.000  
E34  26394585.784   138704502.986        1091.847          45.000    26394585.753   106280070.380         836.732          48.000  
E36  24585806.852   129199347.378        -435.905          48.000    24585807.332    98996954.975        -333.986          52.000  
E04  27752194.765   145838753.806       -2734.685          45.000    27752193.285   111746575.030       -2095.288          40.000  
G10  24576912.931   129152591.046       -3784.235          41.000    24576906.847   100638382.572       -2949.115          32.000  
E11  25756658.167   135352344.380       -2021.356          41.000    25756654.238   103711636.547       -1549.039          44.000  
E09  24983978.915   131291706.416        -443.212          47.000    24983978.769   100600123.267        -339.557          52.000  
G32  22622030.904   118879577.870       -2132.259          47.000    22622027.257    92633438.947       -1661.347          41.000  
E30                                                                  28051882.063                3       -954.727          24.000  
> 2024 04 09 11 11 00.0030000  0 25                     
S33  40496590.584   212811174.274        -619.563          44.000  
G28  25903001.007   136121195.842        1593.291          42.000    25902998.920   106068464.752        1241.371          42.000  
G27  22505205.928   118265686.291       -3578.288          47.000    22505203.013    92155064.995       -2788.225          45.000  
R01  19914306.539   106453293.936       -1154.895          49.000    19914301.811    82797078.621        -898.309          44.000  
R17  23273118.390                        2815.690          32.000    23273108.983    96863820.851        2189.982          38.000  
R23  22040431.832   117901455.138       -2764.013          49.000                                                                  
R24  20381869.755   108991041.710         536.687          52.000    20381863.918    84770866.303         417.654          49.000  
R08  23131668.150   123869025.232       -4582.067          41.000    23131660.670    96342571.232       -3563.995          47.000  
E02  27603496.078   145057373.465       -2917.968          40.000    27603495.400   111147891.923       -2235.600          38.000  
G21  21273365.631   111792326.190        1304.357          48.000                                                                  
G02  22188982.725   116603902.047        1648.147          48.000                                                                  
E10  29197417.465   153433604.211       -2449.039          41.000    29197422.321   117566107.692       -1876.618          42.000  
G08  21056925.864   110654897.111       -1622.718          50.000    21056922.578    86224571.738       -1264.334          47.000  
R02  21567044.180   115085679.909        2703.379          52.000    21567041.816    89511264.338        2102.666          50.000  
E05  24461441.813   128545679.241        1988.175          44.000    24461444.635    98496079.250        1523.321          52.000  
S31  39542957.851   207799748.884        -620.211          43.000  
G03  23509996.345   123545856.488        1556.104          47.000    23509993.466    96269521.314        1212.580          42.000  
E34  26388349.655   138671737.088        1092.331          44.000    26388350.762   106254964.017         836.867          48.000  
E36  24588305.659   129212477.306        -439.493          48.000    24588305.974    99007015.525        -336.758          52.000  
E04  27767833.569   145920934.115       -2743.922          46.000    27767832.668   111809544.297       -2102.552          41.000  
G10  24598515.238   129266110.933       -3783.856          39.000    24598514.770   100726839.443       -2948.761          34.000  
E11  25768209.910   135413049.570       -2025.238          40.000    25768206.043   103758150.756       -1551.901          44.000  
E09  24986550.000   131305215.105        -457.497          47.000    24986549.134   100610474.028        -350.441          52.000  
G32  22634258.197   118943830.488       -2151.266          48.000    22634253.945    92683505.854       -1676.228          41.000  
E30                                                                  28059027.034                3       -962.635          21.000  
> 2024 04 09 11 11 30.0030000  0 25                     
S33  40500124.716   212829747.235        -618.370          44.000  
G28  25893907.913   136073412.159        1592.231          41.000    25893907.021   106031230.783        1240.406          41.000  
G27  22525668.054   118373214.361       -3590.128          47.000    22525665.318    92238853.027       -2797.547          45.000  
R01  19920855.048   106488298.189       -1178.722          49.000    19920850.675    82824304.108        -916.745          44.000  
R17  23257330.918                        2816.631          31.000    23257317.360    96798111.155        2190.461          38.000  
R23  22055971.662   117984579.994       -2777.631          49.000                                                                  
R24  20378895.757   108975142.775         523.202          52.000    20378890.958    84758500.445         406.927          49.000  
R08  23157359.463   124006601.219       -4589.286          42.000    23157352.488    96449574.639       -3569.573          47.000  
E02  27620161.856   145144956.048       -2920.629          39.000    27620160.956   111215000.552       -2238.202          37.000  
G21  21265941.292   111753311.155        1296.615          48.000                                                                  
G02  22179589.134   116554537.920        1642.894          48.000                                                                  
E10  29211407.265   153507117.798       -2451.626          42.000    29211411.100   117622435.936       -1878.445          42.000  
G08  21066244.008   110703865.393       -1641.902          50.000    21066240.848    86262728.768       -1279.347          47.000  
R02  21551892.709   115004824.096        2687.165          53.000    21551890.081    89448376.451        2089.941          50.000  
E05  24450111.700   128486137.040        1981.560          45.000    24450113.942    98450455.979        1518.248          52.000  
S31  39546496.416   207818343.999        -619.412          43.000  
G03  23501135.284   123499292.912        1548.359          46.000    23501132.517    96233237.969        1206.373          41.000  
E34  26382111.376   138638957.764        1093.113          44.000    26382113.145   106229847.373         837.476          48.000  
E36  24590823.281   129225708.709        -442.526          48.000    24590823.654    99017153.824        -339.037          52.000  
E04  27783522.229   146003378.394       -2752.402          46.000    27783521.233   111872715.752       -2108.896          42.000  
G10  24620112.734   129379606.147       -3782.672          39.000    24620112.109   100815277.108       -2947.571          33.000  
E11  25779782.836   135473864.198       -2029.430          40.000    25779778.849   103804748.849       -1554.616          43.000  
E09  24989201.329   131319145.220        -471.165          48.000    24989199.949   100621147.699        -361.065          52.000  
G32  22646592.974   119008647.522       -2169.658          47.000    22646589.501    92734012.601       -1690.937          42.000  
E30                                                                  28066240.635                3       -974.802          18.000  
> 2024 04 09 11 12 00.0030000  0 25                     
S33  40503657.925   212848314.090        -618.786          44.000  
G28  25884824.837   136025678.446        1590.607          41.000    25884823.259   105994035.732        1239.141          41.000  
G27  22546200.103   118481109.742       -3602.662          47.000    22546196.882    92322927.253       -2807.173          45.000  
R01  19927537.981   106524027.189       -1203.051          48.000    19927534.687    82852093.285        -935.702          45.000  
R17  23241568.502                3       2816.000          19.000    23241527.174    96732394.974        2190.438          40.000  
R23  22071589.077   118068123.598       -2791.815          49.000                                                                  
R24  20376000.797   108959660.887         508.934          52.000    20375995.562    84746458.946         395.816          49.000  
R08  23183092.317   124144398.007       -4596.963          43.000    23183084.730    96556749.799       -3575.442          45.000  
E02  27636847.347   145232633.011       -2924.396          40.000    27636844.007   111282181.493       -2240.548          34.000  
G21  21258563.866   111714545.491        1287.890          48.000                                                                  
G02  22170227.874   116505344.675        1636.710          48.000                                                                  
E10  29225410.980   153580711.162       -2454.636          41.000    29225416.746   117678825.329       -1880.735          43.000  
G08  21075674.289   110753420.712       -1661.726          50.000    21075670.472    86301343.243       -1294.843          47.000  
R02  21536833.618   114924468.886        2670.068          52.000    21536830.870    89385877.910        2076.771          49.000  
E05  24438820.316   128426799.635        1974.399          46.000    24438822.444    98404989.607        1512.899          51.000  
S31  39550033.830   207836932.437        -619.482          43.000  
G03  23492320.846   123452974.003        1539.758          46.000    23492318.574    96197145.285        1199.960          42.000  
E34  26375870.636   138606162.129        1093.232          44.000    26375872.361   106204718.205         837.780          49.000  
E36  24593360.241   129239040.622        -446.292          47.000    24593360.734    99027369.137        -341.875          52.000  
E04  27799260.555   146086085.603       -2761.495          45.000    27799260.258   111936088.691       -2115.856          43.000  
G10  24641705.031   129493076.952       -3781.885          40.000    24641702.747   100903695.814       -2946.387          37.000  
E11  25791374.529   135534788.575       -2032.996          39.000    25791372.777   103851431.073       -1557.700          43.000  
E09  24991931.622   131333495.019        -485.568          47.000    24991930.870   100632142.958        -371.954          52.000  
G32  22659034.323   119074027.168       -2188.787          48.000    22659030.578    92784957.713       -1705.568          40.000  
E30                                                                  28073521.133                3       -978.412          20.000  
> 2024 04 09 11 12 30.0030000  0 25                     
S33  40507190.942   212866879.750        -618.978          44.000  
G28  25875750.867   135978002.922        1587.708          39.000    25875750.917   105956886.043        1237.513          42.000  
G27  22566803.154   118589375.294       -3615.182          47.000    22566799.260    92407289.937       -2817.057          45.000  
R01  19934357.592   106560484.384       -1227.662          47.000    19934355.147    82880448.817        -954.759          45.000  
R17  23225754.162   124285658.9231       2816.010          33.000    23225736.837    96666678.386        2190.517          42.000  
R23  22087285.092   118152090.879       -2806.217          48.000                                                                  
R24  20373185.382   108944603.948         494.599          52.000    20373180.208    84734747.935         384.728          50.000  
R08  23208866.632   124282417.359       -4604.416          45.000    23208859.598    96664098.033       -3581.408          46.000  
E02  27653549.752   145320407.460       -2927.744          39.000    27653546.377   111349437.170       -2243.129          34.000  
G21  21251235.881   111676036.312        1279.162          48.000                                                                  
G02  22160900.419   116456328.919        1630.568          47.000                                                                  
E10  29239431.989   153654389.866       -2457.765          40.000    29239437.208   117735280.107       -1883.045          42.000  
G08  21085217.439   110803567.570       -1681.712          50.000    21085213.230    86340418.652       -1310.410          47.000  
R02  21521870.329   114844622.293        2652.794          52.000    21521867.280    89323774.953        2063.268          49.000  
E05  24427569.634   128367673.984        1967.078          46.000    24427570.973    98359685.486        1507.283          51.000  
S31  39553570.664   207855520.562        -619.863          43.000  
G03  23483554.735   123406905.119        1531.186          46.000    23483551.446    96161247.399        1193.003          42.000  
E34  26369628.169   138573355.837        1093.260          44.000    26369629.437   106179580.878         837.851          49.000  
E36  24595917.542   129252479.072        -450.008          47.000    24595918.068    99037666.093        -344.813          52.000  
E04  27815050.321   146169059.412       -2770.325          46.000    27815049.622   111999665.902       -2122.891          43.000  
G10  24663294.589   129606527.344       -3781.519          42.000    24663292.664   100992098.556       -2946.863          36.000  
E11  25802990.943   135595828.517       -2036.832          39.000    25802987.755   103898201.848       -1560.688          43.000  
E09  24994742.218   131348269.762        -499.740          46.000    24994742.232   100643463.837        -382.958          52.000  
G32  22671582.998   119139972.927       -2207.764          47.000    22671578.831    92836343.983       -1720.636          40.000  
E30                                                                  28080868.991                3       -991.655          20.000  
> 2024 04 09 11 13 00.0030000  0 25                     
S33  40510724.482   212885448.603        -618.812          44.000  
G28  25866690.838   135930391.674        1586.069          40.000    25866691.414   105919786.398        1235.894          43.000  
G27  22587475.402   118698011.736       -3627.370          46.000    22587472.289    92491941.635       -2826.439          45.000  
R01  19941313.727   106597670.984       -1251.585          47.000    19941311.020    82909371.686        -973.455          44.000  
R17  23209981.264                1       2815.597          24.000    23209947.761    96600965.544        2190.095          42.000  
R23  22103061.492   118236485.180       -2820.225          49.000                                                                  
R24  20370450.370   108929978.105         480.430          52.000    20370444.484    84723372.250         373.752          49.000  
R08  23234682.551   124420658.686       -4611.613          46.000    23234674.282    96771618.952       -3586.842          46.000  
E02  27670271.440   145408280.494       -2930.722          40.000    27670269.666   111416768.347       -2245.658          35.000  
G21  21243957.551   111637788.762        1270.590          48.000                                                                  
G02  22151607.892   116407495.617        1624.799          47.000                                                                  
E10  29253470.627   153728157.320       -2460.322          40.000    29253475.728   117791802.948       -1885.404          42.000  
G08  21094872.569   110854308.239       -1701.142          49.000    21094868.939    86379956.798       -1325.667          47.000  
R02  21507003.511   114765290.837        2635.913          52.000    21507001.381    89262072.682        2050.208          50.000  
E05  24416359.979   128308764.917        1960.085          46.000    24416360.624    98314547.327        1501.856          50.000  
S31  39557108.663   207874110.763        -619.673          43.000  
G03  23474836.550   123361089.435        1523.077          46.000    23474833.673    96125546.814        1186.635          43.000  
E34  26363384.028   138540542.364        1094.106          44.000    26363385.101   106154438.051         838.219          49.000  
E36  24598495.698   129266027.988        -453.317          48.000    24598496.280    99048047.697        -347.468          52.000  
E04  27830889.992   146252301.302       -2779.060          45.000    27830890.180   112063448.573       -2129.529          43.000  
G10  24684880.267   129719959.102       -3780.627          42.000    24684878.864   101080486.808       -2945.917          36.000  
E11  25814628.156   135656987.685       -2040.506          39.000    25814626.738   103945063.982       -1563.481          43.000  
E09  24997634.232   131363472.609        -513.747          46.000    24997635.162   100655112.737        -393.717          52.000  
G32  22684238.578   119206486.196       -2226.504          47.000    22684235.738    92888172.437       -1734.661          41.000  
E30                                                                  28088286.709                3      -1002.329          24.000  
> 2024 04 09 11 13 30.0030000  0 25                     
S33  40514257.456   212904012.950        -618.844          44.000  
G28  25857643.682   135882841.352        1583.784          40.000    25857643.969   105882734.243        1233.999          44.000  
G27  22608216.803   118807010.416       -3639.353          46.000    22608214.712    92576875.590       -2835.956          45.000  
R01  19948405.563   106635578.684       -1275.814          48.000    19948402.019    82938855.451        -992.219          44.000  
R17  23194178.034   124116781.9681       2815.780          33.000    23194159.121    96535253.395        2190.266          43.000  
R23  22118917.296   118321299.824       -2834.261          48.000                                                                  
R24  20367794.825   108915779.157         465.974          52.000    20367789.196    84712328.585         362.456          49.000  
R08  23260537.589   124559111.525       -4618.882          47.000    23260529.724    96879304.330       -3592.482          45.000  
E02  27687010.514   145496243.732       -2933.574          40.000    27687008.641   111484168.690       -2247.747          36.000  
G21  21236728.291   111599798.682        1261.915          48.000                                                                  
G02  22142349.293   116358839.989        1618.692          47.000                                                                  
E10  29267524.522   153802007.728       -2462.990          41.000    29267529.695   117848389.254       -1887.408          43.000  
G08  21104639.777   110905635.748       -1720.938          49.000    21104637.042    86419952.197       -1340.998          47.000  
R02  21492233.516   114686470.653        2618.649          53.000    21492230.659    89200768.052        2036.654          50.000  
E05  24405190.646   128250067.904        1952.840          46.000    24405191.063    98269571.653        1496.432          50.000  
S31  39560645.392   207892697.152        -619.613          43.000  
G03  23466164.545   123315520.759        1514.763          45.000    23466163.402    96090038.718        1180.294          45.000  
E34  26357137.511   138507715.957        1094.287          44.000    26357138.495   106129285.292         838.532          48.000  
E36  24601093.861   129279681.955        -456.919          47.000    24601094.656    99058509.770        -350.127          52.000  
E04  27846779.968   146335803.506       -2787.849          45.000    27846780.392   112127430.663       -2136.055          45.000  
G10  24706460.807   129833364.711       -3779.901          43.000    24706458.857   101168854.639       -2945.331          38.000  
E11  25826287.028   135718260.382       -2044.445          38.000    25826286.370   103992013.079       -1566.449          43.000  
E09  25000607.756   131379097.316        -528.091          46.000    25000608.436   100667084.865        -404.557          51.000  
G32  22697002.788   119273559.012       -2245.350          48.000    22696998.915    92940436.920       -1749.391          40.000  
E30                                                                  28095771.066                3      -1008.653          23.000  
> 2024 04 09 11 14 00.0030000  0 25                     
S33  40517790.591   212922580.038        -618.946          44.000  
G28  25848607.896   135835361.391        1581.676          41.000    25848608.611   105845736.891        1232.328          44.000  
G27  22629028.110   118916375.397       -3651.301          45.000    22629026.408    92662094.976       -2845.131          45.000  
R01  19955634.431   106674212.161       -1299.782          49.000    19955628.996    82968903.677       -1010.764          44.000  
R17  23178392.677   124032304.700        2815.417          32.000    23178373.694    96469548.891        2190.022          45.000  
R23  22134851.769   118406541.091       -2848.445          48.000                                                                  
R24  20365220.535   108902016.762         451.571          51.000    20365215.744    84701624.487         351.121          49.000  
R08  23286432.743   124697778.708       -4625.626          48.000    23286425.128    96987156.433       -3597.749          46.000  
E02  27703768.645   145584301.539       -2936.631          41.000    27703765.316   111551641.485       -2250.361          36.000  
G21  21229549.283   111562074.561        1253.211          48.000                                                                  
G02  22133125.709   116310370.639        1612.620          47.000                                                                  
E10  29281593.479   153875947.726       -2466.015          38.000    29281600.228   117905044.257       -1889.678          43.000  
G08  21114519.554   110957555.634       -1740.378          49.000    21114516.905    86460409.220       -1356.155          47.000  
R02  21477559.646   114608171.355        2601.372          52.000    21477557.763    89139868.549        2023.321          51.000  
E05  24394062.268   128191591.111        1945.703          46.000    24394063.167    98224764.729        1490.799          50.000  
S31  39564182.491   207911285.980        -619.562          43.000  
G03  23457541.371   123270205.641        1506.364          46.000    23457540.579    96054728.196        1173.767          45.000  
E34  26350890.709   138474883.380        1094.735          45.000    26350890.586   106104127.825         838.753          48.000  
E36  24603713.492   129293448.195        -460.617          47.000    24603714.294    99069057.892        -352.938          52.000  
E04  27862719.768   146419570.807       -2796.501          44.000    27862720.641   112191615.882       -2142.875          45.000  
G10  24728036.876   129946749.325       -3778.778          41.000    24728035.027   101257206.084       -2944.666          35.000  
E11  25837971.217   135779653.539       -2048.413          40.000    25837969.693   104039054.468       -1569.532          44.000  
E09  25003663.293   131395150.232        -542.063          46.000    25003662.892   100679385.116        -415.342          51.000  
G32  22709874.847   119341195.982       -2263.749          48.000    22709870.433    92993140.988       -1763.905          41.000  
E30                                                                  28103327.205                3      -1008.409          16.000  
> 2024 04 09 11 14 30.0030000  0 24                     
S33  40521324.511   212941150.324        -619.251          44.000  
G28  25839587.195   135787956.560        1578.679          40.000    25839586.879   105808798.064        1230.144          44.000  
G27  22649909.545   119026106.060       -3663.698          45.000    22649907.322    92747599.299       -2854.610          45.000  
R01  19962996.237   106713571.440       -1324.091          49.000    19962992.798    82999516.420       -1029.899          44.000  
R17  23162604.528   123947841.374        2814.944          39.000    23162590.238    96403855.140        2189.534          46.000  
R23  22150866.788   118492211.031       -2862.860          49.000                                                                  
R24  20362729.853   108888695.147         436.632          52.000    20362724.826    84691263.189         339.588          49.000  
R08  23312367.893   124836657.726       -4632.812          47.000    23312359.263    97095173.366       -3603.290          47.000  
E02  27720543.456   145672453.642       -2939.954          40.000    27720540.958   111619186.492       -2252.750          37.000  
G21  21222421.895   111524620.557        1243.897          48.000                                                                  
G02  22123938.093   116262091.140        1606.168          46.000                                                                  
E10  29295680.633   153949979.321       -2469.208          36.000    29295688.271   117961769.420       -1892.030          43.000  
G08  21124512.207   111010068.858       -1760.334          49.000    21124509.769    86501328.567       -1371.789          47.000  
R02  21462984.597   114530397.578        2583.683          52.000    21462982.459    89079377.821        2009.507          50.000  
E05  24382977.331   128133338.041        1938.089          46.000    24382978.464    98180129.225        1485.021          51.000  
S31  39567721.079   207929879.043        -619.928          43.000  
G03  23448967.027   123225145.878        1497.658          46.000    23448965.859    96019616.660        1166.990          45.000  
E34  26344642.520   138442046.842        1094.785          45.000    26344641.787   106078967.325         838.768          48.000  
E36  24606355.823   129307329.340        -464.665          48.000    24606356.012    99079694.042        -356.080          53.000  
E04  27878711.295   146503603.421       -2805.496          44.000    27878711.522   112256004.384       -2149.702          45.000  
G10  24749609.281   130060113.492       -3778.265          39.000    24749605.254                       -2944.641          30.000  
E11  25849678.012   135841169.418       -2052.258          40.000    25849676.015   104086189.944       -1572.746          44.000  
E09  25006799.360   131411633.132        -556.562          46.000    25006799.656   100692014.820        -426.404          51.000  
G32  22722853.527   119409397.083       -2282.906          48.000    22722848.779    93046284.654       -1778.887          41.000  
