     3.00           OBSERVATION DATA    M: Mixed            RINEX VERSION / TYPE
CONVBIN 2.4.3                           20240409 091442 UTC PGM / RUN BY / DATE 
format: u-blox UBX                                          COMMENT             
log: data/2024-04-09/20240409090000.ubx                     COMMENT             
AQUI00CHL                                                   MARKER NAME         
                                                            MARKER NUMBER       
                                                            MARKER TYPE         
                                                            OBSERVER / AGENCY   
UNKNOWN             UBLOX-ZED-F9P                           REC # / TYPE / VERS 
UNKNOWN             TWIVSP6037L                             ANT # / TYPE        
  1713381.0000 -5047934.0000 -3490983.0000                  APPROX POSITION XYZ 
        0.0000        0.0000        0.0000                  ANTENNA: DELTA H/E/N
G    8 C1C L1C D1C S1C C2L L2L D2L S2L                      SYS / # / OBS TYPES 
R    8 C1C L1C D1C S1C C2C L2C D2C S2C                      SYS / # / OBS TYPES 
E    8 C1C L1C D1C S1C C7Q L7Q D7Q S7Q                      SYS / # / OBS TYPES 
S    4 C1C L1C D1C S1C                                      SYS / # / OBS TYPES 
  2024    04    09    09    00   00.4990000     GPS         TIME OF FIRST OBS   
  2024    04    09    09    14   30.5000000     GPS         TIME OF LAST OBS    
                                                            END OF HEADER       
> 2024 04 09 09 00 00.4990000  0 28                     
S33  39552759.773   207851307.5921       -642.935          44.000  
G23  22065546.872   115955395.4311      -3573.216          48.000    22065541.870    90354910.2881      -2784.506          46.000  
E25  24491372.235   128702990.3121      -2707.469          47.000    24491370.693    98616617.3341      -2074.504          51.000  
G26  23128708.730   121542169.7871      -4054.363          44.000    23128705.619    94708187.9311      -3159.246          42.000  
G27  20292450.849   106637596.5231        594.359          48.000    20292448.067    83094219.5651        463.183          47.000  
R01  22544153.865   120511333.3891       3728.292          45.000    22544149.988    93731108.4231       2899.917          40.000  
R22  21667173.570   115661192.8161      -2400.556          47.000    21667167.879    89958609.9451      -1867.321          48.000  
R23  20234529.539   108241113.7141       -175.756          50.000                                                                  
R24  22512054.501   120382086.8511       1705.636          46.000    22512050.489    93630564.2321       1326.857          40.000  
R08  19935317.844   106752741.5851       1105.155          48.000    19935311.503    83029911.7961        859.606          51.000  
E02  24934472.834   131031572.2971       -159.932          46.000    24934471.147   100400852.4911       -122.461          49.000  
G21  24001598.236   126129269.3251       1991.520          43.000                                                                  
E12  27911009.481   146673305.4301      -2460.298          33.000    27911006.081   112386387.1301      -1885.139          35.000  
E10  25837517.487   135777305.6591      -2199.344          44.000    25837516.339   104037281.0931      -1684.983          45.000  
G08  22037743.131   115809126.2251       2224.629          44.000    22037740.116    90240853.8481       1733.610          44.000  
G16  21154260.632   111166415.0431      -2580.966          46.000                                                                  
R13  21913308.231   117015757.2161      -3620.011          38.000    21913305.112    91012323.6681      -2815.603          42.000  
R07  21160822.038   113275608.2571      -2687.117          48.000    21160816.668    88103228.5651      -2089.978          47.000  
R14  22330329.116   119033039.5311       -159.774          47.000    22330329.110    92581415.8611       -124.509          42.000  
S31  38597998.488   202833951.2221       -643.292          43.000  
G18  24683970.788   129715108.3961      -3167.199          37.000    24683971.077                       -2468.143          31.000  
E36  24339047.014   127902610.6091         64.231          48.000    24339046.939    98003351.1211         49.149          52.000  
E04  26012138.720   136694718.9211        509.703          41.000    26012136.225   104740113.4221        390.621          47.000  
G10  19949077.012   104833186.1121      -1521.106          52.000    19949071.460    81688205.5791      -1185.335          46.000  
E11  23190498.096   121867116.9121      -1552.520          44.000    23190493.936    93378807.4101      -1189.520          49.000  
E09  26570475.828   139628808.8261       1995.255          44.000    26570474.881   106988293.9711       1528.862          47.000  
G32  23130276.063   121550436.6461       2212.858          43.000    23130275.092    94714629.8251       1724.382          45.000  
E24                                                                  27668967.692                3      -2842.521          22.000  
> 2024 04 09 09 00 30.4990000  0 28                     
S33  39556428.176   207870585.072        -642.968          44.000  
G23  22085971.003   116062724.798       -3582.455          47.000    22085965.177    90438543.547       -2791.602          44.000  
E25  24506856.426   128784357.292       -2717.192          47.000    24506854.398    98678963.459       -2082.210          51.000  
G26  23151861.804   121663841.062       -4057.314          43.000    23151858.845    94802996.727       -3161.704          42.000  
G27  20289092.647   106619945.777         581.863          49.000    20289089.277    83080465.750         453.483          47.000  
R01  22523240.714   120399535.676        3724.159          46.000    22523235.291    93644154.709        2896.596          41.000  
R22  21680678.446   115733279.558       -2405.558          47.000    21680672.967    90014677.412       -1871.036          48.000  
R23  20235527.247   108246451.620        -180.569          49.000                                                                  
R24  22502485.224   120330908.064        1705.802          48.000    22502480.753    93590758.558        1326.773          43.000  
R08  19929195.567   106719959.007        1079.744          48.000    19929189.445    83004414.227         839.880          51.000  
E02  24935425.082   131036576.156        -174.239          46.000    24935423.740   100404686.646        -133.448          50.000  
G21  23990228.455   126069517.144        1991.307          43.000                                                                  
E12  27925047.476   146747091.070       -2459.244          31.000    27925046.643   112442924.154       -1884.360          36.000  
E10  25850071.507   135843275.675       -2199.320          44.000    25850071.330   104087829.547       -1685.028          46.000  
G08  22025056.861   115742461.634        2219.250          44.000    22025054.479    90188907.483        1729.126          44.000  
G16  21169040.895   111244084.665       -2597.466          47.000                                                                  
R13  21933680.938   117124547.072       -3632.917          38.000    21933678.040    91096938.020       -2825.886          42.000  
R07  21175948.410   113356579.087       -2711.301          47.000    21175943.196    88166205.888       -2108.823          48.000  
R14  22331294.197   119038194.172        -184.497          47.000    22331294.625    92585425.035        -143.511          41.000  
S31  38601670.799   202853249.360        -643.787          43.000  
G18  24702049.857   129810112.193       -3166.561          36.000    24702047.843                       -2467.429          25.000  
E36  24338687.618   127900721.950          61.338          48.000    24338687.472    98001903.991          47.042          52.000  
E04  26009259.508   136679593.087         498.269          41.000    26009257.927   104728523.521         381.685          47.000  
G10  19957814.451   104879102.795       -1540.499          52.000    19957809.792    81723984.821       -1200.322          47.000  
E11  23199363.308   121913701.197       -1553.817          45.000    23199358.526    93414501.874       -1190.589          49.000  
E09  26559089.725   139568973.627        1993.231          44.000    26559088.848   106942446.211        1527.370          47.000  
G32  23117661.011   121484141.507        2206.191          44.000    23117659.767    94662971.311        1719.114          45.000  
R12                                                                  23866710.531                3      -3595.135          16.000  
> 2024 04 09 09 01 00.4990000  0 28                     
S33  39560096.410   207889861.214        -642.871          44.000  
G23  22106445.354   116170317.949       -3591.125          48.000    22106439.649    90522382.351       -2798.403          45.000  
E25  24522394.603   128866013.583       -2726.966          47.000    24522393.301    98741531.252       -2089.381          51.000  
G26  23175029.295   121785587.714       -4059.545          44.000    23175026.411    94897864.251       -3163.305          42.000  
G27  20285804.312   106602664.259         569.548          49.000    20285801.013    83066999.649         443.723          48.000  
R01  22502347.855   120287854.486        3720.493          45.000    22502342.932    93557291.620        2893.614          40.000  
R22  21694208.675   115805499.913       -2409.733          48.000    21694201.994    90070848.820       -1874.244          48.000  
R23  20236549.930   108251924.033        -184.815          48.000                                                                  
R12  23892787.912                3      -4622.868          16.000                                                                  
R24  22492911.429   120279712.122        1706.557          47.000    22492906.459    93550939.545        1327.278          42.000  
R08  19923214.181   106687928.935        1054.849          48.000    19923207.987    82979501.987         820.394          51.000  
E02  24936455.774   131041999.830        -187.905          45.000    24936456.082   100408842.463        -143.981          50.000  
G21  23978859.383   126009768.876        1991.350          43.000                                                                  
E12  27939075.798                       -2457.768          29.000    27939079.002   112499429.023       -1883.099          35.000  
E10  25862623.805   135909234.226       -2198.639          45.000    25862621.830   104138369.199       -1684.764          43.000  
G08  22012401.553   115675955.485        2213.947          44.000    22012398.648    90137084.535        1725.388          44.000  
G16  21183913.471   111322240.850       -2613.572          46.000                                                                  
R13  21954125.719   117233719.468       -3645.667          39.000    21954122.305    91181849.853       -2835.376          42.000  
R07  21191209.311   113438263.902       -2734.915          49.000    21191202.455    88229738.543       -2127.208          47.000  
R14  22332399.322   119044076.043        -208.323          48.000    22332396.749    92589999.839        -161.861          43.000  
S31  38605342.739   202872546.880        -643.314          43.000  
G18  24720122.323   129905083.982       -3164.879          32.000    24720123.208                       -2466.604          26.000  
E36  24338341.670   127898907.842          58.912          47.000    24338342.424    98000513.973          45.215          52.000  
E04  26006445.477   136664807.312         486.990          41.000    26006444.826   104717194.201         373.185          48.000  
G10  19966659.834   104925588.916       -1559.281          52.000    19966655.977    81760207.786       -1214.943          47.000  
E11  23208234.030   121960319.270       -1554.636          45.000    23208229.502    93450222.222       -1191.140          49.000  
E09  26547712.743   139509188.252        1991.719          45.000    26547712.582   106896636.641        1526.205          48.000  
G32  23105083.635   121418042.416        2199.779          46.000    23105081.254    94611465.515        1714.185          45.000  
> 2024 04 09 09 01 30.4990000  0 27                     
S33  39563765.381   207909141.285        -642.759          44.000  
G23  22126969.851   116278176.751       -3599.955          47.000    22126963.906    90606428.168       -2805.198          44.000  
E25  24537987.929   128947962.139       -2736.681          46.000    24537987.601    98804323.009       -2096.899          51.000  
G26  23198211.062   121907411.362       -4062.294          42.000    23198208.964    94992791.787       -3165.381          42.000  
G27  20282587.744   106585758.672         556.987          50.000    20282583.805    83053826.469         434.008          48.000  
R01  22481479.414   120176298.539        3716.221          46.000    22481474.185    93470525.920        2890.413          39.000  
R22  21707762.394   115877859.353       -2414.600          47.000    21707758.916    90127128.378       -1878.007          49.000  
R23  20237598.606   108257536.460        -189.638          47.000                                                                  
R24  22483334.085   120228503.525        1706.902          46.000    22483328.716    93511110.729        1327.606          42.000  
R08  19917375.561   106656659.358        1029.365          48.000    19917368.592    82955181.197         800.631          51.000  
E02  24937568.937   131047848.346        -202.302          46.000    24937569.145   100413323.809        -154.893          50.000  
G21  23967491.244   125950029.947        1990.700          41.000                                                                  
E12  27953105.881                       -2456.444          27.000    27953105.012   112555905.380       -1882.173          35.000  
E10  25875173.536   135975185.939       -2198.571          44.000    25875171.790   104188903.645       -1684.498          42.000  
G08  21999776.825   115609614.653        2208.404          45.000    21999774.480    90085390.427        1720.712          45.000  
G16  21198878.639   111400886.460       -2629.956          46.000                                                                  
R13  21974641.753   117343274.376       -3658.377          40.000    21974638.138    91267059.182       -2845.471          43.000  
R07  21206603.091   113520664.750       -2758.811          49.000    21206597.312    88293828.114       -2145.825          48.000  
R14  22333639.955   119050690.205        -232.870          48.000    22333637.773    92595144.197        -181.206          44.000  
S31  38609015.504   202891847.688        -643.592          43.000  
G18  24738187.677   130000028.363       -3164.449          29.000    24738184.308                3      -2475.225          18.000  
E36  24338010.751   127897172.336          56.415          47.000    24338012.251    97999184.211          43.199          52.000  
E04  26003697.620   136650367.691         475.120          41.000    26003697.241   104706130.079         364.181          48.000  
G10  19975614.746   104972647.354       -1578.343          52.000    19975610.768    81796876.714       -1230.005          46.000  
E11  23217112.580   122006975.450       -1555.954          45.000    23217107.811    93485971.790       -1192.352          49.000  
E09  26536346.950   139449459.381        1990.003          45.000    26536346.641   106850870.381        1524.674          48.000  
G32  23092544.650   121352147.327        2192.709          47.000    23092541.668    94560118.656        1708.770          45.000  
> 2024 04 09 09 02 00.4990000  0 27                     
S33  39567434.019   207928420.483        -642.083          44.000  
G23  22147544.728   116386294.925       -3607.952          47.000    22147537.638    90690676.057       -2811.466          44.000  
E25  24553636.112   129030197.686       -2745.550          46.000    24553636.437    98867334.672       -2103.796          51.000  
G26  23221406.498   122029305.481       -4064.205          43.000    23221405.144    95087774.198       -3166.792          42.000  
G27  20279441.577   106569227.463         545.018          49.000    20279437.842    83040945.024         424.768          48.000  
R01  22460634.089   120064868.354        3712.402          46.000    22460629.264    93383858.025        2887.485          40.000  
R22  21721343.858   115950354.839       -2418.431          47.000    21721338.794    90183513.745       -1880.925          48.000  
R23  20238673.321   108263286.373        -193.672          49.000                                                                  
R24  22473755.388   120177278.759        1708.036          47.000    22473749.079    93471269.293        1328.372          42.000  
R08  19911678.501   106626148.824        1004.617          49.000    19911671.182    82931450.807         781.426          52.000  
E02  24938762.264   131054118.378        -215.586          46.000    24938762.336   100418128.135        -165.247          51.000  
G21  23956123.057   125890296.191        1991.473          38.000                                                                  
E12  27967128.087                       -2454.709          26.000    27967123.231   112612350.743       -1880.851          34.000  
E10  25887721.514   136041127.248       -2197.635          44.000    25887721.215   104239430.118       -1683.746          42.000  
G08  21987184.013   115543437.847        2203.345          44.000    21987181.231    90033824.097        1716.970          45.000  
G16  21213936.058   111480015.035       -2645.455          45.000                                                                  
R13  21995228.145   117453203.816       -3670.287          40.000    21995224.122    91352559.789       -2854.423          43.000  
R07  21222129.714   113603775.229       -2781.843          50.000    21222121.256    88358469.601       -2163.688          47.000  
R14  22335016.417   119058032.506        -256.516          48.000    22335015.399    92600854.821        -199.567          44.000  
S31  38612688.329   202911147.862        -643.115          43.000  
G18  24756253.361   130094941.711       -3162.442          32.000    24756265.888                3      -2462.407          24.000  
E36  24337693.839   127895511.382          54.398          46.000    24337696.048    97997911.554          41.768          52.000  
E04  26001015.235   136636271.872         464.468          41.000    26001014.552   104695329.417         355.803          48.000  
G10  19984677.654   105020272.713       -1596.541          51.000    19984673.740    81833987.379       -1243.987          47.000  
E11  23225998.192   122053665.923       -1556.730          46.000    23225992.789    93521747.593       -1192.718          49.000  
E09  26524992.076   139389785.514        1988.554          45.000    26524990.975   106805146.253        1523.684          48.000  
G32  23080043.571   121286455.880        2186.666          46.000    23080041.153    94508930.538        1703.956          45.000  
> 2024 04 09 09 02 30.4990000  0 27                     
S33  39571101.577   207947692.480        -642.430          44.000  
G23  22168165.368   116494662.102       -3616.484          46.000    22168159.629    90775118.007       -2818.066          43.000  
E25  24569337.412   129112710.914       -2755.103          46.000    24569338.384    98930559.103       -2111.124          51.000  
G26  23244613.456   122151259.471       -4066.169          43.000    23244612.086    95182803.291       -3168.408          42.000  
G27  20276366.084   106553065.123         532.507          49.000    20276362.061    83028350.993         414.861          47.000  
R01  22439810.757   119953560.501        3708.092          45.000    22439807.694    93297285.279        2884.056          41.000  
R22  21734948.488   116022979.393       -2423.152          47.000    21734943.856    90239999.489       -1884.736          48.000  
R23  20239772.526   108269166.889        -198.520          49.000                                                                  
R24  22464170.892   120126030.447        1708.447          46.000    22464166.361    93431409.519        1328.650          42.000  
R08  19906121.127   106596392.683         979.097          48.000    19906114.804    82908307.132         761.501          51.000  
E02  24940034.093   131060802.681        -229.919          46.000    24940034.284   100423249.880        -176.133          51.000  
G21  23944755.442   125830559.950        1990.784          39.000                                                                  
E12  27981144.553                1      -2453.800          27.000    27981132.025   112668759.482       -1879.553          34.000  
E10  25900265.613   136107050.653       -2197.367          43.000    25900265.505   104289942.866       -1683.627          40.000  
G08  21974621.089   115477419.764        2197.691          44.000    21974618.503    89982381.459        1712.380          45.000  
G16  21229084.384   111559616.432       -2661.511          47.000                                                                  
R13  22015881.471   117563495.235       -3682.405          39.000    22015878.110    91438342.022       -2864.301          43.000  
R07  21237783.635   113687584.412       -2805.448          48.000    21237778.290    88423654.514       -2182.006          47.000  
R14  22336529.318   119066095.344        -280.976          48.000    22336527.258    92607125.932        -218.486          44.000  
S31  38616359.657   202930441.511        -643.286          43.000  
G18  24774309.646   130189816.469       -3161.725          33.000    24774308.857                       -2463.690          28.000  
E36  24337390.195   127893916.835          51.984          47.000    24337392.707    97996689.789          39.699          52.000  
E04  25998397.198   136622513.649         452.776          41.000    25998396.207   104684787.416         346.978          48.000  
G10  19993846.562   105068455.620       -1615.628          51.000    19993842.557    81871532.504       -1258.890          47.000  
E11  23234887.913   122100382.859       -1557.642          45.000    23234882.875    93557543.682       -1193.539          49.000  
E09  26513645.664   139330161.080        1986.436          45.000    26513644.385   106759460.013        1522.087          48.000  
G32  23067580.489   121220963.807        2179.644          45.000    23067578.150    94457897.810        1698.414          44.000  
> 2024 04 09 09 03 00.4990000  0 27                     
S33  39574767.640   207966958.297        -641.874          44.000  
G23  22188833.072   116603277.325       -3624.643          45.000    22188829.181    90859753.261       -2824.293          44.000  
E25  24585091.411   129195501.865       -2764.333          46.000    24585092.995    98993996.344       -2118.116          51.000  
G26  23267832.054   122273272.177       -4067.967          43.000    23267830.166    95277878.121       -3169.897          42.000  
G27  20273360.838   106537275.431         520.185          49.000    20273357.243    83016047.359         405.323          48.000  
R01  22419011.752   119842380.779        3703.886          44.000    22419009.338    93210812.169        2880.973          41.000  
R22  21748579.141   116095735.421       -2427.212          48.000    21748574.160    90296587.492       -1887.835          47.000  
R23  20240896.976   108275180.160        -202.636          49.000                                                                  
R24  22454581.362   120074760.266        1709.436          46.000    22454580.475    93391532.731        1329.553          44.000  
R08  19900705.129   106567394.838         953.924          48.000    19900699.452    82885753.261         742.011          51.000  
E02  24941385.153   131067903.296        -243.589          46.000    24941385.345   100428690.632        -186.689          51.000  
G21  23933388.156   125770823.752        1991.225          41.000                                                                  
E12  27995130.272                1      -2451.587          26.000    27995132.163                       -1878.767          30.000  
E10  25912807.724   136172957.878       -2196.689          43.000    25912807.366   104340443.256       -1683.021          40.000  
G08  21962089.261   115411564.434        2192.441          44.000    21962086.729    89931065.648        1708.356          45.000  
G16  21244321.995   111639690.218       -2677.053          46.000                                                                  
R13  22036602.076   117674146.517       -3694.410          37.000    22036599.634    91524404.082       -2873.436          43.000  
R07  21253571.752   113772091.301       -2828.507          51.000    21253564.934    88489382.167       -2199.956          47.000  
R14  22338177.978   119074880.016        -304.852          49.000    22338176.691    92613958.446        -237.276          46.000  
S31  38620029.902   202949727.868        -642.691          43.000  
G18  24792359.418   130284654.324       -3160.925          29.000    24792355.475   101520582.7621      -2462.584          29.000  
E36  24337100.556   127892389.928          49.798          47.000    24337102.066    97995519.814          38.239          52.000  
E04  25995843.363   136609096.068         441.433          41.000    25995843.258   104674506.453         338.400          49.000  
G10  20003121.325   105117195.931       -1633.854          52.000    20003117.522    81909511.987       -1273.056          47.000  
E11  23243782.745   122147127.652       -1558.442          45.000    23243778.107    93593361.130       -1194.152          49.000  
E09  26502309.259   139270589.936        1984.771          45.000    26502308.319   106713814.598        1520.852          48.000  
G32  23055156.987   121155676.221        2172.828          47.000    23055153.573    94407024.419        1692.923          43.000  
> 2024 04 09 09 03 30.4990000  0 27                     
S33  39578433.010   207986220.563        -642.520          44.000  
G23  22209548.796   116712140.267       -3633.353          44.000    22209544.218    90944581.557       -2831.044          44.000  
E25  24600899.036   129278571.190       -2773.983          46.000    24600900.587    99057646.883       -2125.447          51.000  
G26  23291061.835   122395343.011       -4070.222          43.000    23291059.017    95372998.233       -3171.478          41.000  
G27  20270428.183   106521862.844         507.151          49.000    20270424.609    83004037.542         395.262          48.000  
R01  22398237.474   119731335.556        3698.739          43.000    22398235.919    93124443.683        2877.053          43.000  
R22  21762233.122   116168626.016       -2432.253          46.000    21762227.970    90353280.207       -1891.638          46.000  
R23  20242045.992   108281329.903        -207.632          47.000                                                                  
R24  22444992.698   120023470.866        1709.683          47.000    22444988.187    93351641.014        1329.714          41.000  
R08  19895432.469   106539160.571         928.058          48.000    19895426.073    82863793.289         721.815          50.000  
E02  24942816.745   131075422.897        -257.952          46.000    24942816.277   100434452.411        -197.685          50.000  
G21  23922020.902   125711089.727        1990.937          40.000                                                                  
E10  25925346.563   136238851.407       -2196.608          43.000    25925348.033   104390933.102       -1683.103          41.000  
G08  21949588.987   115345876.509        2186.378          44.000    21949586.480    89879880.290        1703.735          45.000  
G16  21259649.783   111720236.816       -2693.206          47.000                                                                  
R13  22057390.602   117785154.905       -3706.533          38.000    22057387.812    91610743.894       -2882.780          42.000  
R07  21269487.746   113857295.635       -2852.190          51.000    21269481.432    88555652.153       -2218.296          46.000  
R14  22339961.561   119084388.767        -329.487          49.000    22339960.050    92621354.144        -256.111          45.000  
S31  38623699.463   202969011.447        -642.972          43.000  
E36  24336824.157   127890932.518          47.045          48.000    24336824.640    97994403.103          36.040          52.000  
E04  25993356.970   136596022.873         429.678          42.000    25993355.313   104664489.376         329.194          49.000  
G10  20012503.461   105166494.289       -1652.823          52.000    20012498.759    81947926.289       -1288.011          47.000  
E11  23252682.758   122193902.545       -1560.181          45.000    23252679.069    93629201.655       -1195.435          49.000  
E09  26490983.411   139211076.515        1982.490          44.000    26490983.240   106668213.417        1518.958          48.000  
G32  23042773.243   121090598.813        2165.352          48.000    23042769.471    94356314.760        1687.082          43.000  
E12                                                                  28009123.603                       -1877.833          29.000  
G18                                                                  24810399.230                       -2462.707          30.000  
> 2024 04 09 09 04 00.4990000  0 27                     
S33  39582097.596   208005478.385        -641.622          44.000  
G23  22230311.242   116821247.023       -3640.945          43.000    22230306.752    91029599.837       -2837.235          43.000  
E25  24616758.750   129361915.960       -2782.734          46.000    24616760.448    99121508.482       -2132.204          51.000  
G26  23314301.121   122517467.791       -4071.556          43.000    23314298.848    95468160.378       -3172.440          42.000  
G27  20267567.343   106506828.163         494.891          49.000    20267563.806    82992322.220         385.526          48.000  
R01  22377490.260   119620427.925        3694.722          45.000    22377488.787    93038182.230        2873.417          43.000  
R22  21775911.495   116241650.651       -2436.525          44.000    21775907.702    90410077.146       -1894.760          45.000  
R23  20243220.638   108287615.517        -211.787          47.000                                                                  
R24  22435397.979   119972160.949        1710.792          48.000    22435391.890    93311733.351        1330.397          39.000  
R08  19890303.786   106511691.592         902.847          49.000    19890297.388    82842428.536         702.293          51.000  
E02  24944327.409   131083360.555        -271.550          46.000    24944326.769   100440534.520        -208.014          50.000  
G21  23910654.531   125651356.523        1991.025          42.000                                                                  
E10  25937883.224   136304730.003       -2195.736          44.000    25937881.301   104441411.552       -1682.180          38.000  
G08  21937120.873   115280357.122        2181.237          44.000    21937118.615    89828826.258        1699.557          45.000  
G16  21275066.379   111801252.396       -2708.393          46.000                                                                  
R13  22078244.947   117896515.184       -3717.867          38.000    22078241.840    91697357.410       -2891.587          42.000  
R07  21285533.508   113943193.051       -2874.612          50.000    21285527.488    88622461.251       -2235.837          46.000  
R14  22341878.961   119094620.090        -352.960          47.000    22341877.780    92629311.851        -274.781          44.000  
S31  38627367.896   202988290.096        -642.350          43.000  
E36  24336559.703   127889542.833          45.188          48.000    24336559.730    97993338.289          34.597          51.000  
E04  25990935.332   136583294.205         418.640          42.000    25990932.912   104654736.230         320.715          48.000  
G10  20021990.362   105216347.570       -1670.942          53.000    20021985.549    81986773.014       -1301.971          47.000  
E11  23261589.557   122240705.990       -1560.480          44.000    23261585.417    93665064.041       -1195.852          49.000  
E09  26479669.010   139151621.652        1980.878          43.000    26479668.990   106622657.124        1517.805          47.000  
G32  23030429.589   121025733.698        2158.742          47.000    23030425.900    94305770.492        1682.254          43.000  
E12                                                                  28023108.918   112837780.443       -1876.303          30.000  
G18                                                                  24828422.231                3      -2460.967          23.000  
> 2024 04 09 09 04 30.4990000  0 27                     
S33  39585761.511   208024731.451        -642.014          44.000  
G23  22251119.355   116930595.695       -3649.276          42.000    22251114.891    91114806.598       -2843.374          44.000  
E25  24632671.107   129445535.258       -2792.060          46.000    24632672.466    99185580.421       -2139.321          51.000  
G26  23337550.527   122639644.375       -4073.580          42.000    23337547.702    95563362.926       -3174.333          41.000  
G27  20264778.448   106492174.239         481.950          49.000    20264775.442    82980903.591         375.499          48.000  
R01  22356770.078   119509662.802        3689.551          45.000    22356768.355    92952031.615        2869.588          43.000  
R22  21789616.507   116314810.790       -2441.145          44.000    21789612.850    90466979.489       -1898.558          45.000  
R23  20244421.616   108294039.213        -216.615          49.000                                                                  
R24  22425798.456   119920831.769        1711.210          48.000    22425792.810    93271810.698        1330.696          39.000  
R08  19885317.769   106484990.858         876.990          50.000    19885310.659    82821661.319         682.124          50.000  
E02  24945917.608   131091717.315        -285.552          47.000    24945916.983   100446937.782        -218.998          51.000  
G21  23899288.577   125591624.562        1991.121          42.000                                                                  
E10  25950417.123   136370594.598       -2195.465          44.000    25950417.137   104491879.244       -1682.103          41.000  
G08  21924685.911   115215009.410        2175.449          44.000    21924683.132    89777905.998        1695.064          45.000  
G16  21290572.043   111882734.601       -2724.068          47.000                                                                  
R13  22099164.722   118008223.336       -3729.492          39.000    22099162.063    91784241.510       -2900.661          43.000  
R07  21301710.348   114029781.613       -2898.017          51.000    21301703.974    88689807.919       -2254.039          47.000  
R14  22343933.290   119105574.609        -377.316          47.000    22343934.016    92637832.008        -293.590          45.000  
S31  38631035.801   203007564.788        -642.514          43.000  
G18  24846467.527                3      -3156.860          23.000    24846456.240                       -2459.988          29.000  
E36  24336307.982   127888221.182          42.689          48.000    24336307.850    97992325.622          32.748          51.000  
E04  25988578.825   136570912.075         406.752          43.000    25988576.098   104645248.626         311.742          48.000  
G10  20031581.845   105266754.715       -1689.666          52.000    20031577.653    82026051.329       -1316.617          47.000  
E11  23270500.731   122287538.672       -1561.556          44.000    23270497.533    93700948.822       -1196.492          49.000  
E09  26468367.060   139092228.271        1978.566          44.000    26468366.808   106577147.928        1515.970          47.000  
G32  23018127.156   120961084.895        2151.056          46.000    23018124.356    94255394.804        1676.191          43.000  
E12                                                                  28037083.496                       -1875.048          29.000  
> 2024 04 09 09 05 00.4990000  0 27                     
S33  39589424.412   208043981.853        -641.920          44.000  
G23  22271973.284   117040183.846       -3657.107          42.000    22271969.235    91200199.943       -2849.652          44.000  
E25  24648635.975   129529427.653       -2800.935          47.000    24648636.618    99249861.617       -2146.264          51.000  
G26  23360809.201   122761870.190       -4075.080          43.000    23360806.311    95658603.827       -3175.479          40.000  
G27  20262062.864   106477903.404         469.337          49.000    20262059.426    82969783.462         365.630          47.000  
R01  22336076.658   119399044.845        3684.794          44.000    22336073.950    92865995.505        2865.883          42.000  
R22  21803348.728   116388107.508       -2445.827          45.000    21803344.183    90523987.947       -1901.942          45.000  
R23  20245648.704   108300601.771        -221.179          49.000                                                                  
R24  22416195.833   119869483.630        1711.881          47.000    22416191.531    93231873.311        1331.660          41.000  
R08  19880474.599   106459061.378         851.274          50.000    19880467.501    82801493.948         662.132          50.000  
E02  24947587.522   131100493.794        -299.790          47.000    24947587.137   100453662.597        -229.563          51.000  
G21  23887922.608   125531894.922        1990.856          44.000                                                                  
E10  25962947.499   136436445.514       -2194.949          44.000    25962947.329   104542336.456       -1681.800          40.000  
G08  21912283.455   115149836.029        2169.469          45.000    21912281.176    89727121.585        1690.349          44.000  
G16  21306166.140   111964681.769       -2739.338          47.000                                                                  
R13  22120148.545   118120275.237       -3740.428          38.000    22120146.059    91871392.976       -2909.487          43.000  
R07  21318013.539   114117058.665       -2920.772          51.000    21318007.442    88757690.028       -2271.645          46.000  
R14  22346126.203   119117252.260        -401.462          49.000    22346125.577    92646914.611        -312.303          45.000  
S31  38634702.809   203026835.848        -642.501          44.000  
G18  24864476.857   130663707.4873      -3155.802          28.000    24864469.952                1      -2459.476          28.000  
E36  24336068.712   127886967.376          40.542          48.000    24336069.148    97991364.952          31.095          50.000  
E04  25986288.095   136558878.095         395.159          42.000    25986286.292   104636027.820         302.866          48.000  
G10  20041278.718   105317714.131       -1707.880          52.000    20041274.770    82065759.966       -1330.855          47.000  
E11  23279418.255   122334400.615       -1562.638          44.000    23279414.999    93736856.040       -1197.377          49.000  
E09  26457077.299   139032898.729        1976.359          44.000    26457076.772   106531687.646        1514.502          47.000  
G32  23005866.803   120896656.062        2143.873          46.000    23005864.296    94205190.537        1670.492          44.000  
E12                                                                  28051051.190                       -1874.773          29.000  
> 2024 04 09 09 05 30.4990000  0 27                     
S33  39593087.462   208063230.352        -641.527          44.000  
G23  22292872.897   117150011.323       -3665.118          42.000    22292868.391    91285779.792       -2855.868          44.000  
E25  24664652.644   129613593.931       -2810.092          46.000    24664652.703    99314352.653       -2153.227          51.000  
G26  23384076.602   122884144.806       -4076.617          42.000    23384074.464    95753882.756       -3176.636          41.000  
G27  20259420.581   106464020.226         456.268          49.000    20259417.022    82958965.414         355.430          47.000  
R01  22315413.667   119288580.852        3679.350          46.000    22315408.955    92780079.110        2861.891          41.000  
R22  21817105.702   116461544.106       -2450.308          45.000    21817101.213    90581105.318       -1905.704          45.000  
R23  20246902.969   108307306.736        -225.916          50.000                                                                  
R24  22406588.231   119818119.254        1712.104          44.000    22406586.470    93191923.271        1331.817          42.000  
R08  19875777.268   106433907.760         825.312          49.000    19875770.254    82781930.043         641.896          50.000  
E02  24949338.055   131109692.693        -313.672          47.000    24949337.223   100460711.119        -240.364          50.000  
G21  23876557.515   125472169.266        1990.590          45.000                                                                  
E10  25975476.646   136502285.385       -2194.551          44.000    25975475.561   104592785.245       -1681.553          40.000  
G08  21899915.341   115084841.801        2163.116          46.000    21899913.099    89676476.750        1685.557          44.000  
G16  21321848.904   112047094.125       -2754.808          46.000                                                                  
R13  22141195.730   118232668.893       -3752.517          37.000    22141194.429    91958810.229       -2918.225          43.000  
R07  21334445.465   114205023.798       -2943.663          48.000    21334440.284    88826107.322       -2289.544          46.000  
R14  22348454.763   119129654.859        -425.622          50.000    22348452.948    92656561.106        -331.118          46.000  
S31  38638369.742   203046105.366        -642.255          43.000  
G18  24882501.186   130758373.2051      -3155.303          28.000    24882493.523                       -2457.458          30.000  
E36  24335843.196   127885783.461          38.253          47.000    24335844.120    97990457.813          29.372          51.000  
E04  25984064.471   136547196.105         383.372          42.000    25984063.341   104627076.706         293.796          48.000  
G10  20051081.429   105369226.473       -1726.414          52.000    20051077.053    82105899.452       -1345.322          47.000  
E11  23288342.403   122381294.156       -1563.876          45.000    23288338.447    93772787.464       -1198.269          49.000  
E09  26445799.665   138973637.631        1974.247          44.000    26445799.981   106486279.832        1512.597          48.000  
G32  22993650.284   120832453.079        2136.156          47.000    22993646.918    94155162.252        1664.694          44.000  
E12                                                                  28065009.905                       -1873.198          29.000  
> 2024 04 09 09 06 00.5000000  0 27                     
S33  39596749.709   208082475.099        -641.265          44.000  
G23  22313817.250   117260075.851       -3672.487          42.000    22313813.705    91371544.369       -2861.866          44.000  
E25  24680720.722   129698031.907       -2818.988          46.000    24680720.472    99379051.879       -2160.003          50.000  
G26  23407354.072   123006466.151       -4077.966          42.000    23407351.730    95849198.059       -3177.434          42.000  
G27  20256852.042   106450523.039         443.327          49.000    20256849.041    82948448.150         345.626          47.000  
R01  22294778.058   119178267.856        3674.370          47.000    22294771.963    92694280.118        2858.125          39.000  
R22  21830890.232   116535120.374       -2454.733          47.000    21830884.287    90638331.305       -1909.277          43.000  
R23  20248182.684   108314151.792        -230.612          49.000                                                                  
R24  22396979.719   119766733.932        1713.209          45.000    22396977.079    93151956.959        1331.942          41.000  
R08  19871224.011   106409528.586         799.656          49.000    19871218.182    82762968.477         621.947          51.000  
E02  24951168.083   131119311.367        -327.639          46.000    24951167.496   100468081.288        -251.096          50.000  
G21  23865192.647   125412443.885        1990.796          45.000                                                                  
E10  25988002.876   136568113.158       -2193.946          44.000    25988002.748   104643224.738       -1681.040          40.000  
G08  21887580.670   115020023.659        2157.732          46.000    21887578.741    89625969.160        1681.082          44.000  
G16  21337619.045   112129968.275       -2770.005          45.000                                                                  
R13  22162307.197   118345400.214       -3763.189          38.000    22162305.200    92046490.149       -2926.831          42.000  
R07  21351006.767   114293673.432       -2966.215          48.000    21351000.353    88895057.040       -2306.977          44.000  
R14  22350916.313   119142779.884        -449.617          50.000    22350914.974    92666769.430        -349.613          47.000  
S31  38642036.043   203065371.666        -642.184          43.000  
G18  24900499.569   130853007.284       -3153.759          28.000    24900498.234                       -2457.465          28.000  
E36  24335630.847   127884665.639          36.057          47.000    24335631.671    97989601.317          27.711          51.000  
E04  25981908.927   136535863.806         371.713          42.000    25981907.157   104618393.519         284.842          48.000  
G10  20060988.694   105421288.299       -1744.498          52.000    20060983.886    82146467.111       -1359.229          47.000  
E11  23297271.950   122428217.372       -1564.588          45.000    23297267.719    93808741.619       -1198.831          49.000  
E09  26434535.504   138914441.834        1972.012          43.000    26434535.487   106440922.030        1510.965          47.000  
G32  22981475.214   120768473.853        2128.727          46.000    22981471.122    94105308.330        1658.848          43.000  
E12                                                                  28078961.824                       -1872.385          29.000  
> 2024 04 09 09 06 30.0000000  0 27                     
S33  39600350.011   208101395.000        -641.279          44.000  
G23  22334455.150   117368528.430       -3680.190          41.000    22334451.757    91456052.863       -2867.709          45.000  
E25  24696570.072   129781321.343       -2827.805          46.000    24696569.994    99442871.054       -2166.779          50.000  
G26  23430250.306   123126784.548       -4079.377          43.000    23430248.067    95942952.672       -3178.595          42.000  
G27  20254398.857   106437631.059         430.592          50.000    20254395.542    82938402.465         335.373          47.000  
R01  22274514.798   119069952.936        3668.957          46.000    22274509.389    92610035.212        2853.502          40.000  
R22  21844468.867   116607603.361       -2459.437          47.000    21844461.997    90694707.017       -1912.993          43.000  
R23  20249466.458   108321021.267        -235.166          50.000                                                                  
R24  22387528.169   119716188.995        1713.785          44.000    22387524.343    93112644.282        1332.843          40.000  
R08  19866889.518   106386316.259         774.022          49.000    19866883.862    82744914.451         602.031          51.000  
E02  24953045.773   131129179.692        -341.614          46.000    24953045.086   100475642.722        -261.684          49.000  
G21  23854016.686   125353718.391        1990.594          44.000                                                                  
E12  28092683.180                3      -2442.641          26.000    28092674.073   113117897.632       -1870.939          29.000  
E10  26000316.624   136632828.900       -2193.662          43.000    26000317.269   104692812.181       -1680.889          40.000  
G08  21875486.096   114956465.135        2151.587          47.000    21875484.166    89576443.066        1676.481          44.000  
G16  21353211.182   112211904.447       -2784.976          47.000                                                                  
R13  22183127.097   118456571.385       -3774.066          38.000    22183124.035    92132956.619       -2935.339          42.000  
R07  21367414.404   114381505.800       -2988.493          48.000    21367409.290    88963371.053       -2324.397          46.000  
R14  22353468.440   119156390.066        -473.198          48.000    22353466.497    92677355.119        -368.325          44.000  
S31  38645640.506   203084312.666        -642.010          43.000  
G18  24918201.047   130946027.715       -3153.078          27.000    24918199.421                       -2456.991          29.000  
E36  24335433.507   127883631.526          33.853          47.000    24335434.885    97988808.961          25.970          51.000  
E04  25979852.487   136525064.272         360.231          41.000    25979852.049   104610118.583         275.955          48.000  
G10  20070831.416   105473013.952       -1762.352          51.000    20070827.622    82186772.854       -1373.355          48.000  
E11  23306057.504   122474385.303       -1565.724          45.000    23306053.441    93844117.050       -1199.789          49.000  
E09  26423472.686   138856303.281        1969.454          44.000    26423472.228   106396374.304        1509.173          48.000  
G32  22969546.104   120705787.578        2120.963          47.000    22969542.672    94056461.902        1652.789          44.000  
> 2024 04 09 09 07 00.0000000  0 27                     
S33  39604009.778   208120626.642        -641.149          45.000  
G23  22355484.723   117479040.434       -3687.515          40.000    22355480.872    91542166.119       -2873.418          43.000  
E25  24712737.518   129866280.743       -2836.450          46.000    24712737.381    99507969.810       -2173.431          51.000  
G26  23453540.188   123249173.888       -4080.038          43.000    23453537.719    96038320.984       -3179.321          42.000  
G27  20251976.720   106424902.858         417.670          49.000    20251973.288    82928484.387         325.513          47.000  
R01  22253937.745   118959958.958        3663.558          45.000    22253933.458    92524484.374        2849.417          40.000  
R22  21858301.515   116681447.373       -2463.834          45.000    21858295.881    90752141.253       -1916.424          44.000  
R23  20250798.017   108328142.958        -239.763          49.000                                                                  
R24  22377911.774   119664763.426        1714.516          43.000    22377906.641    93072646.717        1333.424          40.000  
R08  19862625.334   106363478.682         748.080          49.000    19862619.032    82727151.918         581.958          50.000  
E02  24955033.826   131139626.697        -355.385          47.000    24955032.820   100483647.585        -272.230          49.000  
G21  23842650.715   125293994.184        1990.729          42.000                                                                  
E10  26012837.464   136698622.678       -2192.894          43.000    26012837.905   104743225.596       -1680.185          41.000  
G08  21863219.995   114892005.860        2145.366          47.000    21863217.831    89526215.068        1671.844          44.000  
G16  21369151.931   112295675.503       -2799.921          47.000                                                                  
R13  22204358.351   118569944.118       -3784.892          38.000    22204354.766    92221135.375       -2943.587          41.000  
R07  21384224.586   114471491.642       -3010.767          46.000    21384218.161    89033360.051       -2341.809          44.000  
R14  22356197.892   119170940.433        -497.106          48.000    22356195.136    92688672.068        -386.804          43.000  
S31  38649303.871   203103565.434        -641.664          43.000  
G18  24936193.977                       -3151.237          25.000    24936190.390                       -2455.957          31.000  
E36  24335244.604   127882639.590          31.892          47.000    24335246.136    97988048.918          24.490          51.000  
E04  25977829.966   136514426.381         348.659          42.000    25977827.413   104601967.462         267.170          48.000  
G10  20080942.290   105526150.757       -1780.290          50.000    20080939.707    82228178.154       -1387.344          48.000  
E11  23314996.246   122521358.287       -1566.212          45.000    23314992.167    93880109.324       -1200.057          50.000  
E09  26412234.481   138797245.236        1967.299          45.000    26412233.682   106351122.032        1507.402          48.000  
G32  22957457.481   120642264.490        2113.515          47.000    22957455.104    94006963.393        1646.895          45.000  
E12                                                                  28106610.182                       -1870.216          29.000  
> 2024 04 09 09 07 30.0000000  0 28                     
S33  39607668.032   208139851.690        -640.903          45.000  
G23  22376556.661   117589775.639       -3694.979          40.000    22376553.209    91628453.261       -2879.305          43.000  
E25  24728954.470   129951501.581       -2845.297          46.000    24728954.480    99573268.886       -2180.064          51.000  
G26  23476835.760   123371595.017       -4081.366          42.000    23476833.940    96133714.061       -3180.151          42.000  
G27  20249628.655   106412564.947         404.631          49.000    20249625.347    82918870.443         315.220          46.000  
R01  22233391.374   118850130.126        3657.920          45.000    22233386.877    92439062.018        2844.951          40.000  
R22  21872160.985   116755428.373       -2468.467          45.000    21872153.895    90809682.009       -1919.935          43.000  
R23  20252155.725   108335405.394        -244.545          50.000                                                                  
R12  24227510.166                3      -4862.041          11.000                                                                  
R24  22368292.169   119613317.029        1715.163          45.000    22368285.348    93032632.910        1334.024          39.000  
R08  19858505.465   106341421.047         722.098          49.000    19858499.568    82709995.999         561.642          50.000  
E02  24957102.345   131150491.573        -369.376          48.000    24957100.512   100491972.625        -282.982          49.000  
G21  23831285.220   125234269.448        1990.814          41.000                                                                  
E10  26025354.775   136764400.291       -2192.560          42.000    26025353.487   104793626.660       -1679.864          40.000  
G08  21850988.842   114827729.731        2139.347          48.000    21850986.110    89476129.799        1667.018          43.000  
G16  21385178.601   112379895.934       -2815.006          48.000                                                                  
R13  22225649.245   118683635.202       -3794.978          39.000    22225645.824    92309561.746       -2951.714          40.000  
R07  21401161.538   114562147.593       -3033.090          46.000    21401154.706    89103870.226       -2359.135          45.000  
R14  22359062.202   119186208.654        -521.067          50.000    22359061.226    92700547.366        -405.319          46.000  
S31  38652966.428   203122812.344        -641.556          44.000  
E36  24335068.512   127881710.186          29.596          47.000    24335069.443    97987336.788          22.786          51.000  
E04  25975870.762   136504140.006         336.729          41.000    25975869.860   104594085.731         258.084          48.000  
G10  20091155.906   105579827.270       -1798.250          49.000    20091153.533    82270004.011       -1401.315          47.000  
E11  23323939.512   122568356.666       -1567.338          45.000    23323935.653    93916121.080       -1200.770          49.000  
E09  26401009.414   138738258.501        1964.806          45.000    26401009.064   106305924.411        1505.583          48.000  
G32  22945413.743   120578975.004        2105.698          46.000    22945412.220    93957646.923        1640.842          46.000  
E12                                                                  28120537.931                       -1868.399          29.000  
G18                                                                  24954176.739   102183161.3401      -2454.986          32.000  
> 2024 04 09 09 08 00.5000000  0 27                     
S33  39611386.795   208159394.401        -641.133          45.000  
G23  22398022.758   117702586.267       -3702.892          38.000    22398020.644    91716357.608       -2885.307          43.000  
E25  24745492.789   130038412.741       -2854.270          46.000    24745493.207    99639863.154       -2187.024          50.000  
G26  23500526.309   123496089.872       -4082.705          42.000    23500523.261    96230723.024       -3181.173          40.000  
G27  20247318.854   106400427.269         390.950          49.000    20247315.671    82909412.541         304.562          46.000  
R01  22212535.519   118738648.072        3651.802          46.000    22212530.868    92352353.785        2840.040          39.000  
R22  21886277.023   116830787.531       -2473.394          45.000    21886272.688    90868294.660       -1923.801          45.000  
R23  20253563.730   108342937.960        -249.728          50.000                                                                  
R24  22358506.885   119560995.877        1715.374          45.000    22358501.233    92991938.672        1333.984          41.000  
R08  19854469.230   106319801.723         695.108          50.000    19854463.042    82693180.978         540.667          51.000  
E02  24959287.101   131161969.814        -383.701          48.000    24959285.058   100500767.655        -294.056          49.000  
G21  23819730.934   125173552.725        1990.607          42.000                                                                  
E10  26038078.227   136831261.542       -2192.270          42.000    26038076.680   104844858.036       -1679.705          40.000  
G08  21838590.712   114762576.261        2132.689          48.000    21838587.998    89425360.879        1661.941          43.000  
G16  21401560.207   112465982.128       -2830.426          47.000                                                                  
R13  22247355.589   118799546.378       -3805.825          38.000    22247351.404    92399714.841       -2959.975          38.000  
R07  21418506.536   114655002.118       -3056.022          45.000    21418497.865    89176090.403       -2377.014          43.000  
R14  22362113.232   119202470.391        -545.625          50.000    22362112.998    92713195.347        -424.422          46.000  
S31  38656689.320   203142376.365        -641.625          44.000  
E36  24334902.437   127880832.621          27.270          48.000    24334902.082    97986664.388          21.044          51.000  
E04  25973950.784   136494047.669         324.665          41.000    25973949.359   104586352.648         248.718          48.000  
G10  20101646.781   105634953.401       -1816.862          50.000    20101642.952    82312959.393       -1415.671          47.000  
E11  23333037.647   122616167.946       -1568.125          45.000    23333033.574    93952755.712       -1201.666          49.000  
E09  26389613.555   138678367.704        1962.062          46.000    26389612.263   106260034.061        1503.413          48.000  
G32  22933216.607   120514877.326        2097.164          47.000    22933214.973    93907700.712        1634.151          46.000  
E12                                                                  28134685.016                3      -1868.771          22.000  
G18                                                                  24972455.901   102258013.959       -2454.078          33.000  
> 2024 04 09 09 08 30.5000000  0 27                     
S33  39615043.304   208178609.499        -640.747          44.000  
G23  22419180.928   117813767.088       -3710.139          39.000    22419175.882    91802992.030       -2891.155          42.000  
E25  24761809.397   130124159.081       -2862.814          46.000    24761810.120    99705564.882       -2193.556          50.000  
G26  23523833.579   123618569.886       -4083.282          42.000    23523830.379    96326162.015       -3181.893          39.000  
G27  20245122.988   106388886.023         377.922          49.000    20245119.345    82900419.373         294.263          46.000  
R01  22192054.328   118629168.471        3645.978          47.000    22192051.023    92267202.991        2836.146          40.000  
R22  21900188.997   116905050.770       -2478.140          46.000    21900185.245    90926054.987       -1927.339          46.000  
R23  20254975.118   108350490.609        -254.609          49.000                                                                  
R24  22348878.560   119509511.718        1716.119          44.000    22348873.460    92951895.420        1334.887          42.000  
R08  19850646.706   106299327.823         669.117          51.000    19850638.987    82677256.851         520.299          51.000  
E02  24961515.460   131173681.466        -397.616          48.000    24961513.741   100509741.520        -304.764          50.000  
G21  23808366.539   125113830.448        1990.472          42.000                                                                  
E10  26050590.816   136897010.525       -2191.600          42.000    26050588.648   104895237.143       -1679.201          41.000  
G08  21826431.545   114698680.279        2126.328          48.000    21826428.899    89375571.817        1656.970          43.000  
G16  21417758.419   112551104.447       -2845.121          46.000                                                                  
R13  22268764.133   118913868.843       -3816.091          37.000    22268759.761    92488632.305       -2967.848          37.000  
R07  21435693.361   114747003.793       -3077.827          43.000    21435685.606    89247647.159       -2394.147          45.000  
R14  22365249.419   119219188.095        -569.518          48.000    22365248.413    92726198.018        -442.995          45.000  
S31  38660349.972   203161613.137        -641.473          44.000  
E36  24334749.849   127880031.374          25.362          47.000    24334749.657    97986050.483          19.401          51.000  
E04  25972130.193   136484477.705         312.644          40.000    25972128.216   104579019.798         239.665          48.000  
G10  20112068.398   105689715.810       -1834.525          51.000    20112064.108    82355631.401       -1429.512          47.000  
E11  23341990.971   122663220.544       -1569.168          44.000    23341987.161    93988809.005       -1202.239          49.000  
E09  26378417.500   138619534.750        1959.461          45.000    26378416.506   106214954.287        1501.394          49.000  
G32  22921265.849   120452072.598        2089.202          48.000    22921262.994    93858761.969        1627.895          46.000  
E12                                                                  28148602.229                3      -1870.391          22.000  
G18                                                                  24990427.649   102331610.174       -2452.783          32.000  
> 2024 04 09 09 09 00.5000000  0 27                     
S33  39618699.930   208197825.360        -640.918          45.000  
G23  22440381.062   117925170.115       -3717.416          40.000    22440375.306    91889799.591       -2896.578          41.000  
E25  24778176.593   130210168.587       -2871.661          46.000    24778177.350    99771468.265       -2200.254          50.000  
G26  23547146.007   123741080.050       -4084.260          41.000    23547143.256    96421624.479       -3182.724          39.000  
G27  20243003.912   106377748.136         364.234          49.000    20242999.638    82891740.512         283.790          46.000  
R01  22171609.155   118519873.886        3639.718          48.000    22171605.003    92182196.134        2830.393          39.000  
R22  21914129.318   116979460.503       -2483.020          47.000    21914124.918    90983929.217       -1931.333          46.000  
R23  20256415.211   108358194.383        -259.551          49.000                                                                  
R24  22339248.981   119458014.362        1716.657          43.000    22339243.773    92911841.970        1335.013          42.000  
R08  19846972.369   106279648.058         642.477          51.000    19846963.234    82661950.371         499.755          50.000  
E02  24963824.092   131185818.530        -411.961          48.000    24963823.366   100519041.355        -315.573          49.000  
G21  23797002.639   125054115.268        1990.021          42.000                                                                  
E10  26063101.803   136962750.784       -2191.530          42.000    26063098.389   104945609.540       -1679.107          41.000  
G08  21814309.905   114634981.674        2119.838          48.000    21814307.412    89325936.557        1651.914          43.000  
G16  21434041.425   112636675.780       -2860.201          45.000                                                                  
R13  22290231.397   119028503.022       -3826.525          36.000    22290228.313    92577792.221       -2976.510          37.000  
R07  21453005.631   114839673.137       -3100.447          45.000    21452996.174    89319723.392       -2411.293          45.000  
R14  22368520.376   119236628.968        -593.534          47.000    22368518.810    92739763.135        -461.735          44.000  
S31  38664010.706   203180850.381        -641.824          43.000  
E36  24334609.427   127879298.262          23.178          47.000    24334610.305    97985488.774          17.760          51.000  
E04  25970377.988   136475269.964         300.662          41.000    25970376.459   104571964.565         230.344          49.000  
G10  20122592.623   105745018.943       -1852.735          51.000    20122588.494    82398724.742       -1443.615          48.000  
E11  23350951.131   122710305.055       -1570.237          45.000    23350947.010    94024886.765       -1203.265          49.000  
E09  26367237.807   138560786.491        1956.491          45.000    26367237.183   106169939.414        1499.250          49.000  
G32  22909362.306   120389518.548        2080.902          48.000    22909358.761    93810018.530        1621.360          45.000  
E12                                                                  28162505.155                3      -1863.760          25.000  
G18                                                                  25008393.359                       -2452.173          31.000  
> 2024 04 09 09 09 30.5000000  0 27                     
S33  39622355.832   208217037.194        -640.326          44.000  
G23  22461621.430   118036788.127       -3724.280          40.000    22461616.463    91976774.684       -2902.337          43.000  
E25  24794593.114   130296434.828       -2880.038          46.000    24794593.488    99837568.366       -2206.820          50.000  
G26  23570463.369   123863612.857       -4085.177          41.000    23570460.321    96517104.551       -3182.908          39.000  
G27  20240960.624   106367010.925         351.055          50.000    20240956.768    82883373.847         273.465          47.000  
R01  22151197.542   118410763.518        3633.667          47.000    22151193.497    92097332.507        2825.795          39.000  
R22  21928094.647   117054012.562       -2487.716          46.000    21928091.330    91041914.142       -1934.981          46.000  
R23  20257883.108   108366044.942        -264.338          51.000                                                                  
R24  22329614.789   119406499.638        1717.174          44.000    22329610.620    92871774.966        1335.669          43.000  
R08  19843444.659   106260759.517         616.207          51.000    19843437.020    82647259.308         479.269          51.000  
E02  24966214.014   131198376.510        -425.930          48.000    24966212.808   100528663.703        -326.288          49.000  
G21  23785639.790   124994402.199        1990.295          41.000                                                                  
E10  26075607.554   137028477.755       -2190.934          40.000    26075605.724   104995971.780       -1678.976          42.000  
G08  21802225.307   114571478.264        2113.304          48.000    21802222.844    89276453.394        1646.519          43.000  
G16  21450408.859   112722688.780       -2874.613          46.000                                                                  
R13  22311756.376   119143439.813       -3836.357          35.000    22311750.980    92667187.508       -2984.069          34.000  
R07  21470438.035   114933002.538       -3122.008          46.000    21470432.878    89392312.910       -2428.150          45.000  
R14  22371927.243   119254787.596        -617.470          48.000    22371925.025    92753886.543        -480.454          44.000  
S31  38667670.823   203200083.529        -641.180          43.000  
E36  24334482.470   127878628.237          20.995          47.000    24334482.626    97984975.388          16.114          51.000  
E04  25968695.273   136466421.162         288.690          42.000    25968693.002   104565184.322         221.186          49.000  
G10  20133217.764   105800856.110       -1870.327          51.000    20133213.985    82442234.241       -1457.448          48.000  
E11  23359915.909   122757416.725       -1571.159          44.000    23359912.118    94060985.311       -1203.970          49.000  
E09  26356073.334   138502120.406        1953.934          45.000    26356073.401   106124987.488        1497.139          49.000  
G32  22897505.915   120327213.836        2072.309          48.000    22897502.235    93761469.403        1614.764          44.000  
E12                                                                  28176399.637                       -1864.841          26.000  
G18                                                                  25026353.060                       -2452.243          30.000  
> 2024 04 09 09 10 00.0000000  0 27                     
S33  39625951.230   208235930.038        -640.397          44.000  
G23  22482549.673   118146758.598       -3731.239          44.000    22482543.619    92062465.965       -2907.573          43.000  
E25  24810784.081   130381517.645       -2888.433          47.000    24810784.484    99902761.682       -2213.172          50.000  
G26  23593396.711   123984128.465       -4085.669          41.000    23593393.492    96611012.818       -3183.914          38.000  
G27  20239027.349   106356851.034         337.720          49.000    20239022.979    82875457.030         263.183          46.000  
R01  22131162.887   118303661.445        3627.453          48.000    22131158.523    92014030.922        2821.114          41.000  
R22  21941855.379   117127467.350       -2492.449          46.000    21941851.362    91099045.659       -1938.553          46.000  
R23  20259354.507   108373915.246        -269.287          50.000    20258271.404                3       -211.704          12.000  
R24  22320138.127   119355832.483        1717.657          42.000    22320135.523    92832367.232        1336.001          43.000  
R08  19840121.619   106242965.388         590.155          50.000    19840113.370    82633419.432         459.071          50.000  
E02  24968643.149   131211141.478        -439.677          47.000    24968641.734   100538444.641        -336.962          49.000  
G21  23774467.977   124935692.821        1990.216          42.000                                                                  
E10  26087907.561   137093102.180       -2190.498          41.000    26087903.954   105045489.197       -1678.555          43.000  
G08  21790380.258   114509231.606        2106.713          48.000    21790377.235    89227949.489        1641.741          42.000  
G16  21466587.049   112807701.610       -2888.904          47.000                                                                  
R13  22332976.785   119256757.381       -3846.312          34.000    22332971.911    92755323.431       -2991.835          34.000  
R07  21487706.228   115025422.720       -3143.658          48.000    21487695.362    89464195.356       -2445.176          45.000  
R14  22375410.406   119273348.532        -640.992          49.000    22375408.338    92768322.828        -498.573          46.000  
S31  38671270.016   203218997.803        -641.167          43.000  
G18  25044028.696                1      -3145.239          26.000    25044012.177   102551027.210       -2450.584          30.000  
E36  24334369.786   127878036.111          18.853          47.000    24334369.828    97984521.697          14.453          51.000  
E04  25967105.681   136458076.638         276.789          42.000    25967104.364   104558790.503         212.205          48.000  
G10  20143765.458   105856287.125       -1887.823          51.000    20143762.128    82485427.262       -1471.021          48.000  
E11  23368738.024   122803775.213       -1572.193          44.000    23368733.823    94096506.741       -1204.641          49.000  
E09  26345112.676   138444519.964        1950.891          45.000    26345112.820   106080852.092        1494.955          50.000  
G32  22885894.864   120266199.594        2064.001          48.000    22885892.062    93713925.837        1608.476          45.000  
E12                                                                  28190060.383                       -1864.000          27.000  
> 2024 04 09 09 10 30.0000000  0 27                     
S33  39629606.317   208255138.968        -640.637          44.000  
G23  22503870.390   118258800.668       -3738.721          45.000    22503863.789    92149771.456       -2913.238          42.000  
E25  24827296.566   130468293.343       -2897.191          47.000    24827297.002    99969252.161       -2219.798          50.000  
G26  23616722.616   124106703.258       -4086.753          42.000    23616718.555    96706525.637       -3184.526          37.000  
G27  20237137.651   106346919.931         323.698          49.000    20237132.960    82867718.509         252.465          46.000  
R01  22110823.989   118194935.039        3620.359          49.000    22110819.948    91929465.947        2815.814          41.000  
R22  21955876.897   117202309.548       -2497.706          48.000    21955871.921    91157256.281       -1942.672          46.000  
R23  20260878.598   108382066.860        -274.694          51.000                                                                  
R24  22310500.942   119304289.615        1717.857          44.000    22310496.493    92792278.385        1336.132          42.000  
R08  19836889.740   106225658.205         563.048          51.000    19836881.449    82619958.296         438.018          51.000  
E02  24971193.454   131224540.168        -453.869          47.000    24971191.697   100548711.173        -347.849          49.000  
G21  23763106.548   124875990.540        1989.618          43.000                                                                  
E10  26100409.261   137158808.797       -2190.221          38.000    26100407.395   105095835.807       -1678.181          43.000  
G08  21778372.653   114446127.907        2099.935          49.000    21778368.736    89178777.820        1635.783          42.000  
G16  21483121.650   112894588.122       -2904.044          48.000                                                                  
R13  22354607.978                       -3855.944          31.000    22354607.258    92845179.085       -2999.781          33.000  
R07  21505383.979   115120057.108       -3165.797          47.000    21505375.966    89537799.860       -2462.338          45.000  
R14  22379084.419   119292934.217        -665.270          49.000    22379082.495    92783556.095        -517.491          45.000  
S31  38674929.530   203238228.179        -641.467          43.000  
E36  24334267.098   127877495.291          16.566          47.000    24334266.871    97984107.311          12.770          51.000  
E04  25965558.335   136449948.669         264.380          41.000    25965557.504   104552562.569         202.756          48.000  
G10  20154592.605   105913182.913       -1905.860          51.000    20154589.352    82529761.659       -1485.056          48.000  
E11  23377713.427   122850945.802       -1573.107          43.000    23377710.226    94132650.452       -1205.392          49.000  
E09  26333982.237   138386028.592        1947.932          45.000    26333982.357   106036034.037        1492.511          50.000  
G32  22874135.750   120204404.799        2054.907          47.000    22874133.565    93665774.083        1601.346          46.000  
E12                                                                  28203941.523                       -1862.978          29.000  
G18                                                                  25061953.801                1      -2450.683          26.000  
> 2024 04 09 09 11 00.0000000  0 27                     
S33  39633261.444   208274346.336        -640.386          44.000  
G23  22525230.340   118371052.336       -3745.122          45.000    22525226.376    92237240.254       -2918.374          43.000  
E25  24843857.785   130555322.931       -2905.086          47.000    24843858.172   100035937.196       -2225.918          50.000  
G26  23640051.369   124229294.618       -4086.678          42.000    23640047.591    96802051.352       -3184.224          39.000  
G27  20235325.281   106337397.871         310.555          49.000    20235321.431    82860298.737         241.926          46.000  
R01  22090521.515   118086408.405        3614.232          48.000    22090517.887    91845056.385        2811.034          41.000  
R22  21969923.496   117277298.746       -2502.095          46.000    21969919.311    91215581.212       -1946.058          46.000  
R23  20262430.275   108390371.291        -279.460          50.000                                                                  
R24  22300860.460   119252732.684        1718.625          42.000    22300854.103    92752178.571        1336.925          42.000  
R08  19833806.660   106209150.650         536.995          51.000    19833799.023    82607119.104         417.591          51.000  
E02  24973823.549   131238362.601        -467.788          48.000    24973822.118   100559302.395        -358.349          50.000  
G21  23751746.631   124816293.257        1989.923          43.000                                                                  
E10  26112910.110   137224505.059       -2189.886          37.000    26112908.209   105146174.513       -1677.644          43.000  
G08  21766403.485   114383229.087        2093.305          49.000    21766398.966    89129765.762        1631.043          42.000  
G16  21499738.701   112981910.613       -2917.892          47.000                                                                  
R13  22376299.213   119488106.321       -3865.431          33.000    22376294.579                       -3006.117          30.000  
R07  21523182.075   115215344.209       -3187.078          46.000    21523176.324    89611912.056       -2478.947          46.000  
R14  22382892.935   119313237.608        -688.674          48.000    22382891.699    92799347.600        -535.746          45.000  
S31  38678588.805   203257457.140        -640.937          43.000  
E36  24334176.389   127877018.667          14.993          47.000    24334176.043    97983742.141          11.408          51.000  
E04  25964083.292   136442185.622         252.672          44.000    25964080.176   104546614.255         193.687          48.000  
G10  20165520.443   105970609.072       -1923.188          50.000    20165516.670    82574509.303       -1498.553          48.000  
E11  23386695.214   122898145.590       -1573.624          43.000    23386692.319    94168816.529       -1205.722          49.000  
E09  26322868.188   138327628.141        1945.276          44.000    26322869.121   105991285.656        1490.431          50.000  
G32  22862426.333   120142871.710        2046.697          47.000    22862423.942    93617826.256        1594.819          45.000  
E12                                                                  28217816.292                       -1861.894          30.000  
G18                                                                  25079909.897                3      -2448.915          25.000  
> 2024 04 09 09 11 30.5000000  0 27                     
S33  39636976.949   208293872.626        -640.494          44.000  
G23  22546987.246   118485386.633       -3752.537          44.000    22546981.906    92326331.953       -2923.866          43.000  
E25  24860743.240   130644061.050       -2913.917          46.000    24860744.462   100103931.362       -2232.721          50.000  
G26  23663771.040   124353942.876       -4087.103          41.000    23663768.224    96899179.890       -3184.833          39.000  
G27  20233562.801   106328138.090         296.544          48.000    20233559.650    82853083.341         230.936          47.000  
R01  22069919.801   117976281.514        3606.966          48.000    22069916.014    91759402.148        2805.416          41.000  
R22  21984234.708   117353688.926       -2507.238          47.000    21984228.280    91274995.817       -1950.024          44.000  
R23  20264038.647   108398971.462        -284.786          50.000                                                                  
R24  22291054.658   119200301.870        1719.102          43.000    22291049.222    92711399.154        1337.090          43.000  
R08  19830826.304   106193190.125         509.497          50.000    19830818.988    82594705.358         396.277          51.000  
E02  24976580.408   131252849.486        -482.381          47.000    24976578.956   100570402.749        -369.622          50.000  
G21  23740198.912   124755606.401        1989.575          42.000                                                                  
E10  26125620.445   137291285.388       -2189.884          37.000    26125617.401   105197343.876       -1677.743          44.000  
G08  21754274.923   114319494.068        2085.952          49.000    21754270.822    89080102.137        1625.527          42.000  
G16  21516716.947   113071132.455       -2932.964          47.000                                                                  
R13  22398407.077   119606150.766       -3875.209          33.000    22398402.328                       -3014.401          31.000  
R07  21541405.685   115312885.040       -3209.315          47.000    21541398.523    89687777.154       -2496.173          47.000  
R14  22386900.941   119334614.440        -713.251          45.000    22386901.216    92815974.027        -554.814          45.000  
S31  38682308.495   203277004.797        -640.994          43.000  
E36  24334097.182   127876599.046          12.524          47.000    24334096.260    97983420.629           9.589          51.000  
E04  25962652.978   136434668.087         240.088          43.000    25962649.506   104540854.053         183.938          47.000  
G10  20176733.772   106029533.475       -1940.874          50.000    20176729.361    82620424.411       -1512.463          48.000  
E11  23395832.621   122946161.467       -1574.929          43.000    23395829.634    94205607.921       -1206.896          50.000  
E09  26311588.669   138268349.330        1941.885          44.000    26311588.897   105945864.249        1487.817          50.000  
G32  22850573.148   120080584.411        2037.496          46.000    22850570.055    93569290.701        1587.734          44.000  
E12                                                                  28231914.472                       -1860.587          28.000  
G18                                                                  25098129.685                3      -2447.503          19.000  
> 2024 04 09 09 12 00.5000000  0 27                     
S33  39640631.113   208313074.836        -640.147          44.000  
G23  22568427.617   118598051.690       -3759.205          45.000    22568419.400    92414122.935       -2929.403          39.000  
E25  24877400.551   130731595.929       -2922.166          46.000    24877401.640   100171003.560       -2239.013          49.000  
G26  23687104.462   124476557.856       -4087.512          41.000    23687102.212    96994724.008       -3185.052          39.000  
G27  20231908.474   106319445.730         282.682          48.000    20231905.940    82846310.084         220.250          47.000  
R01  22049694.466   117868169.088        3600.076          48.000    22049691.400    91675314.758        2799.934          41.000  
R22  21998339.276   117428975.612       -2512.159          47.000    21998333.008    91333552.179       -1954.037          45.000  
R23  20265649.061   108407586.010        -289.907          50.000                                                                  
R24  22281408.301   119148716.288        1719.363          43.000    22281402.192    92671277.014        1337.388          43.000  
R08  19828044.497   106178300.859         482.678          51.000    19828038.443    82583124.832         375.454          51.000  
E02  24979372.630   131267525.447        -496.459          47.000    24979371.630   100581647.971        -380.450          50.000  
G21  23728840.969   124695918.533        1989.484          41.000                                                                  
E10  26138114.594   137356959.878       -2188.708          33.000    26138114.880   105247665.932       -1677.347          44.000  
G08  21742385.570   114257014.561        2078.856          49.000    21742381.361    89031416.830        1619.846          43.000  
G16  21533499.107   113159324.639       -2947.124          46.000                                                                  
R13  22420204.046   119722543.714       -3884.814          34.000    22420198.476                       -3021.670          31.000  
R07  21559449.320   115409477.357       -3230.630          48.000    21559442.584    89762904.558       -2512.864          48.000  
R14  22390982.015   119356361.981        -737.020          47.000    22390980.912    92832888.796        -573.341          45.000  
S31  38685966.781   203296229.148        -640.858          44.000  
E36  24334029.893   127876249.273          10.574          46.000    24334029.808    97983152.650           7.945          51.000  
E04  25961313.934   136427643.157         227.921          42.000    25961312.788   104535471.347         174.626          47.000  
G10  20187863.779   106088021.518       -1958.523          51.000    20187860.033    82665999.518       -1526.169          48.000  
E11  23404825.939   122993418.557       -1576.004          44.000    23404822.293    94241817.874       -1207.388          50.000  
E09  26300510.865   138210137.365        1938.807          44.000    26300511.422   105901260.295        1485.433          50.000  
G32  22838965.748   120019587.946        2028.674          46.000    22838962.398    93521761.021        1580.650          44.000  
E12                                                                  28245775.437                       -1860.384          26.000  
G18                                                                  25116061.568                3      -2443.084          22.000  
> 2024 04 09 09 12 30.5000000  0 27                     
S33  39644283.848   208332271.138        -639.826          44.000  
G23  22589904.439   118710912.937       -3765.254          45.000    22589897.805    92502066.711       -2933.908          41.000  
E25  24894103.682   130819373.776       -2929.899          46.000    24894105.309   100238261.922       -2245.031          50.000  
G26  23710437.607   124599175.350       -4087.286          39.000    23710435.373    97090270.116       -3185.052          38.000  
G27  20230332.702   106311162.821         269.368          48.000    20230329.780    82839855.858         209.819          47.000  
R01  22029508.616   117760263.354        3593.443          48.000    22029504.962    91591388.076        2795.007          41.000  
R22  22012470.100   117504405.850       -2516.821          47.000    22012464.782    91392220.126       -1957.306          46.000  
R23  20267287.663   108416351.094        -294.660          50.000                                                                  
R24  22271757.983   119097112.267        1720.441          45.000    22271753.437    92631140.574        1337.946          44.000  
R08  19825414.034   106164211.802         456.346          51.000    19825406.813    82572166.674         354.949          50.000  
E02  24982244.397   131282619.867        -510.105          47.000    24982244.017   100593213.834        -390.871          50.000  
G21  23717482.570   124636231.038        1989.520          43.000                                                                  
E10  26150608.526   137422619.161       -2188.170          34.000    26150609.581   105297976.185       -1676.756          45.000  
G08  21730535.070   114194741.752        2072.328          49.000    21730531.433    88982892.594        1614.617          43.000  
G16  21550362.644   113247940.143       -2960.793          46.000                                                                  
R13  22442050.381   119839208.885       -3893.558          34.000    22442047.386    93208341.203       -3027.916          33.000  
R07  21577612.980   115506706.611       -3251.534          50.000    21577606.461    89838527.299       -2529.186          49.000  
R14  22395196.409   119378819.522        -760.474          48.000    22395193.542    92850355.740        -591.583          45.000  
S31  38689623.846   203315447.260        -640.330          44.000  
E36  24333973.866   127875956.877           8.887          46.000    24333973.901    97982928.621           6.766          51.000  
E04  25960047.025   136420981.145         215.922          43.000    25960045.085   104530366.698         165.556          47.000  
G10  20199091.912   106147028.054       -1975.496          50.000    20199088.708    82711978.648       -1539.501          48.000  
E11  23413823.014   123040698.972       -1576.474          44.000    23413819.266    94278045.740       -1207.924          49.000  
E09  26289451.125   138152017.160        1935.790          45.000    26289451.254   105856726.631        1483.274          50.000  
G32  22827409.035   119958857.703        2019.728          46.000    22827406.181    93474438.770        1573.883          43.000  
E12                                                                  28259628.327                3      -1858.157          26.000  
G18                                                                  25133985.756                3      -2445.677          26.000  
> 2024 04 09 09 13 00.0000000  0 27                     
S33  39647875.212   208351143.794        -639.574          44.000  
G23  22611059.348   118822085.342       -3771.653          45.000    22611053.906    92588694.606       -2939.056          43.000  
E25  24910575.131   130905927.156       -2937.892          46.000    24910575.784   100304582.043       -2251.130          50.000  
G26  23733381.662   124719752.332       -4087.146          39.000    23733381.082    97184226.243       -3185.022          38.000  
G27  20228859.605   106303422.474         255.365          48.000    20228856.856    82833824.446         199.143          47.000  
R01  22009698.094   117654365.417        3586.195          48.000    22009694.765    91509023.037        2789.135          42.000  
R22  22026390.337   117578723.214       -2521.751          45.000    22026387.384    91450022.502       -1961.254          47.000  
R23  20268927.006   108425121.426        -299.824          50.000                                                                  
R24  22262265.830   119046353.703        1720.734          45.000    22262261.736    92591661.695        1338.460          44.000  
R08  19822974.076   106151143.287         429.761          51.000    19822966.413    82562002.278         334.292          51.000  
E02  24985147.244   131297874.186        -523.979          46.000    24985146.908   100604902.210        -401.494          50.000  
G21  23706314.794   124577541.952        1989.484          45.000                                                                  
E10  26162894.532   137487172.527       -2188.077          35.000    26162894.104   105347439.139       -1676.472          46.000  
G08  21718921.994   114133714.168        2065.319          48.000    21718918.823    88935338.654        1609.386          44.000  
G16  21567022.681   113335491.366       -2974.747          46.000                                                                  
R13  22463584.170   119954193.875       -3902.180          35.000    22463580.576    93297773.932       -3034.177          33.000  
R07  21595588.583   115602936.913       -3272.390          50.000    21595581.982    89913373.097       -2545.199          48.000  
R14  22399469.223   119401597.413        -783.827          48.000    22399467.101    92868071.832        -609.599          46.000  
S31  38693219.233   203334340.807        -640.062          43.000  
E36  24333930.169   127875728.280           6.826          46.000    24333930.367    97982753.482           5.181          51.000  
E04  25958869.100   136414788.486         203.906          43.000    25958866.476   104525621.681         156.164          47.000  
G10  20210229.790   106205558.047       -1992.467          51.000    20210226.043    82757586.418       -1552.471          47.000  
E11  23422675.358   123087217.407       -1577.240          44.000    23422671.403    94313689.733       -1208.484          49.000  
E09  26278593.577   138094960.520        1932.357          45.000    26278593.166   105813007.903        1480.738          49.000  
G32  22816095.575   119899405.764        2010.907          46.000    22816091.983    93428112.581        1567.183          43.000  
E12                                                                  28273240.680                3      -1855.442          19.000  
G18                                                                  25151610.841                3      -2445.122          23.000  
> 2024 04 09 09 13 30.0000000  0 27                     
S33  39651527.984   208370338.443        -639.965          44.000  
G23  22632611.232   118935341.138       -3778.690          45.000    22632604.283    92676945.895       -2944.284          43.000  
E25  24927372.335   130994194.558       -2946.570          46.000    24927372.755   100372215.498       -2257.732          51.000  
G26  23756717.207   124842379.646       -4087.671          39.000    23756716.692    97279779.999       -3185.217          39.000  
G27  20227441.370   106295970.435         241.185          49.000    20227438.875    82828017.690         187.782          47.000  
R01  21989593.036   117546895.918        3578.491          46.000    21989590.891    91425435.690        2783.177          43.000  
R22  22040579.023   117654453.801       -2527.098          46.000    22040574.086    91508924.078       -1965.459          45.000  
R23  20270624.695   108434201.572        -305.605          50.000                                                                  
R24  22252611.810   118994726.866        1720.818          46.000    22252607.389    92551507.520        1338.443          44.000  
R08  19820642.601   106138660.193         402.388          51.000    19820635.615    82552293.212         312.946          51.000  
E02  24988180.393   131313811.753        -538.515          46.000    24988179.871   100617114.119        -412.739          50.000  
G21  23694959.232   124517867.878        1988.824          46.000                                                                  
E10  26175385.763   137552814.724       -2188.031          36.000    26175385.528   105397736.399       -1676.697          46.000  
G08  21707154.064   114071871.738        2057.531          48.000    21707150.810    88887149.759        1603.268          45.000  
G16  21584046.719   113424949.701       -2989.216          47.000                                                                  
R13  22485533.550   120071398.666       -3911.632          36.000    22485529.051    93388933.216       -3041.919          32.000  
R07  21613989.784   115701432.996       -3294.040          51.000    21613981.822    89989981.163       -2561.988          49.000  
R14  22403947.995   119425472.709        -808.037          47.000    22403947.104    92886641.482        -628.597          46.000  
S31  38696875.897   203353557.766        -640.678          43.000  
E36  24333898.695   127875561.533           4.255          46.000    24333898.611    97982625.731           3.205          51.000  
E04  25957740.820   136408862.589         190.894          43.000    25957739.199   104521081.059         146.471          47.000  
G10  20221655.821   106265599.652       -2010.158          51.000    20221650.892    82804372.090       -1566.483          46.000  
E11  23431683.215   123134556.941       -1579.011          44.000    23431679.828    94349962.884       -1209.740          49.000  
E09  26267571.783   138037041.613        1928.566          45.000    26267571.704   105768628.488        1477.805          49.000  
G32  22804644.187   119839226.387        2000.889          46.000    22804641.223    93381219.542        1559.249          44.000  
E12                                                                  28287084.033                3      -1856.813          26.000  
G18                                                                  25169504.971                3      -2446.126          25.000  
> 2024 04 09 09 14 00.0000000  0 27                     
S33  39655179.831   208389529.502        -639.725          44.000  
G23  22654199.337   119048787.723       -3784.825          45.000    22654193.961    92765345.790       -2949.194          43.000  
E25  24944214.761   131082701.811       -2954.230          46.000    24944214.878   100440032.744       -2263.566          51.000  
G26  23780051.563   124965003.427       -4087.292          39.000    23780050.975    97375330.988       -3185.010          38.000  
G27  20226102.917   106288935.971         227.501          49.000    20226100.056    82822536.280         177.313          46.000  
R01  21969530.810   117439648.333        3571.046          46.000    21969527.285    91342020.942        2777.658          41.000  
R22  22054792.462   117730332.549       -2531.910          44.000    22054788.628    91567940.881       -1969.183          46.000  
R23  20272350.394   108443437.816        -310.586          49.000                                                                  
R24  22242953.084   118943084.986        1721.483          44.000    22242949.148    92511341.672        1338.966          43.000  
R08  19818462.520   106126985.309         375.505          51.000    19818455.548    82543212.764         292.254          51.000  
E02  24991294.079   131330170.236        -552.317          47.000    24991292.931   100629648.548        -423.318          50.000  
G21  23683604.340   124458196.483        1988.766          46.000                                                                  
E10  26187870.175   137618444.401       -2187.849          34.000    26187873.633   105448024.069       -1676.219          45.000  
G08  21695427.078   114010245.699        2050.483          48.000    21695423.784    88839129.485        1597.767          45.000  
G16  21601148.872   113514825.019       -3002.885          46.000                                                                  
R13  22507530.956   120188864.512       -3920.166          35.000    22507526.763    93480295.526       -3048.546          32.000  
R07  21632506.797   115800558.807       -3314.748          51.000    21632500.334    90067078.998       -2578.100          49.000  
R14  22408558.976   119450057.370        -831.434          46.000    22408558.888    92905762.877        -646.543          47.000  
S31  38700531.769   203372770.396        -640.359          43.000  
E36  24333877.075   127875453.260           2.494          45.000    24333878.257    97982542.806           1.917          51.000  
E04  25956683.552   136403305.222         179.067          43.000    25956681.950   104516822.855         137.213          47.000  
G10  20233179.104   106326155.693       -2027.212          51.000    20233173.991    82851558.615       -1579.585          47.000  
E11  23440696.519   123181921.834       -1579.448          44.000    23440692.914    94386255.482       -1210.163          49.000  
E09  26256569.347   137979223.131        1925.449          45.000    26256569.341   105724326.034        1475.432          49.000  
G32  22793245.351   119779325.369        1992.054          47.000    22793242.673    93334543.467        1552.201          44.000  
E12                                                                  28300918.744                3      -1857.067          26.000  
G18                                                                  25187431.651                3      -2437.762          24.000  
> 2024 04 09 09 14 30.5000000  0 27                     
S33  39658891.245   208409033.927        -639.495          44.000  
G23  22676183.418   119164316.452       -3791.151          44.000    22676179.392    92855368.208       -2954.349          45.000  
E25  24961384.540   131172926.623       -2962.507          46.000    24961384.320   100509166.046       -2270.031          51.000  
G26  23803773.892   125089662.939       -4087.359          39.000    23803772.045    97472468.304       -3184.650          37.000  
G27  20224823.651   106282212.763         212.935          49.000    20224820.339    82817297.420         165.853          46.000  
R01  21949176.955   117330843.645        3563.223          47.000    21949172.772    91257395.094        2771.321          42.000  
R22  22069272.789   117807627.082       -2537.033          45.000    22069268.693    91628058.853       -1973.339          46.000  
R23  20274134.938   108452987.658        -316.079          48.000                                                                  
R24  22233132.169   118890565.675        1721.918          46.000    22233127.174    92470493.385        1339.204          42.000  
R08  19816400.576   106115943.938         348.099          51.000    19816393.842    82534625.050         270.783          51.000  
E02  24994541.195   131347231.274        -566.893          47.000    24994539.768   100642721.299        -434.352          50.000  
G21  23672059.702   124397532.294        1988.597          45.000                                                                  
E10  26200564.772   137685153.677       -2186.948          35.000    26200568.371   105499138.995       -1675.959          45.000  
G08  21683546.882   113947815.400        2042.925          48.000    21683543.926    88790482.531        1591.996          45.000  
G16  21618616.620   113606621.363       -3016.882          45.000                                                                  
R13  22529945.114   120308549.498       -3928.935          33.000    22529942.292                3      -3055.752          27.000  
R07  21651451.652   115901976.682       -3336.023          50.000    21651444.760    90145959.591       -2594.659          47.000  
R14  22413384.751   119475775.980        -855.593          46.000    22413383.575    92925766.225        -665.496          47.000  
S31  38704247.360   203392296.112        -640.315          43.000  
E36  24333867.035   127875401.157           0.329          44.000    24333868.746    97982502.900           0.335          52.000  
E04  25955679.571   136398032.670         166.222          43.000    25955678.463   104512782.859         127.476          47.000  
G10  20244994.400   106388244.518       -2044.631          51.000    20244989.392    82899939.545       -1593.296          47.000  
E11  23449864.689   123230100.523       -1580.444          45.000    23449861.020    94423171.639       -1211.059          49.000  
E09  26245402.744   137920544.540        1921.644          45.000    26245403.140   105679364.537        1472.617          49.000  
G32  22781711.733   119718713.280        1981.991          48.000    22781708.497    93287313.282        1544.490          44.000  
E12                                                                  28314974.555                3      -1854.956          25.000  
G18                                                                  25205616.851                3      -2445.678          19.000  
