     3.00           OBSERVATION DATA    M: Mixed            RINEX VERSION / TYPE
CONVBIN 2.4.3                           20240409 124442 UTC PGM / RUN BY / DATE 
format: u-blox UBX                                          COMMENT             
log: data/2024-04-09/20240409123000.ubx                     COMMENT             
AQUI00CHL                                                   MARKER NAME         
                                                            MARKER NUMBER       
                                                            MARKER TYPE         
                                                            OBSERVER / AGENCY   
UNKNOWN             UBLOX-ZED-F9P                           REC # / TYPE / VERS 
UNKNOWN             TWIVSP6037L                             ANT # / TYPE        
  1713381.0000 -5047934.0000 -3490983.0000                  APPROX POSITION XYZ 
        0.0000        0.0000        0.0000                  ANTENNA: DELTA H/E/N
G    8 C1C L1C D1C S1C C2L L2L D2L S2L                      SYS / # / OBS TYPES 
R    8 C1C L1C D1C S1C C2C L2C D2C S2C                      SYS / # / OBS TYPES 
E    8 C1C L1C D1C S1C C7Q L7Q D7Q S7Q                      SYS / # / OBS TYPES 
S    4 C1C L1C D1C S1C                                      SYS / # / OBS TYPES 
  2024    04    09    12    30   00.0050000     GPS         TIME OF FIRST OBS   
  2024    04    09    12    44   30.0050000     GPS         TIME OF LAST OBS    
                                                            END OF HEADER       
> 2024 04 09 12 30 00.0050000  0 23                     
S33  41115539.397   216063739.6751       -802.489          43.000  
G28  25014474.299   131451996.9471        -46.000          38.000    25014472.882   102430135.9971        -36.215          37.000  
G04  23585815.339   123944347.1891       2427.568          44.000    23585812.106    96579954.4681       1891.878          44.000  
R01  22367583.965   119567450.4521      -3964.954          46.000    22367582.087    92996972.2231      -3083.832          42.000  
R17  21178001.619   113327883.4041       1404.541          52.000    21177996.853    88143887.3081       1092.369          50.000  
R03  23332299.788   124899659.7311       2382.593          43.000    23332302.377    97144141.3321       1853.291          36.000  
R24  21214903.106   113445633.2851      -2658.021          51.000    21214900.391    88235544.1331      -2067.372          50.000  
R18  24820678.522                        3271.061          30.000    24820680.378   103051151.0071       2544.051          35.000  
G21  21023297.006   110478195.9041      -1073.418          47.000                                                                  
G02  21411890.314   112520244.5661       -243.900          49.000                                                                  
G08  23786644.421   124999628.2341      -4153.294          46.000    23786642.984    97402275.7951      -3236.472          44.000  
R02  20643082.803   110155243.2381       -780.999          51.000    20643081.317    85676479.2441       -607.450          50.000  
E05  23406501.202   123001918.4321        149.299          49.000    23406501.977    94248261.4981        114.486          51.000  
S31  40162447.926   211055077.8311       -802.544          44.000  
G03  22737277.488   119485188.1051        165.942          46.000    22737275.502    93105362.3471        129.186          45.000  
E34  25515776.964   134086331.9701        673.543          46.000    25515779.703   102741469.4481        515.964          53.000  
E36  25403388.150   133495749.8061      -1536.909          48.000    25403390.202   102288998.9881      -1177.694          52.000  
G31  25270173.234   132795671.9101       1125.720          45.000    25270170.920   103477166.7911        877.100          43.000  
E11  27979083.913   147031209.2871      -2958.046          40.000    27979085.644   112660359.4091      -2266.283          43.000  
E03  27799545.153   146087576.4081       2019.007          41.000    27799548.405   111937282.9971       1547.028          44.000  
E09  26407261.333   138771089.3561      -2608.385          46.000    26407261.981   106331074.1831      -1998.587          50.000  
G32  25700886.183   135059041.8691      -4328.481          47.000    25700887.998   105240790.2381      -3372.733          38.000  
G17                                                                  24494251.852                1       1522.750          29.000  
> 2024 04 09 12 30 30.0050000  0 23                     
S33  41120121.142   216087816.882        -802.978          43.000  
G28  25014785.424   131453629.264         -62.325          40.000    25014781.747   102431407.928         -49.028          35.000  
G04  23571986.213   123871677.945        2417.172          43.000    23571983.807    96523329.148        1883.428          44.000  
G17  24483169.764   128659885.4393       1939.068          29.000    24483136.401                        1510.629          30.000  
R01  22389858.997   119686517.845       -3972.845          46.000    22389856.295    93089580.109       -3090.015          43.000  
R17  21170176.812   113286012.216        1386.973          52.000    21170171.911    88111320.802        1078.767          50.000  
R03  23318984.962   124828390.435        2368.828          43.000    23318985.418    97088709.719        1842.123          35.000  
R24  21229875.412   113525695.731       -2679.309          51.000    21229871.711    88297814.884       -2084.004          49.000  
R18  24802299.502                        3271.021          29.000    24802295.859   102974827.259        2543.774          36.000  
G21  21029479.011   110510684.074       -1092.436          47.000                                                                  
G02  21413330.090   112527808.341        -260.104          49.000                                                                  
G08  23810379.254   125124356.425       -4161.621          46.000    23810378.084    97499466.512       -3242.783          45.000  
R02  20647534.287   110178994.543        -802.223          52.000    20647532.286    85694952.444        -623.864          49.000  
E05  23405686.856   122997638.719         136.094          48.000    23405687.714    94244982.247         104.373          51.000  
S31  40167031.640   211079166.709        -803.079          44.000  
G03  22736350.443   119480317.810         159.004          46.000    22736349.738    93101567.315         124.041          46.000  
E34  25511946.264   134066198.292         668.912          47.000    25511948.237   102726042.317         512.539          53.000  
E36  25412187.763   133541988.484       -1545.367          48.000    25412189.184   102324428.579       -1184.093          52.000  
G31  25263771.058   132762029.210        1117.212          44.000    25263768.110   103450951.693         870.465          42.000  
E11  27995986.407   147120030.133       -2963.452          39.000    27995988.277   112728416.770       -2270.718          44.000  
E03  27788035.420   146027090.198        2013.513          42.000    27788038.326   111890936.448        1542.802          44.000  
E09  26422179.843   138849488.434       -2617.969          46.000    26422180.748   106391146.163       -2006.103          49.000  
G32  25725613.149   135188981.643       -4334.135          46.000    25725615.152   105342041.796       -3377.115          40.000  
> 2024 04 09 12 31 00.0050000  0 23                     
S33  41124704.438   216111902.849        -803.608          43.000  
G28  25015187.953   131455741.330         -79.074          41.000    25015182.861   102433053.748         -61.872          36.000  
G04  23558216.899   123799320.553        2405.917          43.000    23558214.923    96466946.781        1874.884          45.000  
R01  22412175.652   119805816.271       -3981.195          45.000    22412173.148    93182367.664       -3096.368          42.000  
R17  21162450.349   113244664.058        1368.716          52.000    21162444.356    88079161.119        1064.671          50.000  
R03  23305745.416   124757521.014        2355.153          41.000    23305740.817    97033589.049        1831.467          36.000  
R24  21244966.711   113606393.518       -2701.151          52.000    21244961.986    88360579.794       -2100.885          49.000  
R18  24783917.693   132298242.586        3269.459          33.000    24783916.229   102898516.748        2543.314          34.000  
G21  21035768.988   110543736.531       -1111.788          48.000                                                                  
G02  21414861.233   112535856.203        -277.015          49.000                                                                  
G08  23834159.661   125249324.681       -4170.296          46.000    23834159.386    97596844.328       -3249.685          44.000  
R02  20652103.768   110203376.462        -823.978          52.000    20652101.016    85713916.123        -640.815          49.000  
E05  23404946.810   122993747.904         122.674          49.000    23404947.123    94242000.996          93.866          51.000  
S31  40171617.297   211103263.833        -803.809          44.000  
G03  22735461.673   119475645.187         151.830          47.000    22735460.509    93097926.311         118.280          46.000  
E34  25508140.921   134046199.874         663.731          47.000    25508142.683   102710718.839         508.609          53.000  
E36  25421033.960   133588475.806       -1554.451          49.000    25421035.473   102360048.718       -1190.983          52.000  
G31  25257415.661   132728631.624        1108.405          44.000    25257412.486   103424927.592         863.885          42.000  
E11  28012918.103   147209009.868       -2969.635          39.000    28012920.621   112796595.871       -2275.421          44.000  
E03  27776555.727   145966762.448        2007.716          44.000    27776558.947   111844711.316        1538.398          45.000  
E09  26437153.736   138928173.571       -2628.378          47.000    26437153.971   106451437.316       -2013.790          49.000  
G32  25750372.089   135319089.936       -4340.413          46.000    25750374.287   105443424.595       -3382.111          40.000  
G17                                                                  24472105.741                        1498.045          30.000  
> 2024 04 09 12 31 30.0050000  0 23                     
S33  41129297.859   216136040.141        -805.560          44.000  
G28  25015690.057   131458377.809         -96.728          39.000    25015686.458   102435108.210         -75.138          38.000  
G04  23544516.097   123727320.246        2393.888          44.000    23544514.066    96410842.664        1865.361          46.000  
R01  22434542.823   119925385.853       -3990.345          44.000    22434540.668    93275366.131       -3103.607          42.000  
R17  21154829.888   113203885.914        1349.564          52.000    21154824.146    88047444.790        1049.631          50.000  
R03  23292589.580   124687096.840        2339.749          43.000    23292584.607    96978814.760        1819.801          41.000  
R24  21260184.942   113687769.642       -2724.021          52.000    21260179.381    88423872.274       -2118.692          49.000  
R18  24765550.218   132200192.710        3266.773          34.000    24765545.878   102822255.748        2540.839          33.000  
G21  21042173.959   110577396.876       -1132.229          47.000                                                                  
G02  21416493.625   112544433.153        -294.899          49.000                                                                  
G08  23857993.127   125374572.840       -4179.781          45.000    23857993.426    97694440.199       -3256.992          45.000  
R02  20656799.275   110228430.836        -846.577          52.000    20656796.323    85733402.849        -658.423          49.000  
E05  23404288.581   122990289.155         107.903          49.000    23404288.857    94239350.800          82.595          51.000  
S31  40176212.517   211127413.494        -806.115          44.000  
G03  22734618.257   119471212.597         143.688          47.000    22734616.053    93094472.317         111.929          45.000  
E34  25504369.605   134026380.935         657.489          47.000    25504371.247   102695532.896         503.746          53.000  
E36  25429935.470   133635255.332       -1564.365          49.000    25429937.385   102395892.750       -1198.658          52.000  
G31  25251115.196   132695524.704        1098.499          44.000    25251113.381   103399129.984         855.865          44.000  
E11  28029888.216   147298191.209       -2976.484          38.000    28029891.374   112864929.414       -2280.387          43.000  
E03  27765114.271   145906637.397        2000.698          44.000    27765117.790   111798641.513        1532.899          45.000  
E09  26452189.389   139007186.108       -2639.436          47.000    26452189.625   106511979.333       -2022.435          49.000  
G32  25775171.147   135449406.943       -4347.572          46.000    25775172.703   105544970.068       -3387.485          40.000  
G17                                                                  24461169.809                        1486.363          30.000  
> 2024 04 09 12 32 00.0050000  0 23                     
S33  41133899.414   216160222.219        -806.321          44.000  
G28  25016290.055   131461532.253        -113.412          41.000    25016288.559   102437566.266         -88.424          41.000  
G04  23530882.411   123655671.214        2382.795          44.000    23530879.942    96355012.275        1856.727          46.000  
R01  22456959.291   120045215.295       -3998.212          45.000    22456957.607    93368566.707       -3109.632          42.000  
R17  21147315.208   113163673.282        1331.342          52.000    21147309.987    88016168.323        1035.468          50.000  
R03  23279515.213   124617110.997        2325.783          44.000    23279511.551    96924381.422        1809.016          42.000  
R24  21275527.897   113769815.077       -2745.538          52.000    21275522.419    88487685.358       -2135.461          49.000  
R18  24747191.711   132102201.195        3266.072          36.000    24747191.412   102746040.146        2539.541          34.000  
G21  21048694.338   110611658.168       -1151.625          47.000                                                                  
G02  21418225.032   112553532.440        -311.743          48.000                                                                  
G08  23881878.122   125500089.709       -4188.013          45.000    23881878.713    97792245.444       -3263.333          45.000  
R02  20661618.258   110254147.991        -867.866          52.000    20661616.143    85753405.065        -675.084          49.000  
E05  23403711.385   122987254.599          94.466          48.000    23403711.598    94237025.618          72.387          51.000  
S31  40180816.424   211151606.138        -806.831          44.000  
G03  22733819.380   119467011.352         136.461          48.000    22733816.234    93091198.602         106.257          43.000  
E34  25500630.825   134006734.714         652.308          47.000    25500632.624   102680479.295         499.873          52.000  
E36  25438891.579   133682319.713       -1573.244          49.000    25438893.656   102431955.040       -1205.411          52.000  
G31  25244869.172   132662702.923        1089.752          44.000    25244868.311   103373554.628         849.103          44.000  
E11  28046896.805   147387565.875       -2981.668          38.000    28046898.767   112933411.137       -2284.838          42.000  
E03  27753709.810   145846708.329        1994.776          44.000    27753713.336   111752721.876        1528.442          45.000  
E09  26467285.925   139086516.373       -2649.231          47.000    26467285.743   106572764.805       -2029.960          49.000  
G32  25800007.503   135579921.942       -4353.367          45.000    25800008.733   105646669.860       -3392.191          38.000  
G17                                                                  24450336.779   100120069.0081       1473.804          33.000  
> 2024 04 09 12 32 30.0050000  0 23                     
S33  41138502.104   216184408.405        -806.120          44.000  
G28  25016981.789   131465166.179        -128.883          42.000    25016980.540   102440397.926        -100.520          41.000  
G04  23517307.853   123584335.504        2372.783          45.000    23517304.591    96299426.039        1848.872          46.000  
G17  24439583.047                        1877.385          31.000    24439579.753   100076026.280        1461.974          34.000  
R01  22479417.259   120165260.296       -4004.834          47.000    22479415.263    93461934.937       -3114.954          42.000  
R17  21139899.194   113123988.658        1314.297          52.000    21139893.862    87985302.485        1022.200          50.000  
R03  23266517.166   124547524.619        2313.190          47.000    23266513.055    96870258.745        1799.161          43.000  
R24  21290988.248   113852487.958       -2765.940          52.000    21290983.827    88551986.460       -2151.360          50.000  
R18  24728836.287   132004230.349        3265.606          38.000    24728839.255   102669840.636        2540.037          36.000  
G21  21055320.750   110646481.119       -1169.929          47.000                                                                  
G02  21420048.612   112563115.265        -327.304          49.000                                                                  
G08  23905806.606   125625831.898       -4195.068          45.000    23905806.435    97890226.292       -3268.856          45.000  
R02  20666554.413   110280485.164        -887.938          52.000    20666551.323    85773889.518        -690.751          49.000  
E05  23403206.887   122984604.198          82.114          48.000    23403207.632    94234994.794          62.993          52.000  
S31  40185420.781   211175802.464        -806.432          43.000  
G03  22733055.814   119463000.635         130.694          48.000    22733053.051    93088073.360         102.017          43.000  
E34  25496918.253   133987222.260         648.411          48.000    25496919.497   102665528.193         496.778          52.000  
E36  25447893.686   133729629.307       -1580.919          49.000    25447896.307   102468205.219       -1211.334          52.000  
G31  25238671.436   132630128.944        1082.019          44.000    25238669.561   103348172.348         842.920          44.000  
E11  28063934.136   147477093.484       -2986.432          38.000    28063935.392   113002009.989       -2288.247          42.000  
E03  27742335.628   145786936.328        1990.182          44.000    27742339.016   111706922.580        1524.809          45.000  
E09  26482433.348   139166122.556       -2657.851          46.000    26482434.521   106633761.691       -2036.545          49.000  
G32  25824873.154   135710592.045       -4358.021          44.000    25824874.681   105748490.553       -3396.418          37.000  
> 2024 04 09 12 33 00.0050000  0 23                     
S33  41143099.688   216208568.861        -804.836          44.000  
G28  25017759.388   131469252.802        -143.456          41.000    25017758.099   102443582.351        -112.014          41.000  
G04  23503788.080   123513287.092        2363.602          44.000    23503784.228    96244063.658        1841.688          46.000  
G17  24428911.044   128374788.938        1862.567          32.000    24428903.920   100032314.530        1452.027          35.000  
R01  22501908.454   120285488.594       -4010.478          46.000    22501906.375    93555445.794       -3119.204          43.000  
R17  21132576.788   113084806.894        1297.812          52.000    21132571.954    87954827.774        1009.364          50.000  
R03  23253587.319   124478309.953        2301.121          46.000    23253581.801    96816425.123        1789.925          40.000  
R24  21306561.117   113935758.406       -2785.464          52.000    21306556.135    88616752.333       -2166.477          50.000  
R18  24710482.091   131906254.527        3266.287          36.000    24710485.785   102593637.170        2540.294          34.000  
G21  21062048.515   110681838.440       -1187.321          47.000                                                                  
G02  21421958.756   112573154.790        -342.123          49.000                                                                  
G08  23929770.626   125751767.977       -4200.967          44.000    23929770.450    97988358.207       -3273.382          44.000  
R02  20671600.698   110307411.903        -907.280          52.000    20671597.142    85794832.517        -705.583          49.000  
E05  23402770.067   122982309.786          70.733          48.000    23402771.021    94233236.748          54.280          52.000  
S31  40190020.736   211199974.273        -805.192          43.000  
G03  22732324.101   119459151.509         125.792          49.000    22732321.306    93085074.050          98.054          44.000  
E34  25493225.642   133967816.526         645.149          48.000    25493226.470   102650658.847         494.369          52.000  
E36  25456938.106   133777156.452       -1587.632          49.000    25456940.296   102504622.075       -1216.592          52.000  
G31  25232513.294   132597777.021        1074.774          44.000    25232513.931   103322963.110         837.439          44.000  
E11  28080993.512   147566745.407       -2990.167          38.000    28080994.974   113070704.160       -2291.225          40.000  
E03  27730986.757   145727294.449        1986.066          44.000    27730988.972   111661222.954        1521.955          45.000  
E09  26497628.208   139245974.717       -2665.707          46.000    26497629.836   106694947.072       -2042.572          49.000  
G32  25849762.370   135841386.226       -4361.795          43.000    25849763.868   105850407.888       -3398.770          37.000  
> 2024 04 09 12 33 30.0050000  0 23                     
S33  41147689.547   216232689.663        -803.227          43.000  
G28  25018620.361   131473778.040        -158.175          40.000    25018618.850   102447108.529        -123.331          40.000  
G04  23490320.011   123442512.476        2354.821          44.000    23490317.305    96188914.658        1834.833          47.000  
G17  24418309.334                        1849.672          28.000    24418305.153    99988923.721        1441.208          36.000  
R01  22524430.088   120405880.980       -4015.596          46.000    22524427.830    93649084.242       -3122.936          41.000  
R17  21125346.989   113046115.525        1281.744          53.000    21125341.868    87924734.495         996.898          50.000  
R03  23240722.575   124409452.827        2289.468          46.000    23240718.024    96762869.561        1780.628          42.000  
R24  21322240.492   114019609.603       -2804.413          51.000    21322236.872    88681969.879       -2181.201          50.000  
R18  24692123.339   131808260.814        3266.728          39.000    24692125.478                        2540.128          32.000  
G21  21068875.884   110717715.219       -1204.364          47.000                                                                  
G02  21423953.275   112583636.929        -356.530          49.000                                                                  
G08  23953769.442   125877879.126       -4206.493          45.000    23953768.517    98086626.535       -3277.613          44.000  
R02  20676753.670   110334910.341        -925.898          52.000    20676750.907    85816220.170        -720.206          49.000  
E05  23402398.355   122980355.771          59.750          49.000    23402399.170    94231739.527          45.632          52.000  
S31  40194612.681   211224105.521        -803.636          43.000  
G03  22731618.187   119455447.677         121.269          48.000    22731617.144    93082187.933          94.452          45.000  
E34  25489550.860   133948503.088         642.559          48.000    25489551.246   102635860.242         492.272          52.000  
E36  25466021.514   133824886.105       -1594.177          49.000    25466022.573   102541194.096       -1221.444          51.000  
G31  25226397.706   132565634.211        1068.188          45.000    25226396.335   103297916.809         832.263          44.000  
E11  28098074.188   147656505.701       -2993.330          37.000    28098075.562   113139481.379       -2293.868          39.000  
E03  27719658.864   145667768.207        1982.384          42.000    27719661.606   111615611.980        1519.082          46.000  
E09  26512868.015   139326055.565       -2672.896          47.000    26512868.488   106756307.654       -2048.059          49.000  
G32  25874672.134   135972286.104       -4364.773          43.000    25874673.733   105952407.597       -3401.042          37.000  
> 2024 04 09 12 34 00.0050000  0 23                     
S33  41152270.068   216256759.433        -801.812          43.000  
G28  25019562.687   131478732.076        -172.443          40.000    25019560.038   102450968.851        -134.672          39.000  
G04  23476902.492   123372002.526        2345.641          45.000    23476899.485    96133971.881        1827.702          46.000  
G17  24407787.303                        1835.146          28.000    24407785.491    99945847.076        1430.389          36.000  
R01  22546980.592   120526422.617       -4020.748          48.000    22546977.471    93742838.781       -3127.447          42.000  
R17  21118207.735   113007906.525        1265.225          53.000    21118201.730    87895016.405         984.100          50.000  
R03  23227924.707   124340943.274        2277.457          47.000    23227920.334    96709584.432        1771.401          41.000  
R24  21338027.006   114104028.759       -2823.808          51.000    21338024.053    88747629.170       -2196.177          51.000  
R18  24673760.048   131710240.658        3267.367          37.000    24673757.786                        2541.094          30.000  
G21  21075799.138   110754100.916       -1221.646          46.000                                                                  
G02  21426030.806   112594551.727        -371.287          49.000                                                                  
G08  23977798.401   126004150.752       -4212.131          45.000    23977797.320    98185019.925       -3282.094          44.000  
R02  20682011.553   110362967.288        -944.797          52.000    20682008.801    85838042.198        -734.762          49.000  
E05  23402088.710   122978730.894          48.397          48.000    23402089.964    94230494.493          37.047          52.000  
S31  40199194.953   211248185.159        -802.059          43.000  
G03  22730938.949   119451877.139         116.417          48.000    22730937.874    93079405.668          90.735          45.000  
E34  25485891.176   133929271.867         639.380          48.000    25485891.561   102621124.614         489.936          52.000  
E36  25475140.214   133872807.448       -1600.864          49.000    25475141.207   102577913.009       -1226.606          51.000  
G31  25220320.426   132533691.943        1061.005          47.000    25220317.945   103273026.766         826.746          43.000  
E11  28115173.884   147746362.770       -2997.334          38.000    28115174.951   113208332.708       -2296.337          39.000  
E03  27708351.255   145608347.527        1978.599          42.000    27708354.217   111570081.906        1516.104          47.000  
E09  26528148.793   139406352.036       -2680.344          47.000    26528148.420   106817833.456       -2053.798          48.000  
G32  25899598.758   136103277.655       -4368.570          43.000    25899600.523   106054478.710       -3403.737          37.000  
> 2024 04 09 12 34 30.0050000  0 23                     
S33  41156839.636   216280772.574        -799.484          43.000  
G28  25020587.442   131484112.636        -186.580          39.000    25020583.514   102455161.548        -145.499          39.000  
G04  23463533.899   123301755.678        2336.724          44.000    23463531.646    96079234.103        1821.024          47.000  
G17  24397348.659                        1823.784          30.000    24397342.261    99903083.499        1420.087          36.000  
R01  22569557.717   120647106.106       -4025.246          48.000    22569554.066    93836703.625       -3130.765          41.000  
R17  21111157.183   112970179.584        1249.341          52.000    21111151.075    87865673.264         971.641          50.000  
R03  23215191.412   124272778.480        2266.255          47.000    23215188.041    96656567.421        1762.629          42.000  
R24  21353919.015   114189011.385       -2842.247          51.000    21353915.807    88813726.721       -2210.724          50.000  
R18  24655391.477   131612193.443        3268.711          35.000    24655387.868                1       2542.009          30.000  
G21  21082819.736   110790992.577       -1238.380          46.000                                                                  
G02  21428189.963   112605896.406        -385.548          50.000                                                                  
G08  24001855.950   126130575.902       -4217.112          44.000    24001855.255    98283532.934       -3285.842          44.000  
R02  20687372.070   110391576.851        -963.068          51.000    20687370.700    85860294.069        -749.043          50.000  
E05  23401842.115   122977431.451          37.755          49.000    23401842.854    94229498.814          28.882          52.000  
S31  40203766.667   211272209.022        -799.994          43.000  
G03  22730283.543   119448435.429         112.348          47.000    22730282.707    93076723.787          87.523          45.000  
E34  25482246.163   133910120.294         636.915          47.000    25482247.160   102606450.022         488.012          52.000  
E36  25484295.150   133920917.271       -1606.764          49.000    25484296.284   102614776.337       -1231.322          50.000  
G31  25214280.336   132501948.176        1054.517          47.000    25214276.719   103248291.386         821.851          43.000  
E11  28132291.279   147836312.535       -3000.535          38.000    28132291.720   113277255.059       -2298.910          38.000  
E03  27697063.126   145549029.914        1975.480          42.000    27697066.515   111524630.805        1513.769          47.000  
E09  26543468.999   139486858.725       -2687.173          47.000    26543468.367   106879520.347       -2059.024          48.000  
G32  25924542.435   136234354.374       -4370.862          43.000    25924543.802   106156616.201       -3405.825          37.000  
> 2024 04 09 12 35 00.0050000  0 23                     
S33  41161398.733   216304729.917        -797.426          43.000  
G28  25021691.726   131489920.449        -200.717          38.000    25021689.867   102459687.177        -156.157          39.000  
G04  23450217.332   123231773.365        2328.344          44.000    23450214.638    96024702.475        1814.237          46.000  
G17  24386976.593   128154466.111        1809.161          32.000    24386974.372    99860634.361        1409.600          35.000  
R01  22592160.203   120767927.742       -4029.672          49.000    22592157.000    93930675.920       -3134.143          42.000  
R17  21104196.371   112932937.394        1233.307          52.000    21104191.183    87836707.095         959.233          50.000  
R03  23202521.495   124204959.503        2254.946          46.000    23202521.009    96603819.399        1753.959          43.000  
R24  21369915.888   114274555.107       -2860.829          50.000    21369912.681    88880260.690       -2225.072          50.000  
R18  24637016.935   131514121.372        3269.467          35.000    24637014.276   102288716.0221       2542.984          32.000  
G21  21089936.453   110828390.401       -1255.137          47.000                                                                  
G02  21430430.974   112617672.425        -399.705          50.000                                                                  
G08  24025942.541   126257150.667       -4221.736          45.000    24025941.809    98382162.520       -3289.605          44.000  
R02  20692836.357   110420736.614        -981.149          51.000    20692835.397    85882973.848        -763.062          50.000  
E05  23401656.762   122976456.774          27.151          49.000    23401657.180    94228751.981          20.833          52.000  
S31  40208327.302   211296175.948        -797.858          43.000  
G03  22729652.397   119445121.158         108.342          47.000    22729651.699    93074141.242          84.356          45.000  
E34  25478616.840   133891048.919         634.434          47.000    25478617.781   102591836.898         486.142          51.000  
E36  25493486.032   133969215.416       -1613.103          48.000    25493486.905   102651783.929       -1235.864          50.000  
G31  25208277.511   132470405.471        1047.968          46.000    25208273.806   103223712.702         816.772          42.000  
E11  28149425.202   147926353.891       -3002.831          39.000    28149426.108   113346247.602       -2300.819          38.000  
E03  27685795.093   145489815.901        1972.046          42.000    27685798.418   111479259.072        1511.239          48.000  
E09  26558827.742   139567573.216       -2693.948          46.000    26558828.236   106941366.461       -2064.091          48.000  
G32  25949501.634   136365512.819       -4373.320          43.000    25949502.610   106258817.375       -3407.922          37.000  
> 2024 04 09 12 35 30.0050000  0 23                     
S33  41165946.630   216328628.805        -795.982          43.000  
G28  25022879.366   131496154.630        -215.148          39.000    25022875.396   102464544.904        -167.545          39.000  
G04  23436950.597   123162055.182        2319.239          45.000    23436947.269    95970376.660        1807.105          46.000  
G17  24376686.014                        1795.026          32.000    24376682.346    99818499.708        1399.326          32.000  
R01  22614786.318   120888881.461       -4034.240          48.000    22614783.212    94024750.925       -3137.813          41.000  
R17  21097327.478   112896180.939        1216.828          52.000    21097322.350    87808118.739         946.332          50.000  
R03  23189915.742   124137485.033        2243.120          45.000    23189915.337    96551339.231        1744.442          41.000  
R24  21386017.385   114360656.289       -2879.616          50.000    21386013.546    88947228.219       -2239.635          49.000  
R18  24618637.030   131416025.091        3270.233          34.000    24618641.178   102212418.859        2543.182          36.000  
G21  21097149.179   110866292.567       -1272.180          47.000                                                                  
G02  21432753.745   112629878.422        -414.395          49.000                                                                  
G08  24050056.716   126383869.318       -4226.556          45.000    24050055.345    98480904.198       -3293.448          44.000  
R02  20698403.989   110450441.659        -999.494          52.000    20698401.597    85906077.764        -777.498          49.000  
E05  23401532.076   122975804.371          16.128          49.000    23401532.770    94228252.103          12.319          52.000  
S31  40212876.876   211320084.019        -796.284          43.000  
G03  22729046.188   119441931.228         103.886          49.000    22729044.434    93071655.580          80.988          44.000  
E34  25475002.758   133872056.478         631.409          47.000    25475003.677   102577284.250         483.765          51.000  
E36  25502712.252   134017699.940       -1619.552          48.000    25502713.212   102688934.349       -1240.951          50.000  
G31  25202312.918   132439063.804        1041.168          45.000    25202310.585   103199290.669         811.255          43.000  
E11  28166577.087   148016484.053       -3006.200          39.000    28166577.695   113415308.200       -2303.558          38.000  
E03  27674546.158   145430704.125        1968.209          42.000    27674549.751   111433965.706        1508.217          48.000  
E09  26574225.200   139648491.306       -2700.960          46.000    26574226.662   107003368.586       -2069.528          49.000  
G32  25974475.154   136496747.722       -4375.854          43.000    25974476.153   106361078.126       -3409.883          37.000  
> 2024 04 09 12 36 00.0050000  0 23                     
S33  41170484.747   216352478.138        -794.210          43.000  
G28  25024148.811   131502826.740        -229.964          36.000    25024146.816   102469743.933        -178.943          42.000  
G04  23423736.148   123092613.722        2309.867          45.000    23423733.096    95916266.439        1799.993          46.000  
G17  24366478.040   128046736.897        1781.683          32.000    24366471.784    99776689.547        1388.031          34.000  
R01  22637439.060   121009974.527       -4038.820          47.000    22637436.387    94118934.365       -3141.278          41.000  
R17  21090552.577   112859924.092        1200.109          53.000    21090546.959    87779918.947         933.396          50.000  
R03  23177378.662   124070367.229        2231.197          47.000    23177375.586    96499136.449        1735.480          39.000  
R24  21402225.793   114447324.703       -2898.415          51.000    21402221.380    89014636.945       -2254.385          50.000  
R18  24600257.687   131317918.127        3270.743          35.000    24600266.315   102136113.510        2543.656          35.000  
G21  21104460.014   110904710.095       -1289.164          48.000                                                                  
G02  21435159.947   112642526.038        -429.049          49.000                                                                  
G08  24074199.528   126510738.995       -4231.453          45.000    24074197.996    98579763.600       -3297.435          43.000  
R02  20704074.502   110480700.997       -1017.883          52.000    20704071.764    85929612.802        -791.692          49.000  
E05  23401471.593   122975484.656           5.250          49.000    23401471.694    94228007.136           3.835          51.000  
S31  40217417.136   211343943.047        -794.529          43.000  
G03  22728464.936   119438875.261          99.721          49.000    22728462.912    93069274.295          77.671          44.000  
E34  25471405.553   133853154.531         628.537          48.000    25471406.910   102562800.941         481.528          52.000  
E36  25511976.408   134066381.733       -1626.046          48.000    25511977.471   102726235.920       -1245.980          50.000  
G31  25196388.752   132407936.079        1033.954          44.000    25196386.989   103175035.365         805.768          43.000  
E11  28183746.512   148106712.969       -3009.206          38.000    28183748.181   113484444.466       -2305.857          39.000  
E03  27663319.632   145371706.244        1964.594          42.000    27663322.900   111388759.588        1505.347          48.000  
E09  26589663.748   139729621.640       -2707.930          46.000    26589665.543   107065533.329       -2074.979          49.000  
G32  25999464.994   136628066.829       -4378.893          44.000    25999465.811   106463404.480       -3412.092          37.000  
> 2024 04 09 12 36 30.0050000  0 23                     
S33  41175013.444   216376276.950        -792.551          43.000  
G28  25025502.414   131509936.493        -244.084          40.000    25025499.442   102475284.041        -190.419          40.000  
G04  23410574.697   123023449.239        2300.666          46.000    23410571.047    95862372.075        1792.923          45.000  
G17  24356348.892   127993498.310        1767.339          32.000    24356342.594    99735204.910        1377.457          35.000  
R01  22660117.268   121131201.749       -4043.224          48.000    22660114.794    94213222.141       -3144.830          42.000  
R17  21083871.464   112824168.433        1183.345          53.000    21083865.179    87752109.016         920.354          50.000  
R03  23164908.341   124003605.502        2219.199          49.000    23164903.402    96447210.572        1726.251          42.000  
R24  21418538.736   114534557.172       -2917.301          51.000    21418534.456    89082484.378       -2268.945          50.000  
R18  24581878.089   131219801.894        3270.322          35.000    24581886.857   102059800.919        2543.482          35.000  
G21  21111868.536   110943642.050       -1306.375          48.000                                                                  
G02  21437650.285   112655614.981        -443.781          49.000                                                                  
G08  24098369.578   126637754.702       -4236.316          45.000    24098368.623    98678736.766       -3301.110          43.000  
R02  20709847.869   110511510.531       -1036.237          52.000    20709845.342    85953575.751        -805.968          49.000  
E05  23401473.328   122975495.803          -6.006          48.000    23401473.648    94228015.656          -4.544          51.000  
S31  40221947.722   211367751.619        -792.655          43.000  
G03  22727908.067   119435950.796          95.238          49.000    22727906.251    93066995.487          74.174          45.000  
E34  25467826.271   133834342.538         625.425          48.000    25467827.108   102548386.543         479.288          52.000  
E36  25521276.351   134115259.499       -1632.578          47.000    25521278.758   102763687.680       -1250.965          51.000  
G31  25190505.296   132377023.015        1026.636          44.000    25190504.903   103150947.328         799.823          43.000  
E11  28200934.924   148197038.579       -3012.572          39.000    28200937.181   113553654.804       -2308.388          40.000  
E03  27652113.890   145312821.602        1960.915          43.000    27652117.135   111343640.245        1502.478          48.000  
E09  26605142.042   139810960.725       -2714.822          46.000    26605143.914   107127858.015       -2080.211          49.000  
G32  26024469.511   136759465.548       -4381.448          43.000    26024470.553   106565792.853       -3413.857          37.000  
> 2024 04 09 12 37 00.0050000  0 23                     
S33  41179534.004   216400031.093        -791.113          43.000  
G28  25026940.071   131517489.856        -259.216          40.000    25026935.541   102481169.793        -202.120          39.000  
G04  23397466.843   122954568.550        2291.184          46.000    23397463.748    95808698.837        1785.312          46.000  
G17  24346299.342                        1753.482          28.000    24346294.546    99694051.100        1366.123          37.000  
R01  22682821.039   121252564.794       -4047.735          49.000    22682818.290    94307615.591       -3148.110          41.000  
R17  21077284.533   112788922.144        1166.248          52.000    21077278.640    87724695.247         907.035          50.000  
R03  23152503.931   123937205.837        2207.128          48.000    23152501.477    96395566.432        1716.750          45.000  
R24  21434958.289   114622357.042       -2936.207          51.000    21434953.467    89150773.135       -2283.723          50.000  
R18  24563498.665   131121684.039        3270.636          36.000    24563505.253   101983487.044        2543.595          34.000  
G21  21119376.197   110983093.557       -1323.777          48.000                                                                  
G02  21440225.498   112669151.116        -458.878          48.000                                                                  
G08  24122568.154   126764917.902       -4241.406          45.000    24122566.945    98777824.858       -3304.942          43.000  
R02  20715725.239   110542872.852       -1054.791          52.000    20715723.287    85977968.662        -820.361          49.000  
E05  23401538.764   122975842.462         -17.407          48.000    23401539.661    94228281.273         -13.276          51.000  
S31  40226469.708   211391513.860        -791.387          43.000  
G03  22727377.500   119433161.807          90.606          48.000    22727375.947    93064822.235          70.518          45.000  
E34  25464264.480   133815626.397         622.121          48.000    25464265.687   102534045.606         476.553          52.000  
E36  25530616.385   134164338.506       -1639.483          47.000    25530618.656   102801293.625       -1256.257          51.000  
G31  25184666.528   132346332.120        1019.250          46.000    25184664.729   103127032.384         794.025          43.000  
E11  28218142.172   148287465.123       -3016.052          38.000    28218145.043   113622942.446       -2311.010          41.000  
E03  27640931.624   145254056.130        1956.779          43.000    27640934.336   111298612.182        1499.330          48.000  
E09  26620661.061   139892511.553       -2722.000          46.000    26620662.466   107190344.946       -2085.688          49.000  
G32  26049489.279   136890945.907       -4384.050          42.000    26049490.659   106668244.844       -3415.874          37.000  
> 2024 04 09 12 37 30.0050000  0 23                     
S33  41184046.462   216423743.686        -790.018          43.000  
G28  25028462.291   131525494.422        -274.449          38.000    25028459.679   102487407.086        -213.991          41.000  
G04  23384415.021   122885979.869        2281.160          46.000    23384411.902    95755253.132        1777.549          46.000  
G17  24336331.340                3       1738.287          30.000    24336327.401    99653234.679        1355.062          37.000  
R01  22705550.491   121374066.247       -4052.578          47.000    22705548.476    94402116.626       -3151.965          42.000  
R17  21070794.477   112754194.690        1148.774          52.000    21070788.844    87697685.004         893.443          50.000  
R03  23140169.169   123871175.995        2194.613          48.000    23140166.035    96344209.916        1706.964          46.000  
R24  21451484.169   114710729.342       -2955.490          51.000    21451479.603    89219507.106       -2298.658          50.000  
R18  24545119.539   131023573.918        3270.539          37.000    24545123.360   101907179.220        2543.105          36.000  
G21  21126983.730   111023071.292       -1341.589          48.000                                                                  
G02  21442888.726   112683141.732        -474.155          49.000                                                                  
G08  24146794.753   126892231.459       -4246.529          44.000    24146793.867    98877030.168       -3308.939          42.000  
R02  20721707.297   110574792.308       -1073.441          52.000    20721704.769    86002794.899        -834.898          49.000  
E05  23401669.977   122976530.684         -28.865          48.000    23401670.668    94228808.603         -22.053          51.000  
S31  40230983.451   211415236.100        -790.192          43.000  
G03  22726873.332   119430513.737          85.745          48.000    22726872.005    93062758.795          66.831          46.000  
E34  25460722.941   133797013.434         618.554          48.000    25460723.906   102519783.704         473.959          52.000  
E36  25539995.059   134213625.263       -1646.598          47.000    25539997.774   102839058.766       -1261.728          52.000  
G31  25178869.151   132315871.410        1011.316          46.000    25178866.750   103103296.827         787.920          41.000  
E11  28235370.262   148377998.360       -3020.114          38.000    28235372.827   113692311.865       -2314.038          41.000  
E03  27629772.401   145195417.093        1952.233          43.000    27629775.932   111253681.002        1495.969          49.000  
E09  26636220.411   139974278.506       -2729.304          46.000    26636222.121   107252997.492       -2091.365          49.000  
G32  26074526.012   137022511.314       -4387.211          41.000    26074526.747   106770763.082       -3418.005          35.000  
> 2024 04 09 12 38 00.0050000  0 23                     
S33  41188554.146   216447431.550        -789.478          43.000  
G28  25030069.331   131533965.263        -290.425          35.000    25030073.147   102494007.762        -226.263          43.000  
G04  23371421.515   122817699.178        2270.485          46.000    23371418.793    95702047.422        1769.197          46.000  
G17  24326448.205   127836363.6581       1723.091          29.000    24326444.689    99612768.572        1342.489          36.000  
R01  22728307.060   121495717.089       -4057.818          47.000    22728305.037    94496733.842       -3156.150          42.000  
R17  21064405.254   112720003.718        1130.392          53.000    21064398.961    87671092.016         879.203          49.000  
R03  23127906.121   123805531.094        2181.249          45.000    23127902.303    96293152.792        1696.670          46.000  
R24  21468118.794   114799686.942       -2975.339          50.000    21468115.474    89288696.294       -2314.037          50.000  
R18  24526744.743   130925489.065        3268.515          38.000    24526748.644   101830890.991        2542.126          36.000  
G21  21134694.261   111063590.142       -1360.029          47.000                                                                  
G02  21445640.453   112697602.081        -490.145          49.000                                                                  
G08  24171051.769   127019706.049       -4252.230          44.000    24171052.120    98976360.941       -3313.516          42.000  
R02  20727794.912   110607280.998       -1092.728          51.000    20727793.211    86028063.887        -849.969          49.000  
E05  23401869.207   122977574.360         -41.008          49.000    23401869.270    94229608.296         -31.546          51.000  
S31  40235492.783   211438932.116        -789.628          43.000  
G03  22726399.120   119428019.847          80.168          48.000    22726397.563    93060815.505          62.352          46.000  
E34  25457203.469   133778518.805         614.331          48.000    25457204.648   102505612.489         470.539          52.000  
E36  25549416.312   134263134.197       -1654.315          47.000    25549418.796   102876994.126       -1267.570          51.000  
G31  25173120.580   132285657.618        1002.599          47.000    25173118.007   103079753.640         781.285          41.000  
E11  28252622.350   148468651.860       -3024.375          38.000    28252624.737   113761773.415       -2317.249          42.000  
E03  27618640.847   145136919.563        1947.146          43.000    27618644.102   111208858.260        1492.006          49.000  
E09  26651823.906   140056273.761       -2737.302          46.000    26651825.477   107315824.934       -2097.353          49.000  
G32  26099580.498   137154172.939       -4390.826          39.000    26099581.321   106873356.302       -3421.133          34.000  
> 2024 04 09 12 38 30.0050000  0 23                     
S33  41193058.641   216471104.688        -789.213          43.000  
G28  25031774.158   131542916.224        -306.766          37.000    25031775.437   102500982.471        -238.868          42.000  
G04  23358489.882   122749740.898        2259.586          46.000    23358486.841    95649092.936        1760.654          46.000  
G17  24316653.566   127784896.761        1707.294          33.000    24316649.871    99572664.414        1330.662          35.000  
R01  22751094.362   121617526.582       -4063.135          47.000    22751092.575    94591474.491       -3160.285          43.000  
R17  21058119.646   112686365.393        1111.808          53.000    21058113.478    87644928.865         864.727          50.000  
R03  23115716.595   123740285.419        2167.813          44.000    23115711.978    96242406.153        1686.169          45.000  
R24  21484865.901   114889240.993       -2995.276          50.000    21484862.308    89358349.414       -2329.701          50.000  
R18  24508378.472   130827445.034        3267.002          37.000    24508381.481   101754634.535        2540.875          37.000  
G21  21142510.050   111104662.932       -1378.512          48.000                                                                  
G02  21448484.128   112712545.682        -506.438          48.000                                                                  
G08  24195342.752   127147350.813       -4257.848          45.000    24195342.613    99075824.262       -3317.644          43.000  
R02  20733991.844   110640348.846       -1112.155          52.000    20733991.069    86053783.300        -865.082          50.000  
E05  23402137.454   122978985.771         -53.324          48.000    23402137.877    94230689.753         -40.938          51.000  
S31  40239999.430   211462613.719        -789.357          43.000  
G03  22725955.981   119425691.787          74.575          48.000    22725954.197    93059001.428          58.034          45.000  
E34  25453708.685   133760156.103         609.633          48.000    25453710.423   102491542.352         467.084          52.000  
E36  25558882.645   134312878.149       -1662.304          47.000    25558884.995   102915109.578       -1273.702          52.000  
G31  25167420.944   132255705.574         993.816          47.000    25167416.951   103056414.429         774.289          40.000  
E11  28269897.063   148559437.414       -3028.271          37.000    28269900.717   113831336.213       -2320.771          42.000  
E03  27607538.871   145078577.054        1942.073          43.000    27607541.665   111164154.314        1487.979          49.000  
E09  26667473.516   140138507.934       -2745.393          46.000    26667474.577   107378835.464       -2103.615          49.000  
G32  26124654.931   137285940.449       -4394.197          37.000    26124655.784   106976032.068       -3424.236          33.000  
> 2024 04 09 12 39 00.0050000  0 23                     
S33  41197560.489   216494761.563        -788.508          43.000  
G28  25033570.520   131552346.159        -322.400          41.000    25033569.262   102508330.463        -251.542          42.000  
G04  23345619.367   122682104.805        2248.745          45.000    23345616.518    95596389.490        1752.289          46.000  
G17  24306954.141   127733894.457        1691.829          34.000    24306943.742    99532922.418        1318.148          35.000  
R01  22773909.693   121739489.424       -4068.425          47.000    22773909.115    94686334.296       -3164.029          43.000  
R17  21051936.739   112653280.379        1093.287          52.000    21051931.310    87619196.079         850.311          50.000  
R03  23103604.094   123675437.666        2154.652          47.000    23103599.498    96191969.029        1675.899          47.000  
R24  21501724.836   114979387.838       -3015.110          50.000    21501719.746    89428463.588       -2345.035          49.000  
R18  24490022.063   130729442.709        3265.413          39.000    24490023.257   101678410.508        2540.541          34.000  
G21  21150431.155   111146288.085       -1397.083          48.000                                                                  
G02  21451419.655   112727971.727        -522.563          49.000                                                                  
G08  24219663.733   127275160.212       -4263.400          43.000    24219663.438    99175415.895       -3322.031          43.000  
R02  20740296.301   110673991.821       -1131.314          51.000    20740294.856    86079950.050        -879.826          49.000  
E05  23402476.449   122980762.544         -65.738          49.000    23402476.042    94232051.139         -50.236          51.000  
S31  40244502.766   211486279.137        -788.857          43.000  
G03  22725543.896   119423526.612          69.093          48.000    22725542.052    93057314.258          53.751          45.000  
E34  25450238.716   133741924.239         605.182          47.000    25450240.940   102477572.473         463.743          52.000  
E36  25568393.266   134362855.329       -1670.105          48.000    25568395.399   102953403.734       -1279.632          52.000  
G31  25161770.590   132226015.818         984.849          45.000    25161768.010   103033279.589         767.720          41.000  
E11  28287196.986   148650352.495       -3032.728          36.000    28287200.997   113900998.230       -2323.916          42.000  
E03  27596466.052   145020388.495        1936.806          44.000    27596468.770   111119568.304        1484.053          49.000  
E09  26683166.926   140220977.006       -2753.203          47.000    26683167.575   107442025.974       -2109.504          49.000  
G32  26149748.154   137417808.937       -4397.642          36.000    26149749.851                       -3427.412          32.000  
> 2024 04 09 12 39 30.0050000  0 23                     
S33  41202061.781   216518415.321        -788.434          44.000  
G28  25035459.341   131562269.524        -338.984          41.000    25035457.460   102516062.933        -263.964          42.000  
G04  23332812.374   122614806.089        2237.706          45.000    23332810.172    95543948.952        1743.673          47.000  
G17  24297335.646   127683371.988        1675.890          32.000    24297329.754    99493554.252        1306.185          36.000  
R01  22796756.320   121861615.581       -4073.587          47.000    22796754.863    94781321.225       -3168.428          44.000  
R17  21045860.913   112620765.511        1074.377          53.000    21045855.156    87593906.739         835.599          50.000  
R03  23091566.926   123611002.741        2141.001          47.000    23091562.341    96141853.018        1665.183          46.000  
R24  21518695.002   115070139.489       -3035.148          50.000    21518690.774    89499048.150       -2360.717          50.000  
R18  24471674.952   130631498.465        3263.867          39.000    24471674.530   101602231.739        2538.697          35.000  
G21  21158459.223   111188479.030       -1415.864          48.000                                                                  
G02  21454449.598   112743894.511        -539.027          49.000                                                                  
G08  24244017.741   127403144.213       -4269.104          43.000    24244017.750    99275143.556       -3326.322          42.000  
R02  20746710.388   110708221.061       -1150.708          51.000    20746708.434    86106572.803        -895.044          48.000  
E05  23402885.623   122982917.717         -77.991          48.000    23402886.545    94233702.493         -59.861          52.000  
S31  40249005.237   211509941.185        -788.757          44.000  
G03  22725165.731   119421536.736          63.474          49.000    22725163.644    93055763.687          49.534          46.000  
E34  25446797.088   133723837.621         600.502          47.000    25446799.161   102463713.877         460.126          52.000  
E36  25577950.094   134413079.346       -1678.271          48.000    25577952.768   102991887.022       -1285.945          52.000  
G31  25156173.498   132196603.729         975.775          45.000    25156171.389   103010361.170         760.259          42.000  
E11  28304525.187   148741409.829       -3037.273          37.000    28304528.810   113970769.248       -2327.394          41.000  
E03  27585424.814   144962368.174        1931.139          44.000    27585427.746   111075111.198        1479.688          48.000  
E09  26698906.554   140303692.373       -2761.330          46.000    26698907.956   107505405.219       -2115.784          48.000  
G32  26174862.264   137549788.773       -4400.897          33.000    26174865.453                       -3429.347          31.000  
> 2024 04 09 12 40 00.0050000  0 23                     
S33  41206562.978   216542069.321        -788.775          43.000  
G28  25037442.712   131572690.217        -355.984          39.000    25037439.551   102524182.971        -277.665          40.000  
G04  23320070.694   122547849.427        2225.938          45.000    23320067.823    95491774.958        1734.499          46.000  
G17  24287810.757   127633334.745        1658.798          33.000    24287808.508    99454564.236        1292.397          36.000  
R01  22819632.694   121983904.417       -4079.406          46.000    22819631.418    94876434.665       -3172.952          44.000  
R17  21039891.786   112588826.797        1054.688          52.000    21039886.347    87569065.502         820.306          49.000  
R03  23079608.201   123546984.113        2126.625          47.000    23079603.365    96092060.812        1654.025          47.000  
R24  21535778.833   115161497.020       -3055.801          50.000    21535774.583    89570103.951       -2376.741          49.000  
R18  24453338.788   130533618.396        3261.149          39.000    24453341.438   101526102.876        2536.408          36.000  
G21  21166596.661   111231239.019       -1435.184          48.000                                                                  
G02  21457574.793   112760318.016        -556.188          49.000                                                                  
G08  24268405.841   127531302.149       -4275.110          44.000    24268405.865    99375006.754       -3331.220          43.000  
R02  20753235.089   110743037.005       -1170.654          51.000    20753233.100    86133651.878        -910.458          48.000  
E05  23403368.187   122985453.800         -91.190          49.000    23403369.192    94235645.721         -69.947          52.000  
S31  40253508.057   211533602.373        -789.106          44.000  
G03  22724820.813   119419724.149          57.121          49.000    22724818.939    93054351.297          44.556          46.000  
E34  25443383.286   133705900.096         594.984          47.000    25443385.631   102449969.523         455.991          52.000  
E36  25587555.794   134463553.293       -1687.070          48.000    25587557.661   103030561.816       -1292.616          51.000  
G31  25150629.735   132167474.230         965.836          45.000    25150629.010   102987662.914         752.739          43.000  
E11  28321880.190   148832611.554       -3042.586          37.000    28321884.523   114040650.930       -2331.430          42.000  
E03  27574416.465   144904519.846        1925.011          44.000    27574419.681   111030785.872        1475.082          48.000  
E09  26714694.085   140386654.912       -2769.727          47.000    26714695.289   107568973.856       -2122.369          48.000  
G32  26199999.430   137681880.015       -4405.602          33.000    26200000.381                       -3432.852          30.000  
> 2024 04 09 12 40 30.0050000  0 23                     
S33  41211065.914   216565731.561        -788.931          43.000  
G28  25039522.216   131583619.304        -372.970          41.000    25039518.472   102532699.049        -290.713          41.000  
G04  23307396.888   122481246.732        2214.291          45.000    23307393.679    95439876.776        1725.292          47.000  
G17  24278385.686   127583794.931        1643.034          36.000    24278380.927    99415961.771        1280.250          35.000  
R01  22842540.814   122106362.535       -4084.689          47.000    22842540.320    94971679.775       -3176.893          44.000  
R17  21034033.553   112557477.525        1035.125          53.000    21034027.514    87544682.736         805.071          49.000  
R03  23067728.573   123483393.275        2112.428          47.000    23067724.286    96042601.345        1643.036          48.000  
R24  21552978.745   115253469.255       -3075.939          51.000    21552974.154    89641637.885       -2392.470          50.000  
R18  24435017.504   130435815.724        3258.506          40.000    24435022.443   101450034.147        2534.757          35.000  
G21  21174843.910   111274578.346       -1454.404          48.000                                                                  
G02  21460797.479   112777253.108        -573.146          49.000                                                                  
G08  24292828.315   127659640.635       -4280.981          45.000    24292828.032    99475010.676       -3336.153          42.000  
R02  20759871.750   110778447.436       -1190.265          52.000    20759869.318    86161193.333        -925.719          49.000  
E05  23403924.946   122988380.554        -104.035          48.000    23403926.045    94237888.284         -79.816          52.000  
S31  40258012.425   211557272.044        -789.249          44.000  
G03  22724510.738   119418098.018          51.240          48.000    22724509.665    93053084.184          39.811          46.000  
E34  25440000.319   133688122.774         589.761          47.000    25440002.666   102436347.930         451.853          52.000  
E36  25597210.021   134514287.458       -1695.391          48.000    25597211.872   103069436.020       -1299.230          51.000  
G31  25145144.718   132138639.790         956.146          46.000    25145142.266   102965194.573         744.982          43.000  
E11  28339264.994   148923967.240       -3047.861          37.000    28339269.458   114110650.521       -2335.175          43.000  
E03  27563443.391   144846854.562        1919.014          44.000    27563446.117   110986600.776        1470.417          49.000  
E09  26730530.121   140469872.787       -2778.259          46.000    26730531.247   107632738.136       -2128.753          48.000  
G32  26225158.313                       -4408.723          31.000    26225160.805                       -3436.316          30.000  
> 2024 04 09 12 41 00.0050000  0 23                     
S33  41215571.025   216589406.904        -789.541          44.000  
G28  25041701.723   131595062.078        -390.106          42.000    25041698.322   102541615.445        -303.851          43.000  
G04  23294791.211   122415004.128        2201.909          46.000    23294787.625    95388259.189        1715.794          46.000  
G17  24269055.728   127534759.294        1626.158          38.000    24269049.614    99377752.226        1266.983          35.000  
R01  22865480.827   122228991.352       -4090.410          46.000    22865480.058    95067057.626       -3181.353          43.000  
R17  21028287.051   112526724.995        1015.092          53.000    21028280.466    87520764.105         789.427          49.000  
R03  23055930.238   123420235.553        2097.858          48.000    23055925.628    95993478.739        1631.683          47.000  
R24  21570293.644   115346058.700       -3096.686          51.000    21570288.950    89713651.845       -2408.533          50.000  
R18  24416711.782   130338097.793        3255.765          40.000    24416718.884   101374031.395        2531.809          38.000  
G21  21183202.201   111318501.823       -1473.908          49.000                                                                  
G02  21464118.549   112794705.425        -590.421          49.000                                                                  
G08  24317284.288   127788160.620       -4287.116          43.000    24317284.879    99575156.002       -3340.531          43.000  
R02  20766619.253   110814454.370       -1210.175          52.000    20766617.324    86189198.721        -941.210          49.000  
E05  23404556.668   122991701.993        -117.388          48.000    23404558.199    94240433.253         -89.930          52.000  
S31  40262519.282   211580955.351        -789.426          44.000  
G03  22724237.175   119416661.846          44.613          47.000    22724235.921    93051965.053          34.963          46.000  
E34  25436649.400   133670511.023         584.185          47.000    25436651.129   102422853.208         447.656          51.000  
E36  25606915.378   134565286.459       -1704.475          48.000    25606916.716   103108513.119       -1306.062          51.000  
G31  25139715.152   132110106.942         945.886          46.000    25139712.580   102942961.249         737.012          43.000  
E11  28356679.673   149015480.475       -3053.172          37.000    28356684.119   114180770.862       -2339.453          43.000  
E03  27552506.475   144789377.539        1912.657          43.000    27552508.792   110942559.955        1465.513          49.000  
E09  26746415.073   140553348.350       -2786.880          46.000    26746415.713   107696699.871       -2135.403          48.000  
G32  26250341.010                       -4412.871          31.000    26250346.310                1      -3438.797          30.000  
> 2024 04 09 12 41 30.0050000  0 23                     
S33  41220080.693   216613104.764        -790.538          44.000  
G28  25043978.500   131607029.585        -408.010          41.000    25043974.268   102550940.747        -318.038          42.000  
G04  23282256.516   122349133.504        2189.131          46.000    23282252.945    95336931.448        1705.872          47.000  
G17  24259822.041   127486239.852        1608.291          39.000    24259814.977    99339944.877        1253.752          34.000  
R01  22888454.367   122351797.475       -4096.688          46.000    22888453.359    95162573.401       -3186.254          44.000  
R17  21022653.798   112496583.029         994.213          52.000    21022647.444    87497320.343         773.274          49.000  
R03  23044213.243   123357522.188        2082.556          46.000    23044209.612    95944701.724        1620.002          46.000  
R24  21587725.655   115439273.803       -3117.892          51.000    21587721.635    89786152.430       -2425.045          50.000  
R18  24398423.485   130240477.913        3251.623          38.000    24398431.437   101298104.805        2529.524          36.000  
G21  21191673.651   111363019.592       -1494.130          48.000                                                                  
G02  21467540.247   112812685.547        -608.369          49.000                                                                  
G08  24341776.363   127916868.751       -4293.728          42.000    24341777.686    99675447.931       -3345.795          43.000  
R02  20773480.853   110851065.528       -1230.688          52.000    20773478.310    86217674.073        -957.105          49.000  
E05  23405265.748   122995427.795        -131.181          48.000    23405267.038    94243288.054        -100.451          51.000  
S31  40267030.231   211604660.664        -790.625          44.000  
G03  22724002.162   119415424.749          37.670          48.000    22723999.593    93051001.084          29.449          45.000  
E34  25433331.786   133653075.958         578.004          47.000    25433333.298   102409493.855         442.858          51.000  
E36  25616672.265   134616560.551       -1714.007          48.000    25616673.649   103147801.021       -1313.238          51.000  
G31  25134343.726   132081888.190         935.175          45.000    25134341.812   102920972.669         728.642          42.000  
E11  28374126.257   149107160.716       -3059.053          38.000    28374130.548   114251019.148       -2343.954          42.000  
E03  27541606.763   144732099.817        1905.543          43.000    27541609.509   110898671.864        1460.112          50.000  
E09  26762350.497   140637089.711       -2796.021          46.000    26762351.216   107760865.272       -2142.322          48.000  
G32  26275547.438                       -4417.476          30.000    26275553.729                       -3442.732          29.000  
> 2024 04 09 12 42 00.0050000  0 24                     
S33  41224597.698   216636840.617        -791.932          44.000  
G28  25046358.411   131619537.452        -426.084          40.000    25046355.318   102560687.088        -332.021          43.000  
G04  23269795.657   122283651.327        2176.217          47.000    23269792.180    95285906.389        1695.981          46.000  
G17  24250689.503   127438253.219        1590.508          37.000    24250683.247    99302552.691        1239.532          35.000  
R01  22911463.469   122474792.336       -4102.989          46.000    22911462.932    95258235.986       -3191.300          45.000  
R17  21017138.701   112467069.040         973.282          53.000    21017132.590    87474364.989         756.917          50.000  
R03  23032583.903   123295269.293        2067.355          46.000    23032579.481    95896282.807        1607.963          46.000  
R24  21605276.989   115533127.993       -3139.148          51.000    21605273.532    89859150.073       -2441.539          50.000  
R18  24380156.694   130142973.988        3248.417          35.000    24380161.944   101222268.543        2526.323          33.000  
G21  21200261.404   111408146.693       -1514.476          49.000                                                                  
G02  21471065.366   112831209.346        -626.431          49.000                                                                  
G08  24366307.301   128045776.254       -4300.149          43.000    24366308.236    99775895.235       -3350.670          43.000  
R02  20780456.745   110888293.265       -1251.188          52.000    20780454.411    86246628.955        -973.180          49.000  
E05  23406054.250   122999572.319        -145.140          48.000    23406055.612    94246463.701        -111.113          51.000  
S31  40271548.259   211628403.393        -792.161          44.000  
G03  22723807.945   119414400.612          30.681          48.000    22723805.346    93050203.047          23.777          46.000  
E34  25430050.912   133635833.303         571.433          47.000    25430052.049   102396281.936         437.868          51.000  
E36  25626484.266   134668124.714       -1723.673          48.000    25626486.044   103187311.199       -1320.684          51.000  
G31  25129035.960   132054000.421         923.966          44.000    25129034.662   102899241.972         720.215          43.000  
E11  28391607.347   149199022.054       -3064.961          38.000    28391611.456   114321406.193       -2348.786          42.000  
E03  27530746.530   144675036.976        1898.495          41.000    27530750.356   110854948.442        1454.651          49.000  
E09  26778338.360   140721109.641       -2805.264          46.000    26778339.713   107825244.130       -2149.522          47.000  
G32  26300780.481                       -4421.544          29.000    26300784.180                       -3445.590          28.000  
R23                                                                  24594728.770                3      -3940.345          11.000  
> 2024 04 09 12 42 30.0050000  0 23                     
S33  41229121.224   216660613.276        -793.036          44.000  
G28  25048841.666   131632587.071        -444.030          40.000    25048839.292   102570855.618        -346.323          43.000  
G04  23257408.807   122218559.915        2163.073          46.000    23257406.392    95235185.841        1685.532          46.000  
G17  24241659.184   127390802.256        1573.414          38.000    24241653.603    99265577.973        1225.208          35.000  
R01  22934507.226   122597973.382       -4109.188          46.000    22934507.144    95354043.320       -3195.912          45.000  
R17  21011741.485   112438186.761         952.250          53.000    21011735.923    87451900.954         740.677          50.000  
R03  23021039.595   123233477.997        2051.699          45.000    23021037.828    95848222.893        1595.890          47.000  
R24  21622946.453   115627619.868       -3160.439          50.000    21622943.668    89932643.722       -2458.163          50.000  
R18  24361909.138   130045589.635        3243.671          37.000    24361915.294   101146525.203        2522.958          35.000  
G21  21208964.633   111453883.943       -1534.944          48.000                                                                  
G02  21474693.660   112850278.140        -644.827          50.000                                                                  
G08  24390875.397   128174880.135       -4306.814          43.000    24390876.736    99876495.583       -3356.060          44.000  
R02  20787548.375   110926135.870       -1271.757          52.000    20787545.740    86276062.063        -989.127          49.000  
E05  23406923.180   123004135.671        -159.208          48.000    23406924.182    94249960.272        -122.016          51.000  
S31  40276073.314   211652183.175        -793.426          43.000  
G03  22723653.214   119413589.017          23.441          47.000    22723651.656    93049570.631          18.413          46.000  
E34  25426806.223   133618784.571         564.970          47.000    25426807.796   102383218.609         432.915          51.000  
E36  25636351.182   134719979.646       -1733.537          47.000    25636353.849   103227044.151       -1328.230          51.000  
G31  25123792.930   132026446.105         912.669          44.000    25123791.509   102877771.121         711.205          42.000  
E11  28409122.816   149291064.216       -3070.840          38.000    28409126.596   114391931.801       -2353.249          42.000  
E03  27519930.114   144618190.457        1891.089          42.000    27519932.748   110811390.756        1449.033          49.000  
E09  26794379.721   140805406.647       -2814.635          46.000    26794380.787   107889835.270       -2156.659          47.000  
G32  26326038.641                       -4426.544          27.000    26326040.964                       -3449.091          28.000  
> 2024 04 09 12 43 00.0050000  0 23                     
S33  41233652.504   216684424.018        -794.221          44.000  
G28  25051427.392   131646180.029        -461.941          39.000    25051426.088   102581447.474        -360.199          43.000  
G04  23245096.858   122153861.554        2150.114          46.000    23245094.695    95184771.540        1675.401          46.000  
G17  24232731.389   127343889.820        1554.897          38.000    24232726.130    99229022.790        1211.648          34.000  
R01  22957585.846   122721337.636       -4115.257          46.000    22957585.177    95449993.177       -3200.656          45.000  
R17  21006462.603   112409939.979         930.923          52.000    21006457.170    87429931.227         724.036          50.000  
R03  23009583.797   123172150.201        2036.665          45.000    23009579.971    95800523.511        1584.126          45.000  
R24  21640735.913   115722748.141       -3181.498          51.000    21640733.642    90006632.317       -2474.549          51.000  
R18  24343691.993   129948328.589        3239.879          40.000    24343695.939   101070877.708        2520.043          35.000  
G21  21217784.333   111500232.195       -1555.184          48.000                                                                  
G02  21478426.744   112869893.830        -663.044          50.000                                                                  
G08  24415479.271   128304177.634       -4313.241          41.000    24415481.368    99977246.738       -3360.902          44.000  
R02  20794755.922   110964591.016       -1292.050          53.000    20794752.270    86305971.610       -1004.900          48.000  
E05  23407872.078   123009118.062        -173.131          49.000    23407872.292    94253777.926        -132.645          51.000  
S31  40280605.638   211676000.567        -794.576          44.000  
G03  22723538.450   119412989.684          16.391          47.000    22723537.564    93049103.631          12.833          46.000  
E34  25423599.156   133601931.400         558.523          47.000    25423600.969   102370305.125         427.895          51.000  
E36  25646274.812   134772126.161       -1743.117          48.000    25646276.944   103267000.500       -1335.636          51.000  
G31  25118614.413   131999228.435         901.500          44.000    25118610.325   102856562.561         702.694          40.000  
E11  28426672.977   149383287.261       -3077.245          38.000    28426676.431   114462595.956       -2357.495          42.000  
E03  27509153.858   144561561.802        1883.706          42.000    27509156.833   110767999.995        1443.477          49.000  
E09  26810473.351   140889979.350       -2823.656          46.000    26810474.581   107954637.664       -2163.536          47.000  
G32                                                                  26351325.570                       -3452.954          27.000  
> 2024 04 09 12 43 30.0050000  0 23                     
S33  41238192.499   216708281.696        -796.681          44.000  
G28  25054119.970   131660326.774        -481.099          37.000    25054117.690   102592470.868        -374.989          41.000  
G04  23232861.550   122089567.706        2135.792          46.000    23232860.700    95134672.442        1664.337          46.000  
G17  24223909.643   127297527.764        1535.520          41.000    24223904.378    99192896.501        1196.555          35.000  
R01  22980698.541   122844891.439       -4122.164          46.000    22980698.200    95546090.480       -3205.930          45.000  
R17  21001304.529   112382341.277         908.644          52.000    21001299.338    87408465.557         706.780          50.000  
R03  22998216.956   123111296.051        2019.954          47.000    22998212.524    95753192.596        1571.047          45.000  
R24  21658645.935   115818520.887       -3203.669          50.000    21658643.286    90081122.196       -2491.629          50.000  
R18  24325496.947   129851203.649        3234.743          40.000    24325504.768   100995336.128        2515.951          38.000  
G21  21226722.188   111547201.170       -1576.462          48.000                                                                  
G02  21482265.496   112890066.655        -682.166          49.000                                                                  
G08  24440121.678   128433674.979       -4320.276          42.000    24440123.490   100078153.647       -3366.433          45.000  
R02  20802078.810   111003666.416       -1313.355          52.000    20802074.679    86336363.560       -1021.502          48.000  
E05  23408901.615   123014528.724        -188.123          49.000    23408902.026    94257923.745        -144.097          51.000  
S31  40285146.772   211699863.973        -796.747          43.000  
G03  22723465.880   119412611.444           8.605          46.000    22723465.489    93048808.886           6.782          47.000  
E34  25420431.568   133585284.529         550.916          47.000    25420433.360   102357549.712         422.093          51.000  
E36  25656255.336   134824574.132       -1753.841          48.000    25656257.471   103307187.877       -1343.889          51.000  
G31  25113501.010   131972359.042         889.310          44.000    25113497.505   102835625.444         692.819          41.000  
E11  28444258.631   149475700.091       -3084.040          37.000    28444261.794   114533405.587       -2363.079          42.000  
E03  27498422.093   144505161.544        1875.569          43.000    27498424.173   110724784.229        1437.173          49.000  
E09  26826622.171   140974835.487       -2833.891          46.000    26826622.079   108019657.240       -2171.432          47.000  
G32  26376639.716                3      -4436.582          25.000    26376637.981                       -3457.023          28.000  
> 2024 04 09 12 44 00.0050000  0 24                     
S33  41242743.753   216732198.158        -798.547          44.000  
G28  25056918.279   131675040.447        -500.112          38.000    25056917.599   102603936.057        -389.734          42.000  
G04  23220706.643   122025692.491        2122.028          46.000    23220705.886    95084899.535        1653.377          47.000  
G17  24215195.173   127251730.022        1517.038          42.000    24215189.816    99157209.945        1182.111          36.000  
R01  23003848.872   122968644.384       -4128.595          46.000    23003848.794    95642342.658       -3211.072          46.000  
R17  20996272.231   112355406.370         886.491          53.000    20996265.979    87387516.189         689.461          50.000  
R03  22986940.163   123050929.372        2003.845          48.000    22986936.389    95706240.734        1558.450          45.000  
R24  21676678.242   115914948.654       -3225.288          50.000    21676675.830    90156121.509       -2508.571          50.000  
R18  24307331.637   129754230.613        3229.549          39.000    24307341.136   100919912.652        2511.972          38.000  
G21  21235780.693   111594803.228       -1597.437          48.000                                                                  
G02  21486213.379   112910809.968        -701.103          50.000                                                                  
G08  24464804.577   128563381.017       -4327.140          43.000    24464805.871   100179223.172       -3371.940          45.000  
R02  20809518.503   111043371.513       -1334.141          51.000    20809515.805    86367245.280       -1037.665          49.000  
E05  23410014.683   123020379.599        -202.713          48.000    23410015.236    94262406.873        -155.287          51.000  
S31  40289699.029   211723787.366        -798.564          43.000  
G03  22723438.296   119412465.735           0.675          47.000    22723437.713    93048695.337           0.599          47.000  
E34  25417305.216   133568857.314         543.716          46.000    25417307.412   102344962.607         416.611          52.000  
E36  25666296.336   134877336.092       -1764.285          48.000    25666298.159   103347615.826       -1351.899          51.000  
G31  25108457.099   131945852.445         877.308          45.000    25108453.989   102814971.011         683.513          41.000  
E11  28461883.332   149568314.501       -3090.667          37.000    28461885.645   114604369.663       -2368.310          41.000  
E03  27487734.194   144449002.899        1867.522          42.000    27487737.732   110681753.615        1430.907          49.000  
E09  26842825.198   141059985.383       -2843.575          45.000    26842825.612   108084901.903       -2178.782          47.000  
R23                                                                  26201923.048                3      -3803.198          11.000  
G32                                                                  26401978.874                       -3460.576          25.000  
> 2024 04 09 12 44 30.0050000  0 23                     
S33  41247307.325   216756180.266        -800.717          44.000  
G28  25059828.911   131690328.309        -519.264          40.000    25059826.422   102615848.627        -404.559          41.000  
G04  23208632.787   121962243.919        2107.678          46.000    23208632.371    95035459.102        1642.367          47.000  
G17  24206588.280   127206504.863        1497.866          40.000    24206584.237    99121969.575        1166.942          37.000  
R01  23027037.979   123092599.413       -4135.294          46.000    23027037.154    95738752.015       -3216.405          46.000  
R17  20991364.902   112329144.459         863.981          53.000    20991358.364    87367090.249         671.901          50.000  
R03  22975755.288   122991057.118        1987.206          49.000    22975751.280    95659673.423        1545.665          45.000  
R24  21694835.109   116012036.180       -3247.386          51.000    21694831.464    90231633.990       -2525.824          50.000  
R18  24289195.812   129657418.871        3224.258          38.000    24289206.518   100844614.661        2507.926          38.000  
G21  21244960.814   111643044.735       -1618.874          48.000                                                                  
G02  21490270.555   112932130.905        -720.514          49.000                                                                  
G08  24489526.883   128693298.682       -4334.364          43.000    24489528.615   100280457.583       -3377.601          45.000  
R02  20817078.443   111083710.324       -1355.315          52.000    20817075.996    86398619.874       -1054.186          50.000  
E05  23411213.061   123026676.559        -217.564          49.000    23411213.453    94267231.810        -166.616          51.000  
S31  40294263.975   211747775.237        -800.784          43.000  
G03  22723456.972   119412557.999          -7.052          48.000    22723455.331    93048767.211          -5.426          46.000  
E34  25414222.094   133552657.105         536.063          46.000    25414224.656   102332549.446         410.715          52.000  
E36  25676397.164   134930418.522       -1774.960          48.000    25676399.385   103388289.339       -1360.032          51.000  
G31  25103483.720   131919717.238         864.756          46.000    25103481.445   102794605.961         673.926          42.000  
E11  28479546.578   149661136.016       -3097.912          37.000    28479549.469   114675492.417       -2373.570          41.000  
E03  27477095.171   144393093.080        1859.198          42.000    27477098.760   110638913.670        1424.615          50.000  
E09  26859084.807   141145433.367       -2853.313          45.000    26859086.386   108150374.989       -2186.398          48.000  
G32                                                                  26427349.895                3      -3465.064          25.000  
