     3.00           OBSERVATION DATA    M: Mixed            RINEX VERSION / TYPE
CONVBIN 2.4.3                           20240409 012942 UTC PGM / RUN BY / DATE 
format: u-blox UBX                                          COMMENT             
log: data/2024-04-09/20240409011500.ubx                     COMMENT             
AQUI00CHL                                                   MARKER NAME         
                                                            MARKER NUMBER       
                                                            MARKER TYPE         
                                                            OBSERVER / AGENCY   
UNKNOWN             UBLOX-ZED-F9P                           REC # / TYPE / VERS 
UNKNOWN             TWIVSP6037L                             ANT # / TYPE        
  1713381.0000 -5047934.0000 -3490983.0000                  APPROX POSITION XYZ 
        0.0000        0.0000        0.0000                  ANTENNA: DELTA H/E/N
G    8 C1C L1C D1C S1C C2L L2L D2L S2L                      SYS / # / OBS TYPES 
R    8 C1C L1C D1C S1C C2C L2C D2C S2C                      SYS / # / OBS TYPES 
E    8 C1C L1C D1C S1C C7Q L7Q D7Q S7Q                      SYS / # / OBS TYPES 
S    4 C1C L1C D1C S1C                                      SYS / # / OBS TYPES 
  2024    04    09    01    15   00.0080000     GPS         TIME OF FIRST OBS   
  2024    04    09    01    29   30.0080000     GPS         TIME OF LAST OBS    
                                                            END OF HEADER       
> 2024 04 09 01 15 00.0080000  0 25                     
S33  42116158.808   221322006.9521       -762.663          45.000  
E26  28277918.086   148601560.0121       -190.064          39.000    28277919.209   113863585.4131       -145.824          48.000  
G24  22878272.142   120226246.8261      -1393.440          48.000    22878271.490    93682873.4441      -1085.854          49.000  
E09  27400869.209   143992485.1471      -1031.439          47.000    27400869.402   110332016.2131       -790.318          51.000  
G15  26335117.251   138391691.6741      -3958.569          42.000    26335129.232   107837678.8611      -3084.448          38.000  
R07  24564749.114   131497030.9991      -3684.710          49.000    24564745.818   102275446.3111      -2865.754          46.000  
R08  24781186.956   132702189.6771       -884.065          47.000    24781181.323   103212725.7711       -687.741          46.000  
R16  24471584.715   130723302.2421      -2623.285          47.000    24471580.981   101673872.7571      -2040.446          42.000  
R09  22443402.349   119846827.8921       -262.565          51.000    22443398.241    93214289.2561       -204.221          52.000  
R19  22618379.762   120993427.5011       -640.117          44.000    22618374.240    94106154.4211       -497.868          48.000  
G19  26839231.088   141041172.1311      -4259.282          43.000                                                                  
G32  25847281.618   135828337.1951        663.738          44.000    25847279.510   105840267.1091        516.829          39.000  
E31  26438298.406   138934537.0471       -275.586          48.000    26438298.732   106456406.7301       -211.097          52.000  
G12  23524615.302   123623031.4331       -694.580          48.000    23524609.458    96329819.8791       -541.164          46.000  
R20  24306272.952   129976786.4191       3379.177          41.000    24306276.377   101093101.6541       2628.054          42.000  
R10  24286909.679   129462884.5041       1509.199          44.000                                                                  
R18  24587398.775   131249463.0401      -3723.546          52.000    24587395.768   102082886.1331      -2896.059          45.000  
E24  29767512.817   156429307.3231        894.129          40.000    29767513.862   119861446.1211        685.146          46.000  
S31  41163026.244   216313228.0021       -761.586          44.000  
G29  25828194.213   135728260.0771       2619.262          45.000    25828197.721   105762381.9971       2040.862          40.000  
G25  24395788.147   128200937.7841        691.128          47.000    24395785.631    99896934.3171        538.482          42.000  
G06  25566083.246   134350773.6971       -844.366          40.000    25566081.543   104688943.2121       -658.172          39.000  
E33  28383925.840   149158767.6821       1737.623          46.000    28383927.977   114290663.7341       1331.275          49.000  
E04  27727114.346   145706974.6011      -3244.037          45.000    27727117.311   111645701.2571      -2485.694          50.000  
G11  25361821.474   133277492.2051       1041.402          44.000    25361818.952   103852816.7821        811.616          45.000  
> 2024 04 09 01 15 30.0080000  0 25                     
S33  42120510.352   221344875.752        -762.381          45.000  
E26  28279043.163   148607467.764        -203.755          40.000    28279042.893   113868112.156        -156.164          47.000  
G24  22886272.129   120268285.633       -1409.407          48.000    22886270.329    93715630.936       -1098.151          48.000  
E09  27406796.195   144023634.265       -1045.446          47.000    27406796.967   110355883.704        -801.103          52.000  
G15  26357713.029   138510434.922       -3958.020          42.000    26357726.214   107930205.685       -3083.869          38.000  
R07  24585434.917   131607765.300       -3697.830          47.000    24585432.394   102361572.792       -2875.988          45.000  
R08  24786206.652   132729077.613        -908.705          45.000    24786200.896   103233638.571        -706.848          45.000  
R16  24486334.969   130802086.640       -2629.128          47.000    24486329.037   101735149.481       -2044.960          41.000  
R09  22444894.219   119854797.055        -269.084          50.000    22444889.922    93220487.529        -209.211          51.000  
R19  22622047.631   121013044.529        -667.866          45.000    22622042.104    94121412.121        -519.596          49.000  
G19  26863552.474   141168983.003       -4261.606          43.000                                                                  
G32  25843543.233   135808689.685         645.983          44.000    25843540.815   105824957.339         503.271          40.000  
E31  26439877.617   138942833.888        -277.869          49.000    26439877.501   106462764.062        -212.984          52.000  
G12  23528594.716   123643940.616        -699.589          49.000    23528588.301    96346112.753        -545.145          46.000  
R20  24287339.234   129875539.557        3370.840          41.000    24287342.160   101014354.687        2621.022          42.000  
R10  24278414.583   129417601.596        1509.117          43.000                                                                  
R18  24608377.222   131361448.760       -3742.386          52.000    24608374.100   102169986.111       -2910.746          45.000  
E24  29762411.903   156402499.887         892.734          40.000    29762412.332   119840905.441         684.033          46.000  
S31  41167372.578   216336068.078        -761.494          44.000  
G29  25813262.900   135649796.242        2611.639          45.000    25813265.193   105701242.097        2034.980          39.000  
G25  24391850.673   128180247.122         688.072          48.000    24391848.393    99880811.717         536.351          42.000  
G06  25570957.198   134376384.865        -863.063          42.000    25570955.169   104708899.962        -672.417          39.000  
E33  28374021.835   149106720.515        1732.008          46.000    28374023.038   114250783.615        1327.219          49.000  
E04  27745652.628   145804392.628       -3250.749          45.000    27745655.628   111720346.111       -2490.815          50.000  
G11  25355912.397   133246441.941        1028.403          44.000    25355910.588   103828621.888         801.352          46.000  
> 2024 04 09 01 16 00.0080000  0 25                     
S33  42124860.466   221367735.808        -762.087          44.000  
E26  28280244.493   148613777.346        -217.277          40.000    28280243.334   113872946.765        -166.497          46.000  
G24  22894361.986   120310797.932       -1425.271          48.000    22894360.605    93748757.416       -1110.548          48.000  
E09  27412802.494   144055198.112       -1059.308          47.000    27412803.463   110380068.973        -811.633          52.000  
G15  26380304.703   138629154.039       -3957.330          43.000    26380317.609   108022713.709       -3083.527          38.000  
R07  24606195.123   131718890.394       -3710.940          50.000    24606192.345   102448003.222       -2886.114          45.000  
R08  24791366.335   132756698.887        -933.227          47.000    24791359.267   103255121.756        -725.780          46.000  
R16  24501114.085   130881040.566       -2634.832          48.000    24501108.247   101796558.002       -2049.388          38.000  
R09  22446422.614   119862955.834        -275.384          51.000    22446418.325    93226833.255        -214.227          50.000  
R19  22625870.220   121033493.690        -695.796          45.000    22625865.166    94137317.061        -541.122          49.000  
G19  26887887.078   141296862.641       -4264.058          43.000                                                                  
G32  25839905.191   135789568.924         628.367          45.000    25839903.060   105810058.058         489.771          41.000  
E31  26441468.739   138951195.903        -279.974          49.000    26441468.704   106469171.334        -214.563          52.000  
G12  23532600.994   123664993.485        -704.440          49.000    23532594.839    96362517.587        -548.966          46.000  
R20  24268454.274   129774554.785        3361.306          41.000    24268457.337   100935811.529        2614.528          42.000  
R10  24269919.342   129372321.438        1508.913          43.000                                                                  
R18  24629460.041   131473992.092       -3761.027          51.000    24629458.112   102257519.816       -2925.220          47.000  
E24  29757317.045   156375725.455         891.720          41.000    29757316.794   119820390.050         683.376          44.000  
S31  41171717.244   216358899.702        -761.009          44.000  
G29  25798374.502   135571558.274        2604.009          46.000    25798375.063   105640278.159        2028.897          38.000  
G25  24387930.550   128159647.322         684.890          47.000    24387927.793    99864759.956         533.553          42.000  
G06  25575936.819   134402547.613        -881.510          43.000    25575934.562   104729286.509        -687.002          40.000  
E33  28364147.545   149054834.195        1726.673          46.000    28364149.424   114211026.752        1322.967          49.000  
E04  27764227.679   145902004.601       -3257.170          44.000    27764230.550   111795139.560       -2495.731          50.000  
G11  25350077.850   133215778.080        1015.554          45.000    25350074.711   103804728.040         791.130          45.000  
> 2024 04 09 01 16 30.0080000  0 25                     
S33  42129209.413   221390589.221        -761.859          44.000  
E26  28281522.691   148620491.733        -230.621          40.000    28281520.999   113878091.551        -176.876          46.000  
G24  22902542.107   120353786.417       -1440.886          48.000    22902541.152    93782254.923       -1122.864          48.000  
E09  27418887.653   144087178.457       -1073.139          47.000    27418888.993   110404573.382        -822.257          52.000  
G15  26402891.535   138747848.377       -3956.135          43.000    26402903.758   108115202.501       -3082.725          35.000  
R07  24627027.126   131830403.838       -3723.704          50.000    24627023.817   102534735.700       -2896.093          45.000  
R08  24796662.486   132785054.579        -957.525          48.000    24796654.870   103277176.180        -744.827          47.000  
R16  24515926.237   130960166.733       -2640.632          46.000    24515919.898   101858100.511       -2053.438          36.000  
R09  22447986.279   119871307.339        -281.750          50.000    22447982.443    93233328.862        -219.142          51.000  
R19  22629848.114   121054777.552        -723.357          44.000    22629843.415    94153871.214        -562.698          48.000  
G19  26912235.067   141424810.955       -4266.317          43.000                                                                  
G32  25836367.550   135770978.224         610.766          46.000    25836366.492   105795571.793         476.101          42.000  
E31  26443072.871   138959624.898        -282.270          48.000    26443072.602   106475629.917        -216.226          52.000  
G12  23536634.785   123686191.916        -709.163          48.000    23536628.935    96379035.852        -552.657          46.000  
R20  24249619.420   129673839.008        3352.413          41.000    24249621.140   100857477.574        2607.455          41.000  
R10  24261426.942   129327046.367        1508.823          42.000                                                                  
R18  24650647.996   131587091.553       -3779.406          52.000    24650645.404   102345486.062       -2939.502          46.000  
E24  29752228.049   156348985.778         890.498          42.000    29752228.102   119799901.286         682.363          43.000  
S31  41176060.549   216381724.664        -760.748          44.000  
G29  25783529.400   135493550.219        2596.406          45.000    25783530.841   105579493.399        2022.881          39.000  
G25  24384028.345   128139140.201         681.952          48.000    24384024.997    99848780.405         531.499          41.000  
G06  25581021.493   134429264.661        -899.986          42.000    25581018.381   104750104.995        -701.224          39.000  
E33  28354305.403   149003113.012        1721.178          45.000    28354307.346   114171396.404        1318.813          50.000  
E04  27782839.786   145999810.774       -3263.710          44.000    27782842.283   111870081.809       -2500.729          49.000  
G11  25344318.388   133185505.414        1002.341          47.000    25344313.704   103781138.982         781.139          45.000  
> 2024 04 09 01 17 00.0080000  0 25                     
S33  42133558.722   221413445.680        -762.134          44.000  
E26  28282878.890   148627620.859        -244.516          40.000    28282877.341   113883554.163        -187.468          46.000  
G24  22910815.148   120397260.774       -1457.179          48.000    22910814.113    93816131.033       -1135.549          49.000  
E09  27425054.523   144119584.112       -1087.336          47.000    27425055.481   110429403.673        -833.082          51.000  
G15  26425475.754   138866524.652       -3955.724          42.000    26425487.695   108207677.206       -3082.210          36.000  
R07  24647932.078   131942310.317       -3736.775          51.000    24647929.093   102621773.873       -2906.396          45.000  
R08  24802096.209   132814152.998        -982.279          47.000    24802088.756   103299808.256        -763.966          47.000  
R16  24530773.407   131039475.051       -2646.658          47.000    24530768.811   101919784.753       -2058.683          39.000  
R09  22449588.357   119879862.342        -288.623          51.000    22449584.103    93239982.780        -224.442          51.000  
R19  22633985.115   121076905.313        -751.509          44.000    22633979.585    94171081.727        -584.648          48.000  
G19  26936597.706   141552834.448       -4268.604          43.000                                                                  
G32  25832933.459   135752927.925         592.717          47.000    25832931.457   105781506.615         461.531          42.000  
E31  26444690.914   138968129.669        -284.768          48.000    26444691.103   106482146.588        -218.248          52.000  
G12  23540697.556   123707544.338        -714.365          49.000    23540691.710    96395674.120        -556.551          46.000  
R20  24230837.004   129573405.611        3343.085          39.000    24230839.721   100779363.239        2600.095          41.000  
R10  24252935.030   129281786.739        1508.446          39.000                                                                  
R18  24671940.509   131700752.702       -3798.155          51.000    24671938.620   102433889.168       -2953.988          49.000  
E24  29747147.426   156322289.605         889.201          41.000    29747148.676   119779445.847         681.122          45.000  
S31  41180404.413   216404552.519        -760.860          44.000  
G29  25768730.453   135415783.340        2588.024          46.000    25768732.106   105518896.533        2016.596          39.000  
G25  24380145.867   128118734.724         678.431          48.000    24380142.662    99832880.049         528.876          43.000  
G06  25586211.151   134456545.611        -918.847          41.000    25586208.878   104771362.885        -715.973          38.000  
E33  28344496.136   148951568.295        1715.248          44.000    28344499.141   114131901.303        1314.254          51.000  
E04  27801491.120   146097818.335       -3270.301          45.000    27801492.637   111945178.371       -2505.778          49.000  
G11  25338634.016   133155635.803         988.891          47.000    25338629.055   103757864.030         770.616          45.000  
> 2024 04 09 01 17 30.0080000  0 25                     
S33  42137907.090   221436295.997        -761.900          44.000  
E26  28284313.738   148635156.779        -258.119          41.000    28284311.279   113889328.450        -197.739          45.000  
G24  22919178.914   120441212.758       -1473.262          47.000    22919178.011    93850379.320       -1148.092          49.000  
E09  27431300.626   144152405.933       -1101.238          46.000    27431301.117   110454552.843        -843.836          51.000  
G15  26448053.444   138985171.412       -3954.573          42.000    26448066.134   108300128.923       -3081.395          37.000  
R07  24668908.530   132054596.626       -3749.405          52.000    24668905.358   102709107.483       -2916.340          44.000  
R08  24807666.395   132843984.181       -1006.935          46.000    24807659.955   103323010.261        -783.019          47.000  
R16  24545652.751   131118957.354       -2652.784          45.000    24545647.087   101981604.224       -2063.059          38.000  
R09  22451227.988   119888613.153        -295.218          52.000    22451222.681    93246788.939        -229.536          51.000  
R19  22638278.297   121099868.680        -779.657          44.000    22638272.699    94188942.128        -606.239          48.000  
G19  26960972.950   141680922.286       -4270.830          43.000                                                                  
G32  25829600.678   135735410.476         574.527          47.000    25829597.982   105767856.603         447.843          43.000  
E31  26446321.639   138976701.130        -287.097          47.000    26446322.258   106488714.338        -219.932          53.000  
G12  23544788.836   123729041.346        -719.213          49.000    23544782.067    96412425.049        -560.506          45.000  
R20  24212105.852   129473250.331        3333.741          39.000    24212109.385   100701465.223        2592.807          41.000  
R10  24244444.418   129236534.177        1507.676          39.000                                                                  
R18  24693335.371   131814962.835       -3816.425          50.000    24693333.084   102522719.274       -2968.302          48.000  
E24  29742073.495   156295627.788         887.844          41.000    29742074.980   119759016.755         680.418          45.000  
S31  41184747.643   216427374.343        -760.733          44.000  
G29  25753976.102   135338251.123        2580.228          46.000    25753977.736   105458482.532        2010.649          40.000  
G25  24376280.271   128098421.926         675.390          47.000    24376277.491    99817051.942         526.174          43.000  
G06  25591508.893   134484382.277        -937.188          42.000    25591506.799   104793053.767        -730.460          39.000  
E33  28334719.469   148900193.499        1709.251          44.000    28334722.935   114092536.401        1309.733          51.000  
E04  27820177.565   146196016.659       -3276.750          45.000    27820178.683   112020421.105       -2510.796          48.000  
G11  25333025.045   133126163.179         975.449          47.000    25333021.503   103734898.461         759.975          45.000  
> 2024 04 09 01 18 00.0080000  0 25                     
S33  42142254.528   221459142.731        -761.669          44.000  
E26  28285824.256   148643102.921        -271.630          40.000    28285823.812   113895417.071        -208.358          46.000  
G24  22927634.506   120485645.390       -1489.098          48.000    22927633.019    93885002.133       -1160.302          48.000  
E09  27437625.854   144185646.129       -1115.045          47.000    27437626.457   110480022.572        -854.383          51.000  
G15  26470625.472   139103788.541       -3953.407          40.000    26470638.377   108392557.581       -3080.473          36.000  
R07  24689955.268   132167261.122       -3761.784          51.000    24689952.281   102796735.151       -2925.894          46.000  
R08  24813372.844   132874549.419       -1031.082          45.000    24813368.168   103346783.227        -802.065          47.000  
R16  24560564.062   131198617.245       -2658.324          45.000    24560561.553   102043561.929       -2067.476          41.000  
R09  22452904.467   119897563.834        -301.680          52.000    22452898.949    93253750.569        -234.615          51.000  
R19  22642728.082   121123670.207        -807.640          45.000    22642722.513    94207454.468        -627.947          49.000  
G19  26985359.684   141809074.512       -4272.801          43.000                                                                  
G32  25826368.962   135718429.518         556.982          46.000    25826365.992   105754624.680         434.219          42.000  
E31  26447966.005   138985341.511        -289.094          47.000    26447966.550   106495334.906        -221.583          53.000  
G12  23548907.280   123750685.287        -723.817          49.000    23548900.834    96429290.451        -564.021          45.000  
R20  24193429.627   129373380.493        3324.258          40.000    24193433.156   100623789.211        2585.495          42.000  
R10  24235957.728   129191292.135        1507.657          42.000                                                                  
R18  24714833.859   131929720.816       -3834.321          49.000    24714831.615   102611975.446       -2982.260          49.000  
E24  29737007.224   156269002.496         886.848          42.000    29737008.309   119738615.703         679.470          45.000  
S31  41189089.501   216450192.677        -760.655          44.000  
G29  25739266.433   135260957.828        2572.427          45.000    25739269.205   105398254.737        2004.404          40.000  
G25  24372432.492   128078204.202         672.347          47.000    24372429.763    99801297.923         523.758          42.000  
G06  25596912.829   134512777.742        -955.987          42.000    25596910.399   104815180.103        -744.768          40.000  
E33  28324977.233   148848993.420        1703.664          45.000    28324979.730   114053305.367        1305.459          51.000  
E04  27838900.946   146294406.478       -3282.792          45.000    27838901.745   112095810.567       -2515.452          48.000  
G11  25327492.312   133097092.833         962.333          46.000    25327488.926   103712246.302         749.912          44.000  
> 2024 04 09 01 18 30.0080000  0 25                     
S33  42146601.061   221481983.661        -761.167          44.000  
E26  28287413.178   148651456.947        -285.295          39.000    28287413.847   113901818.228        -218.645          46.000  
G24  22936180.365   120530556.041       -1504.797          48.000    22936178.722    93919997.447       -1172.694          48.000  
E09  27444030.000   144219301.141       -1128.640          46.000    27444030.851   110505810.162        -864.827          51.000  
G15  26493191.468   139222370.432       -3951.868          36.000    26493204.650   108484958.802       -3079.449          35.000  
R07  24711070.461   132280295.748       -3773.874          51.000    24711068.765   102884650.736       -2935.149          45.000  
R08  24819218.024   132905844.393       -1055.314          46.000    24819213.188   103371123.738        -820.611          48.000  
R16  24575510.003   131278452.023       -2664.194          43.000    24575508.616   102105655.620       -2071.962          42.000  
R09  22454617.569   119906712.289        -308.216          52.000    22454611.812    93260865.986        -239.672          51.000  
R19  22647333.924   121148307.103        -835.071          45.000    22647328.064    94226616.514        -649.508          49.000  
G19  27009757.521   141937285.822       -4274.546          44.000                                                                  
G32  25823238.629   135701983.099         539.188          46.000    25823235.787   105741809.311         420.250          42.000  
E31  26449622.580   138994047.414        -291.260          47.000    26449623.217   106502005.670        -223.195          53.000  
G12  23553053.273   123772473.076        -728.646          49.000    23553047.318    96446267.951        -567.645          46.000  
R20  24174807.954   129273798.041        3314.682          41.000    24174810.493   100546336.722        2578.026          42.000  
R10  24227473.667   129146058.167        1507.650          43.000                                                                  
R18  24736433.256   132045019.886       -3852.311          48.000    24736430.197   102701652.500       -2996.223          49.000  
E24  29731947.605   156242410.279         885.973          43.000    29731947.749   119718239.904         678.833          45.000  
S31  41193430.278   216473004.755        -760.184          44.000  
G29  25724602.938   135183902.774        2564.631          46.000    25724605.335   105338212.562        1998.356          40.000  
G25  24368602.630   128058078.258         669.352          47.000    24368600.200    99785615.403         521.583          43.000  
G06  25602421.921   134541729.250        -974.020          43.000    25602420.879   104837739.689        -758.982          41.000  
E33  28315267.609   148797967.167        1698.057          46.000    28315269.156   114014207.508        1301.017          50.000  
E04  27857660.235   146392982.710       -3288.861          46.000    27857660.483   112171342.849       -2520.166          48.000  
G11  25322037.102   133068424.373         948.918          47.000    25322032.294   103689907.267         739.600          44.000  
> 2024 04 09 01 19 00.0080000  0 25                     
S33  42150944.726   221504810.980        -761.033          44.000  
E26  28289079.277   148660213.275        -298.678          38.000    28289079.866   113908527.608        -228.996          45.000  
G24  22944816.962   120575938.881       -1520.833          48.000    22944814.650    93955360.653       -1185.054          48.000  
E09  27450512.352   144253364.212       -1142.485          47.000    27450512.985   110531910.419        -875.408          51.000  
G15  26515748.595   139340908.015       -3950.610          34.000    26515762.300                       -3078.319          30.000  
R07  24732253.329   132393689.741       -3786.044          50.000    24732251.864   102972845.865       -2944.729          46.000  
R08  24825197.963   132937861.685       -1079.472          46.000    24825191.274   103396026.043        -839.725          47.000  
R16  24590487.600   131358456.307       -2669.940          44.000    24590485.804   102167881.095       -2076.466          40.000  
R09  22456366.561   119916053.426        -314.814          52.000    22456360.911    93268131.305        -244.741          50.000  
R19  22652094.451   121173772.928        -862.958          46.000    22652088.922    94246423.279        -671.052          49.000  
G19  27034164.666   142065547.891       -4276.345          43.000                                                                  
G32  25820208.910   135686065.923         521.500          45.000    25820206.860   105729406.359         406.228          42.000  
E31  26451290.407   139002812.178        -293.337          46.000    26451290.949   106508721.520        -224.737          53.000  
G12  23557225.458   123794397.264        -733.222          49.000    23557219.644    96463351.734        -571.462          46.000  
R20  24156237.923   129174500.895        3305.095          39.000    24156240.788   100469106.125        2570.484          42.000  
R10  24218987.090   129100826.250        1507.378          41.000                                                                  
R18  24758131.004   132160849.747       -3870.017          46.000    24758129.031   102791742.355       -3010.056          49.000  
E24  29726892.564   156215844.350         884.811          42.000    29726892.499   119697884.284         677.898          46.000  
S31  41197768.844   216495803.314        -760.052          44.000  
G29  25709984.813   135107081.268        2556.592          47.000    25709986.338   105278352.340        1992.148          40.000  
G25  24364789.284   128038037.538         666.240          48.000    24364786.620    99769999.281         519.045          43.000  
G06  25608037.105   134571230.976        -992.902          43.000    25608034.894   104860728.070        -773.268          41.000  
E33  28305590.264   148747110.547        1692.261          46.000    28305590.345   113975239.595        1296.476          49.000  
E04  27876452.061   146491737.091       -3294.995          46.000    27876452.871   112247011.637       -2524.671          48.000  
G11  25316658.472   133040154.100         935.378          47.000    25316653.555   103667878.550         728.940          44.000  
> 2024 04 09 01 19 30.0080000  0 25                     
S33  42155286.844   221527629.696        -760.447          44.000  
E26  28290823.508   148669376.532        -312.225          39.000    28290823.329   113915548.825        -239.074          45.000  
G24  22953543.852   120621798.205       -1536.665          48.000    22953541.345    93991095.174       -1197.346          47.000  
E09  27457072.761   144287838.851       -1156.027          47.000    27457073.308   110558326.031        -885.749          51.000  
G15  26538298.426                       -3948.646          30.000    26538310.215                       -3077.077          28.000  
R07  24753502.830   132507442.605       -3797.659          49.000    24753501.663   103061320.039       -2953.664          46.000  
R08  24831311.864   132970603.768       -1103.469          46.000    24831304.312   103421492.084        -858.299          46.000  
R16  24605497.670   131438634.530       -2675.637          42.000    24605493.895   102230241.978       -2080.784          41.000  
R09  22458152.993   119925592.446        -321.372          52.000    22458146.461    93275550.545        -249.860          50.000  
R19  22657010.554   121200071.351        -890.486          45.000    22657005.281    94266877.621        -692.474          49.000  
G19  27058582.336   142193861.929       -4277.911          43.000                                                                  
G32  25817281.543   135670683.078         503.961          44.000    25817279.730   105717419.715         392.731          42.000  
E31  26452969.707   139011639.465        -295.219          46.000    26452970.552   106515485.274        -226.135          53.000  
G12  23561424.240   123816461.450        -737.913          50.000    23561418.339    96480544.614        -574.901          47.000  
R20  24137723.492   129075496.585        3294.976          40.000    24137725.986   100392103.256        2563.126          42.000  
R10  24210501.237   129055601.960        1507.299          39.000                                                                  
R18  24779930.013   132277210.388       -3887.443          46.000    24779927.327   102882245.090       -3023.530          49.000  
E24  29721842.080   156189308.274         883.980          42.000    29721842.855   119677551.578         677.404          46.000  
S31  41202106.035   216518593.750        -759.921          44.000  
G29  25695410.489   135030499.240        2548.725          46.000    25695412.144   105218678.718        1986.130          40.000  
G25  24360992.201   128018085.761         663.576          49.000    24360989.832    99754452.459         517.180          43.000  
G06  25613755.573   134601287.202       -1011.172          42.000    25613754.251   104884148.519        -788.031          41.000  
E33  28295946.386   148696429.686        1686.448          47.000    28295946.300   113936406.331        1292.209          49.000  
E04  27895279.116   146590671.718       -3300.771          46.000    27895280.262   112322818.531       -2529.154          48.000  
G11  25311355.465   133012288.551         922.037          46.000    25311350.696   103646165.208         718.367          44.000  
> 2024 04 09 01 20 00.0080000  0 25                     
S33  42159628.783   221550445.688        -760.713          44.000  
E26  28292645.797   148678952.913        -326.250          39.000    28292645.640   113922886.611        -250.047          44.000  
G24  22962363.145   120668139.861       -1552.967          49.000    22962359.834    94027205.531       -1210.010          47.000  
E09  27463712.191   144322730.010       -1170.069          46.000    27463712.815   110585060.780        -896.613          51.000  
R07  24774821.680   132621555.129       -3809.886          50.000    24774819.268   103150073.987       -2963.193          47.000  
R08  24837563.591   133004074.990       -1128.031          47.000    24837555.093   103447525.229        -877.490          46.000  
R16  24620537.269   131518993.505       -2682.009          38.000    24620538.441   102292743.307       -2085.822          44.000  
R09  22459977.237   119935336.249        -328.412          52.000    22459971.116    93283129.075        -255.434          48.000  
R19  22662082.934   121227208.142        -918.540          45.000    22662077.421    94287984.053        -714.540          48.000  
G19  27083010.208   142322231.372       -4280.140          42.000                                                                  
G32  25814457.467   135655840.990         485.645          45.000    25814455.283   105705854.449         378.424          43.000  
E31  26454662.958   139020534.313        -297.905          46.000    26454663.407   106522300.810        -228.230          53.000  
G12  23565650.150   123838670.876        -742.828          49.000    23565644.354    96497850.682        -578.959          46.000  
R20  24119265.509   128976795.452        3284.782          41.000    24119267.223   100315336.221        2554.791          42.000  
R10  24202020.835   129010391.179        1506.653          41.000    24201088.332                3       1499.578          10.000  
R18  24801828.348   132394103.673       -3905.430          45.000    24801825.558   102973162.069       -3037.510          49.000  
E24  29716798.664   156162807.057         882.666          42.000    29716799.417   119657245.545         676.478          46.000  
S31  41206442.092   216541380.063        -759.675          44.000  
G29  25680884.105   134954164.213        2540.173          47.000    25680885.650   105159197.572        1979.094          40.000  
G25  24357213.734   127998228.175         660.174          49.000    24357211.224    99738979.012         514.401          43.000  
G06  25619580.368   134631903.706       -1029.857          42.000    25619580.178   104908005.507        -802.631          41.000  
E33  28286336.741   148645932.151        1680.080          47.000    28286336.877   113897713.577        1287.222          50.000  
E04  27914141.315   146689790.017       -3307.219          47.000    27914142.021   112398766.141       -2534.068          48.000  
G11  25306131.565   132984835.785         907.980          45.000    25306126.298   103624773.502         707.474          45.000  
G15                                                                  26560853.861                       -3076.735          25.000  
> 2024 04 09 01 20 30.0080000  0 25                     
S33  42163969.034   221573253.921        -759.990          44.000  
E26  28294547.228   148688939.098        -339.629          41.000    28294545.064   113930538.376        -260.300          43.000  
G24  22971272.330   120714960.127       -1568.610          48.000    22971269.606    94063688.843       -1222.334          48.000  
E09  27470430.168   144358033.152       -1183.712          46.000    27470430.955   110612111.215        -906.952          51.000  
R07  24796203.575   132736018.970       -3821.306          49.000    24796202.551   103239101.148       -2972.042          48.000  
R08  24843948.958   133038270.243       -1151.852          46.000    24843941.747   103474121.498        -895.968          46.000  
R16  24635614.852   131599529.007       -2687.279          43.000    24635613.869   102355382.056       -2090.294          43.000  
R09  22461839.279   119945282.043        -334.928          52.000    22461833.896    93290864.679        -260.464          49.000  
R19  22667311.158   121255179.036        -946.307          44.000    22667306.187    94309739.228        -735.976          48.000  
G19  27107447.477   142450649.950       -4281.309          41.000                                                                  
G32  25811735.719   135641536.593         467.791          45.000    25811733.198   105694708.162         364.438          44.000  
E31  26456367.807   139029492.338        -299.621          46.000    26456368.127   106529164.773        -229.573          53.000  
G12  23569903.821   123861020.931        -747.374          50.000    23569896.677    96515266.313        -582.323          46.000  
R20  24100864.527   128878398.430        3274.626          41.000    24100866.247   100238805.713        2546.824          43.000  
R10  24193541.771   128965190.330        1506.427          41.000                                                                  
R18  24823826.025   132511521.578       -3922.598          46.000    24823821.698   103064487.063       -3050.920          49.000  
E24  29711762.193   156136336.241         882.114          44.000    29711762.376   119636962.811         675.844          46.000  
S31  41210776.902   216564159.990        -759.041          44.000  
G29  25666403.606   134878074.095        2532.261          46.000    25666405.791   105099907.267        1973.216          40.000  
G25  24353452.607   127978460.523         657.360          49.000    24353449.688    99723575.657         512.129          43.000  
G06  25625514.073   134663076.901       -1048.405          42.000    25625511.619   104932296.253        -816.804          42.000  
E33  28276761.870   148595616.089        1674.087          48.000    28276762.043   113859159.868        1282.799          50.000  
E04  27933036.958   146789085.995       -3312.705          47.000    27933037.049   112474849.926       -2538.315          48.000  
G11  25300984.563   132957794.345         894.479          44.000    25300981.119   103603702.297         696.860          46.000  
G15                                                                  26583388.641                3      -3076.455          25.000  
> 2024 04 09 01 21 00.0080000  0 25                     
S33  42168308.036   221596055.300        -759.686          44.000  
E26  28296525.850   148699337.044        -353.640          40.000    28296523.374   113938505.623        -270.826          42.000  
G24  22980273.061   120762260.649       -1584.674          48.000    22980270.404    94100546.381       -1234.851          47.000  
E09  27477227.255   144393749.051       -1197.615          47.000    27477227.435   110639477.911        -917.623          51.000  
R07  24817652.434   132850830.606       -3832.890          51.000    24817650.293   103328398.788       -2981.143          49.000  
R08  24850468.593   133073189.039       -1176.207          46.000    24850461.600   103501280.526        -914.742          45.000  
R16  24650725.340   131680243.465       -2693.462          43.000    24650722.200   102418159.957       -2095.096          43.000  
R09  22463740.243   119955432.375        -341.893          51.000    22463735.325    93298759.411        -265.847          51.000  
R19  22672697.524   121283985.173        -974.251          45.000    22672690.976    94332144.000        -757.737          48.000  
G19  27131894.294   142579116.653       -4283.178          39.000                                                                  
G32  25809116.598   135627772.147         449.625          45.000    25809113.987   105683982.611         350.401          43.000  
E31  26458084.612   139038514.519        -301.815          46.000    26458084.963   106536077.898        -231.415          53.000  
G12  23574183.859   123883512.442        -752.417          50.000    23574176.860    96532792.135        -586.085          46.000  
R20  24082521.312   128780311.047        3264.475          40.000    24082522.767   100162516.041        2538.763          43.000  
R10  24185063.753   128920001.756        1505.817          41.000                                                                  
R18  24845919.775   132629461.699       -3940.331          43.000    24845916.545   103156218.197       -3064.616          49.000  
E24  29706730.734   156109896.724         880.857          44.000    29706731.305   119616704.052         674.848          47.000  
S31  41215110.218   216586932.590        -759.282          44.000  
G29  25651970.477   134802231.981        2523.707          46.000    25651972.302   105040810.214        1966.475          40.000  
G25  24349708.070   127958783.825         654.229          49.000    24349705.637    99708243.189         509.820          44.000  
G06  25631553.200   134694808.145       -1067.126          43.000    25631549.391   104957021.923        -831.491          41.000  
E33  28267221.553   148545484.865        1667.935          48.000    28267222.202   113820747.813        1277.929          50.000  
E04  27951965.502   146888559.004       -3318.841          46.000    27951966.696   112551069.358       -2543.010          48.000  
G11  25295917.975   132931168.115         880.558          44.000    25295914.599   103582954.633         686.206          46.000  
G15                                                                  26605901.900                3      -3075.431          21.000  
> 2024 04 09 01 21 30.0080000  0 25                     
S33  42172645.829   221618851.358        -759.778          44.000  
E26  28298581.747   148710147.740        -366.922          39.000    28298580.845   113946789.166        -280.900          42.000  
G24  22989365.294   120810042.171       -1600.557          48.000    22989363.011    94137778.729       -1247.169          48.000  
E09  27484102.359   144429877.529       -1210.880          47.000    27484102.404   110667160.751        -927.880          51.000  
R07  24839163.843   132965985.645       -3844.015          50.000    24839161.955   103417963.516       -2989.649          48.000  
R08  24857123.895   133108830.083       -1199.899          46.000    24857117.223   103529001.332        -933.267          46.000  
R16  24665869.633   131761137.877       -2699.309          45.000    24665866.706   102481077.748       -2099.411          44.000  
R09  22465678.993   119965788.993        -348.508          50.000    22465674.792    93306814.537        -270.986          51.000  
R19  22678238.716   121313626.664       -1001.654          46.000    22678232.557    94355198.507        -779.141          49.000  
G19  27156349.458   142707629.577       -4284.367          38.000                                                                  
G32  25806600.305   135614549.037         431.938          45.000    25806598.064   105673678.887         336.484          43.000  
E31  26459813.653   139047600.913        -303.611          46.000    26459813.950   106543040.214        -232.631          53.000  
G12  23578490.484   123906145.841        -756.652          50.000    23578483.787    96550428.569        -589.645          45.000  
R20  24064237.116   128682538.228        3253.894          39.000    24064238.538   100086471.029        2530.846          43.000  
R10  24176588.276   128874826.513        1505.940          42.000                                                                  
R18  24868110.896   132747920.317       -3957.094          44.000    24868107.829   103248352.649       -3077.724          49.000  
E24  29701704.382   156083488.395         880.214          43.000    29701705.808   119596469.176         674.409          46.000  
S31  41219442.653   216609700.033        -758.712          44.000  
G29  25637585.425   134726640.500        2515.689          46.000    25637586.524   104981908.459        1960.134          41.000  
G25  24345981.033   127939198.319         651.560          49.000    24345978.679    99692981.771         507.614          45.000  
G06  25637697.654   134727098.214       -1085.441          42.000    25637694.081   104982183.006        -845.908          41.000  
E33  28257716.918   148495541.074        1661.909          47.000    28257717.615   113782479.337        1273.381          49.000  
E04  27970928.085   146988207.477       -3324.280          46.000    27970929.742   112627423.199       -2547.212          49.000  
G11  25290929.640   132904959.959         866.803          42.000    25290928.023   103562532.793         675.524          47.000  
G15                                                                  26628427.961                3      -3074.347          19.000  
> 2024 04 09 01 22 00.0080000  0 25                     
S33  42176983.493   221641646.259        -759.703          44.000  
E26  28300718.499   148721375.844        -381.448          40.000    28300717.723   113955392.526        -292.075          43.000  
G24  22998549.787   120858308.877       -1616.951          47.000    22998548.040    94175389.133       -1259.987          48.000  
E09  27491055.323   144466422.000       -1224.913          46.000    27491056.706   110695162.350        -938.706          51.000  
R07  24860739.762   133081483.885       -3855.510          50.000    24860738.166   103507795.198       -2998.739          48.000  
R08  24863914.247   133145196.162       -1224.219          46.000    24863909.403   103557286.045        -952.126          45.000  
R16  24681048.645   131842216.995       -2705.735          47.000    24681044.324   102544139.343       -2104.663          43.000  
R09  22467658.409   119976356.780        -355.733          50.000    22467653.667    93315033.963        -276.743          50.000  
R19  22683935.101   121344107.085       -1030.040          44.000    22683930.869    94378905.515        -801.076          49.000  
G19  27180813.398   142836190.107       -4286.351          37.000                                                                  
G32  25804187.871   135601872.085         413.470          45.000    25804185.874   105663800.752         322.037          43.000  
E31  26461555.880   139056755.128        -306.224          46.000    26461555.906   106550054.501        -234.565          53.000  
G12  23582825.069   123928923.959        -761.581          50.000    23582818.685    96568177.760        -593.444          46.000  
R20  24046013.042   128585088.834        3243.024          41.000    24046014.915   100010677.576        2522.347          43.000  
R10  24168117.309   128829669.226        1505.102          40.000                                                                  
R18  24890399.076   132866897.646       -3974.565          44.000    24890396.256   103340890.501       -3091.252          49.000  
E24  29696686.208   156057114.869         878.402          44.000    29696686.926   119576260.933         673.174          46.000  
S31  41223774.677   216632465.063        -758.701          44.000  
G29  25623249.701   134651305.015        2506.921          46.000    25623250.211   104923206.150        1953.343          40.000  
G25  24342271.969   127919707.740         648.144          49.000    24342269.792    99677794.325         505.090          44.000  
G06  25643948.763   134759951.217       -1104.533          43.000    25643947.142   105007782.774        -860.529          43.000  
E33  28248249.141   148445790.739        1655.065          47.000    28248250.308   113744359.086        1268.257          49.000  
E04  27989923.996   147088033.352       -3330.330          46.000    27989926.073   112703912.984       -2551.887          49.000  
G11  25286022.504   132879176.362         852.449          44.000    25286020.738   103542441.775         664.170          46.000  
G15                                                                  26650907.233                3      -3050.360          11.000  
> 2024 04 09 01 22 30.0080000  0 24                     
S33  42181320.958   221664439.776        -759.465          44.000  
E26  28302935.150   148733023.287        -395.285          40.000    28302934.209   113964317.203        -302.748          43.000  
G24  23007827.411   120907062.490       -1632.984          47.000    23007825.706    94213378.948       -1272.529          48.000  
E09  27498089.369   144503383.316       -1238.903          47.000    27498090.461   110723483.327        -949.303          51.000  
R07  24882381.116   133197322.064       -3866.570          51.000    24882378.625   103597891.280       -3007.400          48.000  
R08  24870842.144   133182286.957       -1248.169          48.000    24870835.356   103586134.407        -970.870          44.000  
R16  24696262.563   131923482.936       -2711.820          48.000    24696259.114   102607346.116       -2109.308          44.000  
R09  22469677.855   119987138.637        -362.907          50.000    22469672.834    93323419.850        -282.186          50.000  
R19  22689790.759   121375427.851       -1057.786          45.000    22689785.464    94403266.120        -822.737          48.000  
G19  27205286.640   142964797.563       -4287.803          36.000                                                                  
G32  25801880.008   135589743.539         395.384          45.000    25801877.501   105654349.946         308.123          43.000  
E31  26463310.779   139065978.211        -308.519          46.000    26463310.907   106557121.536        -236.421          53.000  
G12  23587187.062   123951848.026        -766.384          50.000    23587181.766    96586040.693        -597.206          46.000  
R20  24027850.264   128487968.026        3231.980          41.000    24027852.183    99935139.681        2513.513          43.000  
R10  24159649.911   128784532.540        1504.295          42.000                                                                  
R18  24912784.010   132986391.035       -3991.606          43.000    24912780.947   103433829.775       -3104.476          49.000  
E24  29691674.077   156030776.984         877.467          43.000    29691674.790   119556080.057         672.277          47.000  
S31  41228106.681   216655230.514        -758.813          44.000  
G29  25608962.086   134576228.791        2498.356          46.000    25608963.211   104864705.896        1946.670          40.000  
G25  24338581.282   127900313.235         645.133          49.000    24338578.405    99662681.759         502.669          44.000  
G06  25650307.223   134793368.769       -1123.110          41.000    25650305.816   105033822.455        -874.956          43.000  
E33  28238819.098   148396237.375        1648.593          46.000    28238820.516   113706389.773        1263.250          50.000  
E04  28008953.737   147188036.077       -3336.315          46.000    28008956.240   112780538.270       -2556.366          49.000  
G11  25281198.509   132853821.329         838.218          45.000    25281194.938   103522684.654         653.121          44.000  
> 2024 04 09 01 23 00.0080000  0 24                     
S33  42185657.797   221687229.829        -759.534          44.000  
E26  28305230.267   148745087.624        -408.687          40.000    28305230.449   113973561.341        -313.244          44.000  
G24  23017197.190   120956300.203       -1649.103          47.000    23017195.473    94251745.974       -1285.041          48.000  
E09  27505201.516   144540757.779       -1252.462          46.000    27505202.530   110752120.871        -959.600          51.000  
R07  24904083.044   133313492.161       -3877.523          50.000    24904080.134   103688245.457       -3015.732          47.000  
R08  24877902.933   133220097.806       -1272.050          48.000    24877897.527   103615542.831        -989.296          46.000  
R16  24711508.865   132004932.921       -2717.846          47.000    24711506.712   102670696.060       -2113.612          43.000  
R09  22471737.209   119998132.789        -369.752          51.000    22471731.749    93331970.856        -287.629          50.000  
R19  22695802.132   121407585.804       -1085.462          44.000    22695796.688    94428277.866        -844.444          48.000  
G19  27229767.278   143093446.553       -4288.748          34.000                                                                  
G32  25799675.091   135578161.210         377.350          45.000    25799673.338   105645324.772         294.074          43.000  
E31  26465077.914   139075266.760        -310.390          46.000    26465078.308   106564238.739        -237.866          53.000  
G12  23591576.282   123974914.483        -770.934          50.000    23591571.275    96604014.574        -600.849          46.000  
R20  24009749.889   128391177.959        3220.918          41.000    24009751.519    99859858.969        2505.445          43.000  
R10  24151186.945   128739414.048        1504.169          43.000                                                                  
R18  24935264.753   133106393.571       -4008.425          47.000    24935260.722   103527165.063       -3117.515          48.000  
E24  29686667.938   156004471.286         876.731          43.000    29686668.899   119535923.808         671.692          47.000  
S31  41232437.984   216677991.685        -758.317          44.000  
G29  25594724.894   134501411.254        2489.973          46.000    25594724.401   104806407.145        1940.321          39.000  
G25  24334908.055   127881011.536         642.221          49.000    24334905.223    99647641.517         500.348          44.000  
G06  25656772.302   134827348.040       -1142.044          37.000    25656772.104   105060299.835        -889.825          43.000  
E33  28229427.120   148346880.059        1642.237          46.000    28229428.385   113668570.673        1258.320          51.000  
E04  28028016.530   147288210.556       -3341.688          47.000    28028018.547   112857295.155       -2560.472          48.000  
G11  25276455.973   132828894.221         823.990          46.000    25276451.257   103503260.990         641.957          45.000  
> 2024 04 09 01 23 30.0080000  0 24                     
S33  42189994.191   221710017.294        -759.706          45.000  
E26  28307607.811   148757570.509        -422.913          41.000    28307606.212   113983126.168        -324.206          44.000  
G24  23026659.010   121006023.180       -1665.499          47.000    23026657.240    94290491.136       -1297.699          48.000  
E09  27512392.482   144578545.839       -1266.393          46.000    27512393.364   110781075.340        -970.406          51.000  
R07  24925845.799   133429990.963       -3888.590          50.000    24925841.562   103778855.327       -3024.420          46.000  
R08  24885098.527   133258628.174       -1296.278          48.000    24885092.729   103645510.859       -1008.298          45.000  
R16  24726790.396   132086568.992       -2724.443          44.000    24726788.495   102734190.764       -2119.014          43.000  
R09  22473836.838   120009341.475        -377.146          53.000    22473830.709    93340688.731        -293.301          50.000  
R19  22701970.549   121440580.765       -1113.668          45.000    22701965.353    94453940.618        -866.219          48.000  
G19  27254255.331   143222135.697       -4290.430          33.000                                                                  
G32  25797575.243   135567127.010         358.826          45.000    25797573.314   105636726.678         279.670          43.000  
E31  26466858.146   139084621.472        -312.860          46.000    26466858.556   106571406.649        -239.780          53.000  
G12  23595992.485   123998123.977        -775.887          49.000    23595987.504    96622099.903        -604.768          46.000  
R20  23991711.624   128294723.482        3209.500          40.000    23991714.154    99784839.352        2496.498          43.000  
R10  24142726.214   128694315.290        1502.935          43.000                                                                  
R18  24957839.588   133226902.222       -4025.392          46.000    24957836.132   103620893.974       -3130.803          47.000  
E24  29681669.301   155978198.393         875.101          44.000    29681669.016   119515792.675         670.739          47.000  
S31  41236768.738   216700749.982        -758.890          44.000  
G29  25580536.399   134426854.848        2480.994          45.000    25580535.944   104748311.864        1933.434          39.000  
G25  24331252.993   127861803.471         638.663          50.000    24331250.532    99632674.219         497.722          44.000  
G06  25663346.123   134861890.131       -1160.808          41.000    25663345.384   105087215.740        -904.363          43.000  
E33  28220071.879   148297721.894        1635.266          46.000    28220074.017   113630904.168        1252.962          51.000  
E04  28047111.990   147388555.870       -3347.651          46.000    28047113.575   112934182.950       -2565.064          48.000  
G11  25271793.794   132804398.505         809.303          47.000    25271789.712   103484173.492         630.542          45.000  
> 2024 04 09 01 24 00.0080000  0 24                     
S33  42194329.329   221732798.766        -759.199          45.000  
E26  28310062.265   148770468.460        -436.618          41.000    28310061.040   113993009.019        -334.580          45.000  
G24  23036212.514   121056227.686       -1681.453          47.000    23036211.216    94329611.509       -1310.232          48.000  
E09  27519661.644   144616742.838       -1279.853          47.000    27519661.909   110810343.140        -980.775          51.000  
R07  24947668.396   133546809.496       -3899.133          50.000    24947666.540   103869713.849       -3032.628          48.000  
R08  24892427.169   133297872.646       -1319.980          48.000    24892419.878   103676034.270       -1026.627          45.000  
R16  24742107.280   132168387.840       -2730.346          46.000    24742105.198   102797827.601       -2123.490          42.000  
R09  22475975.502   120020761.822        -384.160          52.000    22475969.467    93349571.219        -298.802          51.000  
R19  22708294.908   121474408.684       -1141.404          45.000    22708288.931    94480251.242        -887.754          48.000  
G19  27278750.846   143350858.881       -4290.588          32.000                                                                  
G32  25795580.071   135556637.710         340.518          46.000    25795577.283   105628553.191         265.403          43.000  
E31  26468649.186   139094038.027        -314.833          46.000    26468650.626   106578621.952        -241.196          53.000  
G12  23600435.680   124021472.254        -780.544          49.000    23600430.212    96640293.349        -608.076          45.000  
R20  23973737.165   128198604.741        3198.199          41.000    23973738.883    99710080.795        2487.728          43.000  
R10  24134268.744   128649233.142        1502.442          43.000                                                                  
R18  24980508.522   133347909.142       -4041.879          48.000    24980505.112   103715010.431       -3143.665          48.000  
E24  29676675.119   155951953.812         874.382          43.000    29676674.762   119495683.234         670.135          46.000  
S31  41241098.309   216723502.024        -758.148          44.000  
G29  25566396.995   134352557.417        2472.387          45.000    25566397.845   104690418.405        1926.151          39.000  
G25  24327614.571   127842684.813         635.918          49.000    24327612.375    99617776.585         495.441          44.000  
G06  25670026.618   134896991.173       -1179.228          39.000    25670024.602   105114567.214        -918.762          42.000  
E33  28210755.137   148248761.014        1628.862          46.000    28210756.886   113593388.824        1248.066          51.000  
E04  28066238.105   147489065.991       -3352.776          46.000    28066240.663   113011197.010       -2569.060          49.000  
G11  25267214.429   132780332.652         795.062          47.000    25267210.333   103465420.936         619.484          45.000  
> 2024 04 09 01 24 30.0080000  0 24                     
S33  42198664.406   221755580.596        -759.317          45.000  
E26  28312598.112   148783789.523        -451.180          41.000    28312595.417   114003216.088        -345.528          45.000  
G24  23045860.168   121106921.385       -1697.889          48.000    23045858.053    94369113.059       -1322.900          48.000  
E09  27527009.850   144655355.630       -1293.959          47.000    27527009.653   110839929.552        -991.523          51.000  
R07  24969550.947   133663950.989       -3909.904          50.000    24969549.235   103960823.548       -3041.073          46.000  
R08  24899889.433   133337836.838       -1344.016          48.000    24899882.182   103707117.539       -1045.466          45.000  
R16  24757460.696   132250397.501       -2736.661          47.000    24757457.044   102861612.823       -2128.881          41.000  
R09  22478154.706   120032402.949        -391.631          52.000    22478149.344    93358625.419        -304.482          51.000  
R19  22714775.386   121509076.666       -1169.538          44.000    22714770.540    94507215.232        -909.571          49.000  
G19  27303253.720   143479621.659       -4292.793          32.000                                                                  
G32  25793690.068   135546701.568         321.965          46.000    25793686.704   105620810.719         251.032          43.000  
E31  26470454.179   139103523.589        -317.206          46.000    26470455.884   106585890.147        -243.135          53.000  
G12  23604906.287   124044966.007        -785.559          48.000    23604900.468    96658600.172        -611.991          45.000  
R20  23955827.064   128102834.599        3186.378          41.000    23955828.667    99635593.376        2478.365          42.000  
R10  24125816.023   128604175.999        1501.459          42.000                                                                  
R18  25003270.705   133469417.776       -4058.483          47.000    25003268.043   103809517.165       -3156.654          49.000  
E24  29671687.459   155925744.585         873.118          43.000    29671687.359   119475600.896         668.983          47.000  
S31  41245427.987   216746255.120        -758.314          44.000  
G29  25552309.256   134278528.618        2463.438          44.000    25552309.624   104632734.214        1919.203          39.000  
G25  24323994.786   127823662.901         632.465          49.000    24323992.467    99602954.339         492.725          44.000  
G06  25676812.830   134932658.696       -1198.273          42.000    25676812.133   105142360.134        -933.840          41.000  
E33  28201477.351   148200006.969        1621.724          45.000    28201479.180   113556031.951        1242.588          51.000  
E04  28085397.375   147589746.439       -3358.862          46.000    28085399.611   113088341.574       -2573.666          49.000  
G11  25262719.140   132756706.610         780.284          47.000    25262714.994   103447011.097         607.970          45.000  
> 2024 04 09 01 25 00.0080000  0 24                     
S33  42202998.702   221778358.389        -759.284          45.000  
E26  28315213.627   148797529.648        -465.266          42.000    28315209.919   114013744.234        -356.354          45.000  
G24  23055599.190   121158099.828       -1714.063          48.000    23055597.316    94408992.359       -1335.615          48.000  
E09  27534435.201   144694378.962       -1307.632          47.000    27534435.674   110869830.520       -1001.944          51.000  
R07  24991493.140   133781405.827       -3920.347          51.000    24991490.753   104052176.960       -3049.213          46.000  
R08  24907486.132   133378514.211       -1367.821          48.000    24907480.468   103738755.482       -1063.685          46.000  
R16  24772847.478   132332594.079       -2742.914          45.000    24772843.633   102925543.389       -2133.452          39.000  
R09  22480375.564   120044261.645        -398.916          52.000    22480370.272    93367848.879        -310.280          52.000  
R19  22721411.556   121544579.263       -1197.350          43.000    22721407.356    94534828.382        -931.253          49.000  
G19  27327762.971   143608417.022       -4293.311          32.000                                                                  
G32  25791903.134   135537314.744         303.618          45.000    25791900.868   105613496.318         236.707          43.000  
E31  26472271.922   139113073.193        -319.448          47.000    26472273.109   106593207.374        -244.696          53.000  
G12  23609403.867   124068600.485        -790.243          48.000    23609397.669    96677016.659        -615.866          45.000  
R20  23937982.028   128007412.051        3174.583          40.000    23937983.295    99561376.282        2469.189          42.000  
R10  24117368.322   128559140.364        1500.829          43.000                                                                  
R18  25026125.547   133591419.454       -4074.989          48.000    25026123.463   103904407.343       -3169.530          49.000  
E24  29666705.278   155899565.690         872.110          43.000    29666705.561   119455541.805         668.207          47.000  
S31  41249756.996   216769004.050        -758.064          44.000  
G29  25538272.997   134204765.467        2454.261          44.000    25538272.260   104575256.966        1912.264          39.000  
G25  24320392.404   127804732.878         629.427          49.000    24320390.582    99588203.688         490.370          45.000  
G06  25683708.716   134968888.208       -1217.118          43.000    25683705.761   105170590.912        -948.331          40.000  
E33  28192239.393   148151457.280        1614.948          46.000    28192240.440   113518831.670        1237.370          51.000  
E04  28104587.302   147690590.562       -3364.201          46.000    28104589.665   113165611.556       -2577.841          49.000  
G11  25258306.498   132733518.200         765.616          47.000    25258302.295   103428942.281         596.547          45.000  
> 2024 04 09 01 25 30.0080000  0 24                     
S33  42207332.557   221801132.167        -759.324          45.000  
E26  28317906.957   148811688.901        -478.976          42.000    28317904.392   114024593.548        -367.063          45.000  
G24  23065430.101   121209762.769       -1730.285          48.000    23065428.167    94449249.179       -1348.246          48.000  
E09  27541938.986   144733811.757       -1321.246          46.000    27541939.696   110900045.237       -1012.367          51.000  
R07  25013492.543   133899168.940       -3930.606          51.000    25013490.187   104143770.152       -3057.249          45.000  
R08  24915215.228   133419902.717       -1391.502          48.000    24915209.428   103770946.506       -1082.379          46.000  
R16  24788269.461   132414977.579       -2749.266          46.000    24788264.329   102989619.409       -2138.168          39.000  
R09  22482637.261   120056338.778        -406.242          52.000    22482632.020    93377242.194        -316.045          52.000  
R19  22728204.738   121580915.606       -1225.229          43.000    22728199.125    94563089.981        -952.844          48.000  
G19  27352278.087                       -4295.804          31.000                                                                  
G32  25790221.810   135528477.579         285.341          45.000    25790219.951   105606610.215         222.329          44.000  
E31  26474102.010   139122686.121        -321.472          47.000    26474102.503   106600573.127        -246.293          53.000  
G12  23613928.574   124092374.704        -794.841          49.000    23613922.423    96695542.023        -619.352          45.000  
R20  23920202.548   127912341.358        3163.264          39.000    23920204.802    99487432.891        2459.954          43.000  
R10  24108924.076   128514126.214        1499.983          43.000                                                                  
R18  25049073.213   133713909.814       -4091.158          50.000    25049070.294   103999677.619       -3182.050          49.000  
E24  29661727.771   155873416.256         871.168          42.000    29661729.763   119435505.298         667.515          47.000  
S31  41254085.363   216791748.589        -758.052          44.000  
G29  25524286.958   134131269.328        2445.640          42.000    25524286.174   104517987.797        1905.562          39.000  
G25  24316807.575   127785894.121         626.525          49.000    24316805.535    99573524.122         488.280          45.000  
G06  25690709.398   135005679.252       -1235.851          41.000    25690706.597   105199259.300        -962.959          39.000  
E33  28183038.995   148103113.579        1607.917          45.000    28183040.741   113481789.214        1232.138          51.000  
E04  28123808.775   147791595.976       -3369.381          46.000    28123810.632   113243005.108       -2581.821          49.000  
G11  25253977.957   132710769.443         750.987          47.000    25253972.522   103411216.002         585.116          45.000  
> 2024 04 09 01 26 00.0080000  0 24                     
S33  42211665.833   221823905.054        -758.820          44.000  
E26  28320682.658   148826270.157        -493.061          43.000    28320679.217   114035766.214        -377.972          45.000  
G24  23075353.851   121261912.650       -1746.542          49.000    23075351.945    94489885.442       -1360.841          48.000  
E09  27549520.349   144773655.679       -1334.890          46.000    27549521.914   110930574.969       -1022.856          51.000  
R07  25035548.565   134017238.757       -3940.626          50.000    25035546.974   104235601.840       -3064.867          46.000  
R08  24923077.855   133462002.725       -1415.198          49.000    24923070.593   103803690.898       -1100.541          45.000  
R16  24803728.321   132497551.035       -2755.633          47.000    24803724.774   103053843.142       -2143.374          43.000  
R09  22484940.466   120068637.701        -413.667          52.000    22484934.836    93386808.001        -321.686          52.000  
R19  22735153.298   121618087.306       -1252.838          44.000    22735147.739    94592001.297        -974.421          48.000  
G19  27376799.439                       -4295.860          30.000                                                                  
G32  25788645.878   135520193.107         267.065          46.000    25788643.522   105600154.780         208.050          44.000  
E31  26475943.671   139132364.424        -323.788          47.000    26475944.115   106607988.984        -248.055          53.000  
G12  23618479.944   124116290.586        -799.620          50.000    23618473.678    96714177.776        -622.961          45.000  
R20  23902491.402   127817630.208        3151.031          40.000    23902492.244    99413769.083        2450.740          42.000  
R10  24100483.301   128469137.317        1499.392          43.000                                                                  
R18  25072111.603   133836887.212       -4107.271          51.000    25072107.971   104095326.683       -3194.546          49.000  
E24  29656757.410   155847298.182         870.109          43.000    29656759.481   119415492.844         666.697          47.000  
S31  41258413.223   216814491.702        -758.168          44.000  
G29  25510352.315   134058044.383        2436.552          41.000    25510351.209   104460929.944        1898.224          39.000  
G25  24313240.335   127767148.837         623.411          49.000    24313238.287    99558917.424         485.629          45.000  
G06  25697817.397   135043034.248       -1254.480          41.000    25697814.566   105228367.144        -977.687          39.000  
E33  28173879.997   148054980.341        1600.880          46.000    28173881.107   113444908.024        1226.697          51.000  
E04  28143059.904   147892763.008       -3374.861          46.000    28143061.887   113320522.499       -2586.005          48.000  
G11  25249732.950   132688465.028         736.076          47.000    25249727.742   103393835.986         573.691          45.000  
> 2024 04 09 01 26 30.0080000  0 24                     
S33  42215999.306   221846676.249        -758.879          45.000  
E26  28323534.804   148841275.354        -507.321          40.000    28323534.836   114047263.706        -388.670          46.000  
G24  23085370.203   121314551.049       -1762.604          48.000    23085368.479    94530902.368       -1373.547          48.000  
E09  27557181.596   144813911.490       -1348.636          46.000    27557182.468   110961420.291       -1033.451          51.000  
R07  25057661.981   134135611.361       -3950.573          51.000    25057659.996   104327669.051       -3072.647          45.000  
R08  24931071.191   133504813.923       -1438.842          48.000    24931065.023   103836988.492       -1119.141          46.000  
R16  24819221.769   132580316.693       -2761.960          45.000    24819219.506   103118216.367       -2148.306          44.000  
R09  22487286.138   120081161.133        -421.187          52.000    22487280.158    93396548.444        -327.564          52.000  
R19  22742258.936   121656095.145       -1280.722          43.000    22742253.436    94621562.967        -996.244          49.000  
G19  27401325.913                1      -4296.358          28.000                                                                  
G32  25787174.947   135512463.489         248.399          46.000    25787172.977   105594131.697         193.615          44.000  
E31  26477797.520   139142109.180        -325.876          47.000    26477798.499   106615455.760        -249.788          53.000  
G12  23623058.449   124140349.659        -804.320          50.000    23623051.208    96732925.132        -626.755          45.000  
R20  23884847.857   127723284.224        3138.848          39.000    23884848.722    99340389.286        2441.345          43.000  
R10  24092047.892   128424175.469        1498.406          43.000                                                                  
R18  25095240.115   133960349.019       -4123.318          51.000    25095237.098   104191352.537       -3207.054          49.000  
E24  29651793.589   155821212.500         868.953          43.000    29651795.398   119395505.170         665.909          46.000  
S31  41262741.032   216837234.493        -758.066          44.000  
G29  25496469.748   133985094.124        2427.092          37.000    25496468.983   104404086.116        1891.234          38.000  
G25  24309691.620   127748498.265         620.084          48.000    24309689.156    99544384.511         483.242          45.000  
G06  25705033.228   135080954.608       -1273.517          41.000    25705031.289   105257915.489        -992.440          39.000  
E33  28164761.555   148007061.033        1593.675          46.000    28164762.355   113408190.748        1221.267          51.000  
E04  28162342.464   147994091.059       -3380.310          47.000    28162344.040   113398163.276       -2590.091          48.000  
G11  25245573.730   132666608.748         721.035          46.000    25245568.920   103376805.162         561.950          46.000  
> 2024 04 09 01 27 00.0080000  0 24                     
S33  42220330.696   221869439.324        -758.514          44.000  
E26  28326470.038   148856697.613        -520.849          41.000    28326469.425   114059080.784        -399.143          46.000  
G24  23095478.785   121367670.743       -1778.497          48.000    23095477.081    94572294.319       -1385.895          48.000  
E09  27564919.693   144854571.111       -1361.901          47.000    27564919.676   110992575.024       -1043.472          51.000  
R07  25079830.754   134254274.891       -3960.104          51.000    25079828.382   104419962.539       -3080.107          46.000  
R08  24939199.010   133548327.227       -1462.035          50.000    24939191.802   103870832.109       -1137.253          46.000  
R16  24834749.735   132663267.673       -2767.979          45.000    24834747.311   103182733.809       -2152.826          45.000  
R09  22489672.035   120093903.092        -428.229          52.000    22489666.875    93406458.869        -333.094          52.000  
R19  22749518.844   121694930.696       -1308.292          44.000    22749513.034    94651768.398       -1017.458          48.000  
G19  27425854.455                       -4297.561          28.000                                                                  
G32  25785807.533   135505282.026         230.469          46.000    25785805.800   105588535.734         179.529          44.000  
E31  26479663.585   139151912.794        -327.625          48.000    26479663.895   106622967.626        -251.030          52.000  
G12  23627662.381   124164543.551        -808.704          49.000    23627655.616    96751777.518        -630.175          45.000  
R20  23867272.324   127629299.303        3127.084          39.000    23867272.948    99267290.335        2431.946          43.000  
R10  24083616.639   128379234.608        1497.767          43.000                                                                  
R18  25118457.070   134084283.912       -4138.913          51.000    25118454.173   104287746.320       -3219.213          49.000  
E24  29646835.730   155795151.418         868.446          44.000    29646835.739   119375536.346         665.481          45.000  
S31  41267066.777   216859968.308        -757.373          44.000  
G29  25482637.231   133912412.813        2418.226          37.000    25482637.462   104347451.868        1884.531          38.000  
G25  24306159.414   127729934.888         617.346          48.000    24306156.885    99529919.534         481.040          45.000  
G06  25712355.950   135119432.983       -1291.330          40.000    25712354.049   105287898.606       -1006.982          39.000  
E33  28155683.090   147959350.432        1587.113          46.000    28155682.818   113371633.403        1216.062          50.000  
E04  28181653.417   148095570.791       -3385.024          47.000    28181655.577   113475920.267       -2593.724          48.000  
G11  25241498.871   132645195.666         706.411          46.000    25241494.693   103360119.688         550.523          47.000  
> 2024 04 09 01 27 30.0080000  0 23                     
S33  42224660.996   221892195.570        -757.842          44.000  
E26  28329485.957   148872537.930        -534.704          41.000    28329483.988   114071218.156        -409.823          47.000  
G24  23105678.492   121421272.246       -1794.440          48.000    23105677.473    94614061.691       -1398.285          48.000  
E09  27572734.331   144895634.300       -1375.390          48.000    27572733.369   111024038.994       -1053.770          51.000  
R07  25102052.163   134373225.428       -3969.440          49.000    25102050.309   104512479.177       -3087.305          44.000  
R08  24947454.573   133592540.802       -1485.139          48.000    24947447.905   103905220.422       -1154.984          46.000  
R16  24850313.751   132746405.229       -2774.047          46.000    24850310.627   103247396.329       -2157.402          45.000  
R09  22492099.510   120106865.672        -435.482          52.000    22492094.299    93416540.858        -338.724          52.000  
R19  22756934.011   121734594.293       -1335.861          44.000    22756928.804    94682617.858       -1038.831          49.000  
G32  25784545.979   135498649.894         212.140          45.000    25784542.854   105583367.825         165.549          43.000  
E31  26481540.436   139161775.475        -329.396          48.000    26481540.625   106630524.765        -252.496          52.000  
G12  23632291.726   124188872.531        -812.884          50.000    23632285.552    96770735.161        -633.293          45.000  
R20  23849764.938   127535681.445        3114.430          40.000    23849766.322    99194476.848        2422.573          43.000  
R10  24075190.609   128334316.053        1497.106          43.000                                                                  
R18  25141761.796   134208688.332       -4154.354          51.000    25141758.875   104384505.326       -3231.137          47.000  
E24  29641881.770   155769114.944         867.705          46.000    29641880.944   119355586.371         665.006          45.000  
S31  41271391.669   216882695.420        -757.123          44.000  
G29  25468859.168   133840002.839        2409.498          40.000    25468859.673   104291028.983        1877.484          40.000  
G25  24302643.226   127711459.018         614.770          48.000    24302641.291    99515522.792         478.984          45.000  
G06  25719785.231   135158469.744       -1310.232          40.000    25719780.987   105318316.836       -1020.709          37.000  
E33  28146643.399   147911851.121        1580.042          45.000    28146643.748   113335237.951        1210.644          50.000  
E04  28200992.698   148197200.699       -3389.834          46.000    28200995.365   113553792.335       -2597.481          48.000  
G11  25237508.968   132624228.700         691.641          45.000    25237504.549   103343781.800         539.014          46.000  
> 2024 04 09 01 28 00.0080000  0 23                     
S33  42228990.444   221914946.441        -758.207          45.000  
E26  28332579.001   148888798.745        -548.937          40.000    28332578.213   114083677.746        -420.822          47.000  
G24  23115971.454   121475357.708       -1810.870          49.000    23115969.507    94656206.197       -1411.096          48.000  
E09  27580624.840   144937102.381       -1389.057          48.000    27580624.561   111055813.219       -1064.370          51.000  
R07  25124327.193   134492459.926       -3979.236          50.000    25124323.276   104605216.656       -3094.756          43.000  
R08  24955840.726   133637454.792       -1508.889          48.000    24955834.950   103940153.462       -1173.497          47.000  
R16  24865913.400   132829731.717       -2780.715          46.000    24865910.089   103312205.734       -2162.612          46.000  
R09  22494569.262   120120052.215        -443.361          52.000    22494564.049    93426797.063        -344.764          52.000  
R19  22764502.749   121775086.253       -1363.385          43.000    22764498.648    94714111.627       -1060.594          49.000  
G32  25783388.753   135492569.722         193.506          45.000    25783385.761   105578630.037         150.515          42.000  
E31  26483429.224   139171698.982        -331.890          49.000    26483428.938   106638128.497        -254.278          52.000  
G12  23636947.374   124213338.341        -817.838          50.000    23636941.430    96789799.421        -637.302          45.000  
R20  23832327.276   127442436.801        3101.898          40.000    23832328.360    99121953.645        2412.529          44.000  
R10  24066769.035   128289422.216        1496.062          43.000                                                                  
R18  25165154.960   134333560.200       -4170.164          50.000    25165151.495   104481627.893       -3243.355          47.000  
E24  29636932.158   155743104.781         866.595          45.000    29636931.260   119335656.544         663.874          45.000  
S31  41275715.706   216905416.662        -757.045          44.000  
G29  25455131.272   133767867.914        2399.937          37.000    25455131.593   104234820.459        1869.795          40.000  
G25  24299144.004   127693072.622         611.356          47.000    24299141.930    99501195.737         476.376          45.000  
G06  25727319.371   135198066.869       -1329.094          39.000    25727315.809   105349171.782       -1035.649          34.000  
E33  28137645.166   147864567.179        1572.453          45.000    28137646.036   113299007.519        1204.825          50.000  
E04  28220359.744   148298980.820       -3395.209          45.000    28220363.762   113631779.486       -2601.477          48.000  
G11  25233604.059   132603712.126         676.226          45.000    25233600.038   103327794.905         527.038          45.000  
> 2024 04 09 01 28 30.0080000  0 23                     
S33  42233318.778   221937692.824        -758.075          45.000  
E26  28335754.486   148905482.031        -563.231          41.000    28335752.646   114096461.026        -431.466          47.000  
G24  23126356.023   121529928.637       -1827.179          49.000    23126353.879    94698728.977       -1423.621          48.000  
E09  27588592.266   144978976.083       -1402.523          47.000    27588592.743   111087898.252       -1074.673          51.000  
R07  25146653.767   134611975.490       -3988.499          50.000    25146651.305   104698172.837       -3102.200          43.000  
R08  24964360.142   133683068.497       -1532.176          49.000    24964353.347   103975630.762       -1191.671          47.000  
R16  24881547.764   132913249.409       -2787.197          46.000    24881543.691   103377163.883       -2167.819          44.000  
R09  22497080.454   120133465.409        -450.993          51.000    22497075.907    93437229.550        -350.723          52.000  
R19  22772226.721   121816407.884       -1391.466          42.000    22772222.138    94746250.669       -1081.947          48.000  
G32  25782336.752   135487043.612         174.814          46.000    25782333.546   105574323.990         136.221          42.000  
E31  26485329.253   139181684.481        -333.933          49.000    26485329.133   106645779.752        -255.823          52.000  
G12  23641628.923   124237942.118        -822.359          49.000    23641623.520    96808971.204        -640.908          46.000  
R20  23814960.582   127349571.325        3088.988          41.000    23814962.117    99049725.316        2402.648          43.000  
R10  24058352.747   128244556.234        1494.836          42.000                                                                  
R18  25188634.367   134458896.987       -4185.499          51.000    25188630.671   104579112.087       -3255.523          45.000  
E24  29631987.443   155717121.920         865.669          45.000    29631987.267   119315747.658         663.381          46.000  
S31  41280038.508   216928133.972        -757.214          44.000  
G29  25441456.060   133696011.590        2390.518          38.000    25441456.933   104178829.021        1862.917          39.000  
G25  24295661.979   127674776.920         608.366          47.000    24295659.878    99486939.389         473.959          44.000  
G06  25734960.886   135238225.732       -1348.016          38.000    25734958.098   105380464.357       -1050.682          36.000  
E33  28128688.742   147817502.184        1565.200          45.000    28128689.727   113262944.870        1199.225          50.000  
E04  28239756.508   148400910.644       -3400.187          45.000    28239760.662   113709881.337       -2605.276          49.000  
G11  25229786.716   132583649.831         661.314          45.000    25229782.718   103312161.964         515.051          46.000  
> 2024 04 09 01 29 00.0080000  0 23                     
S33  42237645.460   221960429.104        -757.672          45.000  
E26  28339008.364   148922581.399        -576.913          41.000    28339006.739   114109563.106        -441.997          47.000  
G24  23136831.106   121584978.285       -1842.975          48.000    23136829.183    94741624.804       -1436.243          48.000  
E09  27596636.653   145021247.933       -1415.672          47.000    27596636.634   111120288.332       -1084.719          50.000  
R07  25169030.552   134731760.628       -3997.231          50.000    25169029.577   104791338.588       -3108.863          44.000  
R08  24973006.592   133729373.710       -1554.969          48.000    24972999.859   104011645.929       -1209.461          46.000  
R16  24897217.690   132996952.315       -2793.251          46.000    24897214.393   103442266.159       -2172.468          47.000  
R09  22499633.592   120147099.572        -458.108          51.000    22499629.259    93447833.882        -356.345          52.000  
R19  22780105.872   121858551.451       -1418.463          43.000    22780100.507    94779028.986       -1103.214          49.000  
G32  25781388.495   135482065.362         156.776          45.000    25781387.132   105570444.828         122.107          43.000  
E31  26487239.456   139191724.894        -335.574          48.000    26487239.705   106653473.060        -257.086          52.000  
G12  23646335.843   124262676.734        -826.750          49.000    23646330.435    96828244.921        -644.051          46.000  
R20  23797663.805   127257082.150        3076.753          41.000    23797664.812    98977789.635        2392.681          43.000  
R10  24049939.491   128199712.166        1494.048          42.000                                                                  
R18  25212198.920   134584687.757       -4200.651          49.000    25212195.842   104676949.315       -3267.112          46.000  
E24  29627046.715   155691159.206         865.175          44.000    29627046.706   119295854.200         662.820          46.000  
S31  41284359.611   216950841.269        -756.754          44.000  
G29  25427833.963   133624428.956        2381.413          38.000    25427834.809   104123050.821        1855.970          38.000  
G25  24292196.581   127656565.086         605.552          47.000    24292193.878    99472748.359         472.064          44.000  
G06  25742708.289   135278939.429       -1366.428          38.000    25742709.001   105412189.329       -1064.830          34.000  
E33  28119773.532   147770651.435        1558.162          45.000    28119773.965   113227046.360        1193.913          50.000  
E04  28259181.077   148502981.339       -3404.575          45.000    28259184.263   113788091.132       -2608.780          49.000  
G11  25226053.973   132564037.315         646.201          45.000    25226051.246   103296879.533         503.490          47.000  
> 2024 04 09 01 29 30.0080000  0 23                     
S33  42241970.715   221983159.684        -757.297          45.000  
E26  28342341.194   148940102.625        -590.958          39.000    28342341.051   114122988.435        -452.772          47.000  
G24  23147398.803   121640511.977       -1859.222          48.000    23147396.798    94784897.784       -1448.676          48.000  
E09  27604757.271   145063922.443       -1428.945          46.000    27604757.388   111152986.953       -1094.901          50.000  
R07  25191458.672   134851815.950       -4006.214          50.000    25191457.348   104884714.450       -3116.162          45.000  
R08  24981783.263   133776372.797       -1577.972          48.000    24981777.189   104048200.754       -1227.435          46.000  
R16  24912921.663   133080845.839       -2799.473          45.000    24912919.355   103507516.603       -2177.481          46.000  
R09  22502230.084   120160961.858        -465.807          51.000    22502224.996    93458615.678        -362.216          51.000  
R19  22788138.326   121901521.171       -1445.938          43.000    22788132.918    94812449.881       -1124.630          49.000  
G32  25780546.506   135477640.870         138.630          45.000    25780545.388   105566997.162         107.747          43.000  
E31  26489161.001   139201825.306        -337.548          48.000    26489161.781   106661212.346        -258.531          52.000  
G12  23651068.882   124287547.293        -831.161          49.000    23651062.996    96847624.571        -647.525          46.000  
R20  23780440.241   127164979.325        3063.639          41.000    23780441.176    98906154.434        2382.928          44.000  
R10  24041530.868   128154896.294        1493.407          42.000                                                                  
R18  25235849.077   134710933.895       -4215.644          49.000    25235845.153   104775140.768       -3278.896          44.000  
E24  29622110.539   155665221.522         864.412          44.000    29622111.179   119275979.933         662.410          47.000  
S31  41288679.444   216973542.386        -756.436          44.000  
G29  25414265.890   133553126.779        2372.583          36.000    25414266.654   104067491.079        1848.544          39.000  
G25  24288747.931   127638442.242         602.696          47.000    24288745.789    99458626.704         469.608          45.000  
G06  25750562.103   135320213.124       -1385.140          36.000    25750560.523                       -1078.779          32.000  
E33  28110901.011   147724022.338        1550.764          46.000    28110900.990   113191317.684        1188.237          50.000  
E04  28278631.867   148605196.262       -3409.392          45.000    28278635.311   113866411.440       -2612.294          48.000  
G11  25222409.346   132544882.171         630.969          47.000    25222405.264   103281953.519         491.860          45.000  
