     3.00           OBSERVATION DATA    M: Mixed            RINEX VERSION / TYPE
CONVBIN 2.4.3                           20240409 032942 UTC PGM / RUN BY / DATE 
format: u-blox UBX                                          COMMENT             
log: data/2024-04-09/20240409031500.ubx                     COMMENT             
AQUI00CHL                                                   MARKER NAME         
                                                            MARKER NUMBER       
                                                            MARKER TYPE         
                                                            OBSERVER / AGENCY   
UNKNOWN             UBLOX-ZED-F9P                           REC # / TYPE / VERS 
UNKNOWN             TWIVSP6037L                             ANT # / TYPE        
  1713381.0000 -5047934.0000 -3490983.0000                  APPROX POSITION XYZ 
        0.0000        0.0000        0.0000                  ANTENNA: DELTA H/E/N
G    8 C1C L1C D1C S1C C2L L2L D2L S2L                      SYS / # / OBS TYPES 
R    8 C1C L1C D1C S1C C2C L2C D2C S2C                      SYS / # / OBS TYPES 
E    8 C1C L1C D1C S1C C7Q L7Q D7Q S7Q                      SYS / # / OBS TYPES 
S    4 C1C L1C D1C S1C                                      SYS / # / OBS TYPES 
  2024    04    09    03    15   00.0110000     GPS         TIME OF FIRST OBS   
  2024    04    09    03    29   30.4910000     GPS         TIME OF LAST OBS    
                                                            END OF HEADER       
> 2024 04 09 03 15 00.0110000  0 25                     
S33  43140422.720   226704579.7061       -739.709          44.000  
E26  30749945.843   161592084.0491      -3167.370          38.000    30749943.376   123817406.4751      -2427.117          45.000  
G24  27162263.718   142738655.6871      -4382.464          41.000    27162267.907   111224981.2521      -3414.874          40.000  
E09  30632622.731   160975393.2631      -3163.787          38.000    30632625.546   123344875.4251      -2423.850          39.000  
R11  25235949.752   134853400.7891       2568.232          48.000    25235945.549   104885836.2221       1997.625          48.000  
R09  24419950.764   130401477.4571      -3029.983          51.000    24419946.189   101423459.2771      -2356.654          49.000  
G28  25538116.792   134203805.4781       1503.133          47.000    25538111.979   104574303.8371       1171.217          46.000  
G32  27756038.869   145858878.0511      -2977.362          45.000    27756038.457   113656263.0741      -2320.270          40.000  
E12  28388929.414   149185031.5811       1663.848          44.000    28388926.654   114310768.5171       1274.737          48.000  
E10  29832386.843   156770428.6501       2310.161          42.000    29832389.569   120122904.6931       1770.083          47.000  
E31  27165489.961   142755954.1541       -862.569          49.000    27165489.417   109384506.5141       -660.995          52.000  
G12  25241200.901   132643749.9391      -1892.236          47.000    25241194.618   103358950.9931      -1474.538          41.000  
R20  22789569.082   121866400.2181      -1827.486          43.000    22789566.113    94785051.2191      -1421.451          44.000  
R10  22901814.468   122079569.8171       -133.292          45.000                                                                  
R21  24046836.050   128679910.5051       2379.547          52.000    24046830.348   100084194.5841       1850.677          47.000  
E24  28615156.777   150373667.5201        818.487          46.000    28615155.111   115221419.3261        627.281          50.000  
S31  42185961.535   221688811.1841       -738.931          43.000  
G29  24105043.013   126673183.1011       -309.698          49.000    24105037.177    98706513.9731       -241.467          45.000  
G25  24018978.787   126220799.2921       -309.247          49.000    24018976.065    98353971.5061       -241.003          47.000  
G20  27602471.876   145051969.5771        491.202          36.000                                                                  
G18  27338070.511   143662623.2081       3057.851          44.000    27338071.774   111945019.3491       2382.868          43.000  
G05  28442662.906   149467229.3391       1432.098          43.000    28442658.897   116467955.7901       1115.812          37.000  
E33  27689839.904   145511368.4801      -1113.392          47.000    27689837.666   111495916.0531       -853.095          48.000  
G11  26746667.923   140554920.7091      -3123.639          44.000    26746662.538   109523544.8911      -2434.082          45.000  
E05                                                                  29134238.520                3      -1293.155          26.000  
> 2024 04 09 03 15 30.0110000  0 25                     
S33  43144645.863   226726774.151        -739.902          44.000  
E26  30768050.585   161687224.665       -3175.531          37.000    30768048.004   123890306.430       -2432.971          45.000  
G24  27187295.270   142870197.077       -4387.018          40.000    27187299.825   111327480.388       -3418.579          40.000  
E09  30650689.012   161070323.162       -3165.036          38.000    30650690.563   123417613.693       -2425.207          38.000  
R11  25221538.550   134776392.071        2565.593          49.000    25221534.381   104825940.582        1995.402          48.000  
R09  24437012.611   130492590.824       -3044.383          48.000    24437008.390   101494325.214       -2367.855          49.000  
G28  25529576.316   134158925.466        1488.691          47.000    25529571.331   104539332.418        1159.905          45.000  
G32  27773054.927   145948296.481       -2984.094          45.000    27773054.319   113725939.632       -2325.426          40.000  
E12  28379456.941   149135255.283        1654.624          44.000    28379454.443   114272628.290        1267.684          47.000  
E10  29819209.152   156701181.271        2306.350          43.000    29819211.942   120069845.343        1767.067          48.000  
E31  27170425.246   142781892.912        -866.852          48.000    27170425.275   109404381.663        -664.228          52.000  
G12  25252023.615   132700620.411       -1899.198          47.000    25252017.529   103403265.609       -1479.893          42.000  
R20  22799892.107   121921597.755       -1852.267          43.000    22799888.199    94827982.645       -1440.653          44.000  
R10  22902609.832   122083810.368        -149.686          45.000                                                                  
R21  24033547.004   128608793.855        2361.389          53.000    24033540.047   100028881.705        1836.658          47.000  
E24  28610485.704   150349120.424         817.764          47.000    28610483.820   115202610.528         626.593          50.000  
S31  42190179.821   221710978.923        -739.050          43.000  
G29  24106847.141   126682663.202        -322.388          49.000    24106841.421    98713901.075        -251.166          45.000  
G25  24020765.448   126230187.114        -316.681          49.000    24020762.715    98361286.691        -246.790          47.000  
G20  27599700.371   145037409.406         479.174          35.000                                                                  
G18  27320621.511   143570934.373        3054.618          44.000    27320623.408   111873574.438        2380.430          43.000  
G05  28434493.945   149424299.488        1429.768          44.000    28434489.715   116434504.121        1114.279          39.000  
E33  27696238.201   145544987.445       -1128.042          48.000    27696235.045   111521676.047        -864.381          48.000  
G11  26764541.263   140648848.364       -3138.209          45.000    26764536.574   109596735.268       -2445.332          45.000  
E05                                                                  29143901.376                3      -1302.328          26.000  
> 2024 04 09 03 16 00.0110000  0 25                     
S33  43148869.299   226748968.237        -739.583          44.000  
E26  30786199.046   161782593.096       -3182.409          37.000    30786195.987   123963380.945       -2438.460          45.000  
G24  27212352.631   143001874.181       -4391.363          40.000    27212358.111   111430085.251       -3421.576          40.000  
E09  30668760.953   161165295.137       -3166.280          35.000    30668763.251   123490384.127       -2426.093          38.000  
R11  25207142.166   134699460.976        2563.282          48.000    25207137.678   104766105.290        1993.612          49.000  
R09  24454154.143   130584135.248       -3058.485          48.000    24454152.140   101565526.394       -2378.846          49.000  
G28  25521118.416   134114477.540        1474.575          47.000    25521112.679   104504697.671        1149.077          45.000  
G32  27790107.697   146037910.588       -2990.138          45.000    27790107.888   113795768.666       -2330.118          41.000  
E12  28370037.070   149085754.823        1645.535          44.000    28370034.949   114234699.415        1260.991          48.000  
E10  29806053.800   156632051.112        2302.438          43.000    29806056.776   120016875.800        1764.337          48.000  
E31  27175384.553   142807956.307        -870.682          48.000    27175384.849   109424352.324        -667.122          52.000  
G12  25262883.988   132757692.333       -1905.455          47.000    25262877.859   103447737.229       -1484.834          42.000  
R20  22810351.090   121977529.106       -1876.364          43.000    22810347.789    94871484.821       -1459.441          45.000  
R10  22903497.665   122088540.348        -165.660          46.000                                                                  
R21  24020358.358   128538220.771        2343.585          52.000    24020352.463    99973991.590        1822.681          48.000  
E24  28605818.203   150324593.122         817.476          47.000    28605816.467   115183816.883         626.434          50.000  
S31  42194398.210   221733145.638        -738.330          43.000  
G29  24108723.217   126692519.630        -334.515          50.000    24108717.849    98721581.438        -260.760          46.000  
G25  24022593.620   126239795.177        -323.712          48.000    24022591.148    98368773.497        -252.185          47.000  
G20  27597001.669   145023229.949         466.964          36.000                                                                  
G18  27303190.076   143479335.430        3052.208          45.000    27303191.593   111802199.571        2378.222          43.000  
G05  28426336.953   149381433.264        1427.929          44.000    28426332.956   116401102.088        1112.847          39.000  
E33  27702718.603   145579044.392       -1142.366          47.000    27702716.166   111547771.626        -875.156          48.000  
G11  26782497.417   140743207.003       -3152.191          45.000    26782492.015   109670261.484       -2456.380          45.000  
E05                                                                  29153630.385                       -1309.226          27.000  
> 2024 04 09 03 16 30.0110000  0 25                     
S33  43153091.677   226771157.195        -739.595          44.000  
E26  30804389.030   161878183.476       -3189.952          37.000    30804386.187   124036625.530       -2444.092          45.000  
G24  27237435.002   143133680.266       -4395.593          41.000    27237441.106   111532790.646       -3424.994          40.000  
E09  30686840.542   161260303.002       -3167.493          33.000    30686843.411   123563181.995       -2426.786          38.000  
R11  25192760.521   134622606.014        2560.635          49.000    25192755.127   104706329.246        1991.501          49.000  
R09  24471378.520   130676106.353       -3072.706          49.000    24471375.355   101637059.456       -2389.913          49.000  
G28  25512742.114   134070459.976        1460.230          47.000    25512736.408   104470398.282        1137.676          45.000  
G32  27807196.892   146127713.269       -2996.334          45.000    27807197.673   113865744.640       -2335.153          41.000  
E12  28360669.297   149036527.756        1636.698          44.000    28360667.193   114196980.044        1254.015          47.000  
E10  29792920.215   156563035.892        2298.734          44.000    29792923.392   119963994.320        1761.469          48.000  
E31  27180366.955   142834141.015        -874.623          47.000    27180367.588   109444415.934        -670.172          52.000  
G12  25273781.725   132814962.440       -1912.188          46.000    25273775.883   103492363.285       -1490.309          42.000  
R20  22820946.126   122034187.509       -1900.483          42.000    22820943.055    94915552.467       -1478.129          45.000  
R10  22904476.507   122093757.861        -182.016          46.000                                                                  
R21  24007270.410   128468189.411        2325.409          52.000    24007265.319    99919522.830        1808.618          48.000  
E24  28601153.651   150300082.019         817.097          47.000    28601152.274   115165035.669         625.902          50.000  
S31  42198615.631   221755308.445        -738.503          43.000  
G29  24110669.594   126702747.335        -347.015          50.000    24110663.956    98729551.085        -270.435          46.000  
G25  24024462.850   126249620.622        -330.963          48.000    24024460.261    98376429.696        -257.996          46.000  
G20  27594373.770   145009428.876         453.724          36.000                                                                  
G18  27285775.737   143387825.178        3048.834          45.000    27285777.644   111730893.737        2375.728          43.000  
G05  28418191.344   149338631.267        1425.725          42.000    28418188.574   116367750.077        1111.120          40.000  
E33  27709281.703   145613534.741       -1156.646          47.000    27709279.668   111574199.309        -886.239          48.000  
G11  26800534.009   140837990.150       -3166.384          45.000    26800528.255   109744118.494       -2467.342          44.000  
E05                                                                  29163421.375                       -1318.047          27.000  
> 2024 04 09 03 17 00.0110000  0 25                     
S33  43157313.622   226793343.065        -739.612          44.000  
E26  30822621.030   161973994.425       -3197.348          36.000    30822618.524   124110039.121       -2449.786          45.000  
G24  27262542.314   143265613.191       -4399.920          42.000    27262548.426   111635594.846       -3428.632          41.000  
E09  30704921.197                       -3168.424          30.000    30704930.619   123636006.008       -2427.670          39.000  
R11  25178393.066   134545830.240        2557.822          48.000    25178387.626   104646614.810        1989.364          48.000  
R09  24488682.707   130768503.558       -3087.082          50.000    24488677.824   101708923.914       -2401.038          49.000  
G28  25504447.923   134026875.475        1445.548          47.000    25504442.844   104436436.338        1126.527          46.000  
G32  27824320.825   146217701.927       -3002.750          44.000    27824321.115   113935865.478       -2339.590          40.000  
E12  28351353.720   148987576.228        1627.109          43.000    28351351.902   114159471.763        1246.759          47.000  
E10  29779809.311   156494137.911        2294.605          44.000    29779812.027   119911202.636        1758.141          47.000  
E31  27185373.266   142860448.134        -878.859          47.000    27185373.482   109464573.347        -673.473          52.000  
G12  25284717.501   132872431.785       -1918.992          46.000    25284711.434   103537144.587       -1495.335          42.000  
R20  22831676.967   122091570.491       -1924.722          42.000    22831674.556    94960183.680       -1496.986          45.000  
R10  22905548.159   122099466.320        -198.442          46.000                                                                  
R21  23994284.990   128398703.426        2307.111          52.000    23994279.936    99865478.225        1794.464          48.000  
E24  28596492.399   150275588.043         816.277          47.000    28596491.210   115146267.585         625.355          50.000  
S31  42202832.253   221777467.160        -738.565          43.000  
G29  24112685.780   126713345.563        -359.467          49.000    24112680.741    98737809.446        -280.176          46.000  
G25  24026373.731   126259665.117        -338.623          47.000    24026371.694    98384256.579        -263.837          46.000  
G20  27591818.257   144996008.819         440.924          36.000                                                                  
G18  27268378.850   143296406.758        3045.636          45.000    27268380.668   111659659.471        2373.065          44.000  
G05  28410059.680   149295896.173        1423.294          43.000    28410056.236   116334450.143        1108.970          39.000  
E33  27715927.164   145648458.374       -1171.371          47.000    27715925.677   111600958.986        -897.545          49.000  
G11  26818650.939   140933195.913       -3180.475          46.000    26818644.895   109818304.785       -2478.209          42.000  
E05                                                                  29173272.714                3      -1326.848          23.000  
> 2024 04 09 03 17 30.0110000  0 26                     
S33  43161535.528   226815530.096        -739.359          44.000  
E26  30840894.556   162070029.484       -3204.736          33.000    30840893.320   124183624.425       -2455.569          45.000  
G24  27287673.982   143397675.693       -4404.169          42.000    27287680.141   111738499.989       -3431.678          41.000  
E09  30723022.164                       -3169.961          29.000    30723023.973   123708858.738       -2428.694          38.000  
R11  25164042.287   134469141.912        2555.104          48.000    25164036.717   104586968.349        1987.122          50.000  
R19  27272639.893                3      -5207.000          11.000                                                                  
R09  24506067.075   130861332.308       -3101.349          50.000    24506061.965   101781124.037       -2412.102          49.000  
G28  25496238.067   133983731.760        1430.938          47.000    25496233.126   104402817.860        1114.938          46.000  
G32  27841480.966   146307878.759       -3008.728          43.000    27841480.968   114006133.007       -2344.440          40.000  
E12  28342092.519   148938907.184        1617.589          43.000    28342090.681   114122179.943        1239.556          48.000  
E10  29766721.186   156425364.337        2290.439          43.000    29766725.020   119858506.263        1754.993          48.000  
E31  27190403.467   142886883.722        -883.251          47.000    27190404.097   109484829.181        -676.703          52.000  
G12  25295692.033   132930106.365       -1925.804          45.000    25295686.688   103582085.803       -1500.450          42.000  
R20  22842543.954   122149681.481       -1949.087          42.000    22842541.716    95005381.113       -1515.842          45.000  
R10  22906711.406   122105673.022        -215.045          46.000                                                                  
R21  23981403.248   128329770.562        2288.695          52.000    23981398.805    99811863.855        1780.071          49.000  
E24  28591836.066   150251117.007         815.429          47.000    28591834.554   115127517.074         624.785          50.000  
S31  42207048.884   221799627.079        -738.381          43.000  
G29  24114773.374   126724318.675        -371.790          48.000    24114768.209    98746359.936        -289.612          45.000  
G25  24028328.364   126269935.116        -345.831          48.000    24028325.926    98392259.164        -269.592          46.000  
G20  27589337.130   144982978.241         428.125          36.000                                                                  
G18  27251000.725   143205088.341        3042.407          45.000    27251002.647   111588503.094        2370.593          44.000  
G05  28401941.599   149253235.939        1420.723          44.000    28401938.337   116301208.558        1107.291          39.000  
E33  27722656.089   145683820.087       -1185.823          47.000    27722654.447   111628054.340        -908.660          48.000  
G11  26836849.406   141028827.243       -3194.624          45.000    26836842.961   109892822.654       -2489.161          42.000  
E05                                                                  29183189.893                3      -1333.940          24.000  
> 2024 04 09 03 18 00.0110000  0 25                     
S33  43165756.912   226837712.787        -738.988          44.000  
E26  30859208.912   162166282.120       -3211.755          31.000    30859209.790   124257376.423       -2460.928          45.000  
G24  27312828.234   143529860.440       -4408.201          40.000    27312834.787   111841500.362       -3434.524          41.000  
R11  25149706.333   134392538.724        2552.445          49.000    25149701.612   104527388.119        1985.080          50.000  
R09  24523530.690   130954586.677       -3115.286          49.000    24523525.028   101853655.211       -2422.977          49.000  
G28  25488111.282   133941026.358        1416.696          47.000    25488106.568   104369540.940        1103.778          46.000  
G32  27858675.584   146398236.005       -3014.480          43.000    27858675.898   114076541.112       -2349.136          41.000  
E12  28332884.519   148890517.412        1608.562          43.000    28332882.378   114085102.108        1232.633          48.000  
E10  29753657.568   156356712.217        2286.704          44.000    29753660.781   119805902.981        1752.190          48.000  
E31  27195457.150   142913443.733        -887.063          47.000    27195458.290   109505180.370        -679.746          52.000  
G12  25306705.812   132987982.044       -1932.020          45.000    25306699.545   103627183.744       -1505.615          41.000  
R20  22853545.437   122208512.529       -1972.739          42.000    22853543.638    95051138.604       -1534.308          45.000  
R10  22907969.445   122112375.719        -231.414          47.000                                                                  
R21  23968624.875   128261388.577        2270.539          53.000    23968619.687    99758677.932        1765.930          48.000  
E24  28587182.909   150226664.638         815.001          48.000    28587181.158   115108780.868         624.504          50.000  
S31  42211265.575   221821783.946        -738.110          43.000  
G29  24116932.199   126735661.032        -383.905          49.000    24116925.567    98755198.157        -299.127          45.000  
G25  24030326.036   126280427.143        -353.119          49.000    24030322.329    98400434.770        -275.244          46.000  
G20  27586933.283   144970333.997         414.915          38.000                                                                  
G18  27233641.852   143113867.999        3039.484          46.000    27233643.150   111517423.119        2368.219          44.000  
G05  28393836.401   149210647.706        1418.788          43.000    28393833.379   116268023.111        1105.394          40.000  
E33  27729467.819   145719614.555       -1200.090          47.000    27729465.737   111655481.266        -919.572          48.000  
G11  26855127.660   141124876.988       -3208.294          46.000    26855118.750   109967666.594       -2500.130          41.000  
E09                                                                  30741123.888   123781734.895       -2429.407          38.000  
E05                                                                  29193165.733                       -1342.913          26.000  
> 2024 04 09 03 18 30.0110000  0 25                     
S33  43169977.173   226859890.592        -739.313          44.000  
E26  30877559.152   162262747.848       -3218.804          32.000    30877566.716   124331291.735       -2466.247          45.000  
G24  27338005.598   143662162.121       -4412.125          41.000    27338011.910   111944591.908       -3437.654          41.000  
R11  25135386.948   134316020.633        2549.297          48.000    25135382.083   104467874.057        1982.684          49.000  
R09  24541072.210   131048263.800       -3129.574          49.000    24541068.774   101926515.168       -2434.035          49.000  
G28  25480067.865   133898759.015        1401.786          47.000    25480063.233   104336605.343        1092.228          46.000  
G32  27875903.545   146488768.015       -3020.497          43.000    27875903.370   114147085.344       -2353.933          40.000  
E12  28323729.262   148842406.023        1599.097          42.000    28323727.142   114048237.580        1225.321          48.000  
E10  29740616.148   156288180.829        2282.506          44.000    29740619.445   119753392.169        1748.889          49.000  
E31  27200535.006   142940126.288        -891.292          47.000    27200535.803   109525625.439        -682.921          52.000  
G12  25317755.952   133046056.172       -1939.111          45.000    25317750.429   103672436.296       -1510.923          41.000  
R20  22864681.122   122268058.766       -1996.537          42.000    22864678.589    95097452.345       -1552.867          44.000  
R10  22909319.988   122119573.615        -248.108          47.000                                                                  
R21  23955948.699   128193557.522        2251.958          52.000    23955943.392    99705920.485        1751.648          48.000  
E24  28582532.938   150202228.833         814.360          48.000    28582531.425   115090057.338         624.091          50.000  
S31  42215480.475   221843934.522        -738.037          43.000  
G29  24119159.798   126747368.657        -396.082          49.000    24119154.164    98764321.016        -308.710          46.000  
G25  24032364.348   126291139.754        -360.535          49.000    24032361.326    98408782.260        -280.853          47.000  
G20  27584600.663   144958075.991         402.352          38.000                                                                  
G18  27216301.366   143022745.953        3035.846          45.000    27216302.838   111446419.702        2365.692          44.000  
G05  28385746.675   149168133.342        1415.882          44.000    28385742.556   116234895.171        1103.447          41.000  
E33  27736360.872   145755838.550       -1214.490          47.000    27736359.002   111683237.316        -930.523          48.000  
G11  26873483.597   141221340.181       -3222.070          45.000    26873476.441   110042832.700       -2510.842          42.000  
E09                                                                  30759228.349   123854630.839       -2430.033          38.000  
E05                                                                  29203205.581                       -1351.820          30.000  
> 2024 04 09 03 19 00.0110000  0 25                     
S33  43174195.131   226882056.465        -738.558          44.000  
E26  30895956.942   162359420.069       -3225.343          33.000    30895962.519   124405365.267       -2471.743          44.000  
G24  27363203.357   143794573.308       -4415.380          40.000    27363209.360   112047768.779       -3440.438          40.000  
E09  30777337.437                1      -3171.698          28.000    30777335.820   123927541.354       -2429.980          36.000  
R11  25121083.579   134239585.908        2546.536          49.000    25121077.678   104408424.834        1980.797          49.000  
R09  24558692.945   131142358.206       -3143.196          49.000    24558689.082   101999699.725       -2444.804          49.000  
G28  25472107.714   133856927.118        1387.333          47.000    25472102.935   104304009.074        1080.980          46.000  
G32  27893163.242   146579466.848       -3025.954          43.000    27893163.287   114217759.538       -2357.608          40.000  
E12  28314625.033   148794569.579        1590.216          42.000    28314623.842   114011583.760        1218.348          47.000  
E10  29727597.632   156219767.084        2278.724          45.000    29727600.609   119700971.493        1745.992          49.000  
E31  27205635.260   142966927.194        -895.301          47.000    27205636.121   109546161.194        -685.923          52.000  
G12  25328845.358   133104325.202       -1945.365          46.000    25328839.155   103717840.736       -1516.042          41.000  
R20  22875948.315   122328312.456       -2020.092          41.000    22875946.016    95144316.318       -1571.083          44.000  
R10  22910762.678   122127263.629        -264.364          47.000                                                                  
R21  23943375.709   128126274.983        2233.659          52.000    23943370.443    99653589.692        1737.315          48.000  
E24  28577885.312   150177805.248         814.199          48.000    28577883.779   115071343.192         623.850          50.000  
S31  42219693.479   221866073.816        -737.668          43.000  
G29  24121456.574   126759435.930        -408.099          49.000    24121450.900    98773724.096        -318.005          46.000  
G25  24034443.536   126302069.290        -367.761          48.000    24034440.807    98417298.791        -286.591          46.000  
G20  27582341.883   144946201.471         389.314          38.000                                                                  
G18  27198978.988   142931720.114        3032.642          44.000    27198980.721   111375491.266        2363.013          45.000  
G05  28377669.817   149125690.796        1413.692          43.000    28377666.059   116201823.236        1101.490          41.000  
E33  27743334.580   145792486.645       -1228.339          47.000    27743332.871   111711318.341        -941.396          47.000  
G11  26891917.184   141318209.484       -3235.708          45.000    26891910.259   110118315.251       -2521.439          42.000  
E05                                                                  29213303.761                       -1358.659          27.000  
> 2024 04 09 03 19 30.0110000  0 25                     
S33  43178411.564   226904213.991        -738.395          44.000  
E26  30914395.280   162456299.305       -3232.985          31.000    30914398.342   124479597.421       -2476.878          44.000  
G24  27388421.070   143927093.822       -4418.655          39.000    27388427.594   112151030.847       -3443.046          39.000  
E09  30795444.450                       -3173.057          28.000    30795448.073   124000466.613       -2430.622          35.000  
R11  25106795.866   134163239.218        2543.398          49.000    25106790.109   104349044.091        1978.185          48.000  
R09  24576391.576   131236871.716       -3157.342          48.000    24576388.174   102073210.225       -2455.698          49.000  
G28  25464231.542   133815535.371        1372.350          48.000    25464226.773   104271755.742        1069.519          46.000  
G32  27910454.744   146670331.853       -3031.874          42.000    27910454.724   114288563.282       -2362.052          41.000  
E12  28305576.022   148747012.262        1580.602          43.000    28305573.944   113975143.785        1211.156          47.000  
E10  29714602.079   156151475.260        2274.363          45.000    29714604.891   119648644.215        1742.837          49.000  
E31  27210758.796   142993849.582        -899.296          47.000    27210759.188   109566790.038        -689.059          52.000  
G12  25339971.021   133162792.190       -1952.129          46.000    25339965.360   103763399.405       -1520.919          42.000  
R20  22887348.494   122389273.241       -2043.668          42.000    22887346.049    95191730.300       -1589.548          44.000  
R10  22912298.053   122135450.780        -281.068          47.000                                                                  
R21  23930905.961   128059545.900        2215.092          52.000    23930899.682    99601689.349        1722.844          47.000  
E24  28573240.801   150153396.750         813.398          48.000    28573239.119   115052640.581         623.260          50.000  
S31  42223904.681   221888204.601        -737.642          44.000  
G29  24123822.266   126771864.559        -420.221          49.000    24123816.510    98783408.732        -327.521          46.000  
G25  24036565.510   126313219.380        -375.354          48.000    24036562.507    98425987.172        -292.389          46.000  
G20  27580156.179   144934715.279         376.478          36.000                                                                  
G18  27181675.469   142840795.709        3029.175          44.000    27181677.606   111304641.830        2360.303          45.000  
G05  28369606.912   149083324.479        1410.813          43.000    28369603.771   116168810.667        1099.204          41.000  
E33  27750390.112   145829560.625       -1242.864          47.000    27750387.620   111739725.676        -952.250          47.000  
G11  26910427.431   141415484.955       -3249.270          44.000    26910421.191   110194114.265       -2531.806          42.000  
E05                                                                  29223462.482                       -1367.574          26.000  
> 2024 04 09 03 20 00.0110000  0 25                     
S33  43182626.684   226926364.949        -738.053          44.000  
E26  30932875.255   162553386.067       -3239.901          32.000    30932873.393   124553988.560       -2482.295          45.000  
G24  27413659.329   144059723.302       -4422.565          38.000    27413666.804   112254377.857       -3446.291          38.000  
E09  30813549.407                       -3173.004          30.000    30813563.549                       -2430.732          30.000  
R11  25092526.252   134086985.631        2540.349          50.000    25092520.365   104289735.782        1975.715          48.000  
R09  24594171.902   131331805.602       -3171.387          50.000    24594166.846   102147047.671       -2466.673          49.000  
G28  25456439.863   133774588.279        1357.498          48.000    25456435.003   104239848.917        1057.817          46.000  
G32  27927777.539   146761362.164       -3037.036          41.000    27927778.039   114359495.816       -2366.662          41.000  
E12  28296579.941   148699737.972        1571.100          43.000    28296577.806   113938920.661        1203.892          47.000  
E10  29701630.029   156083309.395        2270.143          44.000    29701633.104   119596413.452        1739.427          49.000  
E31  27215905.686   143020896.436        -903.539          47.000    27215906.116   109587514.254        -692.339          52.000  
G12  25351135.244   133221459.569       -1958.939          46.000    25351129.924   103809114.254       -1526.423          43.000  
R20  22898880.931   122450940.773       -2067.187          42.000    22898878.259    95239693.957       -1607.791          44.000  
R10  22913927.729   122144140.001        -298.002          47.000                                                                  
R21  23918540.131   127993375.119        2196.427          52.000    23918534.243    99550223.233        1708.305          48.000  
E24  28568599.193   150129006.161         812.765          48.000    28568597.848   115033951.694         622.835          50.000  
S31  42228115.009   221910329.576        -737.529          43.000  
G29  24126256.038   126784655.334        -432.288          49.000    24126250.885    98793375.577        -336.780          47.000  
G25  24038730.287   126324593.447        -382.886          49.000    24038726.828    98434850.082        -298.297          46.000  
G20  27578043.459   144923621.465         362.499          36.000                                                                  
G18  27164392.570   142749977.832        3025.476          43.000    27164394.398   111233875.339        2357.520          44.000  
G05  28361561.026   149041040.332        1408.262          43.000    28361557.446   116135862.102        1097.322          40.000  
E33  27757526.322   145867062.123       -1257.053          47.000    27757523.954   111768460.585        -963.173          47.000  
G11  26929015.825   141513166.349       -3262.739          45.000    26929010.115   110270229.615       -2542.501          44.000  
E05                                                                  29233680.307                       -1375.293          28.000  
> 2024 04 09 03 20 30.0110000  0 25                     
S33  43186840.693   226948509.321        -738.186          44.000  
E26  30951387.218   162650678.527       -3246.405          32.000    30951387.643   124628537.297       -2487.624          45.000  
G24  27438918.588   144192459.118       -4426.361          40.000    27438926.193   112357807.678       -3448.833          39.000  
E09  30831667.183   162021594.1741      -3174.086          32.000    30831678.075                3      -2431.693          25.000  
R11  25078274.805   134010828.039        2536.877          50.000    25078268.433   104230502.105        1973.148          48.000  
R09  24612028.893   131427160.094       -3185.564          51.000    24612023.936   102221212.231       -2477.583          49.000  
G28  25448732.333   133734088.094        1342.559          47.000    25448728.044   104208290.341        1046.132          46.000  
G32  27945131.088   146852554.738       -3042.302          43.000    27945131.794   114430554.780       -2370.993          41.000  
E12  28287637.408   148652748.155        1561.529          43.000    28287636.219   113902915.526        1196.520          48.000  
E10  29688682.707   156015271.339        2265.749          45.000    29688685.915   119544280.614        1736.111          49.000  
E31  27221076.507   143048068.448        -907.806          47.000    27221076.792   109608334.365        -695.564          53.000  
G12  25362337.784   133280328.396       -1965.632          46.000    25362331.961   103854986.043       -1531.731          42.000  
R20  22910545.271   122513312.715       -2090.614          42.000    22910542.107    95288205.458       -1626.014          43.000  
R10  22915653.106   122153333.142        -314.946          47.000                                                                  
R21  23906279.452   127927765.093        2177.788          52.000    23906273.715    99499193.280        1693.693          48.000  
E24  28563961.345   150104633.932         812.138          48.000    28563959.903   115015276.878         622.225          50.000  
S31  42232323.860   221932447.729        -737.106          43.000  
G29  24128758.097   126797807.060        -444.519          48.000    24128753.369    98803623.688        -346.222          46.000  
G25  24040937.305   126336192.708        -390.332          49.000    24040934.201    98443888.487        -304.352          46.000  
G20  27576007.803   144912922.740         350.123          34.000                                                                  
G18  27147130.212   142659269.253        3021.753          42.000    27147132.225   111163194.021        2354.547          44.000  
G05  28353530.658   148998840.828        1405.154          43.000    28353527.032   116102979.492        1095.060          41.000  
E33  27764744.018   145904990.465       -1271.322          47.000    27764741.584   111797522.561        -974.137          47.000  
G11  26947680.287   141611251.246       -3276.266          45.000    26947674.864   110346659.424       -2552.950          43.000  
E05                                                                  29243958.466                       -1383.364          30.000  
> 2024 04 09 03 21 00.0110000  0 25                     
S33  43191053.095   226970645.577        -737.533          44.000  
E26  30969941.814   162748171.973       -3252.694          33.000    30969940.027   124703240.087       -2492.715          45.000  
G24  27464197.866   144325295.870       -4429.271          42.000    27464204.817   112461316.196       -3451.665          40.000  
E09  30849795.836   162116817.436       -3174.076          36.000    30849799.586                3      -2433.446          19.000  
R11  25064041.483   133934766.755        2533.843          50.000    25064034.678   104171343.344        1970.748          48.000  
R09  24629963.420   131522930.981       -3199.323          49.000    24629958.353   102295700.677       -2488.230          48.000  
G28  25441110.316   133694034.312        1327.688          47.000    25441105.911   104177079.600        1034.558          46.000  
G32  27962514.334   146943903.734       -3047.478          43.000    27962514.265   114501735.645       -2374.636          40.000  
E12  28278749.707   148606041.692        1552.147          43.000    28278748.632   113867127.494        1189.381          48.000  
E10  29675759.454   155947360.118        2261.536          44.000    29675762.697   119492244.964        1732.936          50.000  
E31  27226270.613   143075363.571        -911.840          47.000    27226271.026   109629248.804        -698.718          53.000  
G12  25373578.556   133339396.207       -1972.091          47.000    25373572.318   103901012.876       -1536.839          42.000  
R20  22922339.056   122576382.781       -2113.989          41.000    22922336.777    95337259.936       -1644.067          44.000  
R10  22917472.347   122163029.773        -331.516          47.000                                                                  
R21  23894123.737   127862715.612        2159.058          52.000    23894117.184    99448599.311        1679.279          48.000  
E24  28559326.335   150080277.870         811.775          48.000    28559324.924   114996614.448         622.015          50.000  
S31  42236531.246   221954557.238        -736.960          43.000  
G29  24131328.086   126811316.187        -456.049          48.000    24131323.523    98814150.298        -355.414          46.000  
G25  24043187.305   126348015.646        -397.754          48.000    24043184.478    98453101.165        -309.930          47.000  
G20  27574046.308   144902618.292         337.195          34.000                                                                  
G18  27129888.836   142568670.070        3018.085          42.000    27129891.618   111092597.914        2351.740          45.000  
G05  28345516.449   148956726.491        1402.328          41.000    28345512.700   116070163.282        1092.847          40.000  
E33  27772042.128   145943342.266       -1285.311          47.000    27772039.472   111826909.002        -984.942          47.000  
G11  26966421.048   141709734.465       -3289.448          45.000    26966416.522   110423399.594       -2563.043          43.000  
E05                                                                  29254295.301                       -1391.377          29.000  
> 2024 04 09 03 21 30.0120000  0 25                     
S33  43195264.212   226992776.217        -737.569          44.000  
E26  30988532.164   162845872.006       -3259.929          34.000    30988531.735   124778101.128       -2497.828          45.000  
G24  27489496.779   144458239.454       -4432.733          43.000    27489503.392   112564907.930       -3454.156          40.000  
E09  30867921.266   162212058.370       -3174.903          37.000    30867936.285                3      -2431.923          24.000  
R11  25049825.583   133858805.710        2530.400          49.000    25049819.602   104112262.551        1967.937          48.000  
R09  24647976.322   131619125.204       -3213.303          48.000    24647973.218   102370518.358       -2499.119          49.000  
G28  25433574.099   133654431.881        1312.555          48.000    25433569.940   104146220.570        1022.752          46.000  
G32  27979928.274   147035413.207       -3052.582          44.000    27979928.267   114573041.513       -2378.471          40.000  
E12  28269916.654   148559622.654        1542.413          44.000    28269915.403   113831559.687        1181.915          49.000  
E10  29662861.051   155879579.294        2257.215          44.000    29662863.951   119440309.255        1729.486          50.000  
E31  27231489.268   143102787.504        -916.220          47.000    27231489.729   109650261.942        -701.990          53.000  
G12  25384857.144   133398668.987       -1979.019          46.000    25384851.275   103947199.469       -1542.016          42.000  
R20  22934264.464   122640154.359       -2136.800          41.000    22934261.888    95386860.057       -1662.071          44.000  
R10  22919386.558   122173236.201        -348.698          48.000                                                                  
R21  23882072.577   127798231.075        2140.208          51.000    23882066.671    99398444.732        1664.552          48.000  
E24  28554695.954   150055941.732         810.912          48.000    28554693.769   114977967.291         621.359          50.000  
S31  42240737.557   221976662.050        -736.247          43.000  
G29  24133967.553   126825186.240        -468.120          48.000    24133961.861    98824958.153        -364.689          45.000  
G25  24045480.773   126360067.837        -405.401          48.000    24045477.941    98462492.491        -315.831          47.000  
G20  27572163.532   144892714.070         323.730          33.000                                                                  
G18  27112669.901   142478184.133        3014.314          42.000    27112671.672   111022089.998        2348.860          45.000  
G05  28337519.006   148914702.924        1399.366          42.000    28337516.573   116037417.784        1090.386          41.000  
E33  27779421.717   145982122.154       -1299.735          47.000    27779419.155   111856623.460        -995.719          47.000  
G11  26985239.458   141808620.861       -3302.612          45.000    26985234.221   110500453.917       -2573.517          43.000  
E05                                                                  29264692.336                       -1400.059          30.000  
> 2024 04 09 03 22 00.0120000  0 26                     
S33  43199474.832   227014902.006        -737.591          44.000  
E26  31007163.432   162943770.918       -3266.893          34.000    31007161.464   124853114.574       -2502.980          45.000  
G24  27514813.920   144591279.055       -4436.365          43.000    27514820.503   112668574.514       -3456.909          40.000  
E09  30886045.973   162307309.147       -3175.376          35.000                                                                  
R11  25035630.147   133782953.447        2526.454          48.000    25035624.262   104053266.372        1965.096          47.000  
R09  24666069.712   131715736.435       -3227.506          51.000    24666065.318   102445660.403       -2510.196          49.000  
G28  25426125.154   133615286.300        1297.255          48.000    25426120.225   104115717.533        1010.713          46.000  
G32  27997370.861   147127074.600       -3058.030          45.000    27997370.268   114644465.767       -2382.650          40.000  
E12  28261139.332   148513496.239        1532.711          44.000    28261137.673   113796216.115        1174.379          48.000  
E10  29649989.090   155811935.893        2252.498          45.000    29649991.476   119388478.821        1725.921          49.000  
E31  27236732.105   143130339.751        -920.619          47.000    27236732.787   109671373.408        -705.356          53.000  
G12  25396175.319   133458145.258       -1986.040          47.000    25396169.409   103993544.568       -1547.349          42.000  
R20  22946319.760   122704621.413       -2160.243          42.000    22946317.294    95437001.136       -1680.676          43.000  
R10  22921398.003   122183955.096        -365.804          48.000                                                                  
R21  23870129.096   127734318.830        2120.813          51.000    23870123.134    99348735.243        1649.575          47.000  
E24  28550068.886   150031628.311         810.113          48.000    28550067.182   114959337.549         620.667          50.000  
S31  42244943.027   221998761.298        -736.624          43.000  
G29  24136675.918   126839415.715        -480.275          48.000    24136669.348    98836046.093        -374.411          45.000  
G25  24047817.814   126372350.398        -413.333          49.000    24047815.367    98472063.320        -322.190          46.000  
G20  27570358.237                         309.808          32.000                                                                  
G18  27095474.411   142387820.894        3010.062          41.000    27095475.129   110951677.714        2345.543          45.000  
G05  28329540.719   148872776.229        1395.762          43.000    28329536.936   116004747.769        1087.685          40.000  
E33  27786881.726   146021327.517       -1314.054          47.000    27786879.547   111886663.952       -1006.782          47.000  
G11  27004132.320   141907902.028       -3315.888          44.000    27004126.032   110577815.870       -2584.050          44.000  
E05                                                                  29275147.878                       -1407.919          28.000  
G31                                                                  28031038.122                3       2047.656          25.000  
> 2024 04 09 03 22 30.0120000  0 25                     
S33  43203682.988   227037015.745        -737.253          44.000  
E26  31025829.143   163041862.442       -3273.292          34.000    31025827.449   124928275.637       -2508.018          44.000  
G24  27540148.436   144724408.876       -4439.166          42.000    27540154.384   112772311.430       -3459.204          40.000  
E09  30904171.003   162402563.293       -3175.645          35.000    30904187.048                3      -2434.405          26.000  
R11  25021454.155   133707202.282        2522.973          47.000    25021447.940   103994348.835        1962.435          46.000  
R09  24684238.777   131812759.259       -3241.179          50.000    24684234.662   102521122.600       -2520.933          49.000  
G28  25418761.902   133576590.847        1282.205          48.000    25418756.329   104085565.214         999.199          46.000  
G32  28014840.894   147218880.240       -3062.766          45.000    28014840.465   114716002.423       -2386.564          41.000  
E12  28252416.265   148467654.876        1523.123          44.000    28252414.065   113761090.963        1167.012          48.000  
E10  29637141.773   155744421.802        2248.100          45.000    29637143.497   119336747.460        1722.531          49.000  
E31  27241998.242   143158014.315        -924.678          47.000    27241999.207   109692578.588        -708.529          53.000  
G12  25407531.203   133517819.399       -1992.616          47.000    25407524.646   104040043.890       -1552.643          42.000  
R20  22958504.437   122769775.085       -2183.298          43.000    22958502.145    95487676.195       -1698.510          44.000  
R10  22923504.213   122195180.644        -382.902          48.000                                                                  
R21  23858290.675   127670971.058        2101.918          52.000    23858284.674    99299464.809        1634.830          48.000  
E24  28545445.155   150007329.681         809.618          48.000    28545443.425   114940719.128         620.321          51.000  
S31  42249145.975   222020848.745        -736.018          43.000  
G29  24139450.887   126853996.290        -492.092          50.000    24139444.706    98847407.610        -383.326          46.000  
G25  24050197.590   126384857.276        -420.790          49.000    24050195.059    98481808.923        -327.900          47.000  
G18  27078300.244   142297572.535        3006.126          43.000    27078300.920   110881354.947        2342.523          44.000  
G05  28321579.340   148830939.384        1392.734          44.000    28321574.448   115972147.756        1085.292          38.000  
E33  27794421.474   146060951.318       -1328.107          46.000    27794419.841   111917025.063       -1017.611          47.000  
G11  27023097.995   142007571.110       -3328.921          43.000    27023092.801   110655480.069       -2593.872          44.000  
E05                                                                  29285662.044                       -1415.327          30.000  
G31                                                                  28016025.060                3       2044.378          23.000  
> 2024 04 09 03 23 00.0120000  0 25                     
S33  43207890.719   227059127.951        -736.736          44.000  
E26  31044533.565   163140155.267       -3279.284          34.000    31044531.755   125003590.925       -2512.872          43.000  
G24  27565501.521   144857636.648       -4441.772          42.000    27565506.993   112876124.681       -3461.469          40.000  
E09  30922301.879   162497829.043       -3175.519          37.000    30922312.489   124511369.9381      -2432.012          32.000  
R11  25007300.211   133631565.903        2519.458          48.000    25007293.663   103935520.570        1959.613          46.000  
R09  24702486.937   131910203.721       -3255.039          51.000    24702481.875   102596912.671       -2531.700          48.000  
G28  25411486.083   133538358.115        1266.883          47.000    25411480.806   104055773.470         987.241          46.000  
G32  28032340.365   147310837.496       -3067.598          45.000    28032339.869   114787657.207       -2390.374          41.000  
E12  28243749.936   148422110.519        1513.302          44.000    28243747.070   113726193.350        1159.613          48.000  
E10  29624320.685   155677049.238        2243.608          44.000    29624322.738   119285124.545        1719.057          50.000  
E31  27247290.150   143185822.355        -929.091          47.000    27247290.750   109713886.035        -711.842          53.000  
G12  25418926.134   133577702.192       -1999.406          46.000    25418919.524   104086705.808       -1557.713          41.000  
R20  22970818.464   122835623.929       -2206.246          42.000    22970815.977    95538891.964       -1715.883          43.000  
R10  22925707.246   122206925.482        -399.940          48.000                                                                  
R21  23846560.451   127608200.765        2082.880          52.000    23846555.638    99250643.522        1620.020          48.000  
E24  28540825.647   149983056.838         808.861          48.000    28540824.569   114922120.456         619.781          51.000  
S31  42253348.959   222042934.696        -735.774          43.000  
G29  24142294.544   126868937.495        -503.808          49.000    24142288.854    98859050.126        -392.503          46.000  
G25  24052622.634   126397600.131        -428.694          49.000    24052620.123    98491738.416        -333.997          47.000  
G31  28001095.113                1       2617.463          30.000    28001088.646                        2039.911          28.000  
G18  27061150.949   142207452.359        3002.040          44.000    27061151.217   110811132.010        2339.222          44.000  
G05  28313637.669   148789206.712        1389.682          44.000    28313631.980   115939628.930        1083.116          37.000  
E33  27802043.415   146101003.244       -1342.126          47.000    27802041.431   111947714.211       -1028.369          47.000  
G11  27042139.452   142107636.103       -3341.784          42.000    27042134.538   110733452.750       -2603.892          44.000  
E05                                                                  29296234.296                       -1422.731          30.000  
> 2024 04 09 03 23 30.0120000  0 26                     
S33  43212098.551   227081239.925        -736.907          44.000  
E26  31063273.837   163238649.489       -3285.809          32.000    31063274.973   125079060.528       -2518.198          42.000  
G24  27590872.732   144990961.806       -4446.146          41.000    27590878.686   112980013.792       -3464.102          40.000  
E09  30940433.033   162593106.351       -3176.651          37.000    30940442.803   124584374.236       -2433.685          33.000  
E05  29306869.795                1      -1867.777          27.000    29306868.106   118006607.4921      -1431.081          31.000  
R11  24993168.520   133556049.266        2515.365          49.000    24993161.837   103876785.428        1956.404          47.000  
R09  24720814.399   132008070.780       -3269.339          50.000    24720808.986   102673031.481       -2542.770          48.000  
G28  25404299.168   133500592.249        1251.012          47.000    25404294.563   104026345.526         974.794          46.000  
G32  28049867.568   147402945.242       -3072.630          43.000    28049868.470   114859429.267       -2394.291          42.000  
E12  28235139.969   148376866.590        1503.253          44.000    28235137.407   113691525.973        1151.822          48.000  
E10  29611527.441   155609821.965        2238.682          44.000    29611529.614   119233612.969        1715.187          50.000  
E31  27252608.033   143213766.550        -933.639          48.000    27252608.204   109735297.811        -715.465          52.000  
G12  25430361.247   133637796.181       -2006.587          47.000    25430354.891   104133532.291       -1563.533          41.000  
R20  22983261.907   122902165.970       -2229.308          42.000    22983259.735    95590646.910       -1734.146          43.000  
R10  22928008.398   122219194.055        -417.610          48.000                                                                  
R21  23834938.868   127546012.605        2063.241          52.000    23834934.366    99202274.985        1604.797          49.000  
E24  28536212.203   149958812.287         807.801          48.000    28536211.055   114903543.468         618.995          51.000  
S31  42257551.439   222065020.279        -736.053          44.000  
G29  24145206.672   126884240.097        -516.053          50.000    24145200.605    98870974.243        -402.303          46.000  
G25  24055093.469   126410582.100        -436.664          49.000    24055090.640    98501854.238        -340.209          47.000  
G20  27565394.360   144857153.4391        269.250          34.000                                                                  
G18  27044026.930   142117465.115        2997.338          44.000    27044026.286   110741012.625        2335.539          43.000  
G05  28305716.934   148747582.539        1385.528          44.000    28305712.178   115907194.640        1079.844          39.000  
E33  27809747.042   146141484.564       -1356.491          48.000    27809744.717   111978732.369       -1039.448          47.000  
G11  27061256.572   142208096.491       -3355.096          40.000    27061251.169   110811733.540       -2614.484          44.000  
G31                                                                  27986187.762                        2034.575          29.000  
> 2024 04 09 03 24 00.0120000  0 26                     
S33  43216305.925   227103350.051        -736.807          44.000  
E26  31082056.639   163337340.933       -3292.681          31.000    31082055.519   125154681.254       -2523.096          41.000  
G24  27616261.396   145124379.294       -4448.767          41.000    27616267.669   113083974.891       -3466.461          40.000  
E09  30958562.601   162688390.664       -3176.022          35.000    30958570.724   124657383.886       -2433.852          32.000  
E05  29317559.041                       -1877.627          29.000    29317558.922   118049657.464       -1438.401          31.000  
R11  24979059.585   133480652.563        2511.365          49.000    24979052.734   103818143.557        1953.059          46.000  
R09  24739220.593   132106357.455       -3283.052          50.000    24739215.273   102749476.634       -2553.401          49.000  
G28  25397201.884   133463293.040        1235.699          48.000    25397196.978   103997281.199         963.019          46.000  
G32  28067421.443   147495198.019       -3077.279          43.000    28067424.078   114931314.388       -2397.950          41.000  
E12  28226587.411   148331922.319        1493.332          44.000    28226584.675   113657088.191        1144.228          48.000  
E10  29598761.362   155542739.438        2233.709          43.000    29598763.988   119182212.262        1711.694          50.000  
E31  27257951.728   143241845.251        -938.036          48.000    27257951.377   109756812.656        -718.721          52.000  
G12  25441837.103   133698099.490       -2013.435          47.000    25441831.092   104180521.867       -1568.821          42.000  
R20  22995834.271   122969396.167       -2252.068          43.000    22995832.054    95642937.074       -1751.714          43.000  
R10  22930408.428   122231986.462        -435.102          48.000                                                                  
R21  23823425.919   127484406.432        2044.035          51.000    23823422.079    99154359.128        1589.881          48.000  
E24  28531603.570   149934594.234         806.985          47.000    28531602.443   114884986.780         618.369          51.000  
S31  42261754.223   222087104.348        -735.905          44.000  
G29  24148185.958   126899900.551        -527.723          49.000    24148180.878    98883177.219        -411.238          46.000  
G25  24057608.148   126423802.033        -444.323          49.000    24057606.355    98512155.507        -346.474          47.000  
G20  27563899.812   144849289.688         255.750          34.000                                                                  
G18  27026927.706   142027611.246        2992.999          44.000    27026926.402   110670997.159        2332.004          42.000  
G05  28297817.021   148706067.927        1382.068          43.000    28297813.167   115874845.757        1076.671          40.000  
E33  27817532.255   146182392.124       -1370.426          49.000    27817529.347   112010077.110       -1050.042          47.000  
G11  27080448.185   142308947.286       -3368.180          41.000    27080443.450   110890318.554       -2624.514          45.000  
G31                                                                  27971272.046                1       2030.179          27.000  
> 2024 04 09 03 24 30.0120000  0 26                     
S33  43220512.360   227125456.140        -737.010          44.000  
E26  31100873.780   163436225.914       -3299.016          31.000    31100872.760   125230450.287       -2528.050          40.000  
G24  27641666.755   145257884.742       -4451.528          42.000    27641673.679   113188004.582       -3468.911          40.000  
E09  30976695.612   162783678.284       -3176.051          35.000    30976701.674   124730395.989       -2433.760          33.000  
E05  29328311.167                       -1888.511          28.000    29328308.568   118092941.682       -1447.013          32.000  
R11  24964972.881   133405377.170        2507.031          50.000    24964966.100   103759596.027        1950.178          46.000  
R09  24757703.513   132205061.039       -3297.055          50.000    24757700.379   102826246.046       -2564.387          50.000  
G28  25390192.558   133426460.860        1219.898          48.000    25390188.202   103968580.803         950.649          47.000  
G32  28085003.438   147587591.046       -3082.112          44.000    28085005.397   115003308.773       -2401.447          40.000  
E12  28218092.015   148287277.490        1483.199          45.000    28218089.267   113622879.856        1136.485          48.000  
E10  29586023.534   155475801.609        2228.834          44.000    29586026.128   119130922.451        1707.777          50.000  
E31  27263319.684   143270057.411        -942.721          47.000    27263319.983   109778429.760        -722.361          52.000  
G12  25453351.796   133758611.108       -2020.483          47.000    25453345.646   104227673.800       -1574.316          42.000  
R20  23008534.511   123037309.117       -2275.244          42.000    23008531.942    95695758.254       -1769.485          44.000  
R10  22932906.429   122245302.121        -452.710          48.000                                                                  
R21  23812022.633   127423382.579        2024.365          51.000    23812018.086    99106896.172        1574.598          48.000  
E24  28526999.498   149910401.417         805.833          47.000    28526998.325   114866449.434         617.550          50.000  
S31  42265955.671   222109183.881        -736.127          44.000  
G29  24151233.112   126915915.896        -539.839          48.000    24151228.196    98895656.724        -420.704          46.000  
G25  24060169.006   126437259.437        -452.625          49.000    24060166.669    98522641.799        -352.637          46.000  
G31  27956417.701                        2599.553          28.000    27956433.105                        2026.341          28.000  
G20  27562481.381   144841840.198         241.370          35.000                                                                  
G18  27009853.791   141937891.781        2988.392          44.000    27009851.984   110601086.391        2328.657          41.000  
G05  28289938.455   148664663.551        1378.158          44.000    28289934.913   115842582.685        1074.075          40.000  
E33  27825397.437   146223723.414       -1384.844          49.000    27825394.628   112041746.544       -1061.003          47.000  
G11  27099712.368   142410184.272       -3380.760          40.000    27099708.341   110969204.480       -2634.429          45.000  
> 2024 04 09 03 25 00.0120000  0 26                     
S33  43224719.147   227147562.147        -736.810          44.000  
E26  31119728.457   163535307.403       -3306.021          32.000    31119727.385   125306369.830       -2533.225          39.000  
G24  27667089.358   145391480.207       -4454.808          42.000    27667097.442   113292104.418       -3471.111          41.000  
E09  30994830.014   162878971.768       -3176.444          36.000    30994836.526   124803412.526       -2433.969          36.000  
E05  29339111.789   154178092.7711      -1898.339          28.000    29339116.892                       -1453.832          31.000  
R11  24950909.994   133330230.245        2502.712          50.000    24950903.442   103701148.458        1946.583          47.000  
R09  24776265.803   132304185.297       -3310.965          49.000    24776263.272   102903342.664       -2575.182          49.000  
G28  25383273.792   133390102.530        1203.970          48.000    25383268.967   103940249.632         938.170          46.000  
G32  28102612.962   147680125.834       -3086.782          45.000    28102614.202   115075413.624       -2405.308          39.000  
E12  28209654.401   148242938.116        1472.837          45.000    28209651.745   113588905.568        1128.566          48.000  
E10  29573314.319   155409014.967        2223.746          44.000    29573317.226   119079748.463        1703.840          51.000  
E31  27268714.916   143298408.357        -947.267          47.000    27268714.925   109800153.205        -725.872          52.000  
G12  25464908.092   133819336.599       -2027.748          48.000    25464902.369   104274992.359       -1580.066          43.000  
R20  23021362.616   123105907.532       -2297.892          42.000    23021360.326    95749112.604       -1787.388          43.000  
R10  22935504.646   122259147.640        -470.403          48.000                                                                  
R21  23800727.826   127362948.130        2004.555          51.000    23800724.632    99059891.658        1559.098          48.000  
E24  28522401.603   149886239.067         805.075          47.000    28522400.122   114847935.449         616.736          50.000  
S31  42270157.332   222131264.519        -735.970          44.000  
G29  24154348.721   126932289.621        -551.740          49.000    24154343.299    98908415.483        -429.914          46.000  
G25  24062776.299   126450960.116        -460.742          48.000    24062773.922    98533317.662        -359.095          45.000  
G31  27941596.067                        2593.447          25.000    27941598.186                        2021.239          25.000  
G20  27561141.370   144834811.887         227.386          33.000                                                                  
G18  26992807.672   141848314.239        2983.501          44.000    26992805.311   110531286.198        2324.743          41.000  
G05  28282081.657   148623376.907        1374.190          43.000    28282078.210   115810411.399        1071.039          41.000  
E33  27833343.221   146265482.321       -1399.069          48.000    27833341.052   112073743.641       -1072.119          47.000  
G11  27119050.566   142511809.537       -3393.773          38.000    27119046.500   111048392.978       -2644.721          44.000  
> 2024 04 09 03 25 30.0120000  0 26                     
S33  43228925.231   227169665.581        -736.487          44.000  
E26  31138623.586                       -3312.043          31.000    31138618.651   125382435.953       -2537.884          38.000  
G24  27692528.568   145525159.750       -4457.290          42.000    27692536.233   113396269.796       -3473.035          41.000  
E09  31012965.332   162974265.666       -3176.070          36.000    31012970.980   124876429.460       -2434.013          38.000  
E05  29349982.737                       -1908.076          30.000    29349983.486   118180215.875       -1462.096          33.000  
R11  24936870.651   133255211.683        2498.567          49.000    24936865.161   103642800.712        1943.400          48.000  
R09  24794906.663   132403726.466       -3324.915          48.000    24794903.452   102980763.546       -2585.956          48.000  
G28  25376445.278   133354216.882        1188.413          47.000    25376439.455   103912286.776         926.113          45.000  
G32  28120247.622   147772796.041       -3091.217          45.000    28120249.403   115147623.996       -2408.740          38.000  
E12  28201274.271   148198902.480        1462.888          44.000    28201271.839   113555164.022        1120.979          48.000  
E10  29560633.413   155342378.012        2218.908          43.000    29560636.726   119028689.163        1700.154          51.000  
E31  27274135.607   143326895.572        -951.707          47.000    27274136.084   109821981.081        -729.220          52.000  
G12  25476502.994   133880272.770       -2034.599          47.000    25476497.980   104322475.106       -1585.440          43.000  
R20  23034318.200   123175185.130       -2320.599          43.000    23034314.942    95802995.203       -1804.746          43.000  
R10  22938200.111   122273522.741        -487.951          48.000                                                                  
R21  23789543.427   127303101.798        1985.162          50.000    23789539.761    99013344.561        1543.921          47.000  
E24  28517808.649   149862104.491         804.170          47.000    28517807.265   114829442.742         616.093          50.000  
S31  42274358.527   222153342.321        -735.874          44.000  
G29  24157532.055   126949017.489        -563.431          49.000    24157527.039    98921450.191        -438.818          46.000  
G25  24065429.899   126464902.008        -468.630          48.000    24065427.292    98544181.478        -365.299          46.000  
G31  27926813.888   146756353.5181       2587.671          30.000    27926791.389                3       2016.350          25.000  
G20  27559880.524   144828203.672         213.098          35.000                                                                  
G18  26975788.301   141758878.104        2978.858          43.000    26975785.545   110461596.195        2321.213          41.000  
G05  28274247.450   148582208.515        1370.386          44.000    28274244.179   115778332.264        1067.825          40.000  
E33  27841370.255   146307664.743       -1412.968          48.000    27841368.112   112106065.254       -1082.765          47.000  
G11  27138462.290   142613817.251       -3406.559          40.000    27138458.016   111127879.524       -2654.600          44.000  
> 2024 04 09 03 26 00.0120000  0 26                     
S33  43233131.266   227191768.651        -736.740          44.000  
E26  31157552.977                       -3318.262          29.000    31157545.702   125458647.983       -2542.684          37.000  
G24  27717982.687   145658921.714       -4460.087          42.000    27717990.907   113500499.445       -3475.311          41.000  
E09  31031098.373   163069558.956       -3176.314          34.000    31031105.002   124949445.870       -2433.973          38.000  
E05  29360905.230   154292600.543       -1918.966          32.000    29360908.207   118224201.886       -1469.559          35.000  
R11  24922856.435   133180325.377        2494.011          49.000    24922851.388   103584555.825        1939.758          47.000  
R09  24813625.135   132503684.658       -3338.963          49.000    24813622.285   103058508.738       -2596.877          48.000  
G28  25369707.238   133318806.953        1172.363          48.000    25369700.612   103884694.657         913.377          46.000  
G32  28137907.947   147865599.558       -3095.485          44.000    28137909.741   115219938.174       -2411.982          38.000  
E12  28192953.084   148155173.001        1452.482          45.000    28192949.755   113521657.057        1113.021          47.000  
E10  29547982.153   155275893.448        2213.618          44.000    29547984.642   118977746.637        1696.095          50.000  
E31  27279583.343   143355520.724        -956.607          48.000    27279582.941   109843914.640        -732.884          52.000  
G12  25488139.956   133941421.048       -2041.809          48.000    25488132.634   104370123.132       -1591.174          41.000  
R20  23047400.908   123245138.529       -2343.068          44.000    23047396.244    95857403.397       -1822.208          43.000  
R10  22940996.779   122288429.761        -505.827          48.000                                                                  
R21  23778472.239   127243847.003        1965.251          52.000    23778466.425    98967257.526        1528.545          47.000  
E24  28513221.548   149837999.201         803.008          47.000    28513220.111   114810972.480         615.161          50.000  
S31  42278559.554   222175418.469        -735.928          44.000  
G29  24160783.007   126966099.282        -575.337          49.000    24160777.663    98934760.681        -448.243          46.000  
G25  24068129.437   126479087.246        -476.960          49.000    24068125.847    98555234.896        -371.478          45.000  
G20  27558708.023   144822018.445         198.663          36.000                                                                  
G18  26958795.670   141669587.072        2973.992          42.000    26958793.610   110392019.244        2317.215          42.000  
G05  28266435.600   148541161.262        1366.026          43.000    28266431.945   115746347.501        1064.429          40.000  
E33  27849477.881   146350270.808       -1427.333          49.000    27849475.763   112138711.472       -1093.577          47.000  
G11  27157945.145   142716205.853       -3419.497          39.000    27157941.739   111207662.842       -2664.264          44.000  
G31                                                                  27912061.176                        2011.210          28.000  
> 2024 04 09 03 26 30.4910000  0 26                     
S33  36941764.395   194130412.504        -736.402          44.000  
E26  24881188.695                3      -3323.731          27.000    24881182.476   100186334.211       -2547.775          35.000  
G24  21448234.113   112711169.485       -4462.398          41.000    21448242.597    87826925.819       -3477.369          41.000  
E09  24753892.530   130082612.347       -3176.184          35.000    24753898.778    99673733.013       -2433.420          39.000  
E05  23076427.573   121267446.818       -1927.830          32.000    23076430.512    92919213.940       -1477.664          35.000  
R11  18612992.267    99462323.799        2489.641          49.000    18612986.818    77359443.484        1936.606          47.000  
R09  18537094.212    98987354.725       -3352.692          49.000    18537089.574    76990252.097       -2607.685          48.000  
G28  19067307.431   100199471.338        1156.372          47.000    19067301.347    78077420.148         900.928          46.000  
G32  21860245.186   114876257.862       -3099.836          45.000    21860246.942    89513957.410       -2415.435          38.000  
E12  21888910.961   115027204.688        1442.316          45.000    21888907.281    88137889.166        1105.272          48.000  
E10  23239507.733   122124633.487        2208.685          44.000    23239509.183    93576132.030        1692.270          50.000  
E31  20989505.280   110300939.687        -960.988          47.000    20989505.369    84516378.532        -736.234          52.000  
G12  19204368.929   100919981.418       -2048.694          48.000    19204362.475    78639131.220       -1596.525          43.000  
R20  16765186.111    89651317.823       -2365.440          42.000    16765182.614    69728876.173       -1839.729          43.000  
R10  16648300.277    88744814.806        -523.661          48.000                                                                  
R21  17471686.062    93494957.665        1945.431          52.000    17471678.865    72718121.407        1513.020          47.000  
E24  22212921.372   116729697.362         802.380          47.000    22212919.784    89442273.683         614.801          50.000  
S31  35987187.572   189114035.299        -735.692          44.000  
G29  17868514.162    93900002.069        -586.903          50.000    17868508.582    73168970.644        -457.301          46.000  
G25  17775278.782    93409934.242        -484.981          49.000    17775275.086    72787063.730        -377.740          44.000  
G20  21261950.893   111732339.979         185.278          37.000                                                                  
G18  20645906.378   108495134.338        2968.841          43.000    20645905.452    84541796.805        2313.397          42.000  
G05  21962876.203   115415732.088        1362.028          43.000    21962871.887    89934324.891        1061.251          39.000  
E33  21562160.820   113310195.077       -1441.265          49.000    21562158.285    86822289.825       -1104.418          47.000  
G11  20882185.107   109736863.402       -3431.623          41.000    20882181.418    85509473.913       -2673.876          44.000  
G31                                                                  21601469.355                        2006.055          26.000  
> 2024 04 09 03 27 00.4910000  0 26                     
S33  36945968.138   194152503.870        -736.265          44.000  
E26  24900184.367                       -3329.886          24.000    24900180.974   100262831.871       -2552.252          34.000  
G24  21473717.130   112845084.116       -4465.258          41.000    21473726.449    87931274.424       -3479.419          41.000  
E09  24772022.181   130177892.575       -3176.261          32.000    24772030.909    99746739.375       -2433.496          40.000  
E05  23087468.105                       -1938.549          30.000    23087468.559    92963660.858       -1485.340          34.000  
R11  18599028.997    99387707.046        2484.994          49.000    18599023.092    77301408.266        1932.699          46.000  
R09  18555969.306    99088145.353       -3366.688          49.000    18555965.264    77068644.803       -2618.417          48.000  
G28  19060751.454   100165021.557        1140.182          47.000    19060746.565    78050576.187         888.407          46.000  
G32  21877953.128   114969315.214       -3103.850          45.000    21877956.146    89586469.397       -2418.262          37.000  
E12  21880706.495   114984091.477        1432.039          45.000    21880702.943    88104854.406        1097.221          47.000  
E10  23226914.581   122058456.049        2203.314          45.000    23226915.993    93525424.813        1688.365          50.000  
E31  20995004.480   110329839.583        -965.649          47.000    20995004.695    84538522.608        -739.854          52.000  
G12  19216086.103   100981554.310       -2056.034          48.000    19216079.881    78687110.074       -1602.158          43.000  
R20  16778519.003    89722620.848       -2387.823          42.000    16778516.673    69784334.100       -1857.333          44.000  
R10  16651298.264    88760795.254        -541.633          49.000                                                                  
R21  17460834.638    93436896.523        1925.336          51.000    17460829.575    72672962.791        1497.569          48.000  
E24  22208345.036   116705647.319         801.260          47.000    22208343.296    89423845.753         613.880          50.000  
S31  35991386.838   189136102.376        -735.816          43.000  
G29  17871898.616    93917788.474        -598.788          49.000    17871892.757    73182830.176        -466.357          46.000  
G25  17778070.685    93424608.353        -493.461          48.000    17778067.395    72798498.097        -384.525          45.000  
G20  21260934.984   111727007.911         170.917          35.000                                                                  
G18  20628971.190   108406139.211        2963.832          44.000    20628969.834    84472450.384        2309.512          42.000  
G05  21955111.872   115374932.326        1357.796          43.000    21955108.371    89902533.023        1057.792          40.000  
E33  21570429.461   113353647.473       -1455.381          48.000    21570426.775    86855584.507       -1115.042          47.000  
G11  20901813.541   109840006.747       -3444.135          41.000    20901809.407    85589845.359       -2683.968          44.000  
G31                                                                  21586751.255                3       2000.679          25.000  
> 2024 04 09 03 27 30.4910000  0 26                     
S33  36950172.235   194174596.081        -736.348          44.000  
G24  21499214.675   112979073.697       -4467.308          41.000    21499223.790    88035681.457       -3481.313          41.000  
E09  24790153.922   130273166.387       -3175.660          32.000    24790161.368    99819740.853       -2433.239          40.000  
R11  18585092.022    99313231.642        2480.164          49.000    18585085.570    77243482.947        1929.114          47.000  
R09  18574922.521    99189351.090       -3380.503          51.000    18574919.070    77147360.330       -2629.172          50.000  
G28  19054287.147   100131054.233        1124.269          46.000    19054282.690    78024108.117         876.197          47.000  
G32  21895685.001   115062497.036       -3107.903          43.000    21895689.591    89659078.446       -2422.200          38.000  
E12  21872561.757   114941289.298        1421.465          45.000    21872558.087    88072057.964        1089.283          47.000  
E10  23214352.238   121992436.814        2198.036          46.000    23214352.542    93474838.828        1684.174          50.000  
E31  21000530.794   110358880.005        -970.474          47.000    21000530.916    84560774.357        -743.530          52.000  
G12  19227843.571   101043341.765       -2063.066          48.000    19227837.916    78735256.162       -1607.577          44.000  
R20  16791978.624    89794590.801       -2410.160          43.000    16791976.341    69840310.724       -1874.478          44.000  
R10  16654397.121    88777314.060        -559.603          48.000                                                                  
R21  17450095.540    93379433.741        1905.518          51.000    17450091.165    72628269.590        1482.011          48.000  
E24  22203774.517   116681628.780         800.062          47.000    22203772.979    89405441.951         613.048          51.000  
S31  35995585.559   189158168.432        -735.519          43.000  
G29  17875349.912    93935925.664        -610.371          49.000    17875343.899    73196963.069        -475.495          45.000  
G25  17780909.816    93439529.935        -501.477          48.000    17780906.690    72810125.307        -390.674          44.000  
G20  21260002.015   111722105.118         156.415          37.000                                                                  
G18  20612065.364   108317298.221        2958.733          44.000    20612063.852    84403224.038        2305.499          42.000  
G05  21947372.151   115334264.012        1353.421          44.000    21947369.694    89870843.528        1054.702          40.000  
E33  21578778.105   113397521.485       -1469.574          48.000    21578775.856    86889202.270       -1125.984          47.000  
G11  20921512.368   109943523.785       -3456.659          41.000    20921507.449    85670507.943       -2693.629          44.000  
E26                                                                  24919214.574   100339471.567       -2557.238          32.000  
E05                                                                  23098563.837    93008337.075       -1493.266          32.000  
G31                                                                  21572120.284                        1996.136          27.000  
> 2024 04 09 03 28 00.4910000  0 26                     
S33  36954374.685   194196679.671        -736.185          44.000  
G24  21524725.327   113113129.058       -4469.942          41.000    21524734.077    88140139.724       -3483.037          40.000  
E09  24808281.311   130368425.119       -3175.167          33.000    24808289.773    99892730.791       -2433.032          41.000  
R11  18571180.243    99238893.796        2475.554          50.000    18571174.346    77185664.646        1925.188          47.000  
R09  18593951.472    99290963.572       -3394.036          50.000    18593946.822    77226392.249       -2639.777          49.000  
G28  19047914.161   100097564.832        1108.042          46.000    19047909.656    77998012.493         863.449          47.000  
G32  21913439.147   115155793.687       -3111.978          43.000    21913443.803    89731776.912       -2425.210          37.000  
E12  21864475.065   114898792.968        1411.159          46.000    21864471.293    88039495.875        1081.370          48.000  
E10  23201817.977   121926570.907        2192.861          46.000    23201818.689    93424370.305        1680.195          50.000  
E31  21006081.736   110388055.090        -974.808          47.000    21006082.650    84583129.296        -747.038          51.000  
G12  19239640.528   101105337.426       -2070.207          47.000    19239636.259    78783564.444       -1613.272          44.000  
R20  16805560.379    89867219.036       -2432.135          43.000    16805558.249    69896799.374       -1891.619          44.000  
R10  16657595.756    88794366.990        -577.763          48.000                                                                  
R21  17439468.119    93322564.646        1885.612          50.000    17439464.145    72584038.119        1466.444          48.000  
E24  22199208.533   116657635.709         799.163          47.000    22199207.389    89387057.662         612.345          51.000  
S31  35999783.008   189180225.560        -735.306          43.000  
G29  17878866.743    93954406.104        -621.987          49.000    17878860.738    73211363.427        -484.664          45.000  
G25  17783795.523    93454693.630        -509.737          48.000    17783792.204    72821941.175        -397.163          45.000  
G20  21259151.219   111717627.214         141.925          37.000                                                                  
G18  20595188.022   108228607.605        2953.604          44.000    20595186.743    84334114.819        2301.692          43.000  
G05  21939657.827   115293722.402        1348.725          45.000    21939654.539    89839252.783        1051.033          39.000  
E33  21587205.562   113441809.662       -1483.277          48.000    21587203.760    86923137.372       -1136.641          48.000  
G11  20941281.115   110047405.229       -3469.064          42.000    20941274.681    85751454.509       -2703.251          42.000  
E26                                                                  24938281.343   100416246.709       -2561.622          30.000  
E05                                                                  23109714.499    93053236.268       -1500.356          33.000  
G31                                                                  21557521.018                        1991.137          28.000  
> 2024 04 09 03 28 30.4910000  0 27                     
S33  36958576.861   194218762.649        -736.113          44.000  
G24  21550249.244   113247254.363       -4472.060          40.000    21550256.853    88244652.501       -3484.768          40.000  
E09  24826401.647                       -3174.445          30.000    24826415.647    99965712.796       -2432.525          41.000  
R11  18557296.116    99164703.737        2470.446          49.000    18557290.072    77127961.296        1921.647          47.000  
R09  18613056.045    99392989.255       -3407.807          49.000    18613052.639    77305745.508       -2650.437          49.000  
G28  19041633.825   100064562.185        1092.005          46.000    19041628.897    77972296.147         850.866          47.000  
G32  21931216.013   115249208.855       -3115.677          43.000    21931220.159    89804567.697       -2427.588          36.000  
E12  21856447.954   114856610.747        1400.778          45.000    21856444.589    88007174.467        1073.324          48.000  
E10  23189314.588   121860866.959        2187.455          46.000    23189315.763    93374025.880        1676.094          50.000  
E31  21011660.585   110417372.401        -979.660          46.000    21011661.661    84605593.186        -750.551          52.000  
G12  19251479.330   101167548.827       -2077.197          47.000    19251473.913    78832040.878       -1619.007          44.000  
R20  16819266.407    89940508.243       -2453.897          44.000    16819263.565    69953802.111       -1908.755          44.000  
R10  16660896.448    88811962.596        -595.544          48.000                                                                  
R21  17428955.237    93266298.368        1865.493          52.000    17428950.035    72540275.501        1450.875          48.000  
E24  22194649.541   116633675.572         798.118          47.000    22194648.039    89368698.599         611.605          51.000  
S31  36003980.195   189202282.309        -735.176          43.000  
G29  17882449.486    93973235.227        -633.418          49.000    17882444.116    73226035.493        -493.451          46.000  
G25  17786729.704    93470107.433        -517.976          49.000    17786725.758    72833951.928        -403.454          46.000  
G31  21542977.936                3       2549.731          25.000    21542937.744    88214689.1901       1986.091          29.000  
G20  21258379.771   111713582.758         126.971          36.000                                                                  
G18  20578341.523   108140076.988        2948.311          45.000    20578340.623    84265130.324        2297.461          45.000  
G05  21931969.977   115253317.874        1344.478          46.000    21931965.126    89807768.835        1047.422          38.000  
E33  21595713.594   113486517.934       -1497.198          49.000    21595711.349    86957394.354       -1147.259          48.000  
G11  20961120.027   110151655.327       -3481.234          41.000    20961112.830    85832688.330       -2712.507          42.000  
E26                                                                  24957382.767                       -2565.772          29.000  
E05                                                                  23120921.716    93098362.430       -1507.572          34.000  
R22                                                                  21647341.131                3       2864.109          12.000  
> 2024 04 09 03 29 00.4910000  0 26                     
S33  36962777.297   194240838.037        -735.693          44.000  
G24  21575784.624   113381441.632       -4473.730          39.000    21575792.191    88349213.629       -3486.147          39.000  
E09  24844527.190   130558904.383       -3174.619          31.000    24844538.251   100038681.288       -2432.194          41.000  
R11  18543439.842    99090658.758        2465.667          49.000    18543433.725    77070370.789        1917.788          47.000  
R09  18632238.800    99495421.508       -3421.052          49.000    18632236.009    77385414.979       -2660.907          50.000  
G28  19035445.785   100032042.989        1076.066          46.000    19035440.664    77946956.535         838.346          47.000  
G32  21949013.810   115342734.154       -3119.195          42.000    21949017.526    89877444.305       -2430.480          36.000  
E12  21848479.618   114814738.722        1390.681          45.000    21848476.814    87975090.759        1065.414          48.000  
E10  23176841.182   121795321.349        2182.217          46.000    23176842.692    93323802.785        1672.145          50.000  
E31  21017266.245   110446827.305        -984.029          47.000    21017266.889    84628162.529        -754.020          52.000  
G12  19263358.130   101229971.295       -2084.245          47.000    19263352.595    78880681.745       -1624.253          44.000  
R20  16833094.375    90014450.412       -2475.520          44.000    16833091.041    70011312.681       -1925.345          44.000  
R10  16664298.243    88830096.926        -613.427          48.000                                                                  
R21  17418552.168    93210631.458        1845.547          52.000    17418547.044    72496979.046        1435.411          47.000  
E24  22190095.874   116609743.574         797.424          47.000    22190093.878    89350361.094         610.982          51.000  
S31  36008176.195   189224332.513        -734.701          43.000  
G29  17886097.491    93992406.492        -644.703          49.000    17886092.913    73240974.163        -502.307          46.000  
G25  17789709.450    93485767.203        -526.019          49.000    17789706.158    72846154.349        -409.956          46.000  
G31  21528421.960                2       2542.447          28.000    21528412.299                        1981.467          30.000  
G20  21257691.889   111709968.366         113.214          37.000                                                                  
G18  20561524.647   108051703.852        2943.169          45.000    20561523.915    84196268.527        2293.489          46.000  
G05  21924306.121   115213047.282        1340.093          45.000    21924300.708    89776389.240        1044.212          37.000  
E33  21604300.933   113531640.085       -1510.918          49.000    21604298.096    86991968.476       -1157.779          48.000  
G11  20981026.367   110256266.175       -3492.740          39.000    20981019.752    85914203.241       -2721.963          42.000  
E26                                                                  24976517.639                       -2570.291          27.000  
E05                                                                  23132184.129    93143710.390       -1515.780          32.000  
> 2024 04 09 03 29 30.4910000  0 26                     
S33  36966977.889   194262912.430        -736.177          44.000  
G24  21601332.155   113515693.218       -4476.876          40.000    21601339.658    88453824.762       -3487.959          39.000  
E09  24862640.827                       -3174.294          29.000    24862657.306   100111638.378       -2431.927          39.000  
R11  18529612.280    99016766.985        2460.234          50.000    18529605.975    77012899.432        1913.611          47.000  
R09  18651497.754    99598264.475       -3435.327          49.000    18651494.725    77465403.894       -2671.884          50.000  
G28  19029350.925   100000014.097        1059.082          46.000    19029346.533    77921998.949         825.350          47.000  
G32  21966832.730   115436371.368       -3123.638          41.000    21966836.849    89950408.133       -2434.179          34.000  
E12  21840571.627   114773183.142        1379.570          45.000    21840568.991    87943249.501        1056.998          49.000  
E10  23164399.083   121729940.693        2176.288          46.000    23164400.923    93273706.081        1667.611          50.000  
E31  21022898.622   110476425.400        -989.273          47.000    21022899.317    84650841.587        -758.115          52.000  
G12  19275277.538   101292609.856       -2091.726          46.000    19275273.121    78929490.999       -1630.095          45.000  
R20  16847044.131    90089047.418       -2497.780          44.000    16847040.778    70069332.599       -1942.819          43.000  
R10  16667802.962    88848776.829        -632.011          48.000                                                                  
R21  17408263.344    93155570.978        1824.838          52.000    17408256.756    72454154.241        1419.384          47.000  
E24  22185548.549   116585845.237         795.752          47.000    22185546.123    89332049.393         609.664          51.000  
S31  36012371.682   189246380.881        -735.340          43.000  
G29  17889811.212    94011923.498        -656.647          49.000    17889807.200    73256182.232        -511.683          47.000  
G25  17792737.087    93501679.020        -535.011          49.000    17792734.685    72858553.169        -416.895          46.000  
G31  21513926.252                1       2534.520          30.000    21513912.902                        1975.888          26.000  
G20  21257087.353   111706790.628          98.108          35.000                                                                  
G18  20544738.836   107963495.868        2937.102          45.000    20544738.096    84127535.405        2288.684          45.000  
G05  21916669.509   115172917.687        1334.987          44.000    21916663.395    89745119.553        1040.243          35.000  
E33  21612967.120   113577180.065       -1525.320          50.000    21612964.122    87026862.744       -1168.649          49.000  
G11  21001001.358   110361239.970       -3505.169          40.000    21000995.803    85996000.990       -2731.519          42.000  
E26                                                                  24995685.205                3      -2576.355          26.000  
E05                                                                  23143501.995                       -1523.236          28.000  
