     3.00           OBSERVATION DATA    M: Mixed            RINEX VERSION / TYPE
CONVBIN 2.4.3                           20240409 071442 UTC PGM / RUN BY / DATE 
format: u-blox UBX                                          COMMENT             
log: data/2024-04-09/20240409070000.ubx                     COMMENT             
AQUI00CHL                                                   MARKER NAME         
                                                            MARKER NUMBER       
                                                            MARKER TYPE         
                                                            OBSERVER / AGENCY   
UNKNOWN             UBLOX-ZED-F9P                           REC # / TYPE / VERS 
UNKNOWN             TWIVSP6037L                             ANT # / TYPE        
  1713381.0000 -5047934.0000 -3490983.0000                  APPROX POSITION XYZ 
        0.0000        0.0000        0.0000                  ANTENNA: DELTA H/E/N
G    8 C1C L1C D1C S1C C2L L2L D2L S2L                      SYS / # / OBS TYPES 
R    8 C1C L1C D1C S1C C2C L2C D2C S2C                      SYS / # / OBS TYPES 
E    8 C1C L1C D1C S1C C7Q L7Q D7Q S7Q                      SYS / # / OBS TYPES 
S    4 C1C L1C D1C S1C                                      SYS / # / OBS TYPES 
  2024    04    09    07    00   00.4960000     GPS         TIME OF FIRST OBS   
  2024    04    09    07    14   30.4970000     GPS         TIME OF LAST OBS    
                                                            END OF HEADER       
> 2024 04 09 07 00 00.4960000  0 25                     
S33  38653744.957   203126944.1691       -671.890          44.000  
G23  19661359.838   103321311.2881        538.086          45.000    19661354.846    80510168.9441        419.238          50.000  
E25  22811606.720   119875776.4211        335.853          49.000    22811607.226    91852908.8051        257.281          52.000  
G26  19236099.496   101086373.8571       -903.951          51.000    19236094.187    78768607.8451       -704.354          43.000  
G27  22235944.827   116850716.0601       1717.712          40.000    22235943.343    91052491.3721       1338.304          40.000  
R11  21197407.499   113272638.2101      -4980.730          49.000    21197404.424    88100793.9831      -3873.887          49.000  
R22  19008717.068   101470171.4131      -1458.023          50.000    19008712.228    78921149.0181      -1133.980          51.000  
R23  20644543.383   110434401.5751        919.531          49.000                                                                  
R12  18697817.346    99880336.3291      -1670.609          52.000    18697812.490    77684776.1901      -1299.418          49.000  
R06  21325216.890   113795429.9031       -178.353          40.000                                                                  
E12  24317931.916   127791817.0171      -2659.241          40.000    24317929.203    97918569.4021      -2037.527          47.000  
E10  22897692.287   120328421.6101      -1869.183          49.000    22897690.737    92199824.7201      -1432.265          51.000  
E31  26794102.280   140804257.4811      -3654.692          29.000    26794103.858   107889039.9271      -2800.370          34.000  
G16  20679602.468   108672065.9031       1703.432          48.000                                                                  
R13  20463144.441   109271971.3361       1822.847          38.000    20463141.463    84989381.7281       1417.708          38.000  
R07  21522174.620   115209933.4981       2576.570          50.000    21522169.829    89607700.5221       2003.967          46.000  
R21  21424197.075   114645647.3701      -3207.357          47.000    21424189.445    89168659.9111      -2494.581          41.000  
E24  23121033.963   121501857.8471      -2426.632          47.000    23121031.997    93098864.3591      -1859.427          52.000  
S31  37698305.805   198106030.0841       -671.975          43.000  
G29  22731066.253   119452885.8071      -2839.746          41.000    22731063.856    93080306.8241      -2212.775          41.000  
G31  22711185.108   119348054.3791      -3302.148          38.000    22711180.239    92998504.3091      -2573.224          37.000  
E36  25085997.308   131827850.9281       1191.225          39.000    25085999.670   101010998.2211        912.553          46.000  
G18  20366096.627   107024786.2351      -2818.097          48.000    20366090.980    83396088.7761      -2195.895          48.000  
G10  21073072.209   110739809.0731       2747.785          47.000    21073069.102    86290765.0811       2141.133          44.000  
E11  21500761.428   112987484.8721       -643.812          45.000    21500756.643    86574932.5561       -493.225          48.000  
> 2024 04 09 07 00 30.4960000  0 25                     
S33  38657578.483   203147089.087        -671.395          44.000  
G23  19658342.727   103305458.299         518.744          45.000    19658338.530    80497815.990         404.083          50.000  
E25  22809721.568   119865870.655         324.401          48.000    22809722.295    91845318.662         248.545          52.000  
G26  19241314.045   101113778.404        -923.091          51.000    19241310.105    78789962.017        -719.264          44.000  
G27  22226135.601   116799172.589        1718.135          40.000    22226134.408    91012327.594        1339.346          40.000  
R11  21225386.855   113422151.623       -4987.002          49.000    21225383.794    88217082.102       -3878.831          49.000  
R22  19016928.780   101514006.700       -1464.548          51.000    19016924.173    78955243.111       -1139.072          51.000  
R23  20639405.552   110406918.329         912.563          48.000                                                                  
R12  18707272.963    99930849.864       -1697.071          51.000    18707268.527    77724064.503       -1319.958          49.000  
R06  21326282.801   113801127.228        -201.317          37.000                                                                  
E12  24333115.449   127871608.728       -2660.570          40.000    24333113.091    97979708.516       -2038.631          47.000  
E10  22908376.630   120384568.296       -1874.046          49.000    22908375.227    92242846.207       -1435.962          51.000  
G16  20669911.875   108621141.654        1691.312          48.000                                                                  
R13  20452960.614   109217592.793        1802.327          38.000    20452956.780    84947087.316        1401.772          37.000  
R07  21507760.084   115132769.551        2567.537          51.000    21507753.491    89547684.170        1997.045          45.000  
R21  21442171.470   114741841.328       -3205.817          45.000    21442165.085    89243477.433       -2493.478          43.000  
E24  23134916.504   121574812.729       -2437.099          47.000    23134914.377    93154764.842       -1867.511          51.000  
S31  37702140.749   198126182.039        -671.614          43.000  
G29  22747288.403   119538131.321       -2843.335          42.000    22747284.840    93146731.891       -2215.717          39.000  
G31  22730046.112   119447172.153       -3305.469          37.000    22730041.529    93075738.784       -2575.446          36.000  
E36  25079213.935   131792209.885        1185.068          39.000    25079217.051   100983688.904         907.907          46.000  
G18  20382202.681   107109425.687       -2824.800          48.000    20382197.760    83462041.595       -2201.163          49.000  
G10  21057410.728   110657510.560        2738.540          47.000    21057408.671    86226636.417        2133.998          44.000  
E11  21504456.892   113006908.071        -651.464          44.000    21504452.753    86589815.274        -499.031          48.000  
E31                                                                  26814973.376   107973071.299       -2801.611          32.000  
> 2024 04 09 07 01 00.4960000  0 25                     
S33  38661411.551   203167231.138        -671.154          44.000  
G23  19655437.775   103290192.488         499.377          45.000    19655433.037    80485920.578         389.069          49.000  
E25  22807903.521   119856316.083         312.974          49.000    22807904.262    91837997.618         239.665          52.000  
G26  19246640.535   101141768.454        -942.425          51.000    19246636.634    78811772.440        -734.350          45.000  
G27  22216325.700   116747614.856        1718.827          41.000    22216323.130    90972152.751        1339.427          40.000  
R11  21253402.339   113571855.655       -4993.063          49.000    21253398.798    88333518.478       -3883.403          49.000  
R22  19025178.750   101558042.413       -1470.928          52.000    19025173.689    78989493.123       -1144.055          50.000  
R23  20634308.482   110379652.759         905.604          47.000                                                                  
R12  18716877.802    99982161.989       -1723.420          51.000    18716874.410    77763973.916       -1340.481          49.000  
R06  21327483.830   113807531.456        -225.197          39.000                                                                  
E12  24348309.466   127951453.244       -2661.958          40.000    24348306.938    98040888.060       -2039.793          47.000  
E10  22919089.284   120440866.478       -1878.847          49.000    22919088.643    92285983.772       -1439.595          52.000  
G16  20660291.070   108570588.814        1679.183          48.000                                                                  
R13  20442895.663   109163846.709        1781.358          40.000    20442890.769    84905284.843        1385.248          37.000  
R07  21493398.409   115055886.576        2558.313          51.000    21493390.129    89487886.320        1989.748          44.000  
R21  21460141.385   114837996.528       -3204.340          47.000    21460134.742    89318264.776       -2492.430          43.000  
E24  23148861.294   121648091.591       -2447.771          48.000    23148858.625    93210913.575       -1875.577          51.000  
S31  37705974.929   198146330.666        -671.313          43.000  
G29  22763531.529   119623493.802       -2847.101          41.000    22763527.930    93213248.088       -2218.378          38.000  
G31  22748925.619   119546389.962       -3308.783          37.000    22748922.698    93153051.274       -2578.094          37.000  
E36  25072467.651   131756757.172        1178.940          40.000    25072470.829   100956523.826         903.276          46.000  
G18  20398347.800   107194270.602       -2831.311          48.000    20398343.491    83528154.527       -2206.214          49.000  
G10  21041804.234   110575499.325        2729.203          47.000    21041802.369    86162731.617        2126.567          44.000  
E11  21508196.255   113026557.746        -658.534          44.000    21508191.915    86604871.531        -504.648          48.000  
E31                                                                  26835853.735                       -2803.651          26.000  
> 2024 04 09 07 01 30.4960000  0 25                     
S33  38665242.900   203187365.756        -671.317          44.000  
G23  19652643.352   103275510.765         479.449          45.000    19652639.445    80474480.291         373.608          49.000  
E25  22806152.466   119847109.412         300.799          49.000    22806152.258    91830943.125         230.592          52.000  
G26  19252077.238   101170339.582        -962.153          50.000    19252073.625    78834035.645        -749.831          45.000  
G27  22206512.297   116696038.836        1719.452          42.000    22206508.363    90931963.678        1339.795          39.000  
R11  21281451.673   113721741.884       -4999.390          49.000    21281447.969    88450096.534       -3888.403          48.000  
R22  19033464.225   101602272.527       -1477.692          52.000    19033458.837    79023894.318       -1149.273          50.000  
R23  20629251.788   110352599.337         897.982          48.000                                                                  
R12  18726632.690   100034266.497       -1750.170          52.000    18726628.912    77804499.606       -1361.284          50.000  
R06  21328816.684   113814640.069        -249.083          38.000                                                                  
E12  24363512.333   128031344.900       -2664.216          40.000    24363509.883    98102103.734       -2041.331          47.000  
E10  22929830.266   120497310.397       -1884.012          49.000    22929829.380    92329233.002       -1443.627          51.000  
G16  20650741.528   108520405.794        1666.315          48.000                                                                  
R13  20432949.568   109110731.755        1760.025          40.000    20432944.745    84863973.213        1369.278          38.000  
R07  21479088.184   114979284.523        2548.572          51.000    21479080.835    89428306.999        1982.333          46.000  
R21  21478101.422   114934107.684       -3203.024          45.000    21478095.344    89393017.876       -2491.158          42.000  
E24  23162866.610   121721689.145       -2458.731          48.000    23162864.142    93267306.493       -1883.917          51.000  
S31  37709807.730   198166472.749        -671.444          43.000  
G29  22779797.415   119708968.700       -2851.117          42.000    22779793.476    93279851.888       -2221.826          38.000  
G31  22767823.462   119645700.401       -3311.993          36.000    22767821.019    93230435.795       -2580.774          35.000  
E36  25065756.809   131721488.175        1172.340          41.000    25065759.534   100929499.552         898.359          46.000  
G18  20414531.466   107279314.481       -2838.342          48.000    20414527.209    83594422.458       -2211.616          50.000  
G10  21026252.630   110493774.057        2719.269          48.000    21026249.829    86099049.604        2118.870          43.000  
E11  21511976.800   113046428.444        -666.015          44.000    21511973.299    86620097.149        -510.394          48.000  
E31                                                                  26856745.818                3      -2804.549          25.000  
> 2024 04 09 07 02 00.4960000  0 25                     
S33  38669074.594   203207501.719        -671.227          44.000  
G23  19649964.084   103261423.735         459.479          45.000    19649959.047    80463503.376         358.008          50.000  
E25  22804469.046   119838260.980         288.746          49.000    22804468.548    91824163.162         221.256          52.000  
G26  19257626.772   101199501.035        -982.161          50.000    19257622.873    78856758.843        -765.156          44.000  
G27  22196696.163   116644454.462        1719.414          42.000    22196692.746    90891768.121        1339.820          39.000  
R11  21309536.306   113871815.277       -5005.752          50.000    21309531.946    88566820.183       -3893.374          47.000  
R22  19041788.061   101646704.778       -1484.740          52.000    19041781.963    79058452.764       -1154.719          50.000  
R23  20624235.396   110325766.327         890.501          48.000                                                                  
R12  18736536.928   100087171.202       -1777.013          52.000    18736533.151    77845647.694       -1382.222          50.000  
R06  21330283.269   113822463.655        -273.211          39.000                                                                  
E12  24378725.135   128111291.750       -2666.008          40.000    24378723.693    98163361.723       -2042.808          48.000  
E10  22940600.702   120553907.949       -1889.375          48.000    22940599.528    92372599.970       -1447.711          52.000  
G16  20641264.781   108470603.775        1653.420          48.000                                                                  
R13  20423122.922   109058260.643        1738.092          41.000    20423119.287    84823162.333        1352.099          38.000  
R07  21464833.635   114902977.183        2538.356          51.000    21464825.206    89368956.888        1974.277          46.000  
R21  21496055.638   115030183.652       -3202.276          46.000    21496049.419    89467743.625       -2490.560          43.000  
E24  23176933.718   121795613.803       -2469.885          47.000    23176931.796    93323950.057       -1892.501          52.000  
S31  37713640.731   198186615.778        -671.565          43.000  
G29  22796087.337   119794566.078       -2855.502          44.000    22796082.581    93346551.100       -2225.251          38.000  
G31  22786741.431   119745109.240       -3315.094          35.000    22786737.552    93307897.125       -2583.291          35.000  
E36  25059082.481   131686412.084        1165.717          42.000    25059084.385   100902623.097         893.313          46.000  
G18  20430754.306   107364564.509       -2845.505          48.000    20430749.592    83660851.037       -2217.107          49.000  
G10  21010758.338   110412347.180        2709.105          49.000    21010754.939    86035600.114        2110.977          43.000  
E11  21515802.463   113066528.387        -674.131          44.000    21515798.177    86635498.404        -516.393          48.000  
E31                                                                  26877651.766                3      -2805.406          23.000  
> 2024 04 09 07 02 30.4960000  0 25                     
S33  38672906.151   203227637.241        -671.002          44.000  
G23  19647395.140   103247930.496         439.978          43.000    19647391.621    80452989.188         342.804          50.000  
E25  22802853.112   119829769.821         277.174          49.000    22802852.749    91817656.948         212.368          52.000  
G26  19263287.682   101229250.650       -1001.307          50.000    19263283.909    78879940.377        -780.287          44.000  
G27  22186877.601   116592860.109        1720.068          43.000    22186875.468    90851564.758        1340.640          40.000  
R11  21337654.228   114022069.316       -5011.439          50.000    21337649.853    88683684.357       -3897.766          47.000  
R22  19050148.287   101691335.549       -1490.896          51.000    19050143.372    79093165.565       -1159.567          50.000  
R23  20619259.708   110299151.070         883.628          48.000                                                                  
R12  18746589.198   100140872.327       -1803.178          52.000    18746585.844    77887415.231       -1402.482          50.000  
R06  21331883.095   113831001.529        -296.349          38.000                                                                  
E12  24393950.221   128191290.456       -2667.568          41.000    24393946.870    98224659.432       -2043.830          48.000  
E10  22951399.605   120610655.680       -1894.054          49.000    22951398.505    92416081.997       -1451.248          52.000  
G16  20631860.909   108421183.663        1641.004          48.000                                                                  
R13  20413417.173   109006434.155        1716.793          41.000    20413413.635    84782852.845        1335.148          38.000  
R07  21450634.357   114826967.745        2528.680          50.000    21450627.618    89309838.470        1966.832          47.000  
R21  21514002.406   115126221.554       -3200.635          45.000    21513996.156    89542439.798       -2489.318          43.000  
E24  23191062.828   121869862.577       -2480.237          47.000    23191060.898    93380841.939       -1900.435          52.000  
S31  37717473.787   198206759.049        -671.390          43.000  
G29  22812399.120   119880283.618       -2859.208          44.000    22812393.993    93413343.955       -2227.466          38.000  
G31  22805676.211   119844611.328       -3317.886          37.000    22805672.451    93385431.097       -2585.411          36.000  
E36  25052443.952   131651526.691        1159.809          42.000    25052445.669   100875892.772         888.738          46.000  
G18  20447015.413   107450016.473       -2851.636          48.000    20447010.407    83727436.993       -2222.115          49.000  
G10  20995320.206   110331219.657        2699.263          47.000    20995317.027    85972383.890        2103.347          44.000  
E11  21519670.168   113086854.439        -681.308          44.000    21519666.265    86651072.928        -522.077          48.000  
E31                                                                  26898567.817                3      -2811.634          14.000  
> 2024 04 09 07 03 00.4960000  0 25                     
S33  38676736.138   203247761.909        -671.371          44.000  
G23  19644937.383   103235022.042         419.891          43.000    19644935.194    80442930.667         327.185          50.000  
E25  22801303.164   119821626.670         265.012          49.000    22801303.196    91811417.394         203.010          52.000  
G26  19269058.059   101259578.065       -1021.058          49.000    19269055.376    78903572.118        -795.699          45.000  
G27  22177055.696   116541246.010        1720.071          43.000    22177053.205    90811346.015        1340.514          39.000  
R11  21365803.211   114172489.534       -5017.394          49.000    21365799.454    88800677.746       -3902.480          47.000  
R22  19058544.079   101736152.718       -1497.454          51.000    19058539.284    79128023.389       -1164.847          50.000  
R23  20614322.686   110272741.492         876.215          49.000                                                                  
R12  18756789.041   100195357.453       -1829.826          51.000    18756785.932    77929792.540       -1423.185          50.000  
R06  21333615.615   113840244.285        -320.538          37.000                                                                  
E12  24409181.624   128271329.478       -2669.120          42.000    24409178.051    98285988.047       -2045.406          48.000  
E10  22962224.918   120667541.903       -1899.160          49.000    22962224.024    92459670.144       -1455.228          52.000  
G16  20622527.215   108372137.509        1628.054          48.000                                                                  
R13  20403830.373   108955245.133        1695.289          41.000    20403827.364    84743039.151        1318.313          38.000  
R07  21436489.442   114751249.576        2518.366          50.000    21436483.680    89250946.558        1958.671          48.000  
R21  21531940.867   115222210.301       -3199.353          47.000    21531933.917    89617097.683       -2488.382          43.000  
E24  23205252.183   121944424.250       -2491.076          47.000    23205249.685    93437973.585       -1908.719          52.000  
S31  37721304.829   198226890.695        -671.446          43.000  
G29  22828730.859   119966111.224       -2863.367          42.000    22828726.182    93480222.624       -2231.049          38.000  
G31  22824627.160   119944193.395       -3321.320          37.000    22824622.882    93463027.384       -2588.774          34.000  
E36  25045840.346   131616821.572        1153.177          42.000    25045841.665   100849300.566         883.523          46.000  
G18  20463311.855   107535657.981       -2858.516          47.000    20463307.203    83794170.591       -2227.389          49.000  
G10  20979937.543   110250384.340        2689.077          48.000    20979935.043    85909395.385        2095.314          44.000  
E11  21523579.532   113107395.118        -688.916          44.000    21523575.198    86666811.874        -527.832          48.000  
E31                                                                  26919484.164                3      -2810.023          12.000  
> 2024 04 09 07 03 30.4960000  0 24                     
S33  38680563.875   203267878.256        -670.728          44.000  
G23  19642593.687   103222701.968         400.677          43.000    19642591.166    80433330.605         312.183          50.000  
E25  22799819.957   119813835.022         253.600          49.000    22799820.664    91805447.165         194.318          53.000  
G26  19274939.166   101290485.540       -1040.188          49.000    19274936.990    78927655.870        -810.610          45.000  
G27  22167230.616   116489615.073        1721.008          44.000    22167228.037    90771114.132        1341.336          39.000  
R11  21393983.371   114323074.016       -5022.441          49.000    21393979.292    88917798.870       -3906.311          47.000  
R22  19066975.121   101781157.144       -1503.549          51.000    19066970.313    79163026.789       -1169.461          50.000  
R23  20609425.141   110246539.398         869.728          48.000                                                                  
R12  18767135.126   100250627.299       -1855.627          50.000    18767132.860    77972780.172       -1443.240          50.000  
R06  21335479.888   113850196.009        -343.868          37.000                                                                  
E12  24424419.218   128351410.104       -2670.435          41.000    24424416.836    98347348.504       -2046.094          49.000  
E10  22973076.488   120724567.623       -1903.450          49.000    22973075.733    92503365.173       -1458.492          52.000  
G16  20613266.142   108323470.133        1615.672          48.000                                                                  
R13  20394365.102   108904698.986        1673.662          41.000    20394361.934    84703725.430        1301.833          38.000  
R07  21422398.214   114675829.963        2508.810          48.000    21422394.589    89192286.937        1951.107          48.000  
R21  21549871.314   115318152.072       -3197.437          48.000    21549863.293    89691719.084       -2486.945          43.000  
E24  23219499.324   122019300.278       -2501.347          47.000    23219498.431    93495346.114       -1916.600          52.000  
S31  37725134.273   198247014.909        -670.916          43.000  
G29  22845085.009   120052051.439       -2866.748          42.000    22845080.183    93547189.030       -2233.832          39.000  
G31  22843592.309   120043854.186       -3323.773          39.000    22843588.126    93540685.010       -2590.255          34.000  
E36  25039271.431   131582298.959        1147.409          43.000    25039272.418   100822848.207         879.312          47.000  
G18  20479645.298   107621489.361       -2864.382          48.000    20479639.857    83861052.176       -2232.062          48.000  
G10  20964611.786   110169846.685        2679.263          49.000    20964608.774    85846638.813        2087.740          44.000  
E11  21527528.859   113128151.811        -695.575          43.000    21527525.109    86682716.361        -533.057          48.000  
> 2024 04 09 07 04 00.4960000  0 24                     
S33  38684390.577   203287989.407        -670.125          44.000  
G23  19640362.882   103210974.933         381.122          45.000    19640359.387    80424192.659         296.863          50.000  
E25  22798405.252   119806399.404         241.851          48.000    22798405.762    91799749.738         185.234          53.000  
G26  19280931.586   101321976.438       -1059.510          49.000    19280929.440    78952194.221        -825.716          45.000  
G27  22157403.102   116437971.335        1721.532          42.000    22157399.575    90730872.312        1341.462          38.000  
R11  21422194.315   114473821.816       -5027.647          50.000    21422189.531    89035047.053       -3910.498          46.000  
R22  19075440.874   101826350.819       -1509.699          51.000    19075436.298    79198177.433       -1174.281          50.000  
R23  20604565.743   110220547.151         862.878          47.000                                                                  
R12  18777629.450   100306683.536       -1881.641          52.000    18777626.235    78016379.481       -1463.615          49.000  
R06  21337478.994   113860861.487        -367.910          38.000                                                                  
E12  24439665.348   128431534.505       -2671.310          40.000    24439663.890    98408742.527       -2047.101          49.000  
E10  22983954.834   120781734.991       -1907.954          49.000    22983953.912    92547168.752       -1462.051          52.000  
G16  20604078.076   108275187.709        1602.870          48.000                                                                  
R13  20385020.719   108854802.051        1652.195          41.000    20385016.799    84664916.705        1285.341          37.000  
R07  21408365.801   114600716.988        2498.549          48.000    21408361.643    89133865.747        1943.214          47.000  
R21  21567791.150   115414049.520       -3195.925          47.000    21567783.718    89766305.960       -2485.672          43.000  
E24  23233808.343   122094493.219       -2511.719          47.000    23233806.974    93552961.467       -1924.675          52.000  
S31  37728962.888   198267133.148        -670.692          43.000  
G29  22861460.433   120138107.875       -2870.678          41.000    22861457.313    93614245.980       -2236.705          40.000  
G31  22862573.113   120143594.066       -3325.639          38.000    22862568.141    93618404.249       -2591.992          31.000  
E36  25032737.414   131547962.147        1141.328          42.000    25032738.237   100796538.229         874.631          47.000  
G18  20496014.668   107707511.965       -2870.708          49.000    20496009.731    83928082.772       -2236.912          48.000  
G10  20949343.930   110089613.330        2669.187          49.000    20949340.317    85784119.339        2079.837          43.000  
E11  21531519.949   113149126.908        -703.123          43.000    21531516.345    86698788.194        -538.692          48.000  
> 2024 04 09 07 04 30.4960000  0 24                     
S33  38688217.864   203308100.723        -670.676          44.000  
G23  19638245.365   103199847.493         360.522          45.000    19638241.506    80415521.921         280.902          50.000  
E25  22797059.799   119799326.248         229.299          49.000    22797059.916    91794330.037         175.780          53.000  
G26  19287036.566   101354055.964       -1079.592          49.000    19287033.660    78977191.222        -841.121          44.000  
G27  22147574.144   116386320.735        1721.202          41.000    22147570.614    90690625.134        1341.397          38.000  
R11  21450436.256   114624734.589       -5033.408          50.000    21450430.798    89152423.555       -3915.140          45.000  
R22  19083942.925   101871737.674       -1516.366          50.000    19083938.483    79233478.320       -1179.366          49.000  
R23  20599744.918   110194769.165         855.562          47.000                                                                  
R12  18788271.810   100363529.816       -1908.217          52.000    18788268.154    78060593.248       -1484.276          50.000  
R06  21339612.699   113872247.472        -392.327          37.000                                                                  
E12  24454922.056   128511706.934       -2673.471          41.000    24454920.093    98470173.337       -2048.538          49.000  
E10  22994861.198   120839048.022       -1913.196          49.000    22994859.973    92591083.926       -1465.954          52.000  
G16  20594965.310   108227297.840        1589.407          48.000                                                                  
R13  20375799.922   108805563.323        1630.034          41.000    20375795.053    84626619.948        1267.686          38.000  
R07  21394394.637   114525920.756        2487.455          50.000    21394389.533    89075690.941        1934.656          47.000  
R21  21585705.512   115509907.591       -3194.876          48.000    21585697.212    89840862.211       -2484.984          43.000  
E24  23248178.331   122170007.518       -2522.756          47.000    23248176.536    93610823.066       -1933.127          52.000  
S31  37732791.028   198287251.865        -670.893          43.000  
G29  22877859.364   120224286.132       -2874.725          41.000    22877856.590    93681397.842       -2240.387          41.000  
G31  22881569.088   120243415.431       -3328.887          38.000    22881564.382    93696186.938       -2594.659          31.000  
E36  25026238.778   131513816.416        1134.796          42.000    25026240.720   100770374.663         869.483          48.000  
G18  20512421.324   107793729.155       -2877.527          48.000    20512416.837    83995264.974       -2242.295          49.000  
G10  20934135.814   110009692.702        2658.555          49.000    20934131.415    85721843.524        2071.688          42.000  
E11  21535554.020   113170324.647        -710.558          43.000    21535550.095    86715030.625        -544.603          48.000  
> 2024 04 09 07 05 00.4960000  0 24                     
S33  38692044.800   203328211.455        -670.356          44.000  
G23  19636242.958   103189320.379         340.710          45.000    19636238.389    80407318.972         265.509          50.000  
E25  22795782.866   119792616.176         217.433          49.000    22795782.822    91789188.560         166.684          53.000  
G26  19293253.745   101386723.547       -1098.843          50.000    19293250.481    79002646.471        -856.030          45.000  
G27  22137744.029   116334663.439        1721.921          41.000    22137740.994    90650372.730        1341.756          40.000  
R11  21478707.407   114775807.197       -5038.493          51.000    21478701.888    89269924.351       -3918.936          45.000  
R22  19092481.688   101917315.779       -1522.617          51.000    19092476.672    79268927.965       -1184.125          49.000  
R23  20594967.267   110169204.234         848.559          49.000                                                                  
R12  18799060.772   100421163.658       -1934.362          51.000    18799057.073    78105419.542       -1504.465          50.000  
R06  21341879.811   113884354.753        -415.784          35.000                                                                  
E12  24470188.964   128591925.792       -2674.938          42.000    24470185.201    98531639.690       -2049.429          49.000  
E10  23005795.130   120896504.983       -1917.740          49.000    23005793.408    92635109.391       -1469.342          51.000  
G16  20585927.431   108179802.742        1576.535          48.000                                                                  
R13  20366703.128   108756984.873        1608.030          41.000    20366698.769    84588836.684        1251.089          38.000  
R07  21380481.769   114451445.414        2477.017          49.000    21380477.524    89017765.708        1926.572          48.000  
R21  21603610.221   115605725.350       -3193.244          46.000    21603603.988    89915387.115       -2483.428          43.000  
E24  23262609.190   122245841.841       -2533.196          47.000    23262607.669    93668929.894       -1941.059          52.000  
S31  37736619.647   198307370.560        -670.739          43.000  
G29  22894282.449   120310585.828       -2878.936          42.000    22894276.679    93748644.338       -2243.240          38.000  
G31  22900579.053   120343314.185       -3331.084          38.000    22900572.672                       -2595.690          29.000  
E36  25019776.380   131479861.260        1128.761          42.000    25019779.278   100744357.134         864.752          48.000  
G18  20528864.699   107880138.462       -2883.538          48.000    20528859.705    84062596.894       -2246.900          48.000  
G10  20918986.532   109930087.475        2648.274          47.000    20918982.938    85659813.510        2063.631          43.000  
E11  21539629.385   113191743.594        -717.555          43.000    21539626.006    86731442.550        -549.867          48.000  
> 2024 04 09 07 05 30.4960000  0 25                     
S33  38695870.807   203348317.346        -670.460          44.000  
G23  19634353.035   103179390.577         320.660          44.000    19634348.482    80399581.476         249.860          50.000  
E25  22794574.549   119786266.143         205.201          49.000    22794574.235    91784322.956         157.309          52.000  
G26  19299581.059   101419974.883       -1118.434          49.000    19299577.877    79028556.602        -871.584          45.000  
G27  22127912.071   116282996.006        1721.870          41.000    22127909.991    90610112.418        1341.589          41.000  
R11  21507006.887   114927031.713       -5043.702          51.000    21507001.347    89387543.319       -3922.891          45.000  
R22  19101055.000   101963079.353       -1529.002          51.000    19101050.649    79304521.846       -1189.318          50.000  
R23  20590227.190   110143847.381         841.356          49.000                                                                  
R12  18809995.575   100479578.925       -1960.639          51.000    18809992.431    78150853.634       -1524.883          50.000  
R06  21344285.369   113897180.200        -440.178          39.000                                                                  
E12  24485461.502   128672185.688       -2676.435          42.000    24485458.032    98593137.523       -2050.774          49.000  
E10  23016755.046   120954100.395       -1922.531          49.000    23016753.427    92679240.955       -1473.067          51.000  
G16  20576964.119   108132700.442        1563.082          47.000                                                                  
R13  20357728.334   108709065.634        1585.658          40.000    20357725.399    84551566.167        1233.579          39.000  
R07  21366631.320   114377291.332        2465.997          51.000    21366625.004    88960090.314        1917.990          48.000  
R21  21621505.933   115701498.142       -3191.996          44.000    21621500.693    89989876.992       -2482.909          42.000  
E24  23277099.716   122321991.147       -2543.949          47.000    23277098.505    93727278.041       -1949.185          52.000  
S31  37740447.206   198327484.152        -670.784          43.000  
G29  22910727.016   120397003.063       -2883.027          43.000    22910721.204    93815982.414       -2245.887          38.000  
G31  22919600.174   120443283.432       -3334.020          37.000    22919598.113    93851927.820       -2596.915          32.000  
E36  25013351.544   131446092.403        1122.134          43.000    25013352.809   100718482.306         859.880          48.000  
G18  20545342.889   107966733.765       -2889.933          47.000    20545338.190    84130073.739       -2251.845          48.000  
G10  20903897.937   109850796.652        2637.370          47.000    20903894.431    85598028.500        2054.904          43.000  
E11  21543747.389   113213378.544        -725.134          44.000    21543743.128    86748019.988        -555.659          49.000  
E02                                                                  26424632.125   106401048.3341       1547.657          29.000  
> 2024 04 09 07 06 00.4970000  0 25                     
S33  38699697.280   203368424.020        -670.477          44.000  
G23  19632577.964   103170063.148         300.699          45.000    19632573.339    80392313.344         234.293          50.000  
E25  22793436.024   119780281.229         193.292          49.000    22793435.074    91779737.120         148.099          52.000  
G26  19306021.449   101453815.104       -1137.870          50.000    19306018.555    79054925.598        -886.679          46.000  
G27  22118079.404   116231321.443        1722.559          41.000    22118077.062    90569846.554        1342.216          41.000  
R11  21535335.287   115078412.986       -5048.493          50.000    21535330.442    89505284.185       -3926.780          45.000  
R22  19109663.663   102009032.731       -1534.872          51.000    19109659.710    79340263.367       -1193.752          51.000  
R23  20585526.751   110118700.753         834.562          49.000                                                                  
R12  18821078.865   100538779.856       -1986.396          52.000    18821075.352    78196898.786       -1545.060          49.000  
R06  21346825.209   113910729.908        -463.878          39.000                                                                  
E12  24500742.560   128752492.497       -2677.567          42.000    24500740.084    98654671.293       -2051.647          49.000  
E10  23027742.504   121011839.096       -1926.952          49.000    23027740.791    92723482.302       -1476.559          51.000  
G16  20568076.642   108085996.588        1550.181          47.000                                                                  
R13  20348878.956   108661811.488        1563.978          40.000    20348876.290    84514812.956        1216.230          40.000  
R07  21352839.771   114303464.720        2455.192          50.000    21352834.282    88902669.642        1909.506          48.000  
R21  21639395.311   115797232.578       -3190.343          42.000    21639391.418    90064337.133       -2481.443          41.000  
E24  23291651.397   122398461.256       -2554.217          47.000    23291650.378    93785871.996       -1957.225          52.000  
S31  37744274.723   198347598.906        -670.690          43.000  
G29  22927195.297   120483544.945       -2886.768          42.000    22927190.353    93883417.640       -2249.390          40.000  
G31  22938639.058   120543327.908       -3335.876          39.000    22938636.090                       -2599.646          31.000  
E36  25006962.154   131412512.733        1116.085          43.000    25006962.601   100692752.458         855.153          47.000  
G18  20561857.383   108053520.110       -2896.020          47.000    20561852.645    84197699.461       -2256.699          47.000  
G10  20888870.833   109771824.960        2626.904          48.000    20888866.864    85536492.159        2046.901          43.000  
E11  21547906.587   113235233.386        -732.271          44.000    21547901.904    86764765.914        -561.092          48.000  
E02                                                                  26413109.284                        1545.227          30.000  
> 2024 04 09 07 06 30.4970000  0 26                     
S33  38703522.226   203388525.258        -670.215          44.000  
G23  19630916.356   103161335.432         280.655          44.000    19630912.916    80385512.535         218.859          50.000  
E25  22792365.318   119774658.558         181.224          49.000    22792365.036    91775428.842         138.770          52.000  
G26  19312571.534   101488237.379       -1157.391          50.000    19312568.930    79081748.129        -901.686          46.000  
G27  22108245.911   116179639.552        1722.814          43.000    22108241.594    90529575.001        1342.425          41.000  
R11  21563690.033   115229932.502       -5053.074          49.000    21563685.994    89623132.576       -3930.260          46.000  
R22  19118306.205   102055167.006       -1540.968          51.000    19118302.172    79376145.603       -1198.545          51.000  
R23  20580864.882   110093760.494         827.777          50.000                                                                  
R12  18832306.875   100598756.106       -2012.293          52.000    18832302.511    78243546.966       -1565.105          49.000  
R06  21349498.910   113924999.578        -488.323          39.000                                                                  
E12  24516032.540   128832835.330       -2679.043          43.000    24516028.737    98716232.663       -2052.611          49.000  
E10  23038755.363   121069711.579       -1931.540          49.000    23038753.661    92767826.150       -1479.935          51.000  
G16  20559264.958   108039692.297        1536.589          48.000                                                                  
R13  20340156.226   108615224.061        1541.624          42.000    20340151.969    84478578.294        1199.285          40.000  
R07  21339108.841   114229971.269        2443.938          50.000    21339105.325    88845508.076        1900.871          49.000  
R21  21657276.819   115892918.037       -3188.912          44.000    21657273.265    90138759.155       -2480.306          41.000  
E24  23306262.654   122475241.785       -2564.796          47.000    23306261.101    93844703.802       -1965.163          52.000  
S31  37748101.394   198367707.730        -670.316          43.000  
G29  22943685.650   120570201.658       -2890.771          42.000    22943680.879    93950942.397       -2252.600          40.000  
G31  22957688.615   120643433.356       -3338.251          39.000    22957681.397    94007888.476       -2600.891          33.000  
E36  25000606.692   131379120.027        1109.803          43.000    25000607.926   100667165.868         850.259          47.000  
G18  20578406.106   108140485.351       -2902.041          47.000    20578401.711    84265464.579       -2261.263          48.000  
G10  20873904.632   109693176.434        2616.264          48.000    20873901.373    85475207.644        2038.463          45.000  
E11  21552105.200   113257301.260        -739.264          44.000    21552101.022    86781675.065        -566.359          48.000  
E02                                                                  26401605.892                        1542.712          29.000  
G15                                                                  24290491.499                3       -126.299          21.000  
> 2024 04 09 07 07 00.4970000  0 26                     
S33  38707344.560   203408612.067        -669.545          44.000  
G23  19629367.863   103153198.793         261.346          43.000    19629364.330    80379172.311         203.520          50.000  
E25  22791362.468   119769389.593         169.487          48.000    22791362.293    91771391.565         129.852          52.000  
G26  19319230.439   101523233.193       -1176.262          49.000    19319228.198    79109017.592        -916.644          46.000  
G27  22098407.862   116127939.805        1723.565          43.000    22098403.425    90489289.523        1343.015          41.000  
R11  21592069.158   115381581.359       -5057.221          49.000    21592064.826    89741081.558       -3933.398          44.000  
R22  19126981.586   102101472.662       -1546.576          52.000    19126976.828    79412161.092       -1202.766          51.000  
R23  20576239.307   110069015.710         821.371          50.000                                                                  
R12  18843678.965   100659498.075       -2037.694          52.000    18843674.041    78290790.705       -1584.828          50.000  
R06  21352306.755   113939981.310        -511.272          39.000                                                                  
E12  24531327.285   128913206.365       -2679.589          44.000    24531323.144    98777815.652       -2053.310          49.000  
E10  23049791.270   121127709.066       -1935.601          49.000    23049790.242    92812265.783       -1483.041          51.000  
G16  20550528.051   107993779.159        1523.599          47.000                                                                  
R13  20331555.967   108569295.127        1519.496          42.000    20331551.380    84442855.794        1182.063          41.000  
R07  21325440.500   114156803.261        2433.220          49.000    21325436.988    88788599.636        1892.500          49.000  
R21  21675147.804   115988547.330       -3186.775          45.000    21675144.451    90213137.453       -2478.724          43.000  
E24  23320930.899   122552324.922       -2574.712          47.000    23320929.252    93903767.502       -1972.749          51.000  
S31  37751925.186   198387802.807        -669.703          43.000  
G29  22960195.834   120656967.077       -2894.232          42.000    22960192.187    94018551.786       -2254.681          40.000  
G31  22976747.876   120743590.450       -3339.538          41.000    22976748.609    94085932.792       -2602.637          34.000  
E36  24994286.644   131345903.645        1104.240          43.000    24994287.492   100641714.388         845.976          48.000  
G18  20594987.521   108227621.005       -2907.599          48.000    20594983.596    84333362.473       -2265.583          49.000  
G10  20858997.483   109614842.146        2605.692          48.000    20858995.307    85414167.966        2030.339          45.000  
E11  21556342.637   113279572.472        -745.968          43.000    21556339.160    86798740.026        -571.578          48.000  
E02                                                                  26390120.924                        1539.912          27.000  
G15                                                                  24291498.000                3       -142.745          21.000  
> 2024 04 09 07 07 30.4970000  0 26                     
S33  38711165.421   203428690.059        -669.491          44.000  
G23  19627932.404   103145659.790         241.255          44.000    19627929.902    80373297.781         187.927          50.000  
E25  22790428.951   119764480.820         157.347          49.000    22790428.262    91767630.289         120.535          52.000  
G26  19325999.499   101558807.741       -1195.550          49.000    19325997.288    79136738.021        -931.617          45.000  
G27  22088566.769   116076228.437        1723.492          43.000    22088563.570    90448994.953        1343.039          42.000  
R11  21620472.403   115533361.039       -5061.532          48.000    21620468.346    89859132.297       -3936.862          43.000  
R22  19135688.542   102147953.838       -1552.490          52.000    19135683.360    79448313.085       -1207.478          50.000  
R23  20571649.810   110044470.393         814.625          49.000                                                                  
R12  18855194.426   100721009.126       -2063.414          52.000    18855189.293    78338632.608       -1604.880          50.000  
R06  21355248.094   113955681.642        -535.655          39.000                                                                  
E12  24546626.578   128993609.929       -2680.783          43.000    24546623.530    98839423.572       -2054.283          49.000  
E10  23060852.045   121185835.762       -1939.955          48.000    23060851.350    92856804.422       -1486.440          51.000  
G16  20541867.216   107948265.130        1510.198          47.000                                                                  
R13  20323079.147   108524033.184        1497.440          41.000    20323075.846    84407652.092        1164.367          41.000  
R07  21311834.568   114083970.596        2421.915          49.000    21311830.306    88731952.045        1883.733          48.000  
R21  21693010.667   116084125.698       -3185.102          46.000    21693005.184    90287476.122       -2477.589          42.000  
E24  23335656.877   122629715.236       -2585.094          47.000    23335655.940    93963066.558       -1980.725          51.000  
S31  37755747.774   198407889.592        -669.448          43.000  
G29  22976729.635   120743846.584       -2898.114          44.000    22976725.087    94086250.086       -2258.148          41.000  
G31  22995818.830   120843801.256       -3341.418          39.000    22995816.314    94164018.893       -2603.418          35.000  
E36  24987999.907   131312868.927        1097.874          44.000    24988001.268   100616402.108         841.308          48.000  
G18  20611602.642   108314930.608       -2913.406          48.000    20611598.213    84401395.911       -2270.256          48.000  
G10  20844152.011   109536830.681        2594.747          48.000    20844150.109    85353379.862        2021.740          44.000  
E11  21560619.932   113302051.364        -753.235          43.000    21560616.755    86815964.114        -576.997          48.000  
E02                                                                  26378654.647                        1537.193          29.000  
G15                                                                  24292556.502                3       -146.554          22.000  
> 2024 04 09 07 08 00.4970000  0 26                     
S33  38714984.253   203448759.115        -669.128          44.000  
G23  19626611.833   103138718.677         221.080          44.000    19626609.173    80367889.125         172.381          50.000  
E25  22789563.231   119759932.503         145.360          49.000    22789562.658    91764145.208         111.458          52.000  
G26  19332878.731   101594959.961       -1214.957          49.000    19332877.101    79164908.593        -946.743          45.000  
G27  22078724.407   116024505.301        1723.873          43.000    22078721.313    90408691.228        1343.392          42.000  
R11  21648899.171   115685266.677       -5065.816          48.000    21648895.560    89977280.988       -3940.170          43.000  
R22  19144428.266   102194608.311       -1558.354          51.000    19144423.871    79484599.915       -1212.045          50.000  
R23  20567097.554   110020123.291         807.976          48.000                                                                  
R12  18866851.127   100783286.449       -2088.920          52.000    18866847.505    78387070.494       -1624.724          50.000  
R06  21358325.307   113972100.777        -559.667          37.000                                                                  
E12  24561932.543   129074044.294       -2681.876          43.000    24561929.311    98901055.088       -2054.986          48.000  
E10  23071937.612   121244089.591       -1944.209          49.000    23071936.543    92901440.465       -1489.624          51.000  
G16  20533282.286   107903151.794        1496.675          47.000                                                                  
R13  20314727.822   108479440.264        1474.890          41.000    20314724.178    84372968.704        1147.017          41.000  
R07  21298293.056   114011477.307        2410.384          50.000    21298287.672    88675568.441        1874.805          47.000  
R21  21710862.454   116179651.860       -3183.645          46.000    21710856.187    90361774.282       -2476.324          41.000  
E24  23350442.720   122707410.957       -2595.261          47.000    23350440.880    94022599.634       -1988.542          51.000  
S31  37759568.196   198427965.734        -669.400          43.000  
G29  22993283.620   120830839.759       -2902.039          44.000    22993278.777    94154036.979       -2261.090          40.000  
G31  23014896.661   120944062.205       -3342.950          36.000    23014894.314    94242144.160       -2604.919          33.000  
E36  24981747.598   131280014.988        1091.823          44.000    24981749.445   100591228.340         836.645          48.000  
G18  20628249.879   108402411.363       -2919.143          49.000    20628245.185    84469562.727       -2274.547          48.000  
G10  20829368.332   109459144.404        2583.667          46.000    20829366.339    85292845.105        2013.159          44.000  
E11  21564937.064   113324736.170        -759.941          44.000    21564933.614    86833345.985        -582.152          48.000  
E02                                                                  26367207.993   106169836.976        1534.301          30.000  
G15                                                                  24293686.109                3       -165.175          21.000  
> 2024 04 09 07 08 30.4970000  0 26                     
S33  38718802.502   203468824.700        -669.328          44.000  
G23  19625407.459   103132383.278         200.773          46.000    19625403.563    80362952.438         156.457          50.000  
E25  22788767.858   119755752.547         132.900          49.000    22788767.212    91760942.392         101.759          52.000  
G26  19339869.345   101631696.435       -1234.515          48.000    19339867.953    79193534.387        -962.124          45.000  
G27  22068880.777   115972777.868        1724.271          43.000    22068877.456    90368384.197        1343.257          41.000  
R11  21677350.692   115837300.957       -5070.240          48.000    21677346.711    90095529.790       -3943.606          43.000  
R22  19153201.916   102241441.562       -1564.337          50.000    19153196.913    79521025.790       -1216.656          50.000  
R23  20562584.556   109995980.259         801.101          48.000                                                                  
R12  18878653.873   100846334.806       -2114.719          51.000    18878649.574    78436108.128       -1644.732          49.000  
R06  21361536.489   113989246.797        -584.322          35.000                                                                  
E12  24577245.165   129154515.047       -2683.301          43.000    24577242.697    98962714.491       -2056.021          49.000  
E10  23083048.831   121302476.120       -1948.745          49.000    23083047.061    92946178.193       -1493.119          51.000  
G16  20524775.741   107858448.328        1482.905          47.000                                                                  
R13  20306504.273   108435526.430        1452.279          41.000    20306500.528    84338813.496        1129.301          41.000  
R07  21284816.038   113939335.000        2398.711          49.000    21284809.529    88619457.807        1865.562          46.000  
R21  21728706.092   116275132.289       -3182.292          47.000    21728698.325    90436036.828       -2474.938          41.000  
E24  23365287.299   122785418.000       -2605.743          48.000    23365285.232    94082371.258       -1996.562          51.000  
S31  37763388.197   198448040.144        -669.476          44.000  
G29  23009861.348   120917953.741       -2905.902          46.000    23009855.308    94221918.011       -2264.502          39.000  
G31  23033983.814   121044377.123       -3345.166          34.000    23033983.650    94320311.471       -2606.696          33.000  
E36  24975530.375   131247348.481        1085.365          43.000    24975533.279   100566198.190         831.733          49.000  
G18  20644929.936   108490068.183       -2925.008          48.000    20644925.668    84537866.738       -2279.214          49.000  
G10  20814648.416   109381793.235        2572.455          46.000    20814647.110    85232571.514        2004.521          45.000  
E11  21569295.015   113347632.674        -766.951          44.000    21569290.670    86850890.057        -587.620          48.000  
E02                                                                  26355781.452   106123842.606        1531.937          32.000  
G15                                                                  24294885.083                3       -172.847          21.000  
> 2024 04 09 07 09 00.4970000  0 26                     
S33  38722620.430   203488887.625        -668.954          44.000  
G23  19624318.192   103126654.271         180.792          46.000    19624312.627    80358488.256         140.845          50.000  
E25  22788042.527   119751941.673         120.825          49.000    22788042.064    91758022.359          92.549          52.000  
G26  19346971.134   101669016.480       -1253.789          48.000    19346970.046    79222614.923        -977.064          45.000  
G27  22059036.313   115921046.684        1724.167          42.000    22059033.385    90328074.187        1343.607          41.000  
R11  21705825.481   115989459.727       -5074.120          47.000    21705821.761    90213875.382       -3946.703          45.000  
R22  19162008.244   102288451.922       -1570.066          50.000    19162003.282    79557589.387       -1221.279          50.000  
R23  20558109.395   109972039.667         794.492          49.000                                                                  
R12  18890600.468   100910151.644       -2140.156          51.000    18890596.626    78485743.417       -1664.558          49.000  
R06  21364885.874   114007120.160        -608.327          35.000                                                                  
E12  24592565.027   129235020.923       -2684.251          43.000    24592562.449    99024400.784       -2056.709          49.000  
E10  23094184.192   121360993.793       -1952.847          49.000    23094182.427    92991016.422       -1496.356          51.000  
G16  20516347.613   107814157.344        1469.347          47.000                                                                  
R13  20298407.873   108392293.939        1429.743          42.000    20298405.023    84305188.235        1112.120          42.000  
R07  21271405.853   113867547.987        2386.929          50.000    21271399.555    88563623.486        1856.425          47.000  
R21  21746539.446   116370566.371       -3180.554          45.000    21746534.458    90510263.369       -2473.729          44.000  
E24  23380190.306   122863735.099       -2615.869          47.000    23380188.556    94142380.455       -2004.334          51.000  
S31  37767207.775   198468111.327        -669.161          43.000  
G29  23026460.607   121005188.199       -2909.924          44.000    23026456.394    94289892.891       -2267.468          40.000  
G31  23053084.214   121144742.558       -3346.203          34.000    23053082.174                       -2607.910          28.000  
E36  24969349.649   131214869.018        1079.307          44.000    24969352.385   100541311.332         827.181          48.000  
G18  20661643.642   108577898.837       -2930.658          48.000    20661639.286    84606306.210       -2283.553          49.000  
G10  20799994.157   109304780.037        2561.353          48.000    20799992.126    85172561.249        1995.967          45.000  
E11  21573692.381   113370739.618        -774.023          44.000    21573687.509    86868595.384        -593.050          48.000  
E02                                                                  26344379.062   106077937.172        1528.473          32.000  
G15                                                                  24296152.884                3       -178.671          16.000  
> 2024 04 09 07 09 30.4970000  0 26                     
S33  38726436.465   203508942.390        -668.470          44.000  
G23  19623342.922   103121527.279         160.507          47.000    19623337.562    80354493.200         125.139          50.000  
E25  22787386.610   119748495.570         108.594          48.000    22787386.330    91755381.828          83.194          52.000  
G26  19354183.102   101706914.462       -1273.148          49.000    19354181.682    79252145.798        -992.025          45.000  
G27  22049190.379   115869306.964        1724.585          43.000    22049187.719    90287757.559        1343.647          41.000  
R11  21734321.347   116141733.047       -5078.083          46.000    21734318.402    90332310.016       -3949.713          45.000  
R22  19170845.912   102335632.529       -1575.860          51.000    19170841.853    79594285.431       -1225.671          50.000  
R23  20553671.166   109948295.707         787.881          50.000                                                                  
R12  18902690.001   100974729.178       -2165.596          52.000    18902686.083    78535970.379       -1684.212          50.000  
R06  21368370.794   114025716.253        -632.160          36.000                                                                  
E12  24607890.991   129315555.430       -2685.166          43.000    24607887.786    99086109.005       -2057.534          49.000  
E10  23105343.573   121419636.013       -1957.102          49.000    23105341.648    93035950.073       -1499.564          51.000  
G16  20507997.504   107770275.850        1455.511          47.000                                                                  
R13  20290438.670   108349740.076        1406.922          41.000    20290435.428    84272090.803        1094.166          42.000  
R07  21258061.535   113796115.608        2374.742          50.000    21258056.092    88508064.963        1847.074          48.000  
R21  21764363.449   116465948.360       -3178.750          42.000    21764360.771    90584449.367       -2472.230          42.000  
E24  23395150.738   122942356.001       -2625.987          46.000    23395149.947    94202622.432       -2012.172          51.000  
S31  37771025.570   198488174.142        -668.898          43.000  
G29  23043082.861   121092537.785       -2913.910          44.000    23043078.514    94357957.453       -2270.496          39.000  
G31  23072188.799   121245150.054       -3347.534          33.000    23072190.999                       -2609.033          29.000  
E36  24963204.647   131182571.125        1073.292          44.000    24963206.262   100516563.606         822.410          48.000  
G18  20678388.785   108665896.046       -2936.352          48.000    20678384.511    84674875.453       -2287.935          49.000  
G10  20785404.028   109228102.600        2550.056          48.000    20785399.710    85112812.606        1987.111          43.000  
E11  21578127.796   113394050.480        -780.844          44.000    21578123.114    86886456.958        -598.294          47.000  
E02                                                                  26332998.294   106032117.704        1526.428          33.000  
G15                                                                  24297472.691                3       -183.892          19.000  
> 2024 04 09 07 10 00.4970000  0 26                     
S33  38730252.487   203528994.561        -668.791          44.000  
G23  19622483.025   103117009.580         140.130          46.000    19622477.788    80350972.936         109.099          50.000  
E25  22786800.832   119745421.582          96.031          48.000    22786801.411    91753026.438          73.541          52.000  
G26  19361506.745   101745396.286       -1292.663          49.000    19361503.748    79282131.614       -1007.238          45.000  
G27  22039345.188   115817565.866        1724.314          43.000    22039341.548    90247439.821        1343.847          42.000  
R11  21762839.380   116294123.376       -5081.859          46.000    21762835.847    90450835.693       -3952.405          44.000  
R22  19179718.020   102382988.473       -1581.775          51.000    19179713.970    79631117.833       -1230.197          50.000  
R23  20549270.188   109924753.295         781.121          49.000                                                                  
R12  18914922.216   101040071.738       -2191.107          52.000    18914918.236    78586792.337       -1704.237          50.000  
R06  21371994.285   114045042.649        -656.600          37.000                                                                  
E12  24623222.505   129396123.863       -2686.368          43.000    24623219.571    99147843.246       -2058.535          49.000  
E10  23116527.373   121478407.849       -1961.491          49.000    23116525.297    93080983.040       -1502.900          50.000  
G16  20499726.344   107726812.523        1441.512          47.000                                                                  
R13  20282599.053   108307874.596        1383.842          42.000    20282594.987    84239528.783        1076.213          41.000  
R07  21244786.666   113725048.794        2362.441          50.000    21244780.642    88452790.802        1837.457          48.000  
R21  21782179.295   116561284.166       -3177.437          40.000    21782173.843    90658599.552       -2471.417          41.000  
E24  23410170.347   123021285.948       -2636.402          46.000    23410169.873    94263101.205       -2020.098          51.000  
S31  37774843.029   198508235.318        -668.827          43.000  
G29  23059728.278   121180009.126       -2918.091          44.000    23059723.822    94426116.963       -2273.877          39.000  
G31  23091307.697   121345603.028       -3349.031          33.000    23091305.978                       -2610.283          31.000  
E36  24957094.851   131150460.918        1067.088          44.000    24957095.919   100491959.715         817.509          49.000  
G18  20695166.849   108754064.227       -2942.022          48.000    20695162.209    84743577.919       -2292.403          49.000  
G10  20770878.057   109151770.237        2538.218          48.000    20770873.632    85053332.869        1977.886          43.000  
E11  21582603.637   113417570.617        -787.530          44.000    21582598.828    86904478.894        -603.496          47.000  
E02                                                                  26321641.135   105986390.516        1522.191          33.000  
G15                                                                  24298855.674                3       -194.189          18.000  
> 2024 04 09 07 10 30.4970000  0 26                     
S33  38734069.552   203549052.228        -669.035          44.000  
G23  19621740.459   103113109.483         119.603          46.000    19621735.792    80347933.920          93.212          50.000  
E25  22786288.418   119742728.147          83.375          48.000    22786288.800    91750962.627          63.878          52.000  
G26  19368941.886   101784468.982       -1312.326          49.000    19368938.843    79312577.875       -1022.716          45.000  
G27  22029500.662   115765831.569        1724.260          43.000    22029496.267    90207127.363        1343.767          41.000  
R11  21791380.168   116446634.272       -5085.714          47.000    21791376.860    90569455.156       -3955.734          44.000  
R22  19188624.343   102430525.821       -1587.642          52.000    19188619.287    79668091.320       -1234.809          50.000  
R23  20544907.792   109901419.435         774.236          49.000                                                                  
R12  18927297.496   101106184.413       -2216.774          51.000    18927295.038    78638213.293       -1724.066          50.000  
R06  21375754.440   114065107.853        -680.930          36.000                                                                  
E12  24638562.262   129476732.584       -2687.677          43.000    24638558.599    99209608.352       -2059.496          49.000  
E10  23127737.345   121537315.495       -1966.010          48.000    23127734.912    93126120.052       -1506.269          50.000  
G16  20491536.973   107683777.238        1427.197          46.000                                                                  
R13  20274890.306   108266706.998        1360.661          43.000    20274886.375    84207509.546        1058.136          42.000  
R07  21231580.511   113654359.540        2349.925          50.000    21231573.517    88397810.273        1827.656          46.000  
R21  21799991.022   116656581.365       -3175.963          40.000    21799981.883    90732719.582       -2470.232          41.000  
E24  23425250.525   123100531.474       -2646.846          46.000    23425249.944    94323821.789       -2028.052          52.000  
S31  37778661.261   198528300.899        -669.084          43.000  
G29  23076398.224   121267609.968       -2922.180          44.000    23076394.637    94494377.332       -2277.032          38.000  
E36  24951021.186   131118545.677        1060.621          44.000    24951022.580   100467505.210         812.566          49.000  
G18  20711979.217   108842408.889       -2947.786          48.000    20711973.319    84812417.878       -2296.944          48.000  
G10  20756420.450   109075793.541        2526.523          49.000    20756415.938    84994130.281        1968.930          43.000  
E11  21587120.719   113441306.449        -794.794          45.000    21587115.680    86922666.090        -608.807          47.000  
E02                                                                  26310308.997   105940762.362        1518.889          34.000  
G31                                                                  23110429.715    94633346.048       -2610.690          32.000  
G15                                                                  24300328.008                3       -211.226          19.000  
> 2024 04 09 07 11 00.4970000  0 26                     
S33  38737886.464   203569109.583        -668.449          44.000  
G23  19621114.532   103109822.269          99.107          45.000    19621110.319    80345372.464          77.202          50.000  
E25  22785847.377   119740410.663          70.850          48.000    22785847.807    91749186.891          54.202          52.000  
G26  19376488.941   101824126.549       -1331.770          50.000    19376485.167    79343479.841       -1037.851          44.000  
G27  22019655.692   115714099.165        1724.266          42.000    22019651.213    90166816.422        1343.417          40.000  
R11  21819941.260   116599256.055       -5089.374          46.000    21819937.516    90688160.868       -3958.414          43.000  
R22  19197561.499   102478237.637       -1593.396          51.000    19197556.913    79705200.527       -1239.325          50.000  
R23  20540583.629   109878287.346         767.581          49.000                                                                  
R12  18939816.849   101173059.255       -2242.034          51.000    18939813.992    78690227.065       -1743.740          50.000  
R06  21379653.082   114085906.816        -706.227          34.000                                                                  
E12  24653908.027   129557374.947       -2688.804          43.000    24653904.933    99271399.236       -2060.313          49.000  
E10  23138971.465   121596352.065       -1970.256          48.000    23138969.164    93171355.879       -1509.659          50.000  
G16  20483428.906   107641166.973        1413.175          46.000                                                                  
R13  20267311.126   108226234.795        1337.237          42.000    20267307.658    84176031.162        1040.253          41.000  
R07  21218443.648   113584046.789        2337.237          48.000    21218438.118    88343122.605        1817.881          46.000  
R21  21817789.449   116751833.566       -3174.815          33.000    21817781.546    90806804.647       -2468.955          41.000  
E24  23440389.086   123180085.922       -2657.164          46.000    23440388.652    94384779.085       -2035.984          52.000  
S31  37782479.478   198548367.117        -669.353          43.000  
G29  23093092.054   121355335.050       -2926.506          45.000    23093088.064    94562734.536       -2280.746          38.000  
G31  23129563.932   121546678.1673      -3352.156          32.000    23129563.435    94711691.442       -2612.106          33.000  
E36  24944984.632   131086819.616        1054.309          44.000    24944985.539   100443195.666         807.737          50.000  
G18  20728822.877   108930922.455       -2953.483          48.000    20728816.778    84881389.496       -2301.359          48.000  
G10  20742030.013   109000170.002        2514.747          48.000    20742026.211    84935202.887        1959.649          45.000  
E11  21591676.736   113465251.219        -802.001          44.000    21591672.255    86941013.402        -614.520          48.000  
E02                                                                  26299000.418   105895230.344        1515.379          34.000  
G15                                                                  24301851.215                3       -208.001          18.000  
> 2024 04 09 07 11 30.4970000  0 26                     
S33  38741702.582   203589164.421        -668.282          44.000  
G23  19620604.876   103107146.755          79.312          44.000    19620601.184    80343287.656          61.602          50.000  
E25  22785477.863   119738468.077          58.558          48.000    22785478.326    91747698.408          44.914          52.000  
G26  19384146.292   101864366.471       -1351.035          50.000    19384142.403    79374835.620       -1052.750          44.000  
G27  22009810.854   115662367.384        1724.514          42.000    22009806.351    90126505.942        1343.876          40.000  
R11  21848521.527   116751981.986       -5092.491          44.000    21848518.570    90806947.581       -3960.737          44.000  
R22  19206531.017   102526120.478       -1598.879          49.000    19206526.239    79742442.747       -1243.494          50.000  
R23  20536296.383   109855354.135         761.199          50.000                                                                  
R12  18952477.891   101240691.802       -2267.014          51.000    18952474.430    78742830.153       -1763.180          49.000  
R06  21383689.411   114107438.193        -729.652          34.000                                                                  
E12  24669259.322   129638047.924       -2689.336          43.000    24669255.973    99333213.582       -2060.758          48.000  
E10  23150229.733   121655514.299       -1974.113          48.000    23150227.468    93216687.984       -1512.510          50.000  
G16  20475401.546   107598982.052        1399.139          47.000                                                                  
R13  20259861.069   108186458.868        1314.547          40.000    20259858.236    84145094.360        1021.956          40.000  
R07  21205379.248   113514113.221        2324.843          47.000    21205373.327    88288729.874        1808.199          46.000  
R21  21835576.001   116847038.665       -3172.294          36.000    21835573.662    90880853.112       -2467.727          41.000  
E24  23455587.080   123259946.260       -2666.958          47.000    23455585.460    94445970.774       -2043.620          51.000  
S31  37786297.947   198568430.759        -668.715          43.000  
G29  23109808.819   121443182.448       -2930.344          44.000    23109805.081    94631186.997       -2283.510          39.000  
G31  23148703.328   121647257.611       -3353.682          31.000    23148704.002    94790064.796       -2612.145          37.000  
E36  24938982.569   131055280.581        1048.117          44.000    24938984.035   100419029.434         803.274          50.000  
G18  20745697.040   109019601.036       -2958.555          49.000    20745692.023    84950489.709       -2305.495          48.000  
G10  20727706.137   108924900.643        2503.089          48.000    20727703.080    84876551.497        1950.538          44.000  
E11  21596272.192   113489401.948        -808.313          44.000    21596268.224    86959518.518        -619.324          48.000  
E02                                                                  26287715.894   105849794.138        1512.527          34.000  
G15                                                                  24303462.437                3       -215.323          21.000  
> 2024 04 09 07 12 00.4970000  0 26                     
S33  38745517.931   203609215.195        -668.224          44.000  
G23  19620211.343   103105081.514          58.832          44.000    19620208.415    80341678.407          45.793          50.000  
E25  22785179.901   119736899.078          46.223          48.000    22785179.840    91746496.184          35.401          52.000  
G26  19391913.511   101905185.991       -1370.279          49.000    19391910.292    79406643.015       -1067.672          44.000  
G27  21999966.160   115610634.751        1724.690          42.000    21999961.899    90086194.837        1343.692          39.000  
R11  21877120.910   116904805.909       -5095.693          44.000    21877118.087    90925810.487       -3963.257          45.000  
R22  19215532.958   102574170.593       -1604.322          50.000    19215528.406    79779815.054       -1247.791          51.000  
R23  20532046.412   109832616.411         754.865          50.000                                                                  
R12  18965279.522   101309077.176       -2291.917          51.000    18965277.118    78796018.750       -1782.539          50.000  
R06  21387862.168                        -755.059          31.000                                                                  
G15  24305145.747                3       -298.396          26.000    24305132.831                3       -230.094          19.000  
E12  24684614.800   129718748.193       -2690.206          42.000    24684612.777    99395048.851       -2061.434          48.000  
E10  23161511.026   121714798.643       -1977.965          48.000    23161509.013    93262113.663       -1515.517          50.000  
G16  20467455.000   107557222.879        1385.092          46.000                                                                  
R13  20252541.930   108147379.353        1290.909          40.000    20252539.681    84114699.147        1004.320          40.000  
R07  21192386.700   113444560.776        2312.216          48.000    21192380.426    88234633.571        1798.335          46.000  
R21  21853355.807   116942193.991       -3171.031          35.000    21853355.070    90954862.757       -2466.207          41.000  
E24  23470841.241   123340109.214       -2677.037          47.000    23470839.851    94507394.332       -2051.201          51.000  
S31  37790114.704   198588489.729        -668.332          43.000  
G29  23126548.492   121531149.972       -2934.135          44.000    23126544.226    94699733.085       -2286.398          39.000  
G31  23167847.690                1      -3354.344          33.000    23167851.834    94868461.892       -2613.484          36.000  
E36  24933015.648   131023926.115        1042.193          44.000    24933017.739   100395004.657         798.482          50.000  
G18  20762602.373   109108440.460       -2963.868          48.000    20762597.653    85019715.216       -2309.609          48.000  
G10  20713450.282   108849986.315        2491.311          49.000    20713447.137    84818176.706        1941.305          44.000  
E11  21600906.052   113513755.254        -814.851          44.000    21600902.543    86978178.853        -624.426          48.000  
E02                                                                  26276455.623   105804453.255        1510.166          35.000  
> 2024 04 09 07 12 30.4970000  0 26                     
S33  38749332.229   203629257.725        -667.972          44.000  
G23  19619933.450   103103624.213          38.543          44.000    19619931.078    80340542.869          29.997          50.000  
E25  22784951.872   119735701.594          33.789          48.000    22784951.797    91745578.642          25.808          52.000  
G26  19399790.965   101946581.575       -1389.350          49.000    19399788.116    79438899.294       -1082.812          44.000  
G27  21990121.179   115558898.987        1724.741          42.000    21990117.023    90045881.287        1343.496          40.000  
R11  21905738.159   117057721.063       -5098.663          42.000    21905733.907    91044744.354       -3965.486          43.000  
R22  19224564.388   102622383.684       -1609.680          50.000    19224559.980    79817314.114       -1251.917          50.000  
R23  20527830.667   109810069.857         748.433          49.000                                                                  
R12  18978221.001   101378209.808       -2316.837          50.000    18978219.266    78849788.556       -1802.050          50.000  
R06  21392169.674                        -778.890          31.000                                                                  
E02  26265226.415                3       1968.057          25.000    26265218.261   105759206.698        1506.901          34.000  
E12  24699977.396   129799471.542       -2690.935          43.000    24699973.428    99456901.810       -2062.001          47.000  
E10  23172814.879   121774200.852       -1981.928          48.000    23172813.326    93307629.627       -1518.651          51.000  
G16  20459588.958   107515888.687        1370.763          46.000                                                                  
R13  20245355.202   108108995.578        1267.871          40.000    20245351.541    84084845.145         986.019          40.000  
R07  21179465.508   113375391.196        2299.309          49.000    21179459.611    88180835.016        1788.255          46.000  
R21  21871122.651                       -3168.941          29.000    21871127.926    91028830.927       -2464.886          42.000  
E24  23486152.592   123420570.701       -2687.010          47.000    23486151.158    94569046.620       -2058.818          51.000  
S31  37793930.408   198608541.581        -668.122          44.000  
G29  23143309.299   121619234.737       -2937.920          42.000    23143305.493    94768370.543       -2289.605          39.000  
G31  23187002.198   121848495.9241      -3354.829          36.000    23187002.106    94946878.144       -2614.276          34.000  
E36  24927083.114   130992753.010        1036.240          44.000    24927085.463   100371118.810         794.010          50.000  
G18  20779537.399   109197435.775       -2969.042          49.000    20779532.405    85089062.216       -2313.683          47.000  
G10  20699262.461   108775427.012        2479.382          49.000    20699259.248    84760078.555        1931.953          45.000  
E11  21605578.028   113538307.014        -821.770          44.000    21605574.568    86996991.242        -629.644          48.000  
G15                                                                  24306880.232                3       -243.689          17.000  
> 2024 04 09 07 13 00.4970000  0 26                     
S33  38753144.682   203649294.060        -667.807          44.000  
G23  19619773.004   103102777.162          17.937          45.000    19619769.698    80339882.817          14.007          50.000  
E25  22784794.591   119734878.036          21.139          48.000    22784794.864    91744947.604          16.127          52.000  
G26  19407777.351   101988554.137       -1408.874          48.000    19407775.495    79471605.183       -1097.967          45.000  
G27  21980276.176   115507162.336        1724.498          42.000    21980271.821    90005566.989        1343.380          40.000  
R11  21934369.398   117210724.480       -5101.833          38.000    21934366.503    91163746.828       -3968.192          43.000  
R22  19233626.357   102670759.876       -1615.333          48.000    19233623.117    79854940.027       -1256.417          51.000  
R23  20523651.985   109787715.505         741.847          50.000                                                                  
R12  18991303.736   101448088.612       -2341.776          52.000    18991299.797    78904138.725       -1821.442          49.000  
R06  21396615.646   114176411.920        -802.966          34.000                                                                  
E02  26254016.541                3       1960.614          25.000    26254005.169   105714056.876        1503.003          34.000  
G15  24308712.491                2       -322.485          26.000    24308678.438                3       -235.371          15.000  
E12  24715344.225   129880218.632       -2692.117          44.000    24715339.252    99518772.907       -2062.723          47.000  
E10  23184140.595   121833721.117       -1986.018          48.000    23184139.787    93353236.070       -1521.780          51.000  
G16  20451804.011   107474983.169        1356.290          45.000                                                                  
R13  20238299.212   108071311.899        1244.340          41.000    20238295.267    84055535.604         967.585          40.000  
R07  21166616.833   113306610.718        2286.105          49.000    21166611.850    88127339.094        1778.156          47.000  
R21  21888886.019   117131828.7241      -3167.684          33.000    21888889.872    91102758.547       -2463.637          42.000  
E24  23501521.051   123501331.144       -2697.137          48.000    23501519.569    94630927.984       -2066.685          51.000  
S31  37797744.885   198628586.180        -667.901          44.000  
G29  23160093.931   121707438.239       -2942.239          41.000    23160090.207    94837100.478       -2292.444          40.000  
G31  23206155.377   121949153.027       -3354.989          32.000    23206157.349    95025312.127       -2615.134          33.000  
E36  24921185.524   130961762.517        1029.725          43.000    24921187.917   100347372.885         789.033          50.000  
G18  20796502.598   109286586.592       -2974.427          49.000    20796497.731    85158530.346       -2317.670          49.000  
G10  20685142.427   108701227.230        2467.123          49.000    20685139.385    84702260.576        1922.542          45.000  
E11  21610288.077   113563057.675        -828.569          44.000    21610284.652    87015956.031        -634.841          48.000  
> 2024 04 09 07 13 30.4970000  0 26                     
S33  38756957.998   203669333.009        -668.034          44.000  
G23  19619730.296   103102550.184          -2.777          46.000    19619726.161    80339705.953          -2.357          50.000  
E25  22784711.275   119734438.492           7.965          48.000    22784711.236    91744610.800           6.135          52.000  
G26  19415875.820   102031112.246       -1428.485          48.000    19415874.013    79504767.349       -1113.328          44.000  
G27  21970432.973   115455434.712        1724.178          43.000    21970428.023    89965259.782        1343.068          40.000  
R11  21963020.473   117363821.045       -5104.730          39.000    21963016.927    91282821.769       -3970.389          43.000  
R22  19242721.629   102719306.986       -1621.228          51.000    19242717.848    79892698.907       -1260.993          51.000  
R23  20519510.387   109765561.201         734.889          50.000                                                                  
R12  19004525.365   101518720.340       -2367.162          52.000    19004522.020    78959074.486       -1841.149          49.000  
R06  21401200.637   114200873.510        -828.133          37.000                                                                  
E02  26242820.433                3       1956.557          26.000    26242818.018   105669011.979        1499.611          34.000  
G15  24310575.263                2       -335.343          28.000    24310556.476                3       -264.747          18.000  
E12  24730713.660   129960997.379       -2693.472          42.000    24730711.050    99580668.321       -2063.793          47.000  
E10  23195490.776   121893367.339       -1990.429          48.000    23195490.321    93398939.025       -1525.221          51.000  
G16  20444103.902   107434518.131        1341.454          45.000                                                                  
R13  20231375.675   108034340.202        1220.198          41.000    20231371.788    84026779.811         949.025          40.000  
R07  21153843.268   113238233.025        2272.272          49.000    21153838.902    88074156.461        1767.383          48.000  
R21  21906648.442   117226835.500       -3166.341          42.000    21906643.542    91176652.709       -2462.853          43.000  
E24  23516947.773   123582398.619       -2707.581          48.000    23516945.920    94693044.593       -2074.597          51.000  
S31  37801560.034   198648634.563        -668.634          44.000  
G29  23176902.378   121795769.558       -2946.745          40.000    23176898.554    94905930.056       -2296.208          40.000  
G31  23225312.547                       -3356.864          31.000    23225317.817                       -2615.499          32.000  
E36  24915324.858   130930963.530        1023.275          43.000    24915326.914   100323773.681         784.088          50.000  
G18  20813498.062   109375900.107       -2980.022          49.000    20813493.944    85228125.306       -2322.101          48.000  
G10  20671093.512   108627399.125        2454.470          48.000    20671090.536    84644732.227        1912.561          45.000  
E11  21615037.251   113588015.314        -835.490          43.000    21615033.829    87035079.413        -640.167          48.000  
> 2024 04 09 07 14 00.4970000  0 26                     
S33  38760772.648   203689380.086        -668.424          44.000  
G23  19619806.887   103102949.412         -23.538          46.000    19619802.408    80340017.046         -18.417          50.000  
E25  22784702.642   119734389.345          -4.603          49.000    22784701.877    91744573.128          -3.488          52.000  
G26  19424087.330   102074260.789       -1448.006          48.000    19424084.639    79538389.587       -1128.215          44.000  
G27  21960592.409   115403722.351        1723.700          43.000    21960587.309    89924964.447        1343.090          40.000  
R11  21991689.232   117517013.035       -5107.840          42.000    21991683.832    91401970.890       -3972.463          41.000  
R22  19251849.030   102768029.389       -1626.874          50.000    19251844.554    79930594.081       -1265.344          50.000  
R23  20515406.035   109743611.795         728.391          49.000                                                                  
R12  19017889.426   101590108.192       -2392.027          52.000    19017885.562    79014598.327       -1860.490          49.000  
R06  21405923.508   114226081.480        -852.228          35.000                                                                  
E12  24746092.084   130041812.396       -2694.258          42.000    24746089.442    99642591.504       -2064.378          47.000  
E10  23206865.759   121953143.761       -1994.428          48.000    23206865.424    93444741.719       -1528.190          51.000  
G16  20436488.715   107394501.437        1326.522          45.000                                                                  
R13  20224586.024   107998088.312        1196.378          41.000    20224582.905    83998583.880         930.700          41.000  
R07  21141147.109   113170267.987        2258.806          49.000    21141141.840    88021294.805        1756.848          48.000  
R21  21924398.142   117321804.747       -3165.153          39.000    21924390.665    91250517.582       -2461.248          40.000  
E24  23532433.419   123663777.526       -2717.562          48.000    23532431.766    94755399.856       -2082.258          51.000  
S31  37805376.620   198668690.884        -668.483          44.000  
G29  23193737.596   121884234.611       -2950.849          43.000    23193733.336    94974863.882       -2299.342          41.000  
G31  23244483.725   122150557.858       -3357.751          37.000    23244484.027    95182250.486       -2615.932          33.000  
E36  24909501.765   130900361.353        1017.011          43.000    24909503.322   100300325.288         779.317          49.000  
G18  20830525.510   109465379.947       -2985.300          49.000    20830521.405    85297849.864       -2326.268          48.000  
G10  20657116.732   108553951.275        2442.007          48.000    20657113.643    84587500.163        1902.874          44.000  
E11  21619827.160   113613184.358        -842.174          44.000    21619823.198    87054364.790        -645.248          47.000  
E02                                                                  26231658.903   105624077.531        1496.195          35.000  
G15                                                                  24312509.810                3       -288.015          13.000  
> 2024 04 09 07 14 30.4970000  0 25                     
S33  38764587.434   203709424.889        -668.208          44.000  
G23  19619999.464   103103964.524         -44.028          46.000    19619995.742    80340808.059         -34.298          50.000  
E25  22784765.837   119734720.465         -17.321          49.000    22784765.170    91744826.839         -13.224          52.000  
G26  19432407.720   102117988.097       -1467.201          48.000    19432405.617    79572462.807       -1143.093          44.000  
G27  21950752.740   115352015.063        1723.528          43.000    21950747.891    89884673.114        1342.830          41.000  
R11  22020371.036   117670284.630       -5110.089          41.000    22020366.979    91521182.035       -3974.558          40.000  
R22  19261007.620   102816914.465       -1632.121          52.000    19261002.379    79968615.805       -1269.411          50.000  
R23  20511339.773   109721854.780         722.085          50.000                                                                  
R12  19031393.872   101662237.958       -2416.591          52.000    19031388.756    79070699.204       -1879.521          49.000  
R06  21410785.721   114252025.232        -877.264          32.000                                                                  
E12  24761476.563   130122651.465       -2694.889          44.000    24761473.056    99704533.134       -2064.986          47.000  
E10  23218263.915   122013038.120       -1998.368          48.000    23218262.767    93490634.784       -1531.175          51.000  
G16  20428958.110   107354924.494        1311.940          46.000                                                                  
R13  20217929.543   107962547.333        1172.534          40.000    20217927.078    83970940.890         912.231          41.000  
R07  21128525.884   113102709.058        2245.170          50.000    21128521.726    87968749.016        1746.217          47.000  
R21  21942136.456   117416724.725       -3163.242          39.000    21942128.977    91324344.096       -2460.115          41.000  
E24  23547975.853   123745455.760       -2727.537          47.000    23547974.964    94817984.470       -2089.962          51.000  
S31  37809192.512   198688744.537        -668.172          44.000  
G29  23210595.253   121972822.728       -2954.813          43.000    23210591.399    95043893.571       -2302.524          42.000  
G31  23263653.239   122251293.319       -3358.029          36.000    23263652.963    95260745.391       -2616.771          31.000  
E36  24903712.989   130869944.695        1010.905          43.000    24903715.181   100277019.046         774.545          49.000  
G18  20847582.202   109555013.190       -2990.295          49.000    20847577.931    85367693.952       -2330.152          48.000  
G10  20643210.467   108480875.626        2429.574          47.000    20643207.558    84530558.148        1893.303          44.000  
E11  21624654.102   113638552.621        -849.039          44.000    21624650.610    87073802.828        -650.471          47.000  
E02                                                                  26220525.458   105579246.352        1492.899          35.000  
