     3.00           OBSERVATION DATA    M: Mixed            RINEX VERSION / TYPE
CONVBIN 2.4.3                           20240409 082942 UTC PGM / RUN BY / DATE 
format: u-blox UBX                                          COMMENT             
log: data/2024-04-09/20240409081500.ubx                     COMMENT             
AQUI00CHL                                                   MARKER NAME         
                                                            MARKER NUMBER       
                                                            MARKER TYPE         
                                                            OBSERVER / AGENCY   
UNKNOWN             UBLOX-ZED-F9P                           REC # / TYPE / VERS 
UNKNOWN             TWIVSP6037L                             ANT # / TYPE        
  1713381.0000 -5047934.0000 -3490983.0000                  APPROX POSITION XYZ 
        0.0000        0.0000        0.0000                  ANTENNA: DELTA H/E/N
G    8 C1C L1C D1C S1C C2L L2L D2L S2L                      SYS / # / OBS TYPES 
R    8 C1C L1C D1C S1C C2C L2C D2C S2C                      SYS / # / OBS TYPES 
E    8 C1C L1C D1C S1C C7Q L7Q D7Q S7Q                      SYS / # / OBS TYPES 
S    4 C1C L1C D1C S1C                                      SYS / # / OBS TYPES 
  2024    04    09    08    15   00.4980000     GPS         TIME OF FIRST OBS   
  2024    04    09    08    29   30.4990000     GPS         TIME OF LAST OBS    
                                                            END OF HEADER       
> 2024 04 09 08 15 00.4980000  0 25                     
S33  39220077.492   206103044.9171       -652.546          44.000  
G23  20496462.345   107709803.9941      -2415.713          48.000    20496457.167    83929774.1801      -1882.295          49.000  
E25  23356869.429   122741147.5251      -1653.724          48.000    23356869.642    94048452.1161      -1267.236          52.000  
G26  21174087.210   111270564.1251      -3418.227          47.000    21174084.096    86704339.1281      -2663.967          43.000  
G27  20830142.236   109463176.9371       1403.403          48.000    20830139.064    85295969.4061       1093.589          46.000  
R22  20538920.165   109638501.1291      -2081.248          49.000    20538916.883    85274293.9201      -1618.849          47.000  
R23  20232888.651   108232335.7691        155.902          49.000                                                                  
R12  21489137.507   114791054.0341      -4482.032          49.000    21489135.105    89281997.5091      -3486.147          50.000  
R08  20978273.290   112337715.8871       2848.660          49.000    20978266.512    87373778.8511       2215.633          47.000  
E02  25158588.575   132209315.1091        989.922          41.000    25158588.767   101303278.2401        758.452          47.000  
E12  26609241.401   139832715.1531      -2609.610          39.000    26609238.854   107144710.5141      -1999.391          40.000  
E10  24699595.778   129797488.0271      -2219.679          46.000    24699594.013    99455342.5971      -1700.795          47.000  
G08  23251672.744   122188362.1731       2416.748          37.000    23251673.157    95211684.1701       1883.319          37.000  
G16  20246103.450   106394015.6921       -895.953          47.000                                                                  
R13  20469960.364   109308365.2131      -1920.422          40.000    20469955.615    85017686.7911      -1493.850          41.000  
R07  20388712.119   109142429.6921       -332.309          52.000    20388705.966    84888533.7071       -258.479          50.000  
R14  22781189.129   121436570.7861       1865.803          34.000    22781190.559    94450609.7941       1451.206          40.000  
E24  25772458.684   135435179.0981      -3593.369          45.000    25772456.431   103775043.6471      -2753.452          48.000  
S31  38264989.398   201083973.1791       -653.334          43.000  
E36  24441802.457   128442594.3661        363.471          46.000    24441803.693    98417103.5241        278.411          51.000  
G18  23034374.500   121046674.9281      -3239.073          42.000    23034370.313    94322234.1281      -2523.907          40.000  
E04  26496794.313   139241600.0861       1297.113          43.000    26496793.130   106691617.8521        994.006          47.000  
G10  19633735.443   103176056.6261        321.032          50.000    19633732.370    80396934.7881        250.138          48.000  
E11  22426969.814   117854745.1981      -1395.937          45.000    22426964.982    90304392.0721      -1069.585          47.000  
G32  24339200.370   127903357.2771       2351.490          43.000    24339195.945    99664955.5481       1832.193          39.000  
> 2024 04 09 08 15 30.4980000  0 25                     
S33  39223803.616   206122626.847        -652.853          44.000  
G23  20510300.916   107782523.330       -2432.552          49.000    20510295.118    83986438.599       -1895.585          49.000  
E25  23366349.271   122790960.655       -1667.388          48.000    23366348.861    94086620.620       -1277.647          52.000  
G26  21193637.352   111373301.492       -3430.450          46.000    21193635.334    86784394.226       -2673.164          45.000  
G27  20822148.151   109421167.004        1397.028          47.000    20822144.698    85263234.401        1088.568          46.000  
R22  20550626.544   109700989.124       -2084.669          50.000    20550622.261    85322895.694       -1621.479          47.000  
R23  20232025.362   108227713.110         151.984          50.000                                                                  
R12  21514331.786   114925641.405       -4490.702          48.000    21514330.304    89386676.543       -3492.734          50.000  
R08  20962351.998   112252451.515        2835.348          50.000    20962343.406    87307462.107        2205.269          47.000  
E02  25152970.914   132179789.360         978.389          42.000    25152969.917   101280654.612         749.562          47.000  
E12  26624134.664   139910974.522       -2608.042          39.000    26624131.142   107204675.486       -1998.671          40.000  
E10  24712268.589   129864083.896       -2220.194          46.000    24712266.797    99506370.606       -1701.275          47.000  
G08  23237873.665   122115854.584        2416.254          36.000    23237874.763    95155184.748        1882.880          37.000  
G16  20251275.984   106421199.155        -916.394          47.000                                                                  
R13  20480817.711   109366345.386       -1944.743          39.000    20480814.144    85062782.455       -1512.738          42.000  
R07  20390649.961   109152799.895        -359.298          52.000    20390643.400    84896599.420        -279.495          49.000  
R14  22770750.612   121380891.979        1846.392          36.000    22770744.396    94407303.974        1435.607          38.000  
E24  25792984.056   135543043.393       -3597.668          44.000    25792982.691   103857692.903       -2756.706          49.000  
S31  38268718.765   201103571.922        -653.869          43.000  
E36  24439741.498   128431757.987         358.765          47.000    24439741.463    98408800.333         274.816          51.000  
G18  23052866.924   121143849.884       -3239.406          42.000    23052863.973    94397954.849       -2524.098          41.000  
E04  26489406.374   139202773.607        1291.071          43.000    26489404.541   106661867.689         989.202          47.000  
G10  19631964.027   103166747.360         299.728          51.000    19631960.912    80389680.821         233.523          48.000  
E11  22434946.717   117896667.493       -1398.994          44.000    22434942.336    90336514.354       -1072.094          47.000  
G32  24325767.456   127832768.316        2354.049          43.000    24325763.632    99609951.216        1834.196          40.000  
> 2024 04 09 08 16 00.4980000  0 25                     
S33  39227528.259   206142197.669        -652.026          44.000  
G23  20524232.368   107855733.866       -2448.646          47.000    20524226.653    84043485.755       -1907.936          49.000  
E25  23375902.958   122841164.590       -1680.042          48.000    23375902.531    94125088.558       -1287.313          52.000  
G26  21213251.256   111476374.657       -3441.325          46.000    21213249.258    86864710.982       -2681.748          45.000  
G27  20814186.100   109379328.483        1391.827          48.000    20814183.093    85230632.977        1084.491          46.000  
R22  20562348.197   109763560.710       -2087.171          50.000    20562343.293    85371562.522       -1623.434          47.000  
R23  20231178.816   108223188.534         149.158          49.000                                                                  
R12  21539571.567   115060464.859       -4498.100          48.000    21539568.962    89491539.229       -3498.566          48.000  
R08  20946501.628   112167570.900        2822.814          50.000    20946493.859    87241443.875        2195.517          48.000  
E02  25147415.050   132150591.750         967.547          42.000    25147413.946   101258282.413         741.461          47.000  
E12  26639015.537   139989178.277       -2605.861          39.000    26639013.076   107264597.841       -1996.833          41.000  
E10  24724942.117   129930680.371       -2220.015          47.000    24724939.593    99557399.070       -1701.039          47.000  
G08  23224072.197   122043328.470        2417.474          35.000    23224072.551    95098670.865        1884.094          35.000  
G16  20256562.651   106448978.613        -936.035          46.000                                                                  
R13  20491808.127   109425034.009       -1968.031          39.000    20491804.625    85108429.149       -1530.977          41.000  
R07  20392734.225   109163961.625        -385.284          52.000    20392728.834    84905280.742        -299.615          50.000  
R14  22760413.871   121325788.303        1827.276          33.000    22760405.482    94364445.554        1421.008          35.000  
E24  25813530.738   135651017.273       -3600.950          44.000    25813529.577   103940426.126       -2759.218          49.000  
S31  38272446.269   201123160.165        -652.943          43.000  
E36  24437702.385   128421041.946         355.091          47.000    24437701.850    98400589.343         272.115          50.000  
G18  23071355.688   121241013.292       -3238.649          42.000    23071353.411    94473666.608       -2523.734          40.000  
E04  26482051.000   139164121.101        1285.442          44.000    26482048.901   106632250.859         984.935          46.000  
G10  19630310.286   103158054.404         279.401          51.000    19630306.791    80382907.098         217.770          48.000  
E11  22442937.550   117938661.833       -1401.298          44.000    22442933.488    90368691.837       -1073.740          47.000  
G32  24312316.028   127762084.673        2357.569          42.000    24312312.066    99554873.102        1836.751          38.000  
> 2024 04 09 08 16 30.4980000  0 25                     
S33  39231249.941   206161756.293        -651.905          44.000  
G23  20538255.496   107929431.298       -2464.752          46.000    20538250.285    84100912.324       -1920.607          49.000  
E25  23385529.907   122891756.687       -1693.047          47.000    23385530.088    94163853.923       -1297.195          53.000  
G26  21232928.060   111579778.790       -3452.437          46.000    21232926.142    86945285.622       -2690.189          45.000  
G27  20806257.496   109337661.439        1385.985          48.000    20806254.061    85198165.154        1080.017          46.000  
R22  20574086.260   109826214.113       -2089.936          50.000    20574081.020    85420292.967       -1625.411          47.000  
R23  20230350.610   108218759.728         145.959          50.000                                                                  
R12  21564852.922   115195517.603       -4505.638          47.000    21564850.715    89596580.222       -3504.334          49.000  
R08  20930722.983   112083077.388        2809.792          51.000    20930715.908    87175726.730        2185.552          49.000  
E02  25141920.693   132121721.677         956.854          42.000    25141920.168   101236161.180         733.161          47.000  
E12  26653886.254   140067324.289       -2604.013          38.000    26653884.150   107324475.910       -1995.130          41.000  
E10  24737614.016   129997274.965       -2219.851          47.000    24737612.803    99608426.086       -1700.914          48.000  
G08  23210267.773   121970783.263        2418.243          36.000    23210266.852    95042142.183        1884.113          34.000  
G16  20261962.089   106477351.484        -955.719          47.000                                                                  
R13  20502931.115   109484426.566       -1991.653          40.000    20502926.572    85154623.348       -1549.044          41.000  
R07  20394967.022   109175913.413        -411.659          52.000    20394961.586    84914576.588        -320.230          49.000  
R14  22750185.391                        1807.144          33.000    22750176.086    94322035.531        1406.198          34.000  
E24  25834098.085   135759097.079       -3604.363          45.000    25834096.388   104023240.488       -2761.801          49.000  
S31  38276171.431   201142735.620        -652.273          43.000  
E36  24435684.823   128410443.622         351.370          46.000    24435685.072    98392468.557         269.180          51.000  
G18  23089841.713   121338162.615       -3238.043          42.000    23089838.928    94549367.370       -2523.358          40.000  
E04  26474728.021   139125642.661        1279.582          43.000    26474727.371   106602767.383         980.549          47.000  
G10  19628773.085   103149976.395         258.822          51.000    19628769.630    80376612.553         201.793          48.000  
E11  22450942.685   117980725.416       -1403.202          45.000    22450937.926    90400922.371       -1075.152          47.000  
G32  24298847.900   127691307.264        2360.621          44.000    24298842.709    99499721.899        1839.540          37.000  
> 2024 04 09 08 17 00.4980000  0 26                     
S33  39234971.767   206181313.594        -652.030          44.000  
G23  20552373.530   108003623.618       -2481.283          46.000    20552368.998    84158724.527       -1933.531          49.000  
E25  23395232.416   122942746.499       -1706.209          47.000    23395233.021    94202924.042       -1307.444          53.000  
G26  21252669.385   111683521.356       -3463.669          45.000    21252666.990    87026123.995       -2699.029          44.000  
G27  20798363.816   109296178.044        1379.664          49.000    20798360.339    85165840.465        1075.049          46.000  
R22  20585839.365   109888959.852       -2093.037          50.000    20585834.203    85469095.217       -1627.858          46.000  
R23  20229542.841   108214436.811         142.297          49.000                                                                  
R12  21590180.066   115330805.652       -4513.516          48.000    21590177.138    89701804.233       -3510.478          49.000  
R08  20915019.174   111998985.727        2796.273          50.000    20915011.507    87110322.134        2174.964          47.000  
E02  25136492.286   132093190.805         945.333          42.000    25136491.158   101214299.836         724.375          47.000  
E12  26668747.282   140145422.581       -2602.535          37.000    26668744.990   107384317.438       -1994.083          40.000  
E10  24750288.054   130063877.448       -2220.043          47.000    24750286.491    99659459.149       -1701.131          48.000  
G08  23196462.131   121898230.714        2419.171          37.000    23196459.710    94985607.751        1884.461          33.000  
G16  20267475.762   106506327.681        -975.903          47.000                                                                  
R13  20514186.160   109544531.030       -2015.130          40.000    20514181.726    85201371.279       -1567.468          42.000  
R07  20397348.505   109188667.102        -438.414          51.000    20397342.839    84924496.148        -341.145          49.000  
R14  22740064.090   121217323.636        1787.426          34.000    22740057.666    94280084.002        1390.478          37.000  
E24  25854687.308   135867291.266       -3608.425          46.000    25854685.014   104106142.531       -2764.838          48.000  
S31  38279896.011   201162309.523        -652.299          43.000  
E36  24433692.376   128399972.700         346.958          47.000    24433692.653    98384445.425         265.770          51.000  
G18  23108328.659   121435307.437       -3238.208          41.000    23108322.773    94625064.647       -2523.273          37.000  
E04  26467441.455   139087350.530        1273.334          43.000    26467440.401   106573426.688         975.613          47.000  
G10  19627355.427   103142524.230         237.867          52.000    19627351.691    80370805.694         185.316          48.000  
E11  22458961.653   118022867.873       -1405.848          44.000    22458957.669    90433213.339       -1077.306          47.000  
G32  24285364.207   127620449.127        2363.162          44.000    24285359.418    99444507.825        1841.147          38.000  
E19                                                                  27643434.906                3       -596.943          24.000  
> 2024 04 09 08 17 30.4980000  0 25                     
S33  39238691.768   206200862.352        -651.012          44.000  
G23  20566584.324   108078303.704       -2497.103          46.000    20566580.337    84216916.811       -1945.819          50.000  
E25  23405010.891   122994128.501       -1718.911          47.000    23405010.864    94242294.660       -1317.156          53.000  
G26  21272474.279   111787594.678       -3474.336          45.000    21272471.362    87107220.064       -2707.138          43.000  
G27  20790504.175   109254875.429        1374.028          49.000    20790500.619    85133656.620        1070.516          46.000  
R22  20597611.068   109951793.200       -2095.679          50.000    20597606.000    85517965.573       -1629.799          47.000  
R23  20228753.529   108210214.864         139.349          49.000                                                                  
R12  21615548.704   115466319.248       -4520.555          48.000    21615545.377    89807203.675       -3516.018          48.000  
R08  20899392.084   111915295.712        2783.149          51.000    20899382.348    87045229.914        2164.867          47.000  
E02  25131127.281   132064995.636         934.491          43.000    25131125.990   101192695.746         715.995          48.000  
E12  26683599.002   140223468.238       -2600.679          37.000    26683596.009   107444118.630       -1992.448          39.000  
E10  24762962.150   130130482.492       -2219.975          47.000    24762961.153    99710494.184       -1700.898          48.000  
G08  23182654.545   121825667.415        2419.385          37.000    23182651.316    94929064.918        1885.437          33.000  
G16  20273103.542   106535902.198        -995.581          47.000                                                                  
R13  20525572.630   109605339.789       -2038.375          39.000    20525570.461    85248666.959       -1585.425          43.000  
R07  20399880.116   109202218.653        -464.737          52.000    20399874.009    84935036.238        -361.376          49.000  
R14  22730055.248   121163973.820        1769.244          35.000    22730051.814    94238589.813        1375.190          38.000  
E24  25875296.065   135975593.294       -3611.597          45.000    25875294.185   104189127.227       -2767.313          48.000  
S31  38283619.590   201181876.389        -652.095          43.000  
E36  24431723.020   128389623.724         343.290          47.000    24431723.415    98376515.719         263.067          51.000  
G18  23126812.709   121532442.185       -3237.354          41.000    23126807.141    94700754.073       -2522.363          38.000  
E04  26460189.072   139049241.859        1267.450          43.000    26460189.204   106544226.538         971.205          48.000  
G10  19626055.367   103135693.622         217.695          52.000    19626051.695    80365483.152         169.587          48.000  
E11  22466995.152   118065083.581       -1408.152          44.000    22466991.155    90465560.431       -1079.053          47.000  
G32  24271864.189   127549508.322        2366.232          44.000    24271860.188    99389229.317        1843.787          38.000  
> 2024 04 09 08 18 00.4980000  0 25                     
S33  39242409.978   206220401.267        -651.099          44.000  
G23  20580887.595   108153465.641       -2513.523          46.000    20580882.888    84275484.547       -1958.531          49.000  
E25  23414862.534   123045898.278       -1732.160          47.000    23414862.303    94281962.412       -1327.242          53.000  
G26  21292340.351   111891992.173       -3485.340          45.000    21292337.499    87188568.745       -2715.941          44.000  
G27  20782678.767   109213751.965        1367.760          49.000    20782675.140    85101612.365        1065.852          46.000  
R22  20609397.651   110014710.576       -2098.763          50.000    20609391.334    85566901.283       -1632.381          46.000  
R23  20227982.390   108206089.771         135.858          49.000                                                                  
R12  21640958.093   115602050.264       -4527.920          48.000    21640953.966    89912772.210       -3521.736          47.000  
R08  20883837.733   111832008.075        2769.367          50.000    20883829.802    86980450.682        2154.082          48.000  
E02  25125824.421   132037133.900         923.138          42.000    25125824.049   101171347.134         707.424          47.000  
E12  26698440.718   140301457.361       -2598.673          37.000    26698436.969   107503876.521       -1991.197          39.000  
E10  24775636.232   130197085.971       -2220.053          47.000    24775635.446    99761528.013       -1701.205          47.000  
G08  23168845.149   121753091.178        2419.409          39.000    23168840.569    94872512.028        1885.089          33.000  
G16  20278844.589   106566071.110       -1015.546          47.000                                                                  
R13  20537091.425   109666846.595       -2061.873          41.000    20537088.286    85296505.573       -1603.896          41.000  
R07  20402560.493   109216564.953        -491.521          52.000    20402554.283    84946194.482        -382.207          49.000  
R14  22720158.566   121111210.845        1748.826          38.000    22720151.598    94197551.853        1360.476          37.000  
E24  25895924.810   136083997.767       -3615.105          44.000    25895923.252   104272190.400       -2770.094          48.000  
S31  38287340.595   201201432.083        -651.766          43.000  
E36  24429775.337   128379392.396         339.022          46.000    24429776.901    98368676.151         259.739          52.000  
G18  23145295.409   121629562.671       -3237.366          41.000    23145288.749    94776432.357       -2522.552          38.000  
E04  26452971.911   139011315.028        1261.339          42.000    26452972.194   106515165.744         966.316          49.000  
G10  19624872.346   103129481.426         196.608          50.000    19624869.889    80360642.474         153.189          48.000  
E11  22475041.324   118107368.114       -1410.702          44.000    22475037.606    90497960.261       -1080.908          47.000  
G32  24258348.502   127478484.005        2368.640          44.000    24258345.227    99333885.721        1845.714          40.000  
> 2024 04 09 08 18 30.4980000  0 25                     
S33  39246126.951   206239936.451        -650.848          44.000  
G23  20595282.702   108229113.800       -2529.830          46.000    20595278.131    84334431.173       -1971.368          49.000  
E25  23424787.898   123098061.882       -1745.439          47.000    23424788.504    94321931.932       -1337.408          53.000  
G26  21312268.339   111996717.814       -3496.405          45.000    21312265.595    87270173.154       -2724.386          43.000  
G27  20774889.138   109172816.395        1361.104          49.000    20774885.727    85069714.535        1060.555          46.000  
R22  20621201.128   110077718.961       -2101.872          49.000    20621196.467    85615907.800       -1634.702          47.000  
R23  20227230.173   108202068.808         132.282          49.000                                                                  
R12  21666407.971   115738001.280       -4535.529          48.000    21666404.919    90018511.869       -3527.503          47.000  
R08  20868360.809   111749134.733        2755.344          50.000    20868353.805    86915993.670        2143.052          48.000  
E02  25120588.004   132009613.732         911.476          43.000    25120586.899   101150260.247         698.377          47.000  
E12  26713271.471   140379396.667       -2597.519          37.000    26713268.518   107563596.252       -1990.327          40.000  
E10  24788311.330   130263694.169       -2220.482          48.000    24788310.364    99812565.454       -1701.314          47.000  
G08  23155033.865   121680510.206        2419.507          40.000    23155028.888    94815955.476        1885.541          33.000  
G16  20284700.624   106596840.947       -1035.742          48.000                                                                  
R13  20548741.705   109729055.700       -2085.791          40.000    20548738.506    85344890.395       -1622.059          42.000  
R07  20405390.719   109231714.099        -518.477          52.000    20405384.494    84957977.163        -403.141          49.000  
R14  22710369.277                        1728.825          31.000    22710366.279    94156978.269        1344.509          38.000  
E24  25916572.947   136192509.701       -3618.769          44.000    25916572.517   104355335.906       -2772.876          49.000  
S31  38291061.642   201220984.579        -651.344          43.000  
E36  24427851.654   128369284.870         334.825          46.000    24427853.366    98360931.451         256.488          52.000  
G18  23163774.985   121726674.987       -3237.219          38.000    23163768.476    94852104.284       -2522.443          38.000  
E04  26445792.367   138973578.833        1254.368          44.000    26445791.334   106486251.008         961.163          49.000  
G10  19623808.508   103123894.908         175.668          50.000    19623806.776    80356289.378         136.875          48.000  
E11  22483101.562   118149727.474       -1413.120          44.000    22483098.301    90530417.432       -1082.782          47.000  
G32  24244818.991   127407385.874        2371.135          44.000    24244816.273    99278484.640        1847.566          40.000  
> 2024 04 09 08 19 00.4980000  0 25                     
S33  39249843.998   206259469.158        -651.086          44.000  
G23  20609770.319   108305248.316       -2545.785          46.000    20609766.217    84393756.748       -1983.767          49.000  
E25  23434789.913   123150621.003       -1758.436          47.000    23434790.385    94362204.509       -1347.460          53.000  
G26  21332258.786   112101771.142       -3507.105          44.000    21332256.819    87352032.898       -2732.993          43.000  
G27  20767135.504   109132073.080        1354.852          49.000    20767132.762    85037966.517        1055.637          47.000  
R22  20633022.507   110140821.063       -2104.902          50.000    20633016.781    85664987.156       -1637.101          46.000  
R23  20226498.817   108198153.627         128.619          49.000                                                                  
R12  21691898.560   115874169.869       -4542.421          47.000    21691897.040    90124420.750       -3533.133          48.000  
R08  20852963.371   111666682.773        2741.216          50.000    20852956.123    86851864.417        2132.008          47.000  
E02  25115416.071   131982438.874         900.358          43.000    25115415.719   101129437.960         689.730          47.000  
E12  26728094.041   140457288.324       -2595.366          38.000    26728090.776   107623279.460       -1988.816          40.000  
E10  24800988.664   130330309.062       -2220.474          48.000    24800986.651    99863608.027       -1701.356          47.000  
G08  23141221.439   121607928.469        2419.489          41.000    23141217.088    94759398.319        1885.950          33.000  
G16  20290670.308   106628213.772       -1055.743          47.000                                                                  
R13  20560523.455   109791966.694       -2108.718          40.000    20560519.915    85393821.208       -1640.307          41.000  
R07  20408371.500   109247669.333        -545.151          51.000    20408365.362    84970386.814        -424.125          49.000  
R14  22700698.798                        1708.669          31.000    22700693.230    94116872.753        1328.938          38.000  
E24  25937242.556   136301129.814       -3622.614          43.000    25937242.020   104438564.293       -2775.608          48.000  
S31  38294782.315   201240535.303        -651.589          43.000  
E36  24425951.982   128359302.944         330.733          47.000    24425953.567    98353282.988         253.452          52.000  
G18  23182252.320   121823780.915       -3236.920          38.000    23182246.730    94927771.314       -2522.101          38.000  
E04  26438648.217   138936037.644        1248.109          42.000    26438646.905   106457485.699         956.350          48.000  
G10  19622865.716   103118937.048         154.817          51.000    19622863.078    80352426.139         120.558          48.000  
E11  22491177.777   118192163.421       -1415.731          44.000    22491173.459    90562933.290       -1084.767          47.000  
G32  24231276.761   127336219.218        2373.520          45.000    24231274.306    99223030.149        1849.233          42.000  
> 2024 04 09 08 19 30.4980000  0 25                     
S33  39253560.296   206278997.385        -650.843          44.000  
G23  20624350.047   108381863.541       -2561.649          46.000    20624346.026    84453456.923       -1996.150          50.000  
E25  23444866.607   123203571.558       -1771.474          47.000    23444866.834    94402776.998       -1357.371          53.000  
G26  21352311.908   112207145.981       -3517.621          45.000    21352309.359    87434143.156       -2741.067          42.000  
G27  20759418.488   109091520.757        1348.655          48.000    20759415.628    85006367.298        1051.056          46.000  
R22  20644860.781   110204013.698       -2107.773          51.000    20644855.336    85714137.042       -1639.514          47.000  
R23  20225786.439   108194340.965         125.555          50.000                                                                  
R12  21717428.716   116010548.340       -4549.200          46.000    21717426.379    90230492.863       -3538.372          46.000  
R08  20837645.641   111584653.539        2727.266          51.000    20837637.395    86788063.917        2121.237          47.000  
E02  25110310.109   131955607.421         888.725          43.000    25110310.127   101108878.796         680.995          47.000  
E12  26742907.280   140535129.003       -2593.905          38.000    26742903.260   107682923.584       -1987.485          39.000  
E10  24813664.917   130396926.872       -2220.520          47.000    24813663.383    99914652.845       -1701.458          46.000  
G08  23127409.063   121535344.148        2419.592          40.000    23127405.229    94702839.202        1885.455          35.000  
G16  20296754.665   106660185.817       -1075.641          48.000                                                                  
R13  20572434.640   109855573.656       -2131.389          39.000    20572430.996    85443293.242       -1657.933          41.000  
R07  20411501.550   109264427.842        -571.864          51.000    20411495.491    84983421.230        -444.803          49.000  
R14  22691138.132   120956517.769        1689.023          37.000    22691132.769    94077235.184        1313.683          39.000  
E24  25957931.245   136409853.020       -3625.769          42.000    25957931.497   104521871.696       -2778.054          48.000  
S31  38298501.416   201260081.045        -651.457          43.000  
E36  24424076.484   128349442.713         326.649          47.000    24424077.250    98345727.763         250.321          52.000  
G18  23200729.183   121920876.634       -3236.273          36.000    23200726.024    95003430.234       -2521.698          40.000  
E04  26431540.573   138898690.114        1241.811          42.000    26431539.954   106428868.823         951.346          48.000  
G10  19622042.402   103114604.907         134.102          52.000    19622038.740    80349050.435         104.512          48.000  
E11  22499267.341   118234671.907       -1418.367          45.000    22499262.460    90595504.724       -1086.756          47.000  
G32  24217721.056   127264983.599        2375.829          44.000    24217719.194    99167521.899        1851.350          43.000  
> 2024 04 09 08 20 00.4980000  0 26                     
S33  39257275.962   206298523.462        -650.796          44.000  
G23  20639020.955   108458958.941       -2578.015          47.000    20639016.568    84513531.262       -2008.805          49.000  
E25  23455017.071   123256914.558       -1784.689          48.000    23455017.320    94443650.208       -1367.577          53.000  
G26  21372425.369   112312841.280       -3528.555          45.000    21372422.836    87516503.139       -2749.471          43.000  
G27  20751738.538   109051163.241        1341.993          48.000    20751735.803    84974919.911        1045.472          46.000  
R22  20656716.028   110267298.976       -2111.184          51.000    20656710.962    85763358.886       -1642.062          46.000  
R23  20225093.529   108190632.712         121.710          50.000                                                                  
R12  21742997.346   116147133.835       -4556.321          46.000    21742994.970    90336726.005       -3543.961          47.000  
R08  20822407.683   111503053.185        2712.625          51.000    20822399.095    86724596.980        2109.785          47.000  
E02  25105271.144   131929122.502         877.135          43.000    25105270.253   101088585.156         671.950          47.000  
E12  26757709.885   140612920.359       -2592.670          37.000    26757706.767   107742529.923       -1986.496          40.000  
E10  24826343.540   130463548.986       -2220.928          48.000    24826341.319    99965700.958       -1701.771          47.000  
G08  23113596.228   121462760.559        2419.342          39.000    23113593.513    94646280.646        1885.132          36.000  
G16  20302953.520   106692759.433       -1095.947          48.000                                                                  
R13  20584476.451   109919875.573       -2154.798          39.000    20584473.048    85493305.849       -1676.055          40.000  
R07  20414782.504   109281992.041        -599.039          51.000    20414776.860    84997082.264        -466.022          49.000  
R14  22681689.438   120906161.176        1668.294          33.000    22681685.806    94038068.901        1297.519          39.000  
E24  25978640.866   136518679.411       -3629.641          43.000    25978640.476   104605258.148       -2780.978          48.000  
S31  38302220.264   201279624.290        -651.488          43.000  
E36  24422223.976   128339705.340         322.435          47.000    24422224.300    98338266.662         246.976          52.000  
G18  23219203.891   122017963.150       -3235.986          36.000    23219199.915    95079082.086       -2521.649          39.000  
E04  26424471.999   138861540.160        1234.970          42.000    26424470.297   106400403.306         946.215          47.000  
G10  19621337.514   103110900.756         112.890          52.000    19621333.873    80346164.106          88.001          48.000  
E11  22507370.750   118277253.980       -1420.600          45.000    22507365.625    90628132.555       -1088.637          47.000  
G32  24204152.488   127193683.738        2377.396          43.000    24204151.025    99111963.571        1852.531          42.000  
E19                                                                  27671445.349                        -656.166          27.000  
> 2024 04 09 08 20 30.4980000  0 26                     
S33  39260992.511   206318054.942        -651.348          44.000  
G23  20653784.963   108536540.291       -2594.157          48.000    20653780.058    84573984.247       -2021.431          49.000  
E25  23465243.825   123310657.402       -1798.100          48.000    23465243.835    94484829.798       -1377.814          52.000  
G26  21392600.866   112418862.281       -3539.462          44.000    21392598.853    87599116.879       -2757.997          44.000  
G27  20744097.751   109011010.733        1334.869          47.000    20744094.782    84943632.247        1040.129          46.000  
R22  20668589.949   110330685.289       -2114.624          51.000    20668586.215    85812659.387       -1644.650          47.000  
R23  20224420.201   108187036.828         117.914          49.000                                                                  
R12  21768607.222   116283929.925       -4563.375          48.000    21768603.780    90443122.883       -3549.306          47.000  
R08  20807251.844   111421895.285        2697.786          50.000    20807243.965    86661474.193        2098.155          47.000  
E02  25100299.469   131902993.565         865.004          43.000    25100298.088   101068564.281         662.702          47.000  
E12  26772505.237   140690670.415       -2591.107          38.000    26772502.379   107802104.618       -1985.291          39.000  
E10  24839023.187   130530183.086       -2221.347          47.000    24839021.152   100016758.253       -1702.019          46.000  
G08  23099785.660   121390187.366        2418.701          38.000    23099783.633    94589730.125        1884.619          36.000  
G16  20309267.430   106725941.861       -1116.290          48.000                                                                  
R13  20596649.032   109984877.713       -2178.268          39.000    20596645.195    85543863.042       -1694.302          40.000  
R07  20418215.273   109300371.489        -626.271          50.000    20418211.082    85011377.398        -487.168          50.000  
R14  22672403.638                3       1649.363          23.000    22672354.648    93999382.545        1281.060          38.000  
E24  25999370.748   136627615.301       -3633.146          43.000    25999370.279   104688728.525       -2783.851          48.000  
S31  38305940.445   201299172.605        -651.816          43.000  
E36  24420396.201   128330098.386         318.041          48.000    24420396.373    98330905.524         243.647          52.000  
G18  23237679.203   122115048.182       -3236.206          37.000    23237674.234    95154732.761       -2521.722          39.000  
E04  26417441.767   138824597.825        1228.101          43.000    26417440.471   106372096.916         940.645          47.000  
G10  19620753.687   103107833.112          91.635          51.000    19620749.768    80343773.738          71.371          48.000  
E11  22515489.022   118319917.130       -1423.418          45.000    22515484.434    90660822.498       -1090.645          48.000  
G32  24190574.722   127122330.648        2379.210          43.000    24190572.293    99056363.792        1854.058          42.000  
E19                                                                  27676373.319                        -666.187          28.000  
> 2024 04 09 08 21 00.4980000  0 26                     
S33  39264709.166   206337585.068        -651.225          44.000  
G23  20668639.406   108614599.940       -2609.968          47.000    20668634.169    84634809.937       -2033.821          49.000  
E25  23475545.311   123364794.040       -1811.163          47.000    23475545.657    94526311.117       -1387.834          52.000  
G26  21412836.648   112525200.784       -3549.786          45.000    21412835.095    87681978.048       -2765.967          44.000  
G27  20736495.233   108971059.894        1328.154          47.000    20736492.660    84912501.743        1035.011          46.000  
R22  20680482.431   110394167.544       -2117.790          51.000    20680478.484    85862034.484       -1647.188          47.000  
R23  20223768.127   108183548.135         114.563          49.000                                                                  
R12  21794253.441   116420927.109       -4570.011          47.000    21794249.632    90549676.202       -3554.417          46.000  
R08  20792178.271   111341178.833        2683.109          50.000    20792169.656    86598694.765        2086.850          46.000  
E02  25095393.495   131877216.681         853.348          43.000    25095393.145   101048813.143         653.839          48.000  
E12  26787292.981   140768373.804       -2589.287          38.000    26787287.978   107861643.572       -1984.380          38.000  
E10  24851704.527   130596823.500       -2221.533          47.000    24851702.287   100067820.404       -1702.347          47.000  
G08  23085976.100   121317620.801        2418.921          37.000    23085974.206    94533184.784        1884.485          35.000  
G16  20315696.374   106759727.550       -1136.334          47.000                                                                  
R13  20608951.354   110050572.356       -2201.363          40.000    20608947.241    85594958.900       -1712.382          40.000  
R07  20421801.523   109319560.919        -653.234          51.000    20421794.985    85026302.516        -508.017          49.000  
R14  22663175.234   120807547.1611       1627.243          35.000    22663138.058    93961173.946        1265.832          36.000  
E24  26020119.938   136736653.790       -3636.631          42.000    26020119.354   104772277.498       -2786.329          48.000  
S31  38309660.383   201318721.262        -651.414          43.000  
E36  24418591.197   128320615.921         313.953          48.000    24418591.955    98323639.750         240.608          52.000  
G18  23256149.725   122212125.844       -3235.522          36.000    23256146.990    95230377.596       -2521.240          39.000  
E04  26410451.146   138787859.936        1220.927          43.000    26410448.618   106343947.095         935.697          46.000  
G10  19620290.150   103105397.125          70.641          52.000    19620286.024    80341875.593          54.929          48.000  
E11  22523621.418   118362655.399       -1425.950          45.000    22523617.538    90693570.007       -1092.627          48.000  
G32  24176986.440   127050921.967        2381.216          44.000    24176982.831    99000720.713        1855.319          41.000  
E19                                                                  27681376.259                        -676.294          29.000  
> 2024 04 09 08 21 30.4980000  0 27                     
S33  39268426.514   206357121.673        -651.054          44.000  
G23  20683584.875   108693141.089       -2625.975          48.000    20683580.086    84696010.841       -2046.153          49.000  
E25  23485922.767   123419329.213       -1824.126          47.000    23485923.329    94568097.820       -1397.762          52.000  
G26  21433132.425   112631859.565       -3560.361          44.000    21433131.190    87765088.784       -2774.324          44.000  
G27  20728932.970   108931318.459        1321.313          47.000    20728930.065    84881534.400        1029.619          46.000  
R22  20692392.312   110457751.686       -2121.135          48.000    20692389.141    85911488.831       -1649.735          47.000  
R23  20223137.206   108180171.989         110.815          48.000                                                                  
R12  21819937.310   116558126.249       -4576.464          48.000    21819933.943    90656386.604       -3559.501          46.000  
R08  20777189.845   111260914.248        2668.088          50.000    20777180.225    86536266.763        2075.159          46.000  
E02  25090555.597   131851798.768         841.524          42.000    25090556.567   101029337.076         644.782          48.000  
E12  26802069.769   140846035.957       -2587.190          38.000    26802066.610   107921151.002       -1983.073          38.000  
E10  24864387.951   130663475.369       -2221.731          47.000    24864386.190   100118891.309       -1702.237          47.000  
G08  23072169.133   121245068.048        2418.129          37.000    23072168.318    94476650.169        1884.732          36.000  
G16  20322240.711   106794121.730       -1156.390          46.000                                                                  
R13  20621384.070   110116962.240       -2224.531          39.000    20621380.313    85646595.426       -1730.100          41.000  
R07  20425537.535   109339566.822        -680.254          49.000    20425532.714    85041862.692        -529.089          49.000  
R14  22654061.663   120759044.874        1606.484          32.000    22654038.412    93923450.120        1249.467          36.000  
E24  26040888.444   136845798.691       -3639.718          42.000    26040888.903   104855908.010       -2788.760          48.000  
S31  38313381.208   201338274.932        -651.820          44.000  
E36  24416811.075   128311262.966         309.817          48.000    24416812.134    98316473.203         237.407          52.000  
G18  23274625.688   122309201.067       -3235.614          36.000    23274619.068    95306020.659       -2521.521          38.000  
E04  26403500.382   138751333.996        1214.228          43.000    26403497.516   106315959.692         930.296          45.000  
G10  19619947.362   103103598.705          49.364          51.000    19619944.032    80340474.228          38.608          47.000  
E11  22531769.229   118405473.687       -1428.549          45.000    22531765.875    90726378.825       -1094.529          48.000  
E09  27444011.188   144219266.4701       1914.217          39.000                                                                  
G32  24163389.037   126979466.247        2382.775          44.000    24163385.144    98945040.959        1856.483          41.000  
E19                                                                  27686452.842                        -686.427          28.000  
> 2024 04 09 08 22 00.4980000  0 27                     
S33  39272143.023   206376651.333        -650.831          44.000  
G23  20698619.612   108772148.719       -2641.093          49.000    20698614.833    84757575.236       -2058.116          49.000  
E25  23496373.601   123474249.512       -1836.909          47.000    23496374.273    94610179.602       -1407.532          52.000  
G26  21453486.552   112738823.076       -3570.176          43.000    21453484.713    87848436.982       -2782.052          43.000  
G27  20721408.230   108891775.776        1314.980          47.000    20721405.289    84850721.930        1024.698          46.000  
R22  20704322.484   110521425.114       -2123.857          51.000    20704315.798    85961012.594       -1651.871          45.000  
R23  20222523.854   108176895.617         107.837          48.000                                                                  
R12  21845656.651   116695509.902       -4582.347          49.000    21845651.437    90763240.500       -3564.136          45.000  
R08  20762282.499   111181093.162        2653.572          50.000    20762274.464    86474183.733        2063.860          46.000  
E02  25085785.042   131826728.512         829.983          42.000    25085785.875   101010127.376         636.031          48.000  
E12  26816837.840   140923644.263       -2585.677          37.000    26816835.759   107980617.103       -1981.550          38.000  
E10  24877070.464   130730125.678       -2221.482          47.000    24877068.995   100169961.039       -1702.211          47.000  
G08  23058363.245   121172518.055        2419.030          37.000    23058363.123    94420117.758        1884.551          36.000  
G16  20328898.426   106829110.722       -1176.050          47.000                                                                  
R13  20633943.176   110184031.329       -2246.888          38.000    20633940.412    85698760.263       -1747.414          42.000  
R07  20429425.102   109360376.765        -706.930          49.000    20429420.009    85058048.235        -549.848          48.000  
R14  22645064.524   120711155.156        1586.300          38.000    22645057.175    93886202.722        1233.964          32.000  
E24  26061676.859   136955035.645       -3642.312          43.000    26061675.856   104939609.047       -2791.014          47.000  
S31  38317100.822   201357822.477        -651.298          43.000  
E36  24415053.280   128302026.280         306.119          47.000    24415054.420    98309395.735         234.525          52.000  
G18  23293092.119   122406260.821       -3234.991          34.000    23293088.408    95381651.580       -2520.807          37.000  
E04  26396589.114   138715009.392        1207.632          43.000    26396585.261   106288126.552         925.269          45.000  
G10  19619724.212   103102425.597          28.755          51.000    19619720.627    80339560.146          22.302          47.000  
E11  22539930.288   118448358.643       -1430.300          45.000    22539926.497    90759238.731       -1096.024          49.000  
E09  27433072.216   144161781.726        1917.967          40.000    27433071.837   110461609.2091       1469.656          43.000  
G32  24149779.882   126907953.839        2384.881          44.000    24149777.049    98889317.075        1858.095          41.000  
E19                                                                  27691600.195                3       -695.532          23.000  
> 2024 04 09 08 22 30.4980000  0 27                     
S33  39275858.574   206396175.500        -650.547          44.000  
G23  20713743.428   108851622.588       -2656.648          49.000    20713738.096    84819502.915       -2069.989          49.000  
E25  23506898.578   123529556.248       -1849.791          47.000    23506898.872    94652557.481       -1417.398          52.000  
G26  21473898.528   112846090.552       -3580.415          44.000    21473896.579    87932022.027       -2790.022          44.000  
G27  20713921.766   108852436.047        1308.237          48.000    20713918.849    84820067.614        1019.453          46.000  
R22  20716267.592   110585190.323       -2126.729          49.000    20716260.799    86010607.751       -1654.280          44.000  
R23  20221931.036   108173721.045         104.407          47.000                                                                  
R12  21871408.695   116833075.873       -4588.271          47.000    21871404.168    90870236.240       -3568.489          44.000  
R08  20747460.676   111101722.346        2638.440          50.000    20747452.978    86412450.932        2052.030          47.000  
E02  25081082.043   131802009.328         818.451          43.000    25081081.986   100991186.678         627.166          48.000  
E12  26831596.629   141001200.742       -2584.010          37.000    26831594.066   108040043.444       -1979.791          37.000  
E10  24889754.626   130796776.172       -2221.407          47.000    24889752.130   100221030.889       -1702.161          47.000  
G08  23044558.824   121099974.464        2418.484          38.000    23044558.853    94363590.309        1884.449          37.000  
G16  20335670.415   106864697.425       -1195.844          47.000                                                                  
R13  20646630.333   110251779.064       -2269.230          38.000    20646627.714    85751452.900       -1764.751          42.000  
R07  20433461.870   109381993.182        -733.740          48.000    20433457.262    85074860.997        -570.625          48.000  
R14  22636191.010   120663883.445        1565.611          41.000    22636180.611    93849435.595        1217.921          31.000  
E24  26082481.546   137064365.005       -3645.427          43.000    26082480.451   105023380.913       -2793.274          47.000  
S31  38320819.780   201377364.640        -651.095          43.000  
E36  24413317.461   128292907.335         302.242          47.000    24413319.060    98302408.500         231.602          52.000  
G18  23311563.651   122503306.596       -3234.119          36.000    23311555.598    95457271.726       -2520.441          37.000  
E04  26389712.978   138678890.190        1200.757          40.000    26389713.232   106260450.833         920.156          47.000  
G10  19619620.289   103101880.147           7.957          51.000    19619617.067    80339135.120           6.143          48.000  
E11  22548103.991   118491311.734       -1432.566          45.000    22548100.224    90792150.839       -1097.549          49.000  
E09  27422113.869   144104191.884        1921.693          40.000    27422113.011   110417482.015        1472.425          43.000  
G32  24136161.705   126836389.860        2386.533          44.000    24136158.730    98833552.963        1859.809          41.000  
E19                                                                  27696822.119                3       -702.217          24.000  
> 2024 04 09 08 23 00.4980000  0 27                     
S33  39279572.854   206415694.046        -650.046          44.000  
G23  20728954.716   108931558.667       -2671.832          49.000    20728949.537    84881790.779       -2082.034          48.000  
E25  23517495.800   123585246.987       -1862.506          47.000    23517496.697    94695229.606       -1427.062          53.000  
G26  21494368.395   112953657.498       -3590.332          45.000    21494366.309    88015840.431       -2797.520          44.000  
G27  20706474.167   108813299.737        1301.405          48.000    20706471.118    84789571.824        1014.001          45.000  
R22  20728230.667   110649045.856       -2129.745          51.000    20728224.031    86060273.162       -1656.530          45.000  
R23  20221355.836   108170646.690         101.166          47.000                                                                  
R12  21897192.915   116970818.066       -4593.957          43.000    21897189.860    90977369.040       -3573.149          44.000  
R08  20732723.694   111022804.832        2623.203          50.000    20732716.483    86351070.675        2040.305          48.000  
E02  25076445.428   131777640.943         806.631          44.000    25076444.857   100972514.775         618.101          47.000  
E12  26846344.050   141078703.649       -2582.371          36.000    26846342.048   108099428.809       -1978.779          37.000  
E10  24902436.250   130863424.806       -2221.189          46.000    24902434.400   100272099.330       -1702.043          46.000  
G08  23030755.383   121027437.369        2418.184          38.000    23030755.114    94307067.893        1884.129          36.000  
G16  20342556.233   106900878.748       -1215.637          48.000                                                                  
R13  20659444.636   110320200.839       -2291.843          40.000    20659440.914    85804669.845       -1782.514          42.000  
R07  20437652.229   109404415.148        -760.550          49.000    20437645.268    85092300.306        -591.545          47.000  
R14  22627437.638   120617230.082        1544.981          41.000    22627431.018    93813149.661        1201.860          37.000  
E24  26103303.129   137173783.462       -3648.509          44.000    26103302.268   105107221.039       -2795.562          47.000  
S31  38324537.224   201396901.178        -650.760          43.000  
E36  24411604.180   128283904.013         298.566          48.000    24411605.555    98295509.878         228.648          52.000  
G18  23330027.517   122600336.314       -3234.314          36.000    23330022.032    95532879.250       -2519.763          39.000  
E04  26382877.884   138642976.818        1193.757          39.000    26382879.810   106232932.831         914.817          49.000  
G10  19619635.545   103101961.077         -12.814          51.000    19619632.170    80339198.195         -10.124          48.000  
E11  22556289.767   118534330.689       -1434.844          45.000    22556286.267    90825113.412       -1099.396          48.000  
E09  27411136.530   144046497.299        1925.145          42.000    27411133.996   110373274.525        1475.086          42.000  
G32  24122534.074   126764775.621        2388.216          44.000    24122530.309    98777749.718        1860.921          40.000  
E19                                                                  27702120.493                        -715.521          29.000  
> 2024 04 09 08 23 30.4980000  0 27                     
S33  39283285.771   206435206.428        -650.120          44.000  
G23  20744253.612   109011955.083       -2687.611          48.000    20744248.537    84944437.308       -2094.149          49.000  
E25  23528166.752   123641321.372       -1875.625          47.000    23528167.426    94738195.692       -1437.121          53.000  
G26  21514894.667   113061521.497       -3600.423          45.000    21514892.585    88099890.308       -2805.589          44.000  
G27  20699066.618   108774369.420        1294.181          49.000    20699062.858    84759236.511        1008.418          46.000  
R22  20740210.186   110712992.599       -2133.048          49.000    20740202.731    86110009.534       -1659.081          43.000  
R23  20220800.270   108167673.114          97.449          49.000                                                                  
R12  21923011.277   117108732.359       -4600.111          44.000    21923008.204    91084635.656       -3577.787          43.000  
R08  20718073.068   110944346.348        2607.625          51.000    20718064.726    86290047.426        2028.040          48.000  
E02  25071875.439   131753625.131         794.649          45.000    25071874.808   100954113.046         608.853          47.000  
E12  26861084.036   141156153.558       -2581.040          36.000    26861081.330   108158773.471       -1977.264          38.000  
E10  24915118.456   130930071.747       -2221.385          46.000    24915117.727   100323166.452       -1702.099          47.000  
G08  23016954.911   120954908.818        2417.241          38.000    23016952.577    94250552.131        1883.914          34.000  
G16  20349554.927   106937655.064       -1235.797          48.000                                                                  
R13  20672383.810   110389294.344       -2314.152          39.000    20672379.445    85858409.223       -1800.004          41.000  
R07  20441991.409   109427643.710        -787.731          49.000    20441985.311    85110366.949        -612.736          48.000  
R14  22618800.736   120571198.579        1523.948          41.000    22618799.053    93777347.447        1185.629          34.000  
E24  26124141.909   137283289.806       -3651.672          44.000    26124140.498   105191128.509       -2798.066          47.000  
S31  38328253.778   201416431.556        -650.845          43.000  
E36  24409913.960   128275016.188         294.230          48.000    24409914.198    98288699.747         225.524          52.000  
G18  23348487.462                       -3233.423          30.000    23348484.321    95608474.247       -2519.513          39.000  
E04  26376085.506   138607271.760        1186.847          41.000    26376085.859   106205574.460         909.165          50.000  
G10  19619770.283   103102669.141         -33.985          51.000    19619766.945    80339749.949         -26.571          48.000  
E11  22564488.710   118577415.361       -1437.213          45.000    22564484.862    90858126.346       -1101.297          48.000  
E09  27400137.858   143988700.277        1928.199          42.000    27400135.879   110328988.509        1477.428          44.000  
G32  24108897.197   126693114.573        2389.479          44.000    24108893.707    98721909.998        1862.007          41.000  
E19                                                                  27707488.942                        -725.900          26.000  
> 2024 04 09 08 24 00.4980000  0 27                     
S33  39286997.761   206454714.720        -650.055          44.000  
G23  20759639.855   109092810.611       -2702.701          48.000    20759634.281    85007441.628       -2105.916          48.000  
E25  23538910.375   123697779.803       -1888.195          47.000    23538911.257    94781456.052       -1446.789          53.000  
G26  21535476.143   113169680.925       -3610.111          45.000    21535474.195    88184170.366       -2812.973          44.000  
G27  20691698.142   108735648.415        1287.419          49.000    20691694.438    84729064.304        1003.170          46.000  
R22  20752206.451   110777032.088       -2136.107          49.000    20752198.276    86159817.956       -1661.230          41.000  
R23  20220264.646   108164801.448          94.122          49.000                                                                  
R12  21948863.037   117246815.692       -4605.415          46.000    21948858.170    91192033.889       -3582.111          42.000  
R08  20703506.834   110866351.594        2592.137          49.000    20703499.349    86229384.857        2016.177          47.000  
E02  25067373.441   131729964.474         783.034          45.000    25067372.280   100935983.441         599.940          47.000  
E12  26875810.783   141233551.560       -2579.017          35.000    26875809.394   108218078.461       -1975.690          38.000  
E10  24927801.076   130996717.848       -2221.381          45.000    24927800.154   100374232.930       -1702.013          47.000  
G08  23003155.775   120882391.608        2416.841          38.000    23003152.172    94194045.255        1883.977          35.000  
G16  20356666.643   106975026.937       -1255.597          47.000                                                                  
R13  20685448.213   110459057.529       -2336.599          39.000    20685443.969    85912669.445       -1817.444          41.000  
R07  20446482.407   109451680.176        -814.430          49.000    20446475.977    85129061.962        -633.606          49.000  
R14  22610283.289   120525792.867        1503.179          44.000    22610281.429    93742031.870        1169.108          37.000  
E24  26144996.802   137392883.528       -3654.455          43.000    26144995.826   105275102.952       -2800.112          47.000  
S31  38331969.370   201435957.361        -650.531          43.000  
E36  24408244.926   128266244.520         290.633          48.000    24408244.800    98281978.633         222.771          51.000  
G18  23366948.539   122794348.286       -3233.002          33.000    23366942.389    95684057.327       -2518.994          39.000  
E04  26369331.381   138571778.248        1179.865          41.000    26369331.209   106178378.182         903.958          49.000  
G10  19620024.688   103104005.780         -54.803          50.000    19620021.007    80340791.528         -42.751          47.000  
E11  22572700.726   118620566.383       -1439.168          45.000    22572695.992    90891190.116       -1102.665          48.000  
E09  27389120.543   143930803.931        1931.668          43.000    27389118.495   110284626.434        1480.181          44.000  
G32  24095252.758   126621411.084        2390.988          44.000    24095249.623    98666037.183        1863.396          41.000  
E19                                                                  27712935.378                3       -732.452          19.000  
> 2024 04 09 08 24 30.4980000  0 27                     
S33  39290709.934   206474219.990        -650.217          44.000  
G23  20775113.948   109174124.699       -2717.896          49.000    20775107.674    85070803.260       -2117.828          48.000  
E25  23549726.907   123754623.248       -1900.937          47.000    23549727.978    94825011.419       -1456.601          53.000  
G26  21556114.608   113278134.725       -3619.751          45.000    21556112.206    88268679.798       -2820.655          43.000  
G27  20684370.575   108697140.653        1280.110          49.000    20684366.777    84699058.249         997.431          46.000  
R22  20764221.578   110841166.495       -2139.255          49.000    20764210.992    86209700.277       -1663.711          40.000  
R23  20219746.810   108162033.713          90.790          49.000                                                                  
R12  21974743.383   117385065.457       -4611.079          44.000    21974739.606    91299561.475       -3586.285          43.000  
R08  20689029.723   110788828.190        2576.379          50.000    20689022.488    86169088.899        2003.926          48.000  
E02  25062939.577   131706662.064         770.977          45.000    25062937.954   100918128.344         590.762          47.000  
E12  26890530.820   141310899.395       -2577.263          35.000    26890528.545   108277344.953       -1974.842          39.000  
E10  24940483.547   131063364.587       -2221.439          46.000    24940482.993   100425299.903       -1702.082          48.000  
G08  22989358.547   120809889.257        2416.421          38.000    22989355.127    94137549.975        1883.004          35.000  
G16  20363891.562   107012995.878       -1275.482          47.000                                                                  
R13  20698637.699   110529489.290       -2358.837          38.000    20698633.775    85967449.680       -1834.424          41.000  
R07  20451123.379   109476527.157        -841.532          50.000    20451116.871    85148387.401        -654.506          48.000  
R14  22601882.892   120481017.414        1482.177          44.000    22601881.087    93707206.616        1152.915          36.000  
E24  26165868.379   137502564.736       -3657.171          43.000    26165867.576   105359144.414       -2802.292          48.000  
S31  38335684.665   201455480.603        -650.711          43.000  
E36  24406597.686   128257590.201         286.660          48.000    24406598.199    98275347.424         219.652          52.000  
G18  23385403.730                       -3233.689          30.000    23385397.940    95759629.424       -2518.733          39.000  
E04  26362620.036   138536500.134        1172.572          43.000    26362617.903   106151346.920         898.438          50.000  
G10  19620398.950   103105973.084         -75.869          50.000    19620395.209    80342324.524         -59.239          47.000  
E11  22580924.832   118663784.975       -1441.462          45.000    22580920.301    90924305.677       -1104.675          48.000  
E09  27378084.896   143872812.039        1934.692          43.000    27378083.759   110240191.106        1482.590          45.000  
G32  24081600.516   126549669.873        2392.226          44.000    24081598.571    98610134.963        1863.846          42.000  
E19                                                                  27718451.304                3       -749.743          19.000  
> 2024 04 09 08 25 00.4980000  0 27                     
S33  39294421.745   206493726.149        -650.066          44.000  
G23  20790674.667   109255898.064       -2733.213          49.000    20790668.896    85134522.770       -2129.820          48.000  
E25  23560617.866   123811854.032       -1914.017          47.000    23560618.320    94868863.583       -1466.619          52.000  
G26  21576809.095   113386883.135       -3629.668          46.000    21576805.510    88353418.815       -2828.397          43.000  
G27  20677084.623   108658851.425        1272.833          50.000    20677081.198    84669222.485         991.973          46.000  
R22  20776253.376   110905399.411       -2142.525          49.000    20776245.180    86259659.225       -1666.174          38.000  
R23  20219249.202   108159373.226          87.048          49.000                                                                  
R12  22000654.411   117523480.354       -4616.459          45.000    22000651.009    91407217.455       -3590.537          44.000  
R08  20674643.818   110711783.247        2560.126          51.000    20674635.297    86109165.063        1991.328          48.000  
E02  25058573.856   131683722.372         758.793          45.000    25058572.537   100900551.177         581.427          47.000  
E12  26905240.893   141388200.341       -2575.974          34.000    26905237.916   108336575.483       -1973.634          38.000  
E10  24953167.609   131130014.815       -2221.671          46.000    24953166.090   100476369.545       -1702.379          48.000  
G08  22975565.288   120737406.598        2415.702          38.000    22975562.249    94081070.025        1882.765          36.000  
G16  20371230.947   107051564.447       -1295.575          47.000                                                                  
R13  20711952.453   110600590.131       -2380.729          39.000    20711949.272    86022750.336       -1852.104          41.000  
R07  20455917.903   109502187.929        -868.763          49.000    20455910.820    85168345.811        -675.568          48.000  
R14  22593601.890   120436877.706        1460.863          44.000    22593599.846    93672875.822        1136.148          36.000  
E24  26186757.114   137612334.952       -3660.462          44.000    26186756.586   105443254.047       -2804.549          48.000  
S31  38339400.242   201475004.540        -650.787          43.000  
E36  24404972.628   128249055.845         282.644          47.000    24404974.059    98268808.125         216.618          52.000  
E04  26355948.126   138501442.550        1165.097          43.000    26355946.506   106124484.647         892.778          50.000  
G10  19620893.460   103108574.337         -97.277          50.000    19620890.580    80344351.488         -75.921          48.000  
E11  22589162.148   118707073.590       -1444.099          45.000    22589158.025    90957474.894       -1106.538          48.000  
E09  27367031.725   143814729.629        1937.880          43.000    27367031.415   110195686.482        1484.650          47.000  
G32  24067942.962   126477897.149        2392.985          44.000    24067940.531    98554208.174        1864.637          42.000  
E19                                                                  27724047.093                3       -770.668          12.000  
G18                                                                  23403852.184    95835192.711       -2518.683          36.000  
> 2024 04 09 08 25 30.4990000  0 27                     
S33  39298133.387   206513230.311        -649.898          44.000  
G23  20806322.174   109338128.375       -2748.361          49.000    20806316.507    85198598.336       -2141.490          48.000  
E25  23571581.804   123869470.546       -1926.611          47.000    23571582.059    94913011.298       -1476.271          52.000  
G26  21597558.474   113495924.255       -3639.144          45.000    21597556.177    88438385.904       -2835.544          43.000  
G27  20669839.489   108620778.874        1265.497          49.000    20669836.488    84639555.576         986.163          47.000  
R06  23419558.396                3      -3921.477          17.000                                                                  
R22  20788306.235   110969730.566       -2145.635          50.000    20788298.879    86309694.533       -1668.819          43.000  
R23  20218770.348   108156817.023          83.821          48.000                                                                  
R12  22026596.478   117662057.799       -4621.402          45.000    22026592.553    91514999.886       -3594.474          44.000  
R08  20660344.309   110635216.387        2544.312          50.000    20660337.623    86049613.099        1978.851          49.000  
E02  25054276.524   131661143.285         746.779          45.000    25054275.734   100883250.329         572.195          48.000  
E12  26919943.064   141465454.236       -2574.291          36.000    26919938.202   108395770.010       -1972.341          37.000  
E10  24965850.694   131196667.696       -2221.386          46.000    24965849.648   100527441.248       -1702.070          48.000  
G08  22961775.559   120664940.280        2415.050          38.000    22961772.777    94024602.776        1882.441          38.000  
G16  20378684.135   107090731.038       -1315.292          48.000                                                                  
R13  20725392.228   110672356.669       -2403.150          39.000    20725388.425    86078568.721       -1868.727          41.000  
R07  20460862.362   109528660.762        -895.776          49.000    20460857.286    85188935.798        -696.783          49.000  
R14  22585439.261   120393372.278        1439.761          42.000    22585440.511    93639038.294        1119.456          38.000  
E24  26207661.737   137722193.353       -3662.944          43.000    26207661.866   105527431.259       -2806.687          48.000  
S31  38343114.780   201494527.315        -650.527          43.000  
G18  23422307.564   123085012.7971      -3231.763          34.000    23422300.858    95910747.328       -2518.622          33.000  
E36  24403370.056   128240637.989         278.843          46.000    24403372.027    98262358.098         213.646          52.000  
E04  26349317.170   138466603.728        1157.810          42.000    26349316.967   106097789.981         887.176          50.000  
G10  19621508.521   103111807.204        -118.075          50.000    19621505.835    80346870.601         -92.008          48.000  
E11  22597412.409   118750430.412       -1446.021          45.000    22597408.672    90990696.359       -1108.024          48.000  
E09  27355960.047   143756554.080        1940.864          42.000    27355961.042   110151110.424        1487.085          47.000  
G32  24054279.315   126406090.940        2394.165          44.000    24054275.933    98498255.307        1865.659          41.000  
> 2024 04 09 08 26 00.4990000  0 26                     
S33  39301842.820   206532724.646        -649.622          44.000  
G23  20822053.864   109420799.860       -2763.417          49.000    20822048.151    85263017.690       -2153.300          47.000  
E25  23582617.325   123927460.258       -1939.394          47.000    23582616.880    94957444.959       -1485.997          51.000  
G26  21618360.513   113605240.063       -3648.817          45.000    21618358.221    88523567.070       -2843.193          43.000  
G27  20662635.130   108582919.860        1258.258          49.000    20662632.006    84610055.046         980.511          46.000  
R22  20800371.833   111034148.095       -2148.919          48.000    20800366.891    86359797.036       -1671.474          43.000  
R23  20218311.424   108154357.601          80.187          49.000                                                                  
R12  22052563.563   117800776.196       -4626.635          44.000    22052561.287    91622891.939       -3598.523          44.000  
R08  20646136.620   110559129.835        2528.094          52.000    20646129.556    85990434.694        1966.150          49.000  
E02  25050046.788   131638919.737         734.709          44.000    25050046.880   100866221.891         563.002          48.000  
E12  26934630.697   141542647.997       -2572.119          33.000    26934627.106   108454918.505       -1970.964          37.000  
E10  24978532.319   131263310.696       -2221.408          46.000    24978531.831   100578505.358       -1702.203          49.000  
G08  22947988.542   120592488.915        2414.285          38.000    22947985.872    93968147.172        1881.870          37.000  
G16  20386248.816   107130484.207       -1335.016          47.000                                                                  
R13  20738953.116   110744772.609       -2424.906          38.000    20738948.965    86134892.228       -1886.026          41.000  
R07  20465957.879   109555936.608        -922.723          49.000    20465951.409    85210150.321        -717.682          48.000  
R14  22577397.995   120350498.790        1418.497          42.000    22577397.597    93605692.261        1103.007          37.000  
E24  26228580.743   137832123.138       -3665.678          43.000    26228580.406   105611663.179       -2808.802          47.000  
S31  38346827.911   201514039.656        -650.566          43.000  
G18  23440749.265   123181948.459       -3230.499          32.000    23440746.303    95986281.502       -2517.010          33.000  
E36  24401788.983   128232328.667         274.898          46.000    24401790.850    98255991.214         210.694          52.000  
E04  26342729.087   138431980.049        1150.264          42.000    26342727.523   106071260.165         881.457          49.000  
G10  19622242.669   103115663.701        -139.206          50.000    19622240.527    80349875.686        -108.441          48.000  
E11  22605673.951   118793844.154       -1448.201          45.000    22605670.187    91023961.439       -1109.535          48.000  
E09  27344871.313   143698283.280        1943.804          42.000    27344872.418   110106461.390        1489.344          48.000  
G32  24040608.780   126334251.168        2395.065          44.000    24040604.249    98442276.309        1866.239          40.000  
> 2024 04 09 08 26 30.4990000  0 26                     
S33  39305553.408   206552224.261        -649.928          44.000  
G23  20837872.772   109503927.908       -2778.241          49.000    20837867.116    85327792.796       -2164.923          48.000  
E25  23593727.079   123985839.261       -1952.218          47.000    23593726.054    95002176.911       -1495.856          51.000  
G26  21639217.727   113714846.352       -3658.078          45.000    21639215.645    88608974.601       -2850.518          44.000  
G27  20655474.050   108545290.292        1250.800          49.000    20655471.099    84580733.331         974.597          46.000  
R22  20812459.867   111098669.810       -2152.204          50.000    20812454.383    86409980.564       -1673.786          43.000  
R23  20217873.265   108152009.924          76.610          49.000                                                                  
R12  22078561.221   117939651.077       -4631.414          45.000    22078558.410    91730905.700       -3602.269          43.000  
R08  20632019.101   110483539.885        2511.639          50.000    20632012.346    85931642.529        1953.406          47.000  
E02  25045888.489   131617067.302         722.588          45.000    25045888.639   100849477.814         553.680          49.000  
E12  26949312.149   141619799.312       -2570.453          32.000    26949309.162   108514034.474       -1970.060          39.000  
E10  24991215.579   131329960.784       -2221.507          46.000    24991214.679   100629574.908       -1702.211          49.000  
G08  22934207.287   120520066.878        2413.823          38.000    22934204.103    93911714.443        1880.897          38.000  
G16  20393928.307   107170839.635       -1354.858          47.000                                                                  
R13  20752638.660   110817852.520       -2446.655          38.000    20752635.239    86191732.132       -1903.109          43.000  
R07  20471206.839   109584031.179        -949.872          50.000    20471200.045    85232001.653        -738.898          49.000  
R14  22569477.286   120308273.563        1397.037          40.000    22569473.322    93572850.471        1086.557          36.000  
E24  26249516.494   137942141.309       -3668.509          43.000    26249515.784   105695962.834       -2810.839          46.000  
S31  38350542.086   201533557.262        -650.373          43.000  
G18  23459196.600   123278876.021       -3230.615          35.000    23459187.468                       -2517.182          28.000  
E36  24400231.692   128224142.176         271.163          46.000    24400233.273    98249718.443         207.804          52.000  
E04  26336185.143   138397587.506        1142.621          43.000    26336182.532   106044907.424         875.640          48.000  
G10  19623097.928   103120159.161        -160.039          51.000    19623095.678    80353378.656        -124.802          48.000  
E11  22613949.195   118837330.770       -1450.369          44.000    22613945.421    91057282.361       -1111.381          49.000  
E09  27333766.856   143639932.296        1946.812          41.000    27333768.725   110061750.922        1491.654          48.000  
G32  24026934.437   126262393.687        2395.765          44.000    24026930.201    98386283.515        1866.729          41.000  
> 2024 04 09 08 27 00.4990000  0 26                     
S33  39309264.202   206571723.824        -649.775          44.000  
G23  20853776.526   109587504.414       -2793.356          49.000    20853770.945    85392917.324       -2176.667          47.000  
E25  23604908.748   124044600.975       -1965.084          47.000    23604908.137    95047202.114       -1505.692          51.000  
G26  21660128.579   113824734.615       -3667.551          46.000    21660126.889    88694601.824       -2857.864          44.000  
G27  20648356.121   108507886.700        1242.944          49.000    20648353.171    84551587.683         968.445          45.000  
R22  20824565.695   111163290.443       -2155.692          50.000    20824560.522    86460241.065       -1676.691          44.000  
R23  20217454.370   108149768.741          73.028          49.000                                                                  
R12  22104587.147   118078672.361       -4636.369          46.000    22104583.357    91839033.293       -3606.084          43.000  
R08  20617995.934   110408446.116        2494.806          50.000    20617988.241    85873236.252        1940.467          47.000  
E02  25041800.215   131595581.609         710.061          45.000    25041800.035   100833014.758         544.024          49.000  
E12  26963977.535                       -2569.405          28.000    26963982.228   108573113.673       -1968.691          40.000  
E10  25003898.599   131396611.999       -2221.670          46.000    25003898.312   100680645.329       -1702.299          49.000  
G08  22920430.865   120447670.192        2413.072          38.000    22920427.117    93855301.470        1880.467          37.000  
G16  20401720.435   107211790.794       -1374.957          46.000                                                                  
R13  20766446.788   110891587.952       -2468.458          40.000    20766444.342    86249081.877       -1920.004          43.000  
R07  20476606.867   109612939.508        -977.167          49.000    20476599.796    85254485.902        -759.973          48.000  
R14  22561675.209   120266692.991        1375.745          37.000    22561671.198    93540510.128        1069.487          35.000  
E24  26270468.203   138052240.595       -3671.392          43.000    26270466.847   105780324.655       -2812.950          46.000  
S31  38354256.403   201553075.086        -650.524          43.000  
G18  23477636.416   123375789.288       -3229.840          33.000    23477634.302    96137326.447       -2517.438          36.000  
E36  24398697.217   128216072.350         267.135          47.000    24398697.800    98243535.062         204.655          52.000  
E04  26329682.416   138363422.346        1135.116          41.000    26329680.756   106018728.933         869.759          48.000  
G10  19624073.882   103125287.975        -181.493          51.000    19624071.200    80357375.144        -141.309          48.000  
E11  22622237.733   118880884.048       -1452.874          45.000    22622233.251    91090654.361       -1113.368          49.000  
E09  27322647.035   143581497.487        1949.331          41.000    27322648.601   110016976.202        1493.649          47.000  
G32  24013255.840   126190515.832        2396.293          42.000    24013253.037    98330274.818        1867.339          41.000  
> 2024 04 09 08 27 30.4990000  0 26                     
S33  39312973.700   206591217.930        -649.478          44.000  
G23  20869764.224   109671521.579       -2807.761          49.000    20869759.528    85458385.249       -2187.936          48.000  
E25  23616162.412   124103739.235       -1977.359          46.000    23616161.898    95092515.830       -1515.155          51.000  
G26  21681092.060   113934896.646       -3676.551          46.000    21681089.308    88780442.379       -2864.608          43.000  
G27  20641281.128   108470705.905        1235.712          48.000    20641277.312    84522615.629         962.964          45.000  
R22  20836688.568   111228004.976       -2158.564          49.000    20836682.637    86510574.627       -1678.908          45.000  
R23  20217053.778   108147628.751          69.842          48.000                                                                  
R12  22130638.644   118217830.266       -4640.665          47.000    22130634.418    91947267.188       -3609.483          43.000  
R08  20604066.353   110333847.773        2478.522          51.000    20604057.809    85815215.361        1927.710          47.000  
E02  25037781.258   131574458.635         698.214          46.000    25037780.361   100816829.611         535.033          49.000  
E10  25016580.972   131463258.748       -2221.312          46.000    25016580.880   100731712.315       -1702.099          50.000  
G08  22906658.400   120375295.336        2412.154          38.000    22906654.762    93798905.527        1879.913          37.000  
G16  20409625.464   107253332.220       -1394.495          46.000                                                                  
R13  20780375.639   110965970.317       -2490.154          38.000    20780373.099    86306934.790       -1936.524          42.000  
R07  20482157.658   109642655.931       -1003.906          48.000    20482151.646    85277598.683        -780.768          49.000  
R14  22553996.628   120225754.655        1353.702          39.000    22553993.228    93508669.195        1053.134          35.000  
E24  26291432.822   138162413.897       -3673.310          42.000    26291432.026   105864743.193       -2814.818          47.000  
S31  38357969.419   201572587.336        -650.137          43.000  
G18  23496078.263   123472682.897       -3229.333          38.000    23496075.093    96212827.771       -2516.315          37.000  
E36  24397182.319   128208113.265         263.563          47.000    24397183.569    98237436.542         202.073          53.000  
E04  26323223.121   138329481.342        1127.574          41.000    26323222.124   105992722.180         864.172          48.000  
G10  19625170.141   103131044.922        -202.246          51.000    19625165.841    80361861.099        -157.673          47.000  
E11  22630536.681   118924498.056       -1454.574          45.000    22630532.652    91124072.878       -1114.510          48.000  
E09  27311510.922   143522975.427        1952.226          41.000    27311511.626   109972134.648        1495.781          47.000  
G32  23999572.710   126118615.393        2397.257          42.000    23999571.189    98274248.547        1868.334          42.000  
E12                                                                  26978643.787   108632152.008       -1967.209          40.000  
> 2024 04 09 08 28 00.4990000  0 26                     
S33  39316681.828   206610703.830        -649.184          44.000  
G23  20885835.513   109755973.766       -2821.999          50.000    20885830.520    85524192.134       -2199.046          48.000  
E25  23627485.900   124163249.859       -1989.500          46.000    23627486.478    95138114.897       -1524.609          51.000  
G26  21702105.747   114045326.290       -3685.184          45.000    21702103.183    88866491.450       -2871.605          43.000  
G27  20634247.833   108433746.828        1228.552          48.000    20634244.418    84493816.366         957.318          45.000  
R22  20848828.222   111292810.422       -2161.497          49.000    20848822.856    86560978.853       -1681.101          45.000  
R23  20216672.073   108145586.502          66.656          48.000                                                                  
R12  22156713.489   118357116.909       -4644.689          47.000    22156708.649    92055601.205       -3612.730          43.000  
R08  20590228.549   110259745.463        2461.938          51.000    20590219.666    85757580.263        1914.771          48.000  
E02  25033830.232   131553696.370         686.263          46.000    25033829.191   100800920.871         525.854          49.000  
E10  25029262.242   131529897.504       -2220.865          47.000    25029261.731   100782773.153       -1701.677          50.000  
G08  22892889.160   120302940.976        2411.662          38.000    22892886.939    93742525.563        1879.324          39.000  
G16  20417642.275   107295460.164       -1413.837          47.000                                                                  
R13  20794424.908   111040992.807       -2511.161          39.000    20794422.236    86365285.651       -1953.151          42.000  
R07  20487860.192   109673176.971       -1030.511          50.000    20487853.798    85301337.264        -801.471          48.000  
R14  22546438.615   120185457.070        1333.021          34.000    22546437.962    93477326.800        1036.293          36.000  
E24  26312412.069   138272656.331       -3675.592          43.000    26312410.572   105949214.658       -2816.346          47.000  
S31  38361680.811   201592091.101        -649.883          43.000  
G18  23514511.316   123569552.765       -3228.589          38.000    23514507.032    96288310.885       -2515.515          35.000  
E36  24395688.573   128200261.123         260.160          48.000    24395689.568    98231419.979         199.409          53.000  
E04  26316807.617   138295763.183        1120.435          41.000    26316806.287   105966886.218         858.551          49.000  
G10  19626383.576   103137426.822        -222.682          50.000    19626379.976    80366834.011        -173.492          47.000  
E11  22638846.597   118968168.911       -1456.179          45.000    22638842.787    91157534.952       -1115.656          48.000  
E09  27300356.665   143464364.837        1955.391          41.000    27300358.101   109927225.253        1498.356          46.000  
G32  23985886.474   126046692.307        2397.948          43.000    23985884.915    98218204.613        1868.436          42.000  
E12                                                                  26993294.855   108691147.049       -1965.715          40.000  
> 2024 04 09 08 28 30.4990000  0 26                     
S33  39320387.773   206630179.016        -648.936          44.000  
G23  20901987.965   109840855.782       -2836.572          49.000    20901982.970    85590333.959       -2210.363          48.000  
E25  23638880.010   124223129.248       -2002.202          45.000    23638881.460    95183996.508       -1534.176          52.000  
G26  21723170.418   114156017.971       -3693.945          45.000    21723167.507    88952744.726       -2878.595          44.000  
G27  20627257.224   108397008.957        1220.898          49.000    20627253.370    84465189.450         951.416          45.000  
R22  20860985.809   111357704.621       -2164.620          50.000    20860980.206    86611452.123       -1683.702          47.000  
R23  20216307.681   108143639.790          63.331          49.000                                                                  
R12  22182810.961   118496525.237       -4649.077          49.000    22182806.515    92164029.864       -3615.853          44.000  
R08  20576483.443   110186141.732        2445.032          51.000    20576475.637    85700332.955        1901.752          49.000  
E02  25029947.255   131533293.398         673.882          46.000    25029946.425   100785287.437         516.406          48.000  
E12  27007940.382                3      -2565.557          25.000    27007935.024   108750096.797       -1964.375          40.000  
E10  25041941.599   131596525.324       -2220.709          47.000    25041940.896   100833825.642       -1701.677          50.000  
G08  22879122.994   120230605.850        2410.730          37.000    22879122.252    93686160.502        1878.730          40.000  
G16  20425770.210   107338170.875       -1433.527          47.000                                                                  
R13  20808593.658   111116649.506       -2532.599          39.000    20808590.489    86424129.715       -1969.597          42.000  
R07  20493712.483   109704500.451       -1057.538          50.000    20493704.685    85325699.961        -822.546          48.000  
R14  22538995.012                        1311.157          32.000    22539000.545    93446482.807        1019.881          37.000  
E24  26333403.323   138382963.447       -3678.115          43.000    26333401.571   106033735.695       -2818.206          47.000  
S31  38365390.103   201611583.716        -649.495          43.000  
G18  23532939.809   123666396.078       -3227.795          39.000    23532936.359    96363773.157       -2515.302          37.000  
E36  24394214.062   128192512.727         256.365          48.000    24394214.920    98225482.915         196.493          53.000  
E04  26310434.042   138262267.176        1112.810          42.000    26310431.897   105941220.490         852.578          48.000  
G10  19627716.546   103144430.986        -243.891          50.000    19627712.951    80372291.799        -189.977          47.000  
E11  22647167.172   119011893.453       -1458.601          45.000    22647163.223    91191038.191       -1117.676          48.000  
E09  27289186.847   143405664.992        1958.313          41.000    27289187.794   109882247.498        1500.301          46.000  
G32  23972195.453   125974746.938        2398.475          44.000    23972194.599    98162143.312        1869.024          42.000  
> 2024 04 09 08 29 00.4990000  0 26                     
S33  39324091.284   206649641.946        -648.628          44.000  
G23  20918221.566   109926165.409       -2850.857          49.000    20918216.623    85656808.983       -2221.537          47.000  
E25  23650345.073   124283376.703       -2014.476          46.000    23650346.244    95230160.149       -1543.601          52.000  
G26  21744283.082   114266968.998       -3702.646          44.000    21744281.230    89039200.055       -2885.289          44.000  
G27  20620308.497   108360494.659        1213.287          49.000    20620305.633    84436736.770         945.319          46.000  
R22  20873159.213   111422688.121       -2167.745          51.000    20873154.390    86661994.839       -1685.948          47.000  
R23  20215961.561   108141788.572          60.073          49.000                                                                  
R12  22208929.824   118636051.077       -4652.658          48.000    22208925.602    92272549.960       -3618.868          44.000  
R08  20562832.695   110113041.081        2428.229          51.000    20562824.393    85643476.910        1888.611          47.000  
E02  25026133.231   131513251.177         661.919          46.000    25026132.498   100769930.413         507.217          48.000  
E12  27022567.028                       -2561.898          28.000    27022563.981   108809001.418       -1963.016          39.000  
E10  25054619.019   131663142.199       -2220.616          47.000    25054617.001   100884869.741       -1701.513          49.000  
G08  22865362.056   120158292.127        2410.124          38.000    22865361.313    93629812.178        1877.875          40.000  
G16  20434008.838   107381463.616       -1452.807          47.000                                                                  
R13  20822879.954   111192937.608       -2553.474          39.000    20822876.330    86483464.885       -1985.938          41.000  
R07  20499713.141   109736626.366       -1084.229          50.000    20499706.930    85350686.777        -843.390          48.000  
R14  22531677.897   120106787.550        1289.335          37.000    22531681.392    93416139.190        1002.104          33.000  
E24  26354405.722   138493333.811       -3680.078          43.000    26354404.257   106118305.213       -2819.995          47.000  
S31  38369097.435   201631066.285        -649.311          43.000  
G18  23551362.845   123763212.669       -3227.228          37.000    23551359.649    96439214.604       -2514.704          36.000  
E36  24392758.597   128184867.703         253.062          47.000    24392759.904    98219625.042         193.829          52.000  
E04  26304101.858   138228995.558        1105.322          42.000    26304100.935   105915726.685         846.807          49.000  
G10  19629167.796   103152057.608        -264.658          50.000    19629165.064    80378234.633        -206.156          47.000  
E11  22655497.916   119055671.404       -1460.330          45.000    22655493.567    91224582.351       -1119.000          48.000  
E09  27278000.458   143346878.130        1960.833          41.000    27278000.844   109837203.042        1502.482          47.000  
G32  23958501.719   125902782.650        2398.893          45.000    23958500.161    98106067.234        1869.455          42.000  
> 2024 04 09 08 29 30.4990000  0 27                     
S33  39327795.050   206669104.746        -648.855          44.000  
G23  20934538.500   110011910.033       -2865.518          48.000    20934532.765    85723622.969       -2232.864          46.000  
E25  23661881.418   124344001.151       -2027.209          47.000    23661882.794    95276612.659       -1553.276          52.000  
G26  21765446.460   114378186.339       -3711.639          43.000    21765444.896    89125862.922       -2892.199          44.000  
G27  20613405.413   108324216.017        1205.231          50.000    20613402.156    84408467.700         939.117          46.000  
R06  23896844.401                3      -3669.967          11.000                                                                  
R22  20885351.852   111487771.399       -2171.128          51.000    20885347.060    86712615.163       -1688.700          47.000  
R23  20215635.459   108140043.204          56.236          50.000                                                                  
R12  22235072.027   118775700.299       -4656.966          46.000    22235068.574    92381166.020       -3622.186          46.000  
R08  20549277.093   110040458.173        2410.571          51.000    20549270.073    85587023.578        1874.982          48.000  
E02  25022390.853   131493580.818         649.426          46.000    25022389.547   100754858.318         497.571          49.000  
E12  27037182.845                       -2559.712          27.000    27037184.156   108867868.530       -1961.321          40.000  
E10  25067295.335   131729757.672       -2220.447          47.000    25067293.824   100935912.767       -1701.441          50.000  
G08  22851608.440   120086011.445        2408.389          39.000    22851606.732    93573489.572        1876.515          40.000  
G16  20442359.355   107425347.723       -1472.791          46.000                                                                  
R13  20837285.674   111269863.550       -2575.105          39.000    20837281.634    86543296.120       -2002.466          40.000  
R07  20505866.632   109769564.364       -1111.560          50.000    20505858.887    85376305.264        -864.655          48.000  
R14  22524484.256   120068430.148        1267.576          34.000    22524474.478                1        986.229          29.000  
E24  26375422.471   138603775.644       -3682.638          43.000    26375420.299   106202929.475       -2821.725          46.000  
S31  38372804.593   201650547.457        -649.403          43.000  
G18  23569782.407   123860011.948       -3226.074          34.000    23569778.929    96514642.604       -2513.935          33.000  
E36  24391325.068   128177335.406         249.156          46.000    24391326.168    98213853.543         190.831          52.000  
E04  26297815.625   138195960.171        1097.264          42.000    26297814.545   105890413.902         840.620          49.000  
G10  19630739.499   103160316.493        -285.974          51.000    19630737.003    80384670.150        -222.882          48.000  
E11  22663840.154   119099511.971       -1462.320          45.000    22663836.191    91258174.465       -1120.453          47.000  
E09  27266799.512   143288016.038        1963.323          41.000    27266799.636   109792100.981        1504.289          47.000  
G32  23944806.981   125830812.420        2398.981          46.000    23944804.277    98049986.569        1869.426          42.000  
