     3.00           OBSERVATION DATA    M: Mixed            RINEX VERSION / TYPE
CONVBIN 2.4.3                           20240409 052942 UTC PGM / RUN BY / DATE 
format: u-blox UBX                                          COMMENT             
log: data/2024-04-09/20240409051500.ubx                     COMMENT             
AQUI00CHL                                                   MARKER NAME         
                                                            MARKER NUMBER       
                                                            MARKER TYPE         
                                                            OBSERVER / AGENCY   
UNKNOWN             UBLOX-ZED-F9P                           REC # / TYPE / VERS 
UNKNOWN             TWIVSP6037L                             ANT # / TYPE        
  1713381.0000 -5047934.0000 -3490983.0000                  APPROX POSITION XYZ 
        0.0000        0.0000        0.0000                  ANTENNA: DELTA H/E/N
G    8 C1C L1C D1C S1C C2L L2L D2L S2L                      SYS / # / OBS TYPES 
R    8 C1C L1C D1C S1C C2C L2C D2C S2C                      SYS / # / OBS TYPES 
E    8 C1C L1C D1C S1C C7Q L7Q D7Q S7Q                      SYS / # / OBS TYPES 
S    4 C1C L1C D1C S1C                                      SYS / # / OBS TYPES 
  2024    04    09    05    15   00.4940000     GPS         TIME OF FIRST OBS   
  2024    04    09    05    29   30.4940000     GPS         TIME OF LAST OBS    
                                                            END OF HEADER       
> 2024 04 09 05 15 00.4940000  0 24                     
S33  37829865.845   198797421.0171       -699.882          44.000  
G23  22050110.034   115874200.2051       2722.552          46.000    22050108.643    90291622.9251       2121.344          44.000  
E25  24250404.294   127436701.6091       1694.128          41.000    24250404.992    97646342.8401       1298.135          47.000  
G26  20245844.465   106392624.5011       2108.762          43.000    20245842.449    82903347.9051       1643.306          43.000  
R11  17231291.758    92078939.8071      -1036.794          50.000    17231285.480    71616812.4681       -806.520          50.000  
R22  18595098.582    99262239.7701       1112.627          50.000    18595095.008    77203866.1541        865.411          50.000  
R12  19806671.647   105803639.4741       2930.409          48.000    19806669.249    82291789.2701       2279.245          48.000  
G28  20090863.560   105578293.8991      -2734.725          45.000    20090860.108    82268708.2531      -2130.801          46.000  
E12  21750595.083   114300369.0571      -1267.288          43.000    21750592.252    87580966.5421       -971.086          49.000  
E10  21662377.497   113836799.4531         72.213          48.000    21662377.598    87225723.5411         55.339          53.000  
E31  23011275.959   120925410.2351      -2439.372          47.000    23011274.606    92657205.4031      -1869.203          46.000  
G12  22776876.372   119693601.1891      -3693.081          43.000    22776873.505    93267917.2121      -2877.715          40.000  
R20  21418884.791   114536742.4371      -4361.979          33.000    21418884.044    89084205.7181      -3392.161          37.000  
R10  19852236.492   105823577.1401      -4518.910          46.000                                                                  
R21  17870311.912    95628104.3881      -2321.044          51.000    17870306.734    74377238.6861      -1805.256          49.000  
E24  21627763.838   113654679.0551       -145.533          46.000    21627762.743    87086091.9701       -111.451          52.000  
S31  36874502.346   193776909.0321       -699.426          43.000  
G29  19748434.206   103779053.7201      -2148.083          46.000    19748430.073    80866933.2711      -1673.975          46.000  
G25  19796451.386   104031260.2871      -2940.338          47.000    19796447.457    81063420.1111      -2291.160          40.000  
G31  20042513.858   105324129.6341       -563.244          48.000    20042508.750    82070786.6891       -438.849          44.000  
G18  18454817.774    96980950.8821         58.776          47.000    18454813.180    75569722.7781         45.762          49.000  
G05  21666569.977   113858654.2261      -1386.799          43.000    21666562.600    88721024.5021      -1081.052          34.000  
E33  24792204.181   130284189.2421      -3350.786          45.000    24792202.056    99828336.7871      -2567.542          43.000  
E11  21878693.507   114973520.9621       1346.506          43.000    21878690.210    88096697.2631       1031.727          47.000  
> 2024 04 09 05 15 30.4940000  0 24                     
S33  37833861.785   198818422.569        -700.101          44.000  
G23  22034567.884   115792528.320        2722.601          46.000    22034566.638    90227982.946        2121.454          44.000  
E25  24240739.088   127385907.652        1692.018          41.000    24240739.311    97607422.808        1296.752          47.000  
G26  20233826.454   106329468.864        2101.893          44.000    20233824.548    82854135.737        1637.808          43.000  
R11  17237186.109    92110437.103       -1062.622          51.000    17237180.465    71641310.364        -826.457          50.000  
R22  18588893.013    99229107.221        1096.305          52.000    18588888.200    77178096.426         852.727          50.000  
R12  19790244.555   105715891.338        2919.600          48.000    19790242.292    82223540.734        2270.736          48.000  
G28  20106515.464   105660545.959       -2748.737          44.000    20106512.865    82332800.726       -2141.835          46.000  
E12  21757864.113   114338568.433       -1278.995          43.000    21757861.502    87610236.202        -980.083          49.000  
E10  21662001.908   113834822.547          59.762          48.000    21662001.511    87224208.775          45.798          53.000  
E31  23025226.514   120998721.905       -2447.823          47.000    23025225.564    92713379.271       -1875.467          46.000  
G12  22797979.208   119804492.100       -3699.391          45.000    22797975.292    93354325.515       -2882.334          39.000  
R20  21443347.915   114667559.383       -4359.582          34.000    21443346.595    89185952.304       -3391.090          36.000  
R10  19877704.026   105959333.965       -4531.485          47.000                                                                  
R21  17883362.351    95697937.847       -2334.218          52.000    17883356.810    74431553.595       -1815.497          49.000  
E24  21628621.075   113659182.093        -154.361          47.000    21628619.866    87089542.362        -118.312          52.000  
S31  36878496.629   193797899.557        -699.611          43.000  
G29  19760709.743   103843561.878       -2152.280          46.000    19760704.769    80917199.348       -1676.870          45.000  
G25  19813272.806   104119656.399       -2952.771          47.000    19813269.199    81132300.183       -2300.710          41.000  
G31  20045786.236   105341323.814        -582.805          48.000    20045779.916    82084184.732        -454.014          43.000  
G18  18454535.658    96979469.423          40.133          47.000    18454530.627    75568568.431          31.358          49.000  
G05  21674537.660   113900527.843       -1404.531          43.000    21674529.519    88753653.247       -1094.221          32.000  
E33  24811343.011   130384762.026       -3353.808          46.000    24811340.560    99905399.074       -2569.835          43.000  
E11  21871035.723   114933278.907        1336.804          43.000    21871032.194    88065862.477        1024.279          47.000  
> 2024 04 09 05 16 00.4940000  0 24                     
S33  37837858.671   198839425.842        -700.290          44.000  
G23  22019025.769   115710853.778        2722.308          45.000    22019024.141    90164340.884        2121.411          43.000  
E25  24231081.701   127335160.916        1690.526          41.000    24231082.579    97568538.971        1295.485          47.000  
G26  20221847.478   106266519.317        2094.892          44.000    20221845.948    82805084.159        1632.331          44.000  
R11  17243223.601    92142701.657       -1088.365          50.000    17243218.780    71666405.022        -846.591          50.000  
R22  18582776.501    99196460.060        1080.039          52.000    18582772.301    77152704.238         839.963          50.000  
R12  19773879.010   105628466.005        2908.552          48.000    19773875.638    82155543.283        2262.247          48.000  
G28  20122247.689   105743216.794       -2762.735          46.000    20122244.438    82397219.526       -2152.878          46.000  
E12  21765199.698   114377118.252       -1291.097          43.000    21765197.095    87639774.371        -989.195          49.000  
E10  21661696.083   113833215.812          47.325          48.000    21661695.530    87222977.646          36.214          53.000  
E31  23039223.507   121072280.467       -2456.077          46.000    23039223.752    92769742.332       -1882.028          47.000  
G12  22819116.856   119915571.160       -3705.815          44.000    22819111.906    93440880.523       -2888.093          38.000  
R20  21467801.824   114798317.334       -4357.501          33.000    21467798.613    89287652.912       -3389.069          36.000  
R10  19903241.902   106095464.382       -4543.966          46.000                                                                  
R21  17896484.178    95768159.854       -2347.408          51.000    17896479.408    74486170.708       -1825.719          48.000  
E24  21629529.280   113663950.074        -163.424          47.000    21629527.246    87093195.755        -125.313          52.000  
S31  36882491.792   193818891.955        -699.660          43.000  
G29  19773008.243   103908185.744       -2156.229          48.000    19773002.305    80967555.612       -1680.225          45.000  
G25  19830163.758   104208421.191       -2964.904          47.000    19830161.117    81201467.581       -2310.463          41.000  
G31  20049168.935   105359101.092        -602.365          48.000    20049162.882    82098037.151        -469.359          43.000  
G18  18454359.575    96978541.799          21.673          47.000    18454354.287    75567845.631          16.770          49.000  
G05  21682606.556   113942926.580       -1422.015          42.000    21682597.114                       -1107.677          29.000  
E33  24830497.984   130485421.833       -3356.835          46.000    24830495.652    99982527.995       -2572.212          43.000  
E11  21863431.997   114893324.568        1326.921          43.000    21863428.952    88035248.151        1016.646          47.000  
> 2024 04 09 05 16 30.4940000  0 25                     
S33  37841855.806   198860429.204        -699.921          44.000  
G23  22003482.209   115629177.680        2722.614          45.000    22003481.191    90100697.618        2121.423          44.000  
E25  24221434.153   127284460.857        1689.251          41.000    24221434.818    97529690.900        1294.462          47.000  
G26  20209908.373   106203776.396        2088.265          44.000    20209906.382    82756193.590        1626.903          43.000  
R11  17249405.428    92175731.686       -1113.699          51.000    17249399.209    71692095.038        -866.218          49.000  
R22  18576751.067    99164296.386        1064.297          51.000    18576747.012    77127688.044         827.678          51.000  
R12  19757573.787   105541365.596        2898.016          48.000    19757570.218    82087798.534        2254.087          48.000  
R05  22612945.167                3       1395.024          11.000                                                                  
G28  20138058.571   105826301.851       -2776.167          46.000    20138054.208    82461961.116       -2163.235          45.000  
E12  21772602.168   114416015.424       -1302.168          43.000    21772598.984    87669578.696        -997.847          49.000  
E10  21661460.205   113831977.172          35.240          48.000    21661459.714    87222028.562          27.004          52.000  
E31  23053268.480   121146083.979       -2464.104          46.000    23053267.931    92826293.044       -1888.102          47.000  
G12  22840290.134   120026835.991       -3711.732          44.000    22840285.333    93527580.222       -2892.263          39.000  
R20  21492244.584                       -4354.858          32.000    21492239.089    89389304.854       -3387.820          36.000  
R10  19928848.418   106231964.015       -4555.990          46.000                                                                  
R21  17909680.205    95838765.281       -2359.652          52.000    17909673.901    74541086.051       -1835.346          48.000  
E24  21630487.122   113668982.295        -172.054          48.000    21630484.713    87097051.611        -131.838          52.000  
S31  36886486.021   193839885.737        -699.616          43.000  
G29  19785327.550   103972923.607       -2159.678          48.000    19785321.608    81018000.707       -1682.935          45.000  
G25  19847125.157   104297552.101       -2976.925          47.000    19847120.877    81270920.181       -2319.983          39.000  
G31  20052661.786   105377459.157        -621.503          48.000    20052656.983    82112342.152        -484.508          44.000  
G18  18454287.619    96978165.979           3.405          46.000    18454282.570    75567552.797           2.591          49.000  
G05  21690774.012   113985848.779       -1439.238          42.000    21690767.411    88820059.1291      -1121.704          31.000  
E33  24849669.060   130586165.079       -3359.322          46.000    24849666.756   100059720.897       -2574.105          44.000  
E11  21855883.895   114853656.817        1317.582          43.000    21855880.246    88004853.398        1009.468          47.000  
> 2024 04 09 05 17 00.4940000  0 24                     
S33  37845851.970   198881430.425        -699.887          44.000  
G23  21987938.491   115547498.849        2722.583          45.000    21987938.121    90037052.218        2121.661          44.000  
E25  24211795.944   127233804.482        1687.965          42.000    24211795.134    97490876.302        1293.264          47.000  
G26  20198008.046   106141238.186        2081.297          45.000    20198005.822    82707462.530        1621.606          43.000  
R11  17255729.116    92209523.729       -1138.924          51.000    17255722.669    71718377.722        -885.846          49.000  
R22  18570814.112    99132611.713        1048.222          50.000    18570811.798    77103044.448         815.249          51.000  
R12  19741329.038   105454589.752        2887.302          48.000    19741325.518    82020306.257        2245.590          47.000  
G28  20153947.043   105909794.237       -2789.851          46.000    20153942.144    82527020.094       -2173.811          45.000  
E12  21780069.290   114455254.676       -1313.255          43.000    21780066.109    87699645.136       -1006.502          49.000  
E10  21661293.137   113831102.136          23.140          47.000    21661293.069    87221358.092          17.756          52.000  
E31  23067358.411   121220127.950       -2472.045          46.000    23067357.865    92883028.027       -1894.178          47.000  
G12  22861497.289   120138281.249       -3717.702          43.000    22861493.168    93614420.521       -2896.990          40.000  
R20  21516674.487                       -4352.979          31.000    21516667.124    89490902.680       -3385.711          36.000  
R10  19954523.300   106368824.905       -4567.913          46.000                                                                  
R21  17922945.683    95909746.861       -2372.172          52.000    17922937.878    74596293.947       -1844.973          47.000  
E24  21631494.643   113674275.623        -180.722          48.000    21631491.826    87101107.533        -138.460          52.000  
S31  36890480.588   193860875.035        -699.363          43.000  
G29  19797667.212   104037770.246       -2163.279          47.000    19797661.779    81068530.537       -1685.759          46.000  
G25  19864155.434   104387044.093       -2988.872          47.000    19864150.083    81340654.207       -2328.724          40.000  
G31  20056265.722   105396393.450        -640.562          48.000    20056260.353    82127096.104        -499.250          44.000  
G18  18454320.525    96978337.545         -14.711          48.000    18454315.294    75567686.480         -11.420          49.000  
G05  21699040.274   114029289.444       -1456.445          40.000    21699036.639    88853909.002       -1134.612          32.000  
E33  24868854.980   130686985.998       -3361.869          46.000    24868852.688   100136973.298       -2575.924          45.000  
E11  21848389.277   114814272.002        1308.543          43.000    21848385.691    87974675.447        1002.519          48.000  
> 2024 04 09 05 17 30.4940000  0 24                     
S33  37849846.853   198902423.173        -699.743          43.000  
G23  21972394.317   115465816.983        2722.839          44.000    21972393.660    89973404.439        2121.460          43.000  
E25  24202163.648   127183189.688        1686.482          41.000    24202163.495    97452093.569        1292.322          47.000  
G26  20186146.587   106078903.762        2074.451          45.000    20186143.734    82658890.262        1616.311          43.000  
R11  17262193.818    92244074.478       -1164.345          50.000    17262188.270    71745250.519        -905.437          49.000  
R22  18564967.977    99101402.677        1032.451          50.000    18564964.891    77078770.798         803.033          51.000  
R12  19725144.268   105368139.358        2876.232          47.000    19725141.696    81953067.092        2237.070          47.000  
G28  20169912.240   105993687.910       -2802.992          47.000    20169907.153    82592391.759       -2184.272          45.000  
E12  21787600.133   114494831.461       -1324.722          43.000    21787597.188    87729970.215       -1015.074          49.000  
E10  21661195.678   113830587.117          11.373          47.000    21661194.931    87220963.485           8.687          52.000  
E31  23081494.056   121294408.920       -2479.790          46.000    23081493.733    92939944.608       -1900.233          47.000  
G12  22882737.608   120249902.194       -3723.565          43.000    22882733.841    93701397.725       -2901.317          40.000  
R20  21541086.461                       -4350.274          27.000    21541081.176    89592441.920       -3383.687          37.000  
R10  19980264.821   106506040.649       -4579.607          46.000                                                                  
R21  17936277.626    95981098.365       -2384.373          51.000    17936271.269    74651789.581       -1854.585          47.000  
E24  21632551.238   113679827.842        -189.290          48.000    21632548.495    87105361.838        -145.021          51.000  
S31  36894473.383   193881857.061        -699.266          43.000  
G29  19810026.437   104102722.090       -2166.750          47.000    19810021.846    81119142.372       -1688.302          46.000  
G25  19881252.009   104476893.063       -3000.681          45.000    19881248.482    81410666.385       -2338.299          41.000  
G31  20059977.364   105415900.124        -659.540          47.000    20059971.713    82142296.110        -513.852          43.000  
G18  18454457.211    96979052.957         -32.826          48.000    18454452.481    75568243.973         -25.587          50.000  
G05  21707403.117   114073244.634       -1473.399          40.000    21707400.948                       -1147.647          32.000  
E33  24888054.281   130787879.569       -3364.240          45.000    24888052.303   100214281.352       -2577.727          45.000  
E11  21840947.699   114775167.558        1298.815          43.000    21840944.604    87944712.326         995.170          48.000  
> 2024 04 09 05 18 00.4940000  0 24                     
S33  37853841.078   198923413.672        -699.664          43.000  
G23  21956851.314   115384139.743        2722.467          44.000    21956850.771    89909760.231        2121.368          44.000  
E25  24192540.863   127132622.390        1684.650          41.000    24192540.721    97413347.221        1290.847          47.000  
G26  20174324.802   106016780.074        2067.255          46.000    20174321.393    82610482.211        1610.851          42.000  
R11  17268803.222    92279389.235       -1190.027          51.000    17268797.000    71772717.549        -925.433          49.000  
R22  18559212.103    99070673.804        1016.325          51.000    18559208.790    77054870.630         790.347          51.000  
R12  19709022.742   105282022.833        2864.882          47.000    19709020.179    81886087.580        2228.289          47.000  
G28  20185953.045   106077984.840       -2816.544          46.000    20185948.568    82658077.643       -2194.626          45.000  
E12  21795196.604   114534749.290       -1336.184          44.000    21795193.212    87760556.603       -1023.844          49.000  
E10  21661167.249   113830436.522          -1.102          48.000    21661166.100    87220848.101          -0.857          52.000  
E31  23095675.178   121368931.367       -2488.066          47.000    23095675.413    92997046.209       -1906.457          48.000  
G12  22904012.312   120361702.036       -3729.514          43.000    22904008.650    93788514.327       -2906.047          38.000  
R20  21565483.782                3      -4349.017          25.000    21565481.433    89693924.767       -3381.881          36.000  
R10  20006072.819   106643612.444       -4591.531          45.000                                                                  
R21  17949679.797    96052821.524       -2396.892          50.000    17949673.893    74707574.243       -1864.200          47.000  
E24  21633658.053   113685644.745        -198.456          47.000    21633655.475    87109818.948        -152.026          51.000  
S31  36898465.711   193902837.957        -699.048          43.000  
G29  19822406.905   104167783.189       -2170.460          47.000    19822402.222    81169839.345       -1691.384          45.000  
G25  19898418.346   104567102.921       -3012.968          45.000    19898415.841    81480959.727       -2347.998          42.000  
G31  20063799.360   105435983.748        -679.036          48.000    20063793.411    82157945.674        -529.036          43.000  
G18  18454697.415    96980316.673         -51.277          48.000    18454693.353    75569228.680         -39.936          50.000  
G05  21715867.456   114117718.640       -1490.848          40.000    21715859.488                3      -1160.316          24.000  
E33  24907268.001   130888848.851       -3366.716          46.000    24907265.750   100291647.436       -2579.917          45.000  
E11  21833561.548   114736348.622        1289.034          43.000    21833557.648    87914967.988         987.726          48.000  
> 2024 04 09 05 18 30.4940000  0 25                     
S33  37857833.913   198944395.652        -699.353          44.000  
G23  21941308.406   115302463.900        2722.211          43.000    21941306.950    89846117.089        2121.387          42.000  
E25  24182925.793   127082097.613        1683.299          41.000    24182926.085    97374633.460        1289.723          47.000  
G26  20162542.165   105954863.315        2060.213          46.000    20162539.042    82562235.435        1605.324          42.000  
R11  17275553.732    92315462.199       -1215.198          51.000    17275548.022    71800774.286        -945.218          50.000  
R22  18553544.802    99040418.705        1000.408          52.000    18553540.898    77031338.880         778.193          51.000  
R12  19692964.471   105196238.103        2853.712          48.000    19692960.910    81819366.115        2219.463          47.000  
G28  20202069.515   106162676.088       -2829.729          45.000    20202064.417    82724070.780       -2205.117          44.000  
E12  21802856.336   114575000.759       -1347.528          44.000    21802852.625    87791398.632       -1032.471          49.000  
E10  21661206.876   113830643.828         -13.101          48.000    21661205.581    87221006.962         -10.065          52.000  
E31  23109900.910   121443688.887       -2496.149          46.000    23109901.055    93054327.901       -1912.496          48.000  
G12  22925319.792   120473674.016       -3735.603          43.000    22925316.442    93875765.078       -2910.693          38.000  
R20  21589858.986                3      -4343.865          23.000    21589867.031    89795344.967       -3379.637          37.000  
R10  20031945.951   106781530.989       -4603.183          46.000                                                                  
R21  17963151.537    96124906.932       -2408.977          51.000    17963145.645    74763640.668       -1873.678          48.000  
E24  21634814.130   113691721.204        -207.176          47.000    21634811.679    87114474.935        -158.703          51.000  
S31  36902456.359   193923808.786        -699.040          43.000  
G29  19834807.288   104232946.712       -2173.997          47.000    19834802.588    81220616.135       -1694.089          45.000  
G25  19915651.526   104657666.578       -3024.896          44.000    19915649.047    81551528.836       -2357.085          42.000  
G31  20067729.350   105456637.505        -698.120          47.000    20067722.936    82174039.489        -544.070          43.000  
G18  18455041.177    96982122.195         -69.398          48.000    18455036.504    75570635.577         -54.084          50.000  
G05  21724429.306   114162706.154       -1508.178          41.000    21724430.702                       -1175.489          28.000  
E33  24926494.502   130989886.041       -3369.303          45.000    24926492.280   100369065.537       -2581.667          45.000  
E11  21826227.940   114697809.744        1279.921          43.000    21826223.931    87885438.225         980.692          48.000  
R05                                                                  22591348.576                3        713.766          14.000  
> 2024 04 09 05 19 00.4940000  0 24                     
S33  37861826.725   198965378.042        -699.246          44.000  
G23  21925769.205   115220802.306        2722.082          43.000    21925766.766    89782485.076        2121.198          42.000  
E25  24173320.901   127031626.453        1681.783          40.000    24173321.662    97335960.777        1288.532          47.000  
G26  20150800.962   105893165.642        2053.201          45.000    20150798.445    82514159.334        1599.729          42.000  
R11  17282448.212    92352303.548       -1240.517          51.000    17282442.894    71829428.672        -964.993          50.000  
R22  18547967.045    99010647.123         984.567          51.000    18547964.037    77008183.210         765.856          51.000  
R12  19676970.734   105110799.175        2842.417          49.000    19676966.489    81752913.630        2210.767          47.000  
G28  20218261.815   106247768.653       -2842.756          45.000    20218257.070    82790376.638       -2215.145          44.000  
E12  21810581.185   114615594.441       -1358.605          44.000    21810577.333    87822502.890       -1041.001          49.000  
E10  21661316.110   113831218.529         -24.893          48.000    21661315.119    87221447.341         -19.115          52.000  
E31  23124173.751   121518691.030       -2503.821          47.000    23124173.283    93111797.090       -1918.474          48.000  
G12  22946661.867   120585826.391       -3741.172          44.000    22946659.119    93963156.339       -2915.088          37.000  
R20  21614239.977                3      -4342.016          25.000    21614238.457    89896708.992       -3377.365          36.000  
R10  20057885.168   106919803.065       -4614.671          44.000                                                                  
R21  17976692.538    96197361.536       -2421.021          52.000    17976685.550    74819994.255       -1882.996          48.000  
E24  21636021.168   113698068.127        -215.851          47.000    21636019.464    87119338.163        -165.363          51.000  
S31  36906447.461   193944781.729        -698.914          43.000  
G29  19847228.959   104298222.160       -2177.513          48.000    19847223.980    81271480.117       -1696.838          45.000  
G25  19932953.920   104748593.077       -3036.717          45.000    19932952.522    81622380.646       -2366.459          43.000  
G31  20071769.373   105477871.072        -717.136          48.000    20071762.909    82190585.128        -558.918          42.000  
G18  18455489.266    96984479.046         -87.579          47.000    18455484.822    75572472.103         -68.216          50.000  
G05  21733089.090   114208215.837       -1525.620          36.000    21733085.579                3      -1189.292          24.000  
E33  24945736.236   131090999.302       -3371.479          46.000    24945733.865   100446541.933       -2583.344          47.000  
E11  21818948.308   114659561.271        1270.364          42.000    21818945.432    87856130.989         973.441          48.000  
> 2024 04 09 05 19 30.4940000  0 24                     
S33  37865818.758   198986356.788        -699.264          43.000  
G23  21910231.477   115139152.176        2721.441          45.000    21910229.606    89718861.975        2120.459          43.000  
E25  24163726.163   126981204.373        1679.710          40.000    24163726.880    97297325.688        1287.184          47.000  
G26  20139100.746   105831683.679        2045.816          45.000    20139098.712    82466251.334        1594.088          43.000  
R11  17289485.567    92389907.596       -1266.147          51.000    17289479.070    71858676.246        -984.764          49.000  
R22  18542478.890    98981353.039         968.536          51.000    18542475.875    76985398.939         753.295          51.000  
R12  19661041.037   105025704.085        2830.651          50.000    19661036.802    81686728.593        2201.704          47.000  
G28  20234529.242   106333254.085       -2856.006          45.000    20234523.813    82856988.632       -2225.439          44.000  
E12  21818369.492   114656523.333       -1369.936          44.000    21818365.914    87853863.998       -1049.670          49.000  
E10  21661494.611   113832154.575         -37.313          48.000    21661493.528    87222164.579         -28.528          52.000  
E31  23138491.170   121593931.859       -2512.033          47.000    23138491.173    93169449.146       -1924.774          48.000  
G12  22968037.539   120698152.693       -3746.894          43.000    22968033.520    94050683.140       -2919.942          37.000  
R20  21638593.563                3      -4356.132          15.000    21638594.792    89998010.563       -3375.752          36.000  
R10  20083889.687   107058419.610       -4626.314          44.000                                                                  
R21  17990298.449    96270176.272       -2433.137          51.000    17990292.604    74876627.949       -1892.407          47.000  
E24  21637279.445   113704680.861        -224.908          46.000    21637277.740    87124405.052        -172.314          51.000  
S31  36910437.523   193965749.521        -698.754          43.000  
G29  19859670.359   104363603.007       -2181.108          47.000    19859664.712    81322426.224       -1699.483          45.000  
G25  19950325.008   104839875.758       -3048.629          45.000    19950323.545    81693509.996       -2375.613          44.000  
G31  20075919.343   105499677.881        -736.380          48.000    20075913.362    82207577.439        -573.777          43.000  
G18  18456042.044    96987381.179        -105.823          48.000    18456036.508    75574733.506         -82.553          50.000  
G05  21741847.601   114254241.477       -1542.873          38.000    21741848.766                       -1202.051          30.000  
E33  24964990.043   131192181.213       -3373.892          45.000    24964988.138   100524070.953       -2585.137          47.000  
E11  21811724.103   114621597.975        1260.578          42.000    21811721.240    87827042.288         965.854          48.000  
> 2024 04 09 05 20 00.4940000  0 24                     
S33  37869809.970   199007331.825        -699.312          44.000  
G23  21894697.217   115057518.846        2720.611          45.000    21894694.977    89655251.947        2120.093          43.000  
E25  24154140.917   126930834.857        1678.029          40.000    24154141.790    97258730.895        1285.719          47.000  
G26  20127443.028   105770422.061        2038.295          45.000    20127440.905    82418515.027        1588.115          42.000  
R11  17296665.552    92428277.041       -1291.876          51.000    17296659.026    71888519.113       -1004.854          49.000  
R22  18537081.396    98952538.580         952.338          51.000    18537077.766    76962987.727         740.651          51.000  
R12  19645176.517   104940959.217        2818.782          49.000    19645172.572    81620815.937        2192.433          47.000  
G28  20250870.647   106419131.818       -2869.150          45.000    20250866.399    82923906.322       -2235.542          43.000  
E12  21826221.555   114697788.606       -1381.249          43.000    21826218.540    87885482.843       -1058.304          49.000  
E10  21661742.199   113833453.881         -49.386          49.000    21661740.973    87223160.168         -37.880          53.000  
E31  23152854.115   121669413.398       -2520.051          46.000    23152854.893    93227285.640       -1930.886          48.000  
G12  22989445.643   120810653.969       -3752.621          41.000    22989442.124    94138346.279       -2924.742          37.000  
R10  20109958.689   107197379.675       -4637.833          44.000                                                                  
R21  18003972.717    96343350.613       -2445.145          51.000    18003966.625    74933541.341       -1901.736          47.000  
E24  21638588.354   113711562.704        -234.021          46.000    21638587.195    87129678.158        -179.307          51.000  
S31  36914427.010   193986714.818        -698.693          43.000  
G29  19872132.488   104429090.702       -2184.768          47.000    19872127.156    81373455.585       -1702.351          45.000  
G25  19967762.806   104931516.050       -3060.719          44.000    19967761.457    81764917.973       -2385.056          42.000  
G31  20080178.393   105522059.771        -755.814          48.000    20080173.163    82225017.872        -588.937          44.000  
G18  18456698.071    96990830.460        -124.168          49.000    18456693.229    75577421.287         -96.818          51.000  
G05  21750705.066   114300784.245       -1560.289          36.000    21750702.816                       -1215.559          28.000  
E33  24984257.535   131293432.498       -3376.269          44.000    24984255.645   100601653.097       -2587.021          48.000  
E11  21804554.276   114583922.869        1251.078          42.000    21804551.800    87798174.376         958.607          48.000  
R20                                                                  21662935.409    90099249.211       -3373.266          34.000  
> 2024 04 09 05 20 30.4940000  0 25                     
S33  37873800.652   199028303.175        -699.057          44.000  
G23  21879165.814   114975903.682        2720.210          44.000    21879164.078    89591656.073        2119.605          44.000  
E25  24144566.021   126880517.555        1676.285          40.000    24144566.659    97220176.097        1284.475          47.000  
G26  20115827.603   105709381.489        2030.971          47.000    20115825.166    82370950.961        1582.460          42.000  
R11  17303988.721    92467410.134       -1317.178          52.000    17303982.956    71918955.991       -1024.497          50.000  
R22  18531772.757    98924201.788         936.546          51.000    18531768.589    76940948.020         728.491          50.000  
R12  19629377.238   104856567.147        2807.152          49.000    19629374.428    81555177.671        2183.395          47.000  
G28  20267286.557   106505397.455       -2881.981          45.000    20267282.011    82991126.280       -2245.597          43.000  
E12  21834137.178   114739387.352       -1392.363          43.000    21834134.355    87917357.209       -1066.709          49.000  
E10  21662057.743   113835114.457         -61.422          48.000    21662056.943    87224432.562         -47.026          53.000  
E31  23167263.624   121745133.797       -2528.203          45.000    23167263.720    93285305.136       -1936.972          48.000  
G12  23010887.309   120923327.247       -3758.807          41.000    23010884.465    94226143.394       -2928.891          38.000  
R20  21687276.581                3      -4330.582          22.000    21687260.033    90200422.228       -3371.406          32.000  
R10  20136091.492   107336678.336       -4649.011          44.000                                                                  
R21  18017714.179    96416879.680       -2456.892          52.000    18017707.986    74990730.604       -1910.807          47.000  
E24  21639949.129   113718713.121        -242.889          46.000    21639947.785    87135157.036        -186.067          51.000  
S31  36918415.742   194007676.031        -698.571          43.000  
G29  19884614.324   104494683.869       -2188.010          47.000    19884608.859    81424567.136       -1705.031          45.000  
G25  19985269.276   105023511.399       -3072.362          44.000    19985267.243    81836602.638       -2393.973          41.000  
G31  20084546.912   105545014.700        -774.550          47.000    20084541.355    82242904.797        -603.589          44.000  
G18  18457458.801    96994824.944        -142.368          48.000    18457453.546    75580533.869        -110.866          50.000  
G05  21759655.429   114347842.484       -1577.703          31.000    21759659.656    89102152.1941      -1229.397          32.000  
E33  25003537.131   131394749.855       -3378.338          44.000    25003536.027   100679285.874       -2588.586          48.000  
E11  21797439.591   114546534.761        1241.617          42.000    21797437.103    87769526.359         951.333          48.000  
R05                                                                  22571648.751                3        653.633          11.000  
> 2024 04 09 05 21 00.4940000  0 24                     
S33  37877791.735   199049275.125        -698.938          44.000  
G23  21863640.171   114894314.159        2719.071          45.000    21863637.894    89528080.172        2118.804          44.000  
E25  24135002.178   126830258.116        1674.431          40.000    24135002.777    97181665.625        1283.066          47.000  
G26  20104255.434   105648568.727        2023.412          47.000    20104252.484    82323564.409        1576.552          42.000  
R11  17311456.475    92507311.789       -1342.762          52.000    17311450.364    71949990.619       -1044.483          50.000  
R22  18526555.269    98896346.896         920.437          51.000    18526550.620    76919283.153         715.940          50.000  
R12  19613646.467   104772536.112        2794.966          49.000    19613643.470    81489820.198        2173.901          47.000  
G28  20283777.374   106592052.569       -2894.920          46.000    20283771.887    83058649.726       -2255.738          43.000  
E12  21842117.012   114781322.677       -1403.441          43.000    21842114.296    87949489.483       -1075.360          49.000  
E10  21662442.938   113837140.338         -73.605          48.000    21662442.532    87225984.876         -56.389          53.000  
E31  23181719.031   121821097.112       -2535.920          45.000    23181718.809    93343510.797       -1943.145          48.000  
G12  23032361.162   121036175.455       -3764.342          40.000    23032359.387    94314076.871       -2933.429          39.000  
R10  20162287.041   107476316.432       -4660.254          44.000                                                                  
R21  18031521.711    96490765.075       -2468.704          52.000    18031515.912    75048197.031       -1920.236          48.000  
E24  21641362.200   113726137.550        -251.946          46.000    21641360.707    87140845.890        -193.074          51.000  
S31  36922404.657   194028637.697        -698.601          43.000  
G29  19897117.474   104560386.193       -2191.881          47.000    19897111.870    81475763.757       -1707.979          46.000  
G25  20002844.852   105115865.367       -3084.374          46.000    20002840.861    81908566.763       -2403.604          41.000  
G31  20089024.712   105568546.492        -794.042          46.000    20089019.218    82261241.237        -618.589          44.000  
G18  18458323.229    96999368.583        -160.587          48.000    18458318.254    75584074.386        -125.187          50.000  
G05  21768710.811   114395420.324       -1594.324          35.000    21768710.594    89139225.956       -1243.073          32.000  
E33  25022829.973   131496136.080       -3380.373          43.000    25022829.329   100756971.433       -2590.338          49.000  
E11  21790381.343   114509438.660        1231.427          43.000    21790378.127    87741102.100         943.674          48.000  
R20                                                                  21711571.118    90301532.148       -3369.328          33.000  
> 2024 04 09 05 21 30.4940000  0 24                     
S33  37881781.542   199070242.667        -698.940          44.000  
G23  21848118.781   114812749.505        2718.464          45.000    21848115.926    89464523.628        2118.163          44.000  
E25  24125448.082   126780053.961        1672.522          40.000    24125449.121    97143197.540        1281.511          47.000  
G26  20092726.307   105587982.354        2015.772          47.000    20092723.342    82276354.267        1570.686          42.000  
R11  17319065.958    92547977.578       -1368.260          51.000    17319060.517    71981619.531       -1064.091          50.000  
R22  18521427.228    98868969.683         904.569          52.000    18521421.425    76897989.793         703.531          50.000  
R12  19597983.997   104688866.162        2782.915          50.000    19597980.053    81424743.593        2164.424          46.000  
G28  20300340.537   106679090.547       -2907.692          45.000    20300335.341    83126471.502       -2265.611          44.000  
E12  21850159.990   114823589.580       -1414.377          43.000    21850157.488    87981875.816       -1083.860          49.000  
E10  21662897.348   113839527.317         -85.556          48.000    21662896.688    87227813.874         -65.551          53.000  
E31  23196219.426   121897299.319       -2544.148          45.000    23196219.863    93401899.511       -1949.288          48.000  
G12  23053868.540   121149194.121       -3770.273          39.000    23053866.514    94402143.135       -2937.944          39.000  
R10  20188544.920   107616286.900       -4671.162          45.000                                                                  
R21  18045393.998    96564999.903       -2480.320          52.000    18045387.806    75105935.241       -1929.124          47.000  
E24  21642826.155   113733833.271        -261.079          46.000    21642824.884    87146742.617        -200.091          51.000  
S31  36926393.030   194049595.832        -698.569          43.000  
G29  19909639.536   104626193.077       -2195.208          47.000    19909635.014    81527041.870       -1710.565          46.000  
G25  20020486.519   105208573.195       -3096.244          45.000    20020481.425    81980806.606       -2412.576          39.000  
G31  20093610.946   105592650.555        -813.113          45.000    20093605.924    82280023.617        -633.238          44.000  
G18  18459290.749    97004457.191        -178.739          49.000    18459286.272    75588039.554        -139.173          50.000  
G05  21777867.069   114443513.838       -1611.275          36.000    21777859.137    89176701.411       -1255.927          33.000  
E33  25042135.515   131597585.733       -3382.732          42.000    25042134.558   100834705.558       -2591.936          49.000  
E11  21783377.202   114472631.258        1222.132          43.000    21783373.890    87712899.060         936.349          49.000  
R20                                                                  21735866.451                       -3366.763          31.000  
> 2024 04 09 05 22 00.4940000  0 24                     
S33  37885771.709   199091209.452        -698.996          44.000  
G23  21832603.083   114731215.556        2717.138          44.000    21832599.599    89400991.013        2117.286          43.000  
E25  24115906.256   126729909.227        1670.349          41.000    24115906.733    97104774.986        1279.782          46.000  
G26  20081241.529   105527627.558        2007.754          48.000    20081238.382    82229324.555        1564.472          44.000  
R11  17326819.695    92589410.962       -1394.064          52.000    17326813.569    72013845.483       -1084.267          50.000  
R22  18516387.977    98842072.797         888.444          51.000    18516383.386    76877070.019         690.934          50.000  
R12  19582390.151   104605564.384        2770.466          50.000    19582386.248    81359953.352        2154.738          47.000  
G28  20316976.423   106766511.377       -2920.628          46.000    20316971.647    83194591.578       -2275.546          44.000  
E12  21858266.989   114866189.631       -1425.531          44.000    21858264.184    88014517.407       -1092.403          49.000  
E10  21663420.230   113842277.892         -97.951          48.000    21663419.873    87229921.454         -74.975          53.000  
E31  23210766.633   121973743.004       -2552.309          45.000    23210767.000    93460473.237       -1955.606          48.000  
G12  23075407.365   121262384.534       -3775.921          39.000    23075404.523    94490343.218       -2942.257          37.000  
R20  21760142.132                3      -4331.383          19.000    21760148.767                3      -3365.330          30.000  
R10  20214865.164   107756589.305       -4682.409          45.000                                                                  
R21  18059332.462    96639583.971       -2492.188          53.000    18059325.057    75163945.050       -1938.303          47.000  
E24  21644343.545   113741804.161        -270.482          47.000    21644341.576    87152850.175        -207.204          51.000  
S31  36930380.859   194070552.785        -698.853          44.000  
G29  19922182.465   104692107.166       -2199.123          47.000    19922177.990    81578403.467       -1713.542          46.000  
G25  20038195.072   105301636.812       -3108.112          44.000    20038191.320    82053323.702       -2421.921          40.000  
G31  20098307.063   105617329.318        -832.421          46.000    20098301.575    82299253.832        -648.450          43.000  
G18  18460362.912    97010093.189        -197.154          48.000    18460357.922    75592431.264        -153.584          49.000  
G05  21787118.084   114492124.175       -1629.293          34.000    21787108.425    89214579.664       -1270.022          33.000  
E33  25061453.584   131699100.083       -3385.110          42.000    25061452.302   100912489.261       -2593.764          49.000  
E11  21776428.276   114436115.905        1212.278          43.000    21776425.209    87684919.795         928.779          48.000  
> 2024 04 09 05 22 30.4940000  0 24                     
S33  37889761.227   199112176.368        -699.124          44.000  
G23  21817094.182   114649716.433        2715.733          44.000    21817089.975    89337485.499        2116.371          42.000  
E25  24106375.290   126679826.241        1668.242          41.000    24106376.178    97066399.728        1278.213          46.000  
G26  20069800.889   105467507.771        1999.779          48.000    20069798.404    82182477.995        1558.153          44.000  
R11  17334717.108    92631612.872       -1419.909          51.000    17334710.226    72046669.166       -1104.280          49.000  
R22  18511438.638    98815656.917         872.174          51.000    18511434.742    76856524.360         678.403          50.000  
R12  19566866.642   104522635.855        2757.762          50.000    19566862.070    81295453.398        2144.865          48.000  
G28  20333685.172   106854313.304       -2933.388          45.000    20333680.157    83263008.652       -2285.649          45.000  
E12  21866437.764   114909122.590       -1436.776          44.000    21866434.184    88047414.080       -1100.954          49.000  
E10  21664012.466   113845392.652        -110.104          47.000    21664012.430    87232308.111         -84.391          53.000  
E31  23225360.170   122050428.915       -2560.569          46.000    23225360.027    93519232.569       -1961.852          48.000  
G12  23096979.910   121375746.684       -3781.896          41.000    23096976.691    94578677.185       -2947.150          37.000  
R20  21784402.174                3      -4318.729          17.000    21784410.026                1      -3362.562          28.000  
R10  20241247.549   107897221.591       -4693.577          46.000                                                                  
R21  18073335.009    96714515.259       -2503.743          52.000    18073327.244    75222224.950       -1947.320          46.000  
E24  21645912.483   113750052.308        -279.742          47.000    21645911.169    87159170.189        -214.359          51.000  
S31  36934369.059   194091510.164        -699.084          44.000  
G29  19934745.709   104758129.021       -2202.793          47.000    19934741.381    81629849.090       -1716.457          46.000  
G25  20055972.706   105395056.340       -3120.486          45.000    20055968.499    82126118.126       -2431.486          40.000  
G31  20103112.937   105642583.270        -851.483          47.000    20103107.251    82318932.241        -663.763          43.000  
G18  18461539.875    97016277.182        -215.488          48.000    18461534.385    75597249.954        -167.898          49.000  
G05  21796468.472                       -1646.349          31.000    21796458.056    89252861.766       -1283.056          36.000  
E33  25080783.267   131800678.519       -3387.214          42.000    25080781.873   100990322.106       -2595.417          49.000  
E11  21769535.219   114399894.243        1202.218          43.000    21769532.344    87657165.562         921.046          48.000  
> 2024 04 09 05 23 00.4940000  0 25                     
S33  37893751.336   199133144.310        -699.001          44.000  
G23  21801592.547   114568255.570        2714.680          45.000    21801587.709    89274009.798        2115.615          41.000  
E25  24096857.136   126629806.617        1666.234          41.000    24096857.818    97028073.017        1276.714          46.000  
G26  20058405.871   105407625.760        1991.967          48.000    20058403.658    82135816.693        1552.395          44.000  
R11  17342757.941    92674583.541       -1445.201          51.000    17342752.219    72080090.793       -1124.037          50.000  
R22  18506580.264    98789722.087         856.464          51.000    18506576.294    76836352.862         666.149          49.000  
R12  19551412.935   104440085.083        2745.332          50.000    19551408.406    81231247.240        2135.174          48.000  
G28  20350464.853   106942493.820       -2945.644          44.000    20350460.347    83331720.704       -2295.244          45.000  
E12  21874670.301   114952387.547       -1447.592          44.000    21874667.357    88080565.159       -1109.306          49.000  
E10  21664674.604   113848871.593        -122.037          47.000    21664674.322    87234973.806         -93.520          53.000  
E31  23239999.640   122127357.135       -2568.455          47.000    23239998.864    93578177.568       -1967.958          48.000  
G12  23118584.547   121489279.756       -3787.090          44.000    23118581.992    94667144.284       -2951.165          40.000  
R20  21808654.366                3      -4309.936          15.000    21808654.479                       -3360.433          28.000  
R10  20267690.752   108038180.260       -4704.022          45.000                                                                  
R21  18087401.174    96789791.167       -2514.885          51.000    18087394.861    75280772.921       -1956.174          47.000  
E24  21647534.644   113758579.175        -288.971          46.000    21647533.955    87165703.760        -221.459          51.000  
S31  36938357.197   194112467.956        -698.546          44.000  
G29  19947330.033   104824258.272       -2206.061          48.000    19947325.779    81681378.400       -1719.111          46.000  
G25  20073817.405   105488831.149       -3131.871          44.000    20073812.706    82199189.427       -2440.500          39.000  
G31  20108027.988   105668411.602        -870.592          47.000    20108021.589    82339058.168        -678.246          42.000  
G18  18462821.274    97023008.997        -233.490          48.000    18462815.880    75602495.538        -181.958          49.000  
G05  21805918.476                       -1663.508          28.000    21805905.323    89291547.279       -1296.403          36.000  
E33  25100125.565   131902319.823       -3388.941          41.000    25100123.608   101068203.124       -2596.888          50.000  
E11  21762697.956   114363967.109        1192.425          42.000    21762695.396    87629636.998         913.852          48.000  
R05                                                                  22547536.386                3        370.576          12.000  
> 2024 04 09 05 23 30.4940000  0 26                     
S33  37897741.494   199154113.304        -699.049          44.000  
G23  21786098.531   114486837.342        2713.152          44.000    21786093.466    89210567.365        2113.828          41.000  
E25  24087351.276   126579853.007        1663.647          41.000    24087352.014    96989796.878        1274.933          47.000  
G26  20047056.981   105347985.234        1983.719          48.000    20047054.524    82089343.578        1545.839          44.000  
R11  17350943.944    92718324.476       -1470.985          52.000    17350937.774    72114111.517       -1144.150          50.000  
R22  18501812.611    98764269.345         840.237          52.000    18501807.860    76816556.273         653.525          50.000  
R05  22545149.296                3        727.072          11.000                                                                  
R12  19536030.788   104357917.287        2732.360          49.000    19536026.241    81167338.970        2125.148          48.000  
G28  20367316.412   107031051.417       -2958.304          42.000    20367312.438    83400726.566       -2305.239          45.000  
E12  21882966.227   114995984.592       -1458.841          43.000    21882963.445    88113970.683       -1117.844          49.000  
E10  21665406.457   113852715.627        -134.402          48.000    21665405.909    87237919.249        -102.971          53.000  
E31  23254683.727   122204528.683       -2576.568          46.000    23254684.252    93637309.030       -1974.159          48.000  
G12  23140221.414   121602983.784       -3793.138          41.000    23140219.706    94755744.620       -2955.466          37.000  
R20  21832882.869                3      -4319.464          21.000    21832887.811                3      -3356.149          25.000  
R10  20294195.211   108179463.661       -4714.901          44.000                                                                  
R21  18101532.841    96865410.113       -2526.450          52.000    18101526.481    75339587.651       -1965.012          47.000  
E24  21649211.282   113767387.093        -298.425          46.000    21649210.002    87172452.688        -228.651          51.000  
S31  36942345.723   194133427.497        -698.759          44.000  
G29  19959934.910   104890495.945       -2209.968          48.000    19959929.915    81732992.164       -1721.900          45.000  
G25  20091729.795   105582961.690       -3143.846          44.000    20091725.906    82272537.864       -2449.604          40.000  
G31  20113053.131   105694815.250        -889.905          48.000    20113046.211    82359632.420        -693.483          43.000  
G18  18464206.954    97030289.608        -251.924          48.000    18464202.086    75608168.750        -196.434          50.000  
E33  25119478.094   132004023.805       -3391.033          38.000    25119477.395   101146132.136       -2598.517          50.000  
E11  21755917.712   114328336.354        1182.693          42.000    21755914.839    87602335.542         906.277          48.000  
G05                                                                  21815450.382    89330637.024       -1309.897          35.000  
R06                                                                  22916457.066                3       2157.544          11.000  
> 2024 04 09 05 24 00.4940000  0 24                     
S33  37901732.430   199175085.639        -698.992          44.000  
G23  21770612.614   114405466.027        2711.462          44.000    21770609.325    89147161.418        2112.995          42.000  
E25  24077858.545   126529967.856        1661.786          41.000    24077859.185    96951573.229        1273.245          47.000  
G26  20035753.856   105288589.755        1975.753          48.000    20035751.854    82043061.396        1539.559          44.000  
R11  17359274.266    92762836.413       -1496.471          52.000    17359268.550    72148731.919       -1163.949          51.000  
R22  18497133.733    98739299.441         824.311          51.000    18497130.382    76797135.255         641.107          50.000  
R12  19520721.431   104276137.743        2719.459          49.000    19520716.905    81103732.695        2115.151          49.000  
G28  20384239.529   107119984.368       -2970.635          43.000    20384234.998    83470024.931       -2314.732          45.000  
E12  21891325.840   115039913.602       -1469.844          44.000    21891322.519    88147630.577       -1126.227          49.000  
E10  21666207.652   113856925.504        -146.446          48.000    21666206.986    87241145.011        -112.231          53.000  
E31  23269415.279   122281944.498       -2584.553          45.000    23269416.082    93696627.636       -1980.378          48.000  
G12  23161891.903   121716858.921       -3798.960          37.000    23161889.431    94844478.263       -2959.808          32.000  
R20  21857090.791                3      -4316.209          22.000    21857116.559                3      -3356.215          25.000  
R10  20320760.452   108321070.050       -4725.541          45.000                                                                  
R21  18115728.598    96941370.069       -2537.583          52.000    18115721.463    75398667.615       -1973.801          47.000  
E24  21650941.000   113776478.275        -307.785          47.000    21650940.032    87179418.664        -235.783          51.000  
S31  36946334.405   194154390.044        -698.911          44.000  
G29  19972559.949   104956842.743       -2213.256          47.000    19972555.268    81784690.954       -1724.637          45.000  
G25  20109710.191   105677448.111       -3155.319          44.000    20109707.251    82346163.631       -2458.842          41.000  
G31  20118187.357   105721794.588        -908.826          48.000    20118181.293    82380655.259        -708.237          43.000  
G18  18465697.030    97038119.435        -270.148          49.000    18465692.124    75614269.921        -210.480          50.000  
G05  21825109.990                3      -1697.438          27.000    21825094.610    89370131.045       -1322.719          35.000  
E33  25138844.215   132105790.041       -3393.316          37.000    25138842.235   101224108.845       -2600.028          49.000  
E11  21749194.679   114293003.689        1172.651          43.000    21749191.283    87575262.484         898.643          48.000  
> 2024 04 09 05 24 30.4940000  0 24                     
S33  37905723.250   199196057.303        -699.056          44.000  
G23  21755136.533   114324141.728        2709.958          44.000    21755133.514    89083792.124        2111.769          41.000  
E25  24068377.746   126480149.517        1659.530          40.000    24068379.111    96913400.766        1271.585          47.000  
G26  20024497.434   105229438.806        1967.572          48.000    20024495.969    81996969.761        1533.158          44.000  
R11  17367747.823    92808116.600       -1522.217          51.000    17367742.202    72183949.849       -1183.955          51.000  
R22  18492545.608    98714809.034         808.329          51.000    18492542.823    76778087.164         628.740          50.000  
R12  19505483.967   104194747.688        2706.304          48.000    19505480.397    81040429.333        2104.917          49.000  
G28  20401233.119   107209286.827       -2982.812          42.000    20401227.821    83539611.230       -2324.448          44.000  
E12  21899748.089   115084170.421       -1480.823          44.000    21899744.169    88181541.646       -1134.646          48.000  
E10  21667077.405   113861497.824        -158.446          48.000    21667077.178    87244648.496        -121.392          53.000  
E31  23284192.117   122359601.291       -2592.469          45.000    23284193.920    93756130.872       -1986.528          49.000  
G12  23183593.803   121830901.018       -3803.951          33.000    23183590.535                1      -2965.004          26.000  
R20  21881279.301                3      -4296.252          14.000    21881303.764                3      -3353.342          23.000  
R10  20347385.453   108462992.371       -4736.146          46.000                                                                  
R21  18129985.529    97017665.185       -2548.773          52.000    18129978.085    75458008.255       -1982.411          47.000  
E24  21652724.806   113785850.829        -317.149          47.000    21652723.585    87186600.235        -242.966          51.000  
S31  36950323.791   194175352.771        -698.836          44.000  
G29  19985205.695   105023295.530       -2216.940          48.000    19985200.668    81836472.364       -1727.672          45.000  
G25  20127757.109   105772286.466       -3167.117          44.000    20127755.495    82420063.607       -2467.760          43.000  
G31  20123429.851   105749346.243        -927.950          48.000    20123424.523    82402124.043        -722.981          43.000  
G18  18467290.332    97046495.118        -288.271          48.000    18467285.647    75620796.458        -224.705          50.000  
G05  21834852.137   114742978.1811      -1714.905          30.000    21834836.680    89410026.648       -1336.291          34.000  
E33  25158220.740   132207613.905       -3394.930          37.000    25158218.789   101302129.759       -2601.343          49.000  
E11  21742526.997   114257966.649        1162.751          43.000    21742524.051    87548415.953         890.922          48.000  
> 2024 04 09 05 25 00.4940000  0 24                     
S33  37909713.740   199217027.309        -699.197          44.000  
G23  21739669.722   114242865.457        2708.055          43.000    21739667.511    89020460.212        2110.272          41.000  
E25  24058910.350   126430397.169        1657.195          40.000    24058911.626    96875278.853        1269.689          47.000  
G26  20013288.066   105170532.643        1959.184          48.000    20013286.142    81951068.853        1526.631          44.000  
R11  17376364.511    92854162.151       -1547.837          51.000    17376358.542    72219763.043       -1203.929          51.000  
R22  18488048.096    98690795.467         792.295          52.000    18488044.438    76759409.983         616.208          51.000  
R12  19490319.778   104113748.793        2693.087          48.000    19490316.928    80977430.192        2094.740          49.000  
G28  20418295.532   107298953.807       -2995.203          43.000    20418290.275    83609481.566       -2333.736          43.000  
E12  21908230.970   115128751.464       -1491.674          44.000    21908227.596    88215701.155       -1142.862          48.000  
E10  21668016.514   113866430.036        -170.696          48.000    21668015.865    87248427.734        -130.776          53.000  
E31  23299014.954   122437496.664       -2600.739          45.000    23299017.002    93815816.904       -1992.728          49.000  
G12  23205327.286                       -3809.692          28.000    23205313.898                3      -2971.818          21.000  
R10  20374068.014   108605225.312       -4746.438          45.000                                                                  
R21  18144304.239    97094290.252       -2559.895          52.000    18144297.604    75517605.517       -1990.998          47.000  
E24  21654561.803   113795503.656        -326.699          47.000    21654560.540    87193996.560        -250.307          51.000  
S31  36954312.333   194196313.150        -698.732          44.000  
G29  19997871.179   105089851.528       -2220.536          49.000    19997865.221    81888334.167       -1730.216          44.000  
G25  20145870.665   105867473.681       -3179.032          45.000    20145868.673    82494235.412       -2477.220          43.000  
G31  20128780.393   105777467.411        -947.201          46.000    20128776.121    82424036.654        -738.092          44.000  
G18  18468987.389    97055414.003        -306.537          48.000    18468982.937    75627746.233        -238.931          49.000  
G05  21844685.064   114794690.229       -1732.619          33.000    21844677.394    89450321.795       -1349.952          37.000  
E33  25177606.506   132309491.828       -3396.681          33.000    25177605.874   101380192.079       -2602.895          50.000  
E11  21735915.063   114223223.632        1153.052          42.000    21735912.790    87521794.704         883.490          48.000  
R20                                                                  21905467.551                3      -3353.547          20.000  
> 2024 04 09 05 25 30.4940000  0 24                     
S33  37913703.693   199237995.593        -698.494          44.000  
G23  21724212.633   114161641.297        2706.762          42.000    21724212.006    88957168.911        2109.204          42.000  
E25  24049455.754   126380713.209        1655.188          41.000    24049457.028    96837209.322        1268.348          47.000  
G26  20002126.077   105111874.750        1951.531          48.000    20002123.928    81905361.408        1520.587          44.000  
R11  17385125.238    92900974.416       -1572.860          52.000    17385118.624    72256172.550       -1223.302          51.000  
R22  18483639.217    98667259.477         776.861          52.000    18483634.787    76741104.230         604.210          50.000  
R12  19475230.876   104033146.335        2680.345          48.000    19475227.801    80914739.404        2084.785          48.000  
G28  20435427.296   107388983.537       -3006.662          44.000    20435422.053    83679634.583       -2342.879          43.000  
E12  21916776.039   115173656.589       -1502.049          44.000    21916772.854    88250108.980       -1150.816          48.000  
E10  21669023.321   113871722.725        -182.039          48.000    21669023.137    87252483.170        -139.570          53.000  
E31  23313884.584   122515631.293       -2608.260          46.000    23313885.266    93875686.276       -1998.437          49.000  
R10  20400808.791   108747766.849       -4756.124          45.000                                                                  
R21  18158685.429    97171243.282       -2570.264          52.000    18158678.530    75577457.861       -1999.105          47.000  
E24  21656453.319   113805438.842        -335.555          48.000    21656451.096    87201609.234        -257.149          51.000  
S31  36958300.627   194217272.318        -698.421          44.000  
G29  20010556.572   105156511.223       -2223.443          49.000    20010549.782    81940276.793       -1732.432          43.000  
G25  20164050.151   105963009.794       -3190.121          44.000    20164048.985    82568679.106       -2485.969          43.000  
G31  20134239.938   105806157.959        -965.557          46.000    20134236.319    82446392.901        -752.342          45.000  
G18  18470788.018    97064876.558        -324.095          48.000    18470783.268    75635119.638        -252.533          49.000  
G05  21854620.636   114846915.201       -1748.739          34.000    21854617.405    89491016.650       -1362.718          39.000  
E33  25196999.325                       -3398.106          29.000    25197002.526   101458295.387       -2603.845          50.000  
E11  21729359.251   114188776.134        1143.459          42.000    21729357.531    87495399.901         876.301          48.000  
G12                                                                  23227092.796                3      -2974.914          19.000  
R20                                                                  21929623.585                3      -3344.943          18.000  
> 2024 04 09 05 26 00.4940000  0 24                     
S33  37917692.368   199258956.313        -698.896          44.000  
G23  21708765.838   114080466.006        2704.908          42.000    21708764.486    88893915.706        2107.660          42.000  
E25  24040013.517   126331092.504        1652.779          41.000    24040014.461    96799188.281        1266.405          47.000  
G26  19991010.026   105053461.153        1942.688          48.000    19991007.878    81859844.329        1513.905          44.000  
R11  17394027.563    92948546.104       -1598.595          52.000    17394021.490    72293172.749       -1243.383          51.000  
R22  18479318.441    98644194.196         760.771          52.000    18479314.455    76723164.564         591.721          51.000  
R12  19460215.849   103952937.691        2666.766          48.000    19460212.410    80852354.935        2074.088          48.000  
G28  20452627.178   107479366.679       -3018.951          44.000    20452621.714    83750062.978       -2352.455          44.000  
E12  21925381.790   115218878.155       -1513.050          44.000    21925378.420    88284759.269       -1159.234          48.000  
E10  21670097.448   113877369.051        -194.297          48.000    21670097.710    87256809.568        -148.860          53.000  
E31  23328797.104   122593998.519       -2616.277          46.000    23328798.204    93935733.874       -2004.699          49.000  
R10  20427605.164   108890607.159       -4766.560          45.000                                                                  
R21  18173125.028    97248514.699       -2581.296          51.000    18173118.707    75637557.842       -2007.658          47.000  
E24  21658396.262   113815651.019        -345.176          48.000    21658394.251    87209434.151        -264.520          51.000  
S31  36962287.605   194238223.868        -698.500          44.000  
G29  20023259.273   105223267.909       -2227.052          49.000    20023253.286    81992294.989       -1735.145          43.000  
G25  20182296.113   106058887.363       -3201.759          46.000    20182292.978    82643388.893       -2494.998          42.000  
G31  20139807.308   105835410.946        -984.653          47.000    20139802.177    82469187.429        -767.326          44.000  
G18  18472690.581    97074875.773        -342.390          47.000    18472686.116    75642911.250        -266.817          50.000  
G05  21864656.407   114899646.305       -1766.464          39.000    21864651.484    89532105.892       -1376.684          37.000  
E33  25216407.471   132513400.294       -3400.075          33.000    25216408.118   101536433.593       -2605.347          50.000  
E11  21722859.648   114154618.168        1133.307          42.000    21722857.500    87469226.947         868.405          48.000  
G12                                                                  23248873.733                3      -2973.986          16.000  
R20                                                                  21953768.761                3      -3351.887          16.000  
> 2024 04 09 05 26 30.4940000  0 24                     
S33  37921680.078   199279911.592        -698.532          44.000  
G23  21693329.618   113999345.281        2702.960          44.000    21693327.453    88830704.977        2106.324          41.000  
E25  24030583.717   126281539.007        1650.375          41.000    24030584.965    96761218.716        1264.767          47.000  
G26  19979941.955   104995296.790        1934.592          48.000    19979939.780    81814521.455        1507.446          45.000  
R11  17403071.778    92996880.002       -1623.877          51.000    17403066.137    72330765.774       -1263.095          50.000  
R22  18475085.234    98621601.545         745.029          51.000    18475081.182    76705592.535         579.552          50.000  
R12  19445275.437   103873129.694        2653.326          48.000    19445272.161    80790282.047        2063.858          48.000  
G28  20469893.996   107570102.916       -3030.608          44.000    20469889.409    83820766.482       -2361.208          45.000  
E12  21934047.776   115264417.357       -1523.510          44.000    21934044.394    88319652.949       -1167.229          49.000  
E10  21671239.708   113883371.070        -206.025          48.000    21671239.654    87261408.522        -157.955          53.000  
E31  23343754.999   122672600.536       -2624.116          46.000    23343755.556    93995961.372       -2010.665          49.000  
R10  20454456.314   109033745.044       -4776.291          45.000                                                                  
R21  18187624.963    97326104.270       -2591.619          51.000    18187618.016    75697905.289       -2015.704          47.000  
E24  21660393.554   113826143.829        -354.586          48.000    21660390.985    87217474.084        -271.690          52.000  
S31  36966273.517   194259170.499        -698.325          44.000  
G29  20035981.559   105290123.839       -2230.197          48.000    20035976.263    82044390.551       -1737.949          44.000  
G25  20200606.012   106155107.941       -3213.133          45.000    20200602.725    82718365.944       -2503.611          41.000  
G31  20145481.114   105865227.736       -1003.408          48.000    20145476.018    82492421.323        -781.975          44.000  
G18  18474695.972    97085413.639        -360.328          47.000    18474691.985    75651122.594        -280.824          50.000  
G05  21874787.333   114952884.744       -1783.297          38.000    21874781.647    89573590.371       -1389.261          35.000  
E33  25235821.033                       -3401.761          29.000    25235822.068   101614607.525       -2606.583          49.000  
E11  21716415.930   114120752.844        1123.784          43.000    21716413.160    87443278.217         861.154          48.000  
R05                                                                  23420573.170                3        245.586          16.000  
R20                                                                  21977887.739                3      -3351.838          21.000  
> 2024 04 09 05 27 00.4940000  0 23                     
S33  37925667.047   199300862.878        -698.350          44.000  
G23  21677904.543   113918282.597        2700.877          45.000    21677901.446    88767539.498        2104.471          41.000  
E25  24021167.825   126232054.360        1648.258          41.000    24021168.381    96723301.933        1262.899          47.000  
G26  19968921.776   104937384.469        1926.091          48.000    19968919.201    81769394.994        1500.959          44.000  
R11  17412259.218    93045975.707       -1649.197          52.000    17412254.445    72368951.312       -1282.801          51.000  
R22  18470942.062    98599481.579         729.379          52.000    18470937.025    76688388.130         567.253          50.000  
R12  19430410.012   103793726.704        2639.789          47.000    19430407.963    80728524.182        2053.258          49.000  
G28  20487227.950   107661189.670       -3042.059          44.000    20487222.781    83891743.129       -2370.500          45.000  
E12  21942773.980   115310273.268       -1533.965          44.000    21942770.672    88354789.304       -1175.407          49.000  
E10  21672449.778   113889728.676        -217.872          48.000    21672449.429    87266279.929        -166.952          53.000  
E31  23358757.202   122751437.379       -2632.009          45.000    23358758.095    94056368.798       -2016.638          49.000  
R10  20481363.753   109177177.629       -4786.166          44.000                                                                  
R21  18202182.002    97404009.402       -2602.152          50.000    18202176.742    75758498.173       -2023.911          48.000  
E24  21662443.357   113836918.542        -363.895          48.000    21662441.424    87225730.045        -278.947          52.000  
S31  36970258.552   194280112.502        -698.101          44.000  
G29  20048722.687   105357079.093       -2233.639          49.000    20048716.841    82096563.505       -1740.635          43.000  
G25  20218981.590   106251670.878       -3224.544          45.000    20218978.835    82793609.758       -2512.796          42.000  
G31  20151262.488   105895608.145       -1022.143          48.000    20151257.170    82516094.335        -796.429          43.000  
G18  18476803.645    97096489.832        -378.256          47.000    18476799.996    75659753.400        -294.865          51.000  
G05  21885013.341   115006630.638       -1799.988          36.000    21885009.104    89615470.256       -1402.924          36.000  
E11  21710026.982   114087180.949        1114.185          42.000    21710024.970    87417554.332         853.750          49.000  
E33                                                                  25255245.086   101692816.238       -2607.642          48.000  
R20                                                                  22001991.078                3      -3340.382          17.000  
> 2024 04 09 05 27 30.4940000  0 23                     
S33  37929652.927   199321808.890        -697.921          44.000  
G23  21662490.085   113837280.867        2699.073          44.000    21662486.790    88704421.483        2103.143          40.000  
E25  24011764.826   126182639.714        1646.078          42.000    24011764.898    96685438.798        1261.197          46.000  
G26  19957949.881   104879726.501        1917.748          48.000    19957947.146    81724466.714        1494.492          44.000  
R11  17421589.892    93095833.086       -1674.520          52.000    17421585.021    72407729.271       -1302.457          51.000  
R22  18466886.448    98577833.560         713.812          51.000    18466882.368    76671550.808         555.182          50.000  
R12  19415622.707   103714732.658        2626.358          48.000    19415620.579    80667084.391        2042.714          49.000  
G28  20504627.067   107752623.838       -3053.498          43.000    20504622.110    83962990.474       -2379.194          45.000  
E12  21951560.168   115356444.384       -1544.243          44.000    21951556.491    88390167.180       -1183.216          49.000  
E10  21673727.797   113896441.226        -229.631          49.000    21673726.911    87271423.322        -175.939          53.000  
E31  23373803.693   122830508.554       -2639.354          45.000    23373804.666    94116955.797       -2022.466          49.000  
R10  20508325.525   109320901.510       -4795.432          45.000                                                                  
R21  18216799.609    97482226.811       -2612.384          51.000    18216794.360    75819333.954       -2031.771          48.000  
E24  21664547.664   113847976.073        -373.185          48.000    21664545.489    87234202.693        -285.983          52.000  
S31  36974242.802   194301048.699        -697.565          44.000  
G29  20061483.026   105424133.018       -2236.745          49.000    20061477.823    82148813.288       -1742.997          43.000  
G25  20237421.930   106348574.911       -3235.842          45.000    20237419.338    82869119.369       -2521.278          42.000  
G31  20157150.114   105926551.112       -1040.785          47.000    20157145.278    82540205.740        -810.852          43.000  
G18  18479013.987    97108103.539        -395.952          47.000    18479009.855    75668803.049        -308.606          51.000  
G05  21895337.415   115060883.089       -1816.711          38.000    21895333.818    89657744.907       -1415.942          37.000  
E11  21703694.776   114053902.778        1104.352          43.000    21703692.590    87392055.518         846.215          49.000  
E33                                                                  25274676.691   101771058.431       -2608.517          49.000  
R20                                                                  22026051.837                3      -3331.550          16.000  
> 2024 04 09 05 28 00.4940000  0 22                     
S33  37933637.225   199342745.949        -697.937          44.000  
G23  21647087.089   113756340.161        2696.584          42.000    21647083.480    88641351.012        2101.293          40.000  
E25  24002375.419   126133293.402        1643.483          42.000    24002374.366    96647627.999        1259.359          46.000  
G26  19947026.270   104822322.166        1909.053          49.000    19947023.776    81679736.091        1487.466          43.000  
R11  17431062.155    93146448.206       -1700.013          52.000    17431056.423    72447096.573       -1322.166          51.000  
R22  18462919.123    98556653.779         698.007          51.000    18462914.196    76655077.680         542.948          50.000  
R12  19400912.596   103636148.273        2612.464          49.000    19400909.730    80605963.213        2031.979          48.000  
G28  20522091.047   107844399.405       -3065.202          43.000    20522086.519    84034503.864       -2388.402          45.000  
E12  21960405.284   115402926.292       -1554.671          43.000    21960401.530    88425783.194       -1191.256          48.000  
E10  21675071.843   113903505.106        -241.502          49.000    21675070.946    87276835.918        -184.975          53.000  
E31  23388893.971   122909810.624       -2647.401          44.000    23388895.007    94177719.688       -2028.474          49.000  
R10  20535341.779   109464910.351       -4805.063          45.000                                                                  
R21  18231473.608    97560750.401       -2622.660          51.000    18231468.294    75880407.870       -2039.878          48.000  
E24  21666704.937   113859314.377        -382.926          47.000    21666703.338    87242890.473        -293.291          52.000  
S31  36978225.366   194321977.949        -697.585          43.000  
G29  20074260.599   105491282.070       -2240.055          48.000    20074256.115    82201137.208       -1745.372          43.000  
G25  20255926.101   106445815.899       -3247.062          45.000    20255923.945    82944891.540       -2530.140          42.000  
G31  20163145.212   105958052.688       -1059.509          46.000    20163139.139    82564752.396        -825.532          42.000  
G18  18481325.262    97120250.987        -413.943          48.000    18481321.692    75678268.596        -322.530          51.000  
G05  21905756.854   115115638.739       -1833.679          38.000    21905753.841    89700411.587       -1428.534          38.000  
E11  21697417.350   114020915.666        1094.686          43.000    21697415.251    87366779.718         838.616          49.000  
E33                                                                  25294115.628   101849330.561       -2609.656          49.000  
> 2024 04 09 05 28 30.4940000  0 22                     
S33  37937620.009   199363677.442        -697.804          44.000  
G23  21631697.465   113675465.236        2694.633          44.000    21631693.709    88578331.811        2099.577          41.000  
E25  23992997.766   126084018.326        1641.260          42.000    23992997.352    96609871.805        1257.617          46.000  
G26  19936151.678   104765175.537        1900.516          48.000    19936148.791    81635206.248        1481.081          44.000  
R11  17440676.197    93197822.523       -1725.288          52.000    17440669.722    72487054.383       -1341.814          50.000  
R22  18459039.147    98535943.404         682.492          51.000    18459033.769    76638969.640         530.769          50.000  
R12  19386279.413   103557979.654        2598.491          49.000    19386276.635    80545165.416        2021.115          49.000  
G28  20539620.719   107936515.063       -3076.187          45.000    20539615.689    84106282.275       -2397.125          45.000  
E12  21969309.794   115449719.315       -1564.925          43.000    21969305.939    88461637.587       -1199.165          48.000  
E10  21676483.221   113910921.441        -253.022          49.000    21676482.199    87282518.582        -193.938          53.000  
E31  23404029.107   122989344.874       -2654.954          44.000    23404029.835    94238661.487       -2034.435          49.000  
R10  20562410.884   109609202.060       -4814.462          46.000                                                                  
R21  18246204.507    97639578.998       -2632.698          51.000    18246198.400    75941718.976       -2047.604          48.000  
E24  21668916.178   113870936.029        -392.129          47.000    21668914.850    87251795.374        -300.477          52.000  
S31  36982206.881   194342901.112        -697.373          43.000  
G29  20087057.333   105558527.492       -2243.110          48.000    20087052.407    82253536.258       -1748.042          43.000  
G25  20274495.258   106543394.415       -3258.357          46.000    20274491.975    83020926.722       -2538.966          42.000  
G31  20169245.826   105990113.393       -1077.990          46.000    20169239.239    82589734.736        -840.056          41.000  
G18  18483738.521    97132933.144        -431.725          48.000    18483734.571    75688150.805        -336.380          50.000  
G05  21916273.269   115170897.562       -1850.268          41.000    21916269.876    89743470.428       -1441.998          38.000  
E11  21691196.027   113988221.713        1084.881          43.000    21691193.604    87341728.521         831.398          49.000  
E33                                                                  25313562.207   101927632.738       -2610.523          49.000  
> 2024 04 09 05 29 00.4940000  0 22                     
S33  37941599.944   199384591.500        -697.076          44.000  
G23  21616317.634   113594648.522        2692.406          43.000    21616314.977    88515357.950        2097.856          42.000  
E25  23983633.323   126034805.128        1639.179          43.000    23983632.427    96572163.034        1255.824          46.000  
G26  19925324.740   104708278.347        1891.982          48.000    19925321.429    81590870.771        1474.279          44.000  
R11  17450429.243    93249944.107       -1750.160          52.000    17450423.884    72527593.351       -1361.270          51.000  
R22  18455244.470    98515690.977         667.151          50.000    18455240.058    76623217.752         518.914          50.000  
R12  19371722.668   103480219.635        2584.658          48.000    19371719.483    80484685.402        2010.463          49.000  
G28  20557211.742   108028957.127       -3087.030          44.000    20557206.921    84178314.995       -2405.467          45.000  
E12  21978271.441   115496811.354       -1575.026          43.000    21978267.418    88497721.086       -1206.832          48.000  
E10  21677958.745   113918678.965        -264.753          48.000    21677958.467    87288462.668        -202.817          53.000  
E31  23419205.920   123069100.201       -2662.658          44.000    23419206.538    94299772.693       -2040.105          49.000  
R10  20589530.558   109753762.435       -4823.430          45.000                                                                  
R21  18260990.413    97718698.406       -2642.499          51.000    18260984.373    76003256.285       -2055.244          48.000  
E24  21671180.143   113882831.309        -401.513          47.000    21671178.419    87260909.947        -307.648          52.000  
S31  36986184.851   194363805.875        -696.884          43.000  
G29  20099869.225   105625857.952       -2246.209          48.000    20099864.420    82306001.559       -1750.133          43.000  
G25  20293124.888   106641298.596       -3269.423          45.000    20293122.428    83097215.663       -2547.621          42.000  
G31  20175451.268   106022721.523       -1096.535          48.000    20175444.700    82615143.689        -854.318          42.000  
G18  18486251.618    97146138.556        -449.274          49.000    18486247.453    75698440.748        -349.962          51.000  
G05  21926882.553   115226647.835       -1866.669          42.000    21926878.925    89786912.232       -1454.840          37.000  
E33  25333016.735   133125923.5671      -3408.103          30.000    25333013.704   102005955.540       -2611.347          49.000  
E11  21685028.132   113955810.540        1075.290          43.000    21685025.632    87316894.024         823.829          48.000  
> 2024 04 09 05 29 30.4940000  0 24                     
S33  37945578.556   199405498.615        -696.684          44.000  
G23  21600952.361   113513904.045        2689.951          44.000    21600949.005    88452440.365        2096.092          42.000  
E25  23974282.638   125985666.098        1636.503          43.000    23974281.624    96534511.067        1254.072          46.000  
G26  19914547.418   104651643.920        1883.169          48.000    19914544.598    81546740.065        1467.443          44.000  
R11  17460324.732    93302823.955       -1775.419          51.000    17460318.862    72568722.125       -1381.072          50.000  
R22  18451538.258    98495907.052         651.560          51.000    18451533.417    76607830.292         506.717          50.000  
R12  19357245.017   103402883.391        2570.654          49.000    19357241.761    80424535.058        1999.295          49.000  
G28  20574866.252   108121733.623       -3098.360          44.000    20574861.723    84250608.317       -2414.264          43.000  
E12  21987291.135   115544212.056       -1585.474          43.000    21987287.729    88534041.095       -1214.732          49.000  
E10  21679502.047   113926788.041        -276.140          49.000    21679501.458    87294676.137        -211.668          53.000  
E31  23434426.871   123149087.146       -2670.188          44.000    23434427.852    94361061.380       -2046.037          49.000  
R10  20616701.517   109898598.998       -4832.657          45.000                                                                  
R21  18275832.184    97798117.052       -2652.418          52.000    18275825.247    76065026.329       -2062.930          48.000  
E24  21673497.682   113895012.138        -410.986          47.000    21673496.650    87270243.311        -314.811          52.000  
S31  36990161.920   194384705.417        -696.501          44.000  
G29  20112700.286   105693284.652       -2249.389          48.000    20112695.443    82358541.846       -1752.678          43.000  
G25  20311818.884   106739538.298       -3280.411          45.000    20311816.028    83173766.061       -2556.259          42.000  
G31  20181762.721   106055886.972       -1115.022          48.000    20181756.550    82640986.900        -869.112          43.000  
G18  18488866.383    97159877.376        -467.131          48.000    18488861.609    75709146.322        -363.932          50.000  
G05  21937587.182   115282899.775       -1883.746          43.000    21937583.464    89830744.878       -1467.352          38.000  
E33  25352476.524   133228177.741       -3408.839          31.000    25352472.203   102084306.206       -2612.209          49.000  
E11  21678916.790   113923693.542        1065.471          43.000    21678913.515    87292284.910         816.366          48.000  
R05                                                                  22505582.786                3        121.026          11.000  
R20                                                                  22122096.902                3      -3324.925          16.000  
