     3.00           OBSERVATION DATA    M: Mixed            RINEX VERSION / TYPE
CONVBIN 2.4.3                           20240409 062942 UTC PGM / RUN BY / DATE 
format: u-blox UBX                                          COMMENT             
log: data/2024-04-09/20240409061500.ubx                     COMMENT             
AQUI00CHL                                                   MARKER NAME         
                                                            MARKER NUMBER       
                                                            MARKER TYPE         
                                                            OBSERVER / AGENCY   
UNKNOWN             UBLOX-ZED-F9P                           REC # / TYPE / VERS 
UNKNOWN             TWIVSP6037L                             ANT # / TYPE        
  1713381.0000 -5047934.0000 -3490983.0000                  APPROX POSITION XYZ 
        0.0000        0.0000        0.0000                  ANTENNA: DELTA H/E/N
G    8 C1C L1C D1C S1C C2L L2L D2L S2L                      SYS / # / OBS TYPES 
R    8 C1C L1C D1C S1C C2C L2C D2C S2C                      SYS / # / OBS TYPES 
E    8 C1C L1C D1C S1C C7Q L7Q D7Q S7Q                      SYS / # / OBS TYPES 
S    4 C1C L1C D1C S1C                                      SYS / # / OBS TYPES 
  2024    04    09    06    15   00.4950000     GPS         TIME OF FIRST OBS   
  2024    04    09    06    29   30.4960000     GPS         TIME OF LAST OBS    
                                                            END OF HEADER       
> 2024 04 09 06 15 00.4950000  0 26                     
S33  38304822.263   201293338.3681       -685.223          44.000  
G23  20342476.166   106900594.4431       2006.486          47.000    20342472.208    83299219.1921       1563.485          47.000  
E25  23221073.697   122027540.6321       1193.109          45.000    23221074.353    93501662.8011        914.126          51.000  
G26  19206060.608   100928524.6301        735.968          49.000    19206057.958    78645608.7581        573.553          46.000  
R11  18921986.845   101113496.6041      -3841.665          51.000    18921982.170    78643688.2911      -2987.929          50.000  
R22  18460889.214    98545828.9531       -628.534          52.000    18460884.930    76646659.9661       -488.829          50.000  
R23  21290160.629   113888000.4321       1667.122          49.000                                                                  
R12  18469086.599    98658500.5041        741.877          52.000    18469081.602    76734460.0551        577.059          49.000  
R06  21714591.566   115873220.6331       1581.144          38.000                                                                  
G28  22374777.964   117580301.4311      -3687.708          41.000    22374776.700    91620913.6351      -2873.730          37.000  
E12  23021182.895   120977346.6861      -2325.735          45.000    23021179.403    92697092.3461      -1782.140          49.000  
E10  22084067.361   116052798.5611      -1237.574          47.000    22084067.321    88923697.8291       -948.114          52.000  
E31  24993401.129   131341536.8491      -3298.611          45.000    24993401.098   100638390.7991      -2527.673          47.000  
G16  21776720.842   114437462.5541       2451.444          40.000                                                                  
R13  21777439.903                1       3202.155          27.000    21777448.484                3       2488.706          24.000  
R21  19795879.548   105932199.2631      -3190.400          52.000    19795873.537    82391534.4101      -2481.323          46.000  
E24  22135307.506   116321835.9421      -1396.722          48.000    22135305.851    89129757.2971      -1070.130          52.000  
S31  37349327.678   196272135.0401       -685.101          43.000  
G29  21354518.772   112219080.1791      -2528.859          46.000    21354514.415    87443576.7651      -1970.434          41.000  
G25  22249143.527   116920223.9611      -4103.357          43.000    22249141.685    91106763.3121      -3197.736          40.000  
G31  21164930.076   111222453.4941      -2576.520          48.000    21164924.444    86666880.6011      -2007.879          42.000  
E36  25838476.149   135782115.6591       1726.327          37.000    25838477.842   104040879.3441       1323.171          32.000  
G18  19125524.731   100505541.5981      -1912.971          48.000    19125518.582    78316157.9451      -1490.602          48.000  
G05  23282433.010   122350108.6471      -3216.385          41.000    23282427.729    95337649.8351      -2506.327          36.000  
G10  22627781.155                1       3161.753          26.000    22627798.777    92657060.2491       2463.716          35.000  
E11  21364257.165   112270151.1861        148.039          44.000    21364253.353    86025286.5351        113.384          48.000  
> 2024 04 09 06 15 30.4950000  0 26                     
S33  38308731.425   201313880.427        -684.441          44.000  
G23  20331054.768   106840573.357        1994.917          47.000    20331050.780    83252449.540        1554.424          47.000  
E25  23214280.251   121991845.929        1186.496          45.000    23214281.814    93474312.323         909.187          51.000  
G26  19201902.990   100906675.598         720.685          49.000    19201900.633    78628583.538         561.426          46.000  
R11  18943604.232   101229011.375       -3859.381          51.000    18943598.871    78733533.109       -3001.758          50.000  
R22  18464452.144    98564848.598        -639.501          52.000    18464447.754    76661453.055        -497.312          51.000  
R23  21280834.563   113838111.155        1658.914          50.000                                                                  
R12  18464988.450    98636608.986         717.579          52.000    18464983.504    76717433.316         558.087          49.000  
R06  21705739.454   115825985.710        1567.848          38.000                                                                  
G28  22395833.045   117690944.399       -3688.550          42.000    22395831.180    91707128.679       -2873.804          38.000  
E12  23034474.778   121047197.754       -2330.832          44.000    23034471.414    92750614.591       -1786.080          49.000  
E10  22091154.759   116090043.545       -1245.658          46.000    22091154.673    88952236.206        -954.437          52.000  
E31  25012246.829   131440573.313       -3303.609          45.000    25012247.084   100714275.866       -2531.432          47.000  
G16  21762736.806   114363976.607        2447.752          39.000                                                                  
R13  21759486.562                        3193.249          28.000    21759492.404                3       2483.227          25.000  
R21  19813770.665   106027934.403       -3191.932          52.000    19813763.286    82465995.080       -2482.716          46.000  
E24  22143311.551   116363898.605       -1407.604          47.000    22143310.186    89161987.115       -1078.431          52.000  
S31  37353236.713   196292677.273        -684.351          43.000  
G29  21368961.394   112294977.731       -2531.228          45.000    21368957.162    87502717.691       -1972.175          41.000  
G25  22272586.446   117043418.479       -4109.290          43.000    22272584.926    91202758.907       -3201.965          40.000  
G31  21179672.820   111299927.779       -2588.283          48.000    21179667.584    86727250.120       -2016.696          42.000  
E36  25828632.463   135730390.471        1721.930          37.000    25828636.414   104001245.928        1319.060          36.000  
G18  19136481.479   100563119.006       -1925.370          48.000    19136475.928    78361023.470       -1500.496          49.000  
G05  23300827.201   122446771.747       -3227.793          40.000    23300820.809    95412971.730       -2515.384          35.000  
G10  22609712.514                        3162.054          26.000    22609747.989    92583134.622        2464.216          36.000  
E11  21363436.418   112265843.759         139.095          43.000    21363433.850    86021986.047         106.566          49.000  
> 2024 04 09 06 16 00.4950000  0 26                     
S33  38312639.406   201334416.639        -684.184          44.000  
G23  20319703.732   106780923.337        1982.401          47.000    20319699.262    83205969.021        1544.753          47.000  
E25  23207529.511   121956367.439        1179.116          45.000    23207530.632    93447127.514         903.457          51.000  
G26  19197837.076   100885307.019         704.468          49.000    19197834.476    78611932.687         549.054          47.000  
R11  18965324.543   101345076.705       -3877.721          51.000    18965318.366    78823806.111       -3015.874          50.000  
R22  18468081.925    98584219.593        -651.278          53.000    18468076.211    76676519.416        -506.579          50.000  
R23  21271558.657   113788489.285        1649.915          51.000                                                                  
R12  18461030.404    98615467.041         692.502          52.000    18461026.135    76700989.585         538.588          50.000  
R06  21696969.893   115779185.050        1552.993          38.000                                                                  
G28  22416897.081   117801634.762       -3690.185          43.000    22416893.624    91793380.750       -2875.238          35.000  
E12  23047800.040   121117219.952       -2336.627          45.000    23047796.005    92804267.949       -1790.470          49.000  
E10  22098293.235   116127553.768       -1254.566          47.000    22098292.557    88980977.815        -961.266          52.000  
E31  25031124.288   131539776.569       -3309.396          44.000    25031125.158   100790288.721       -2535.661          47.000  
G16  21748778.373   114290625.327        2443.183          39.000                                                                  
R13  21741585.350                1       3183.661          29.000    21741581.856                1       2476.164          26.000  
R21  19831672.912   106123736.581       -3194.219          52.000    19831666.050    82540507.867       -2484.485          47.000  
E24  22151382.219   116406307.236       -1419.195          48.000    22151380.355    89194482.033       -1087.409          52.000  
S31  37357144.710   196313212.830        -684.153          43.000  
G29  21383421.121   112370966.454       -2534.111          44.000    21383416.579    87561929.691       -1974.729          40.000  
G25  22296064.482   117166800.514       -4115.820          42.000    22296064.076    91298900.641       -3206.812          41.000  
G31  21194485.832   111377773.850       -2600.783          47.000    21194481.228    86787909.385       -2026.436          41.000  
E36  25818820.412   135678824.376        1716.470          38.000    25818824.894   103961734.430        1315.251          39.000  
G18  19147513.113   100621089.660       -1938.585          48.000    19147507.733    78406195.411       -1510.718          49.000  
G05  23319288.498   122543784.028       -3239.383          42.000    23319281.760    95488565.729       -2524.690          35.000  
G10  22591688.411   118720157.8141       3162.746          32.000    22591693.943    92509207.165        2464.549          36.000  
E11  21362672.819   112261827.376         129.171          44.000    21362669.689    86018908.568          99.069          49.000  
> 2024 04 09 06 16 30.4950000  0 26                     
S33  38316546.595   201354950.092        -684.532          44.000  
G23  20308424.738   106721652.058        1969.353          47.000    20308420.491    83159783.628        1534.354          47.000  
E25  23200820.823   121921111.382        1171.428          46.000    23200821.614    93420113.137         897.562          51.000  
G26  19193863.144   100864425.524         687.714          49.000    19193860.624    78595661.398         535.883          47.000  
R11  18987147.225   101461693.492       -3896.480          51.000    18987142.499    78914508.021       -3030.642          50.000  
R22  18471776.024    98603944.880        -663.533          51.000    18471771.836    76691861.321        -516.057          51.000  
R23  21262332.359   113739139.680        1640.360          49.000                                                                  
R12  18457214.518    98595081.991         666.702          52.000    18457210.273    76685134.558         518.509          49.000  
R06  21688282.012   115732827.644        1537.404          38.000                                                                  
G28  22437970.491   117912374.295       -3692.389          44.000    22437966.225    91879671.162       -2876.630          35.000  
E12  23061157.109   121187416.430       -2342.980          44.000    23061153.943    92858054.860       -1795.263          49.000  
E10  22105482.636   116165332.652       -1263.896          47.000    22105481.544    89009925.273        -968.417          52.000  
E31  25050033.960   131639150.302       -3315.477          43.000    25050035.898   100866432.181       -2540.401          48.000  
G16  21734847.008   114217415.878        2437.608          40.000                                                                  
R13  21723727.171                1       3173.100          31.000    21723717.334                        2468.394          27.000  
R21  19849587.873   106219608.378       -3197.084          50.000    19849581.526    82615074.828       -2486.586          45.000  
E24  22159519.349   116449066.723       -1431.293          48.000    22159517.202    89227245.796       -1096.655          52.000  
S31  37361051.520   196333745.974        -684.589          43.000  
G29  21397899.626   112447050.717       -2537.759          45.000    21397895.937    87621216.126       -1977.770          40.000  
G25  22319579.861   117290372.754       -4122.314          42.000    22319579.551    91395190.574       -3212.018          42.000  
G31  21209370.552   111455993.744       -2613.739          47.000    21209364.896    86848859.890       -2036.320          41.000  
E36  25809038.959   135627422.656        1710.439          38.000    25809043.372   103922348.973        1310.611          40.000  
G18  19158620.164   100679456.190       -1952.366          49.000    19158614.886    78451675.829       -1521.285          49.000  
G05  23337816.688   122641147.578       -3251.562          41.000    23337808.542    95564433.365       -2533.685          33.000  
G10  22573633.939   118625289.237        3162.193          34.000    22573639.410    92435283.897        2463.747          35.000  
E11  21361965.823   112258106.252         118.950          44.000    21361961.510    86016057.348          91.125          49.000  
> 2024 04 09 06 17 00.4950000  0 26                     
S33  38320454.016   201375483.501        -684.452          44.000  
G23  20297218.514   106662764.559        1956.441          47.000    20297214.586    83113897.295        1524.678          47.000  
E25  23194154.974   121886081.381        1163.845          46.000    23194155.536    93393271.986         891.819          51.000  
G26  19189982.176   100844035.090         671.509          48.000    19189980.425    78579772.752         523.291          47.000  
R11  19009074.121   101578860.383       -3914.655          51.000    19009068.986    79005637.812       -3044.887          51.000  
R22  18475537.718    98624024.843        -675.164          52.000    18475533.256    76707479.050        -525.216          50.000  
R23  21253157.532   113690063.611        1631.384          48.000                                                                  
R12  18453540.263    98575458.052         641.428          52.000    18453536.081    76669871.500         498.995          49.000  
R06  21679678.904   115686918.893        1522.819          37.000                                                                  
G28  22459051.966   118023161.888       -3693.634          43.000    22459047.894    91965999.036       -2878.308          37.000  
E12  23074548.023   121257787.766       -2348.688          44.000    23074544.955    92911975.749       -1799.568          49.000  
E10  22112723.132   116203380.956       -1272.783          47.000    22112721.771    89039079.164        -975.276          52.000  
E31  25068976.560   131738695.503       -3321.114          42.000    25068978.457   100942707.009       -2544.675          48.000  
G16  21720943.697   114144352.603        2433.115          40.000                                                                  
R13  21705922.993                        3163.865          31.000    21705888.163                3       2463.935          25.000  
R21  19867517.024   106315549.931       -3199.153          50.000    19867511.152    82689696.024       -2488.149          46.000  
E24  22167723.069   116492179.287       -1442.931          48.000    22167721.280    89260280.091       -1105.579          52.000  
S31  37364959.074   196354278.975        -684.321          44.000  
G29  21412397.613   112523232.984       -2541.072          46.000    21412392.844    87680578.875       -1979.965          40.000  
G25  22343131.498   117414135.193       -4128.491          43.000    22343130.768    91491628.737       -3216.931          42.000  
G31  21224325.859   111534586.434       -2625.878          46.000    21224320.378    86910100.913       -2046.030          40.000  
E36  25799288.563   135576187.918        1705.035          38.000    25799293.136   103883091.408        1306.462          40.000  
G18  19169801.810   100738218.517       -1965.296          48.000    19169796.814    78497464.670       -1531.385          49.000  
G05  23356411.280   122738861.766       -3263.003          40.000    23356399.930    95640574.215       -2542.423          29.000  
G10  22555583.424   118530431.025        3162.067          34.000    22555587.266    92361368.721        2463.537          36.000  
E11  21361313.809   112254681.884         109.386          44.000    21361309.596    86013433.492          83.876          48.000  
> 2024 04 09 06 17 30.4950000  0 26                     
S33  38324360.494   201396014.586        -684.500          44.000  
G23  20286085.881   106604261.617        1943.336          48.000    20286081.409    83068310.669        1514.331          47.000  
E25  23187531.657   121851276.805        1156.095          46.000    23187532.388    93366603.552         885.854          51.000  
G26  19186194.992   100824135.422         654.864          48.000    19186193.795    78564266.536         510.247          47.000  
R11  19031102.186   101696571.556       -3933.021          51.000    19031096.423    79097190.929       -3058.978          50.000  
R22  18479365.518    98644455.384        -687.193          52.000    18479360.543    76723369.461        -534.407          51.000  
R23  21244033.121   113641258.935        1622.147          47.000                                                                  
R12  18450008.941    98556595.539         615.681          52.000    18450004.711    76655200.678         478.841          49.000  
R06  21671159.523   115641461.033        1507.113          36.000                                                                  
G28  22480142.064   118133992.362       -3695.123          42.000    22480138.297    92052360.223       -2879.004          38.000  
E12  23087972.114   121328330.130       -2354.560          44.000    23087968.923    92966027.697       -1804.229          49.000  
E10  22120013.593   116241695.201       -1281.828          46.000    22120012.845    89068436.831        -982.222          52.000  
E31  25087952.384   131838408.943       -3327.029          43.000    25087953.159   101019110.746       -2549.155          48.000  
G16  21707068.890   114071435.617        2427.877          41.000                                                                  
R13  21688173.702                        3153.725          31.000    21688162.390                1       2453.209          25.000  
R21  19885458.968   106411557.096       -3201.598          51.000    19885452.350    82764368.297       -2490.143          45.000  
E24  22175993.511   116535642.875       -1454.868          48.000    22175991.873    89293583.362       -1114.821          52.000  
S31  37368866.212   196374809.791        -684.523          44.000  
G29  21426913.524   112599511.140       -2544.389          46.000    21426906.495    87740016.403       -1982.629          38.000  
G25  22366718.497   117538083.647       -4135.022          43.000    22366717.589    91588211.811       -3221.906          41.000  
G31  21239351.929   111613547.045       -2638.279          45.000    21239345.603    86971628.629       -2056.056          40.000  
E36  25789569.279   135525118.480        1699.179          38.000    25789573.817   103843960.487        1301.916          39.000  
G18  19181057.848   100797372.337       -1978.541          48.000    19181053.800    78543558.571       -1541.786          50.000  
G05  23375071.599   122836922.988       -3274.744          40.000    23375058.845                       -2551.586          28.000  
G10  22537536.830   118435583.974        3160.934          34.000    22537537.692    92287462.219        2463.375          37.000  
E11  21360717.841   112251551.574          99.000          44.000    21360713.846    86011034.967          75.834          48.000  
> 2024 04 09 06 18 00.4950000  0 26                     
S33  38328267.954   201416546.123        -684.277          44.000  
G23  20275027.531   106546150.111        1930.692          48.000    20275022.873    83023028.999        1504.402          46.000  
E25  23180952.549   121816703.076        1148.724          46.000    23180953.176    93340112.004         880.247          51.000  
G26  19182502.899   100804732.263         638.695          48.000    19182501.703    78549147.195         497.680          46.000  
R11  19053231.272   101814827.302       -3950.524          50.000    19053226.310    79189167.601       -3072.877          50.000  
R22  18483259.384    98665238.719        -698.464          52.000    18483254.929    76739534.303        -543.339          51.000  
R23  21234961.975   113592729.339        1613.244          48.000                                                                  
R12  18446622.259    98538500.382         590.544          52.000    18446617.509    76641126.685         459.292          49.000  
R06  21662727.492   115596461.720        1492.531          37.000                                                                  
G28  22501240.711   118244866.545       -3696.516          40.000    22501237.394    92138755.519       -2880.332          39.000  
E12  23101429.082   121399045.867       -2359.813          44.000    23101425.601    93020212.477       -1808.312          49.000  
E10  22127355.535   116280277.991       -1290.557          46.000    22127354.833    89098000.278        -988.756          52.000  
E31  25106959.405   131938293.354       -3332.114          44.000    25106960.779   101095645.527       -2553.206          47.000  
G16  21693222.901   113998671.337        2423.222          42.000                                                                  
R13  21670481.600                1       3143.266          30.000    21670491.958                1       2444.768          27.000  
R21  19903412.290   106507631.917       -3203.374          51.000    19903405.883    82839093.172       -2491.738          45.000  
E24  22184332.392   116579461.519       -1466.478          48.000    22184330.157    89327158.681       -1123.555          52.000  
S31  37372772.735   196395341.516        -684.056          44.000  
G29  21441447.841   112675889.165       -2547.500          45.000    21441441.303    87799531.694       -1984.736          38.000  
G25  22390340.894   117662219.914       -4140.765          41.000    22390339.569    91684941.260       -3226.691          41.000  
G31  21254447.649   111692876.500       -2650.277          44.000    21254441.697    87033443.718       -2065.192          40.000  
E36  25779883.080   135474218.782        1693.993          38.000    25779887.517   103804959.613        1297.878          40.000  
G18  19192390.438   100856919.475       -1991.248          49.000    19192385.208    78589958.925       -1551.605          50.000  
G05  23393798.725   122935332.209       -3285.865          37.000    23393787.181                       -2560.235          30.000  
G10  22519492.560   118340754.910        3160.802          36.000    22519491.498    92213569.749        2462.985          36.000  
E11  21360179.176   112248718.651          89.535          45.000    21360174.632    86008864.293          68.808          48.000  
> 2024 04 09 06 18 30.4950000  0 26                     
S33  38332174.207   201437073.334        -684.218          44.000  
G23  20264043.042   106488426.061        1917.622          48.000    20264038.607    82978049.247        1494.238          46.000  
E25  23174416.350   121782354.852        1141.089          46.000    23174416.925    93313793.250         874.388          51.000  
G26  19178904.215   100785820.588         622.215          48.000    19178902.803    78534410.815         484.906          47.000  
R11  19075461.624   101933616.851       -3968.439          51.000    19075456.892    79281559.455       -3086.647          51.000  
R22  18487216.450    98686366.013        -710.000          52.000    18487212.340    76755966.662        -552.225          50.000  
R23  21225940.578   113544467.710        1604.208          50.000                                                                  
R12  18443377.566    98521167.854         565.074          52.000    18443373.239    76627645.830         439.507          49.000  
R06  21654380.590   115551917.792        1477.087          39.000                                                                  
G28  22522345.517   118355774.411       -3697.421          40.000    22522341.338    92225177.047       -2881.149          39.000  
E12  23114917.638   121469926.548       -2365.425          45.000    23114913.699    93074523.631       -1812.520          49.000  
E10  22134746.572   116319121.104       -1299.085          46.000    22134746.406    89127763.201        -995.514          52.000  
E31  25125997.389   132038340.787       -3337.573          43.000    25125999.376   101172305.225       -2557.389          47.000  
G16  21679404.362   113926055.016        2418.010          42.000                                                                  
R13  21652852.232                1       3133.560          30.000    21652831.885                3       2440.541          22.000  
R21  19921377.546   106603765.912       -3205.530          50.000    19921370.224    82913864.025       -2493.126          45.000  
E24  22192737.434   116623628.381       -1478.050          48.000    22192734.849    89361000.832       -1132.551          52.000  
S31  37376679.039   196415868.336        -684.316          44.000  
G29  21455999.188   112752360.196       -2550.580          44.000    21455992.906    87859119.535       -1987.632          39.000  
G25  22413997.310   117786535.094       -4147.021          41.000    22413995.567    91781810.111       -3231.348          40.000  
G31  21269611.757   111772564.782       -2662.273          45.000    21269606.756    87095538.460       -2074.445          41.000  
E36  25770228.497   135423482.360        1688.667          38.000    25770231.788   103766083.876        1293.729          39.000  
G18  19203795.306   100916850.836       -2004.120          48.000    19203789.212    78636658.682       -1561.694          49.000  
G05  23412589.047   123034080.067       -3296.910          36.000    23412580.899                       -2569.788          30.000  
G10  22501448.601   118245939.812        3160.280          33.000    22501447.378    92139688.165        2462.770          35.000  
E11  21359696.106   112246175.685          79.871          45.000    21359690.589    86006915.804          61.228          48.000  
> 2024 04 09 06 19 00.4950000  0 26                     
S33  38336079.372   201457596.789        -684.052          44.000  
G23  20253133.470   106431095.993        1904.491          48.000    20253128.560    82933376.479        1484.186          45.000  
E25  23167923.695   121748237.252        1133.577          46.000    23167924.648    93287651.208         868.548          51.000  
G26  19175400.133   100767405.837         605.680          49.000    19175398.429    78520061.657         472.020          47.000  
R11  19097791.190   102052940.215       -3986.177          51.000    19097786.827    79374366.453       -3100.332          50.000  
R22  18491239.252    98707839.107        -721.480          52.000    18491234.791    76772667.979        -561.057          50.000  
R23  21216969.333   113496477.046        1595.369          50.000                                                                  
R12  18440276.334    98504603.710         539.465          52.000    18440272.249    76614762.580         419.536          49.000  
R06  21646120.187   115507836.815        1461.571          39.000                                                                  
G28  22543457.031   118466716.505       -3698.460          38.000    22543453.494    92311625.261       -2881.857          41.000  
E12  23128437.522   121540974.275       -2370.901          45.000    23128433.664    93128962.792       -1816.617          49.000  
E10  22142188.254   116358226.894       -1307.753          46.000    22142187.924    89157727.385       -1001.964          52.000  
E31  25145067.280   132138553.816       -3342.956          43.000    25145069.245   101249091.800       -2561.423          47.000  
G16  21665615.400   113853592.778        2412.911          43.000                                                                  
R13  21635281.782   115531184.0641       3123.014          33.000    21635271.427                3       2424.758          11.000  
R21  19939352.857   106699960.379       -3207.418          50.000    19939347.563    82988681.912       -2494.712          46.000  
E24  22201208.802   116668147.203       -1489.713          48.000    22201206.691    89395112.651       -1141.399          52.000  
S31  37380584.754   196436392.528        -683.773          44.000  
G29  21470568.426   112828928.012       -2553.677          44.000    21470564.755    87918782.777       -1990.230          39.000  
G25  22437688.224   117911030.658       -4152.502          40.000    22437687.280    91878819.518       -3235.858          41.000  
G31  21284844.287   111852613.012       -2674.107          44.000    21284839.915    87157913.644       -2083.722          41.000  
E36  25760606.072   135372913.304        1682.857          39.000    25760609.243   103727336.346        1289.573          40.000  
G18  19215272.425   100977167.891       -2016.864          48.000    19215267.240    78683658.993       -1571.606          50.000  
G05  23431444.862   123133168.373       -3308.089          36.000    23431440.150                       -2577.950          30.000  
G10  22483410.844   118151145.318        3159.052          33.000    22483408.087    92065822.689        2462.067          34.000  
E11  21359267.690   112243925.750          70.290          45.000    21359262.347    86005191.840          53.744          48.000  
> 2024 04 09 06 19 30.4950000  0 26                     
S33  38339985.352   201478121.229        -684.126          44.000  
G23  20242299.447   106374165.183        1891.325          48.000    20242294.652    82889014.818        1473.947          45.000  
E25  23161475.863   121714354.188        1125.770          46.000    23161477.106    93261688.868         862.617          51.000  
G26  19171991.605   100749492.192         588.976          49.000    19171989.318    78506102.979         458.984          46.000  
R11  19120220.919   102172795.872       -4003.619          52.000    19120214.948    79467587.491       -3114.009          50.000  
R22  18495327.200    98729658.603        -732.790          52.000    18495322.542    76789638.686        -569.941          51.000  
R23  21208048.995   113448759.760        1586.282          49.000                                                                  
R12  18437320.961    98488812.480         513.715          52.000    18437316.486    76602480.537         399.570          50.000  
R06  21637947.074   115464225.123        1445.656          39.000                                                                  
G28  22564573.334   118577692.246       -3699.090          35.000    22564572.478    92398099.669       -2882.661          42.000  
E12  23141988.719   121612189.753       -2376.239          45.000    23141985.342    93183530.510       -1820.884          49.000  
E10  22149680.254   116397596.373       -1316.393          46.000    22149679.696    89187893.622       -1008.695          52.000  
E31  25164168.979   132238933.637       -3348.538          43.000    25164170.746   101326006.188       -2565.843          46.000  
G16  21651856.206   113781289.392        2407.764          43.000                                                                  
R13  21617770.970   115437663.641        3112.175          34.000                                                                  
R21  19957340.970   106796216.163       -3209.277          50.000    19957336.116    83063547.500       -2496.083          48.000  
E24  22209748.358   116713020.421       -1501.507          49.000    22209745.942    89429496.014       -1150.392          52.000  
S31  37384490.613   196456917.164        -684.141          44.000  
G29  21485157.777   112905595.069       -2557.041          45.000    21485153.955    87978523.289       -1992.333          38.000  
G25  22461413.157   118035706.947       -4158.606          40.000    22461412.547    91975969.741       -3240.704          40.000  
G31  21300145.647   111933020.485       -2685.782          46.000    21300140.631    87220568.773       -2092.946          41.000  
E36  25751016.182   135322514.531        1677.499          41.000    25751019.253   103688719.307        1285.315          42.000  
G18  19226823.518   101037870.841       -2029.657          48.000    19226818.423    78730959.984       -1581.543          50.000  
G05  23450363.756   123232596.547       -3319.179          33.000    23450361.625                       -2587.219          29.000  
G10  22465376.090   118056376.729        3158.893          34.000    22465374.064    91991977.378        2461.768          35.000  
E11  21358895.502   112241970.631          60.594          45.000    21358890.489    86003693.769          46.442          48.000  
> 2024 04 09 06 20 00.4950000  0 26                     
S33  38343890.840   201498645.780        -684.035          44.000  
G23  20231541.852   106317635.879        1877.780          47.000    20231537.536    82844966.034        1463.232          46.000  
E25  23155072.803   121680706.467        1117.682          46.000    23155074.022    93235906.865         856.489          51.000  
G26  19168678.443   100732080.743         572.155          49.000    19168675.435    78492535.623         445.665          45.000  
R11  19142749.302   102293179.483       -4021.485          52.000    19142743.754    79561219.156       -3127.673          51.000  
R22  18499479.623    98751821.989        -744.372          53.000    18499474.898    76806876.888        -578.874          51.000  
R23  21199178.889   113401314.841        1577.071          49.000                                                                  
R12  18434508.414    98473795.437         487.793          51.000    18434505.238    76590800.630         379.475          50.000  
R06  21629862.076   115421085.830        1430.128          39.000                                                                  
G28  22585697.145   118688697.833       -3700.677          37.000    22585697.154    92484597.331       -2883.360          43.000  
E12  23155572.028   121683570.757       -2381.911          45.000    23155568.770    93238225.030       -1825.157          49.000  
E10  22157222.035   116437227.545       -1325.196          47.000    22157221.574    89218260.358       -1015.440          52.000  
E31  25183302.732   132339478.473       -3354.065          43.000    25183303.309   101403047.007       -2569.948          45.000  
G16  21638127.932   113709146.665        2402.110          43.000                                                                  
R13  21600321.231   115344464.891        3100.994          34.000    21600295.416                3       2420.067          22.000  
R21  19975340.814   106892530.610       -3211.311          50.000    19975334.302    83138458.738       -2497.644          48.000  
E24  22218354.206   116758247.373       -1513.327          49.000    22218352.343    89464150.437       -1159.529          52.000  
S31  37388396.198   196477441.848        -684.137          44.000  
G29  21499767.062   112982360.889       -2560.369          45.000    21499760.678    88038340.784       -1994.559          36.000  
G25  22485171.901   118160561.129       -4164.434          40.000    22485171.672    92073258.577       -3245.019          40.000  
G31  21315515.208   112013783.442       -2697.865          47.000    21315509.858    87283500.932       -2102.396          41.000  
E36  25741458.073   135272285.754        1671.574          41.000    25741461.043   103650232.534        1280.806          42.000  
G18  19238447.908   101098956.858       -2042.401          48.000    19238442.739    78778559.482       -1591.467          50.000  
G05  23469348.648   123332361.394       -3330.767          29.000    23469347.110                1      -2595.251          29.000  
G10  22447346.408   117961636.471        3157.465          35.000    22447345.563    91918154.060        2460.541          37.000  
E11  21358579.240   112240308.990          50.412          45.000    21358574.519    86002420.574          38.680          48.000  
> 2024 04 09 06 20 30.4950000  0 26                     
S33  38347795.882   201519167.657        -684.018          44.000  
G23  20220861.831   106261509.310        1864.119          48.000    20220857.238    82801231.064        1452.511          46.000  
E25  23148714.866   121647293.996        1109.761          46.000    23148715.945    93210305.110         850.372          51.000  
G26  19165460.263   100715171.621         555.163          49.000    19165457.978    78479359.697         432.530          46.000  
R11  19165375.699   102414085.414       -4038.923          51.000    19165370.740    79655257.072       -3141.291          51.000  
R22  18503695.181    98774325.770        -755.780          52.000    18503690.769    76824379.861        -587.848          51.000  
R23  21190360.175   113354140.094        1567.918          48.000                                                                  
R12  18431841.684    98459553.018         461.766          52.000    18431839.518    76579723.196         359.128          50.000  
R06  21621866.994   115378421.076        1414.258          40.000                                                                  
G28  22606827.643   118799728.521       -3701.161          40.000    22606826.269    92571114.592       -2884.208          43.000  
E12  23169186.680   121755114.050       -2387.608          46.000    23169183.030    93293043.912       -1829.411          49.000  
E10  22164812.075   116477117.417       -1334.161          46.000    22164812.566    89248825.319       -1022.117          52.000  
E31  25202466.832   132440185.581       -3359.690          43.000    25202467.687   101480212.161       -2574.247          46.000  
G16  21624429.764   113637165.184        2396.651          43.000                                                                  
R13  21582928.802   115251589.913        3090.055          31.000    21582907.971                3       2407.238          25.000  
R21  19993349.185   106988900.257       -3213.245          50.000    19993343.515    83213412.870       -2499.223          47.000  
E24  22227028.011   116803826.519       -1525.256          49.000    22227025.651    89499074.700       -1168.629          52.000  
S31  37392301.378   196497963.789        -684.133          44.000  
G29  21514393.554   113059223.953       -2563.889          44.000    21514387.208    88098234.097       -1997.740          37.000  
G25  22508964.063   118285589.498       -4170.477          41.000    22508963.578    92170683.112       -3249.441          40.000  
G31  21330950.109   112094897.354       -2709.813          45.000    21330944.989    87346706.514       -2111.182          40.000  
E36  25731932.265   135222225.716        1665.772          41.000    25731934.765   103611875.037        1276.362          44.000  
G18  19250144.103   101160422.148       -2055.121          48.000    19250138.867    78826454.522       -1601.520          50.000  
G05  23488397.261                       -3341.605          25.000    23488395.052                       -2604.168          31.000  
G10  22429321.838   117866925.710        3156.555          36.000    22429323.058    91844353.801        2459.650          38.000  
E11  21358318.133   112238938.640          40.905          45.000    21358313.823    86001370.606          31.327          49.000  
> 2024 04 09 06 21 00.4950000  0 27                     
S33  38351702.109   201539694.431        -684.408          44.000  
G23  20210260.572   106205795.682        1850.133          49.000    20210255.594    82757817.860        1441.735          47.000  
E25  23142403.683   121614125.616        1101.478          46.000    23142404.162    93184890.391         844.016          51.000  
G26  19162340.599   100698773.969         537.998          49.000    19162338.102    78466582.285         419.162          46.000  
R11  19188099.831   102535517.678       -4056.604          51.000    19188094.771    79749704.377       -3155.048          50.000  
R22  18507975.318    98797175.578        -767.511          52.000    18507970.897    76842151.919        -596.827          51.000  
R23  21181593.165   113307242.584        1558.544          49.000                                                                  
R12  18429323.323    98446094.624         435.523          52.000    18429319.462    76569255.545         338.697          49.000  
R06  21613962.163   115336242.019        1397.754          39.000                                                                  
G28  22627962.087   118910788.651       -3702.432          41.000    22627959.771    92657654.767       -2884.866          43.000  
E12  23182833.072   121826825.446       -2393.239          46.000    23182829.103    93347991.613       -1833.765          49.000  
E10  22172453.640   116517271.987       -1342.871          46.000    22172453.780    89279593.122       -1029.029          52.000  
E31  25221663.031   132541061.123       -3365.294          43.000    25221663.606   101557506.356       -2578.606          47.000  
G16  21610764.748   113565354.586        2390.738          43.000                                                                  
R13  21565593.819                        3079.234          27.000    21565590.194                        2394.937          29.000  
R21  20011368.774   107085330.523       -3215.454          50.000    20011363.826    83288414.166       -2500.825          47.000  
E24  22235770.390   116849765.215       -1537.323          49.000    22235767.512    89534274.474       -1177.985          52.000  
S31  37396207.620   196518490.801        -684.495          44.000  
G29  21529040.040   113136191.704       -2567.349          44.000    21529035.169    88158208.935       -2000.623          38.000  
G25  22532790.199   118410797.273       -4176.591          42.000    22532789.472    92268247.467       -3254.312          39.000  
G31  21346453.085   112176366.720       -2721.686          44.000    21346448.120    87410189.067       -2120.866          39.000  
E36  25722439.236   135172342.345        1659.908          41.000    25722442.250   103573652.940        1271.825          45.000  
G18  19261913.953   101222271.848       -2068.140          48.000    19261908.568    78874649.071       -1611.389          50.000  
G10  22411306.324   117772254.896        3155.048          36.000    22411307.880    91770584.557        2458.588          38.000  
E11  21358113.533   112237866.279          30.835          44.000    21358109.821    86000548.954          23.579          49.000  
G27                                                                  22984791.268                3       1270.579          24.000  
G05                                                                  23507508.457                       -2612.949          29.000  
> 2024 04 09 06 21 30.4950000  0 27                     
S33  38355608.191   201560220.658        -684.139          44.000  
G23  20199736.223   106150492.496        1836.923          48.000    20199731.730    82714724.499        1431.372          47.000  
E25  23136138.140   121581197.517        1093.866          47.000    23136138.212    93159659.775         838.218          51.000  
G26  19159317.219   100682884.134         521.496          50.000    19159314.160    78454200.593         406.310          46.000  
G27  22975447.520   120736792.5781       1639.236          31.000    22975442.510                        1277.827          26.000  
R11  19210920.065   102657466.809       -4073.266          51.000    19210914.970    79844553.696       -3168.121          50.000  
R22  18512319.121    98820364.111        -778.235          52.000    18512314.693    76860187.448        -605.329          51.000  
R23  21172876.542   113260616.648        1549.916          48.000                                                                  
R12  18426950.415    98433416.671         409.873          53.000    18426945.814    76559394.891         318.802          49.000  
R06  21606148.583   115294547.135        1382.167          39.000                                                                  
G28  22649100.269   119021869.871       -3702.750          41.000    22649097.282    92744211.395       -2885.412          42.000  
E12  23196509.743   121898698.077       -2398.060          45.000    23196505.733    93403062.856       -1837.641          49.000  
E10  22180144.756   116557684.609       -1351.053          47.000    22180143.765    89310558.628       -1035.230          52.000  
E31  25240889.898   132642098.668       -3370.419          43.000    25240890.196   101634924.673       -2582.517          46.000  
G16  21597131.346   113493711.950        2385.640          43.000                                                                  
R13  21548306.712                3       3069.369          24.000    21548311.572                3       2397.720          21.000  
R21  20029399.343   107181814.555       -3216.689          50.000    20029393.434    83363457.308       -2501.759          47.000  
E24  22244579.009   116896058.147       -1548.762          49.000    22244576.731    89569745.660       -1186.645          52.000  
S31  37400113.438   196539017.982        -684.089          44.000  
G29  21543705.310   113213259.018       -2570.344          44.000    21543698.889    88218261.378       -2002.742          37.000  
G25  22556650.303   118536176.995       -4181.869          43.000    22556648.018    92365945.830       -3258.773          38.000  
G31  21362022.721   112258183.338       -2732.792          45.000    21362017.142    87473942.252       -2129.502          40.000  
E36  25712978.835   135122630.665        1654.570          41.000    25712982.638   103535562.389        1267.711          46.000  
G18  19273755.627   101284498.435       -2080.212          48.000    19273749.498    78923137.326       -1620.935          49.000  
G10  22393297.344   117677621.456        3154.236          36.000    22393298.698    91696844.414        2457.935          36.000  
E11  21357964.803   112237086.024          21.441          44.000    21357961.341    85999951.104          16.419          48.000  
G05                                                                  23526682.767    96337827.5011      -2621.285          29.000  
> 2024 04 09 06 22 00.4950000  0 27                     
S33  38359514.070   201580745.356        -684.131          44.000  
G23  20189290.658   106095601.296        1822.931          48.000    20189285.563    82671952.175        1420.428          47.000  
E25  23129917.919   121548509.840        1085.848          47.000    23129917.986    93134613.395         831.885          51.000  
G26  19156390.231   100667502.560         504.344          50.000    19156386.791    78442214.947         393.029          46.000  
G27  22966088.075   120687611.701        1640.067          33.000    22966082.264                        1277.861          29.000  
R11  19233837.159   102779927.403       -4090.411          51.000    19233832.081    79939800.779       -3181.335          50.000  
R22  18516726.004    98843888.240        -789.561          52.000    18516721.191    76878484.011        -614.090          51.000  
R23  21164210.712   113214260.599        1540.839          48.000                                                                  
R12  18424723.458    98421519.886         383.667          53.000    18424718.533    76550141.859         298.370          49.000  
R06  21598426.346   115253338.807        1365.628          40.000                                                                  
G28  22670241.533   119132967.781       -3703.678          39.000    22670238.792    92830781.040       -2885.767          43.000  
E12  23210217.024   121970729.064       -2403.499          45.000    23210212.935    93458255.428       -1841.517          49.000  
E10  22187883.945   116598352.581       -1359.629          47.000    22187882.263    89341719.804       -1041.786          52.000  
E31  25260147.193   132743295.718       -3375.628          43.000    25260147.394   101712465.210       -2586.456          47.000  
G16  21583530.401   113422238.380        2379.832          44.000                                                                  
R13  21531115.221                        3056.828          28.000    21531090.526                3       2380.931          18.000  
R21  20047439.095   107278348.762       -3218.450          51.000    20047433.170    83438539.495       -2503.292          47.000  
E24  22253455.581   116942703.995       -1560.570          49.000    22253453.100    89605487.266       -1195.711          52.000  
S31  37404019.431   196559542.873        -684.015          43.000  
G29  21558389.666   113290424.535       -2573.756          45.000    21558383.086    88278390.333       -2005.375          37.000  
G25  22580541.794   118661725.228       -4187.628          44.000    22580539.558    92463775.499       -3263.072          40.000  
G31  21377656.240   112340342.712       -2744.160          44.000    21377652.219    87537962.489       -2138.279          40.000  
E36  25703551.932   135073089.849        1648.646          42.000    25703555.491   103497602.719        1263.164          46.000  
G18  19285667.934   101347098.384       -2092.743          48.000    19285662.125    78971916.515       -1630.695          50.000  
G10  22375296.776   117583027.283        3152.685          36.000    22375297.922    91623134.872        2456.830          39.000  
E11  21357871.594   112236595.902          11.783          44.000    21357867.637    85999575.538           9.122          48.000  
G05                                                                  23545919.848                1      -2630.389          29.000  
> 2024 04 09 06 22 30.4950000  0 27                     
S33  38363418.606   201601263.896        -683.932          44.000  
G23  20178922.666   106041121.139        1808.982          47.000    20178918.245    82629500.155        1409.342          46.000  
E25  23123742.826   121516060.381        1077.438          47.000    23123742.972    93109749.531         825.630          51.000  
G26  19153559.621   100652627.184         487.168          50.000    19153556.017    78430623.728         379.600          46.000  
G27  22956720.302   120638392.809        1641.031          36.000    22956718.424    94003925.3231       1278.315          33.000  
R11  19256848.986   102902892.296       -4107.367          52.000    19256842.808    80035440.129       -3194.751          50.000  
R22  18521194.173    98867742.254        -800.854          51.000    18521189.724    76897037.128        -622.957          50.000  
R23  21155594.964   113168170.084        1531.707          47.000                                                                  
R12  18422642.023    98410402.091         357.360          52.000    18422637.483    76541494.680         277.900          49.000  
R06  21590795.403   115212617.170        1349.142          40.000                                                                  
G28  22691384.069   119244075.625       -3704.012          35.000    22691382.503    92917358.376       -2886.260          43.000  
E12  23223952.848   122042913.028       -2408.803          45.000    23223949.318    93513565.231       -1845.811          49.000  
E10  22195669.913   116639270.818       -1368.339          47.000    22195668.700    89373072.744       -1048.425          51.000  
E31  25279433.075   132844647.356       -3381.086          43.000    25279434.202   101790124.204       -2590.814          47.000  
G16  21569961.479   113350932.501        2373.705          44.000                                                                  
R13  21513960.860                3       3046.649          26.000    21513958.309                3       2367.065          18.000  
R21  20065488.606   107374927.674       -3220.171          52.000    20065481.725    83513656.430       -2504.537          47.000  
E24  22262397.903   116989699.001       -1572.492          48.000    22262395.886    89641496.424       -1204.917          52.000  
S31  37407924.045   196580062.475        -684.014          44.000  
G29  21573091.865   113367684.853       -2577.076          44.000    21573085.439    88338593.136       -2008.214          37.000  
G25  22604463.351   118787436.069       -4193.033          43.000    22604461.983    92561731.855       -3267.335          40.000  
G31  21393354.020   112422837.723       -2755.621          43.000    21393350.035    87602244.270       -2147.167          40.000  
E36  25694156.505   135023716.546        1642.704          42.000    25694159.726   103459771.394        1258.806          47.000  
G18  19297649.747   101410065.723       -2105.194          48.000    19297644.951    79020981.986       -1640.485          50.000  
G10  22357302.993   117488471.486        3150.970          35.000    22357305.273    91549455.264        2455.316          40.000  
E11  21357832.184   112236391.453           1.753          44.000    21357828.607    85999418.884           1.375          48.000  
G05                                                                  23565216.267                       -2638.042          26.000  
> 2024 04 09 06 23 00.4950000  0 27                     
S33  38367322.234   201621778.033        -683.873          44.000  
G23  20168635.213   105987055.893        1795.111          48.000    20168629.564    82587371.391        1398.707          46.000  
E25  23117613.793   121483851.635        1069.560          47.000    23117613.827    93085070.113         819.569          51.000  
G26  19150825.473   100638260.696         470.403          49.000    19150822.377    78419429.065         366.490          46.000  
G27  22947346.290   120589136.894        1642.216          39.000    22947344.441    93965544.056        1279.872          35.000  
R11  19279953.857   103026358.349       -4123.987          52.000    19279947.900    80131469.242       -3207.568          50.000  
R22  18525724.949    98891925.247        -811.649          51.000    18525720.315    76915846.118        -631.334          51.000  
R23  21147028.697   113122345.947        1522.957          49.000                                                                  
R12  18420707.283    98400066.228         331.428          53.000    18420702.501    76533455.664         257.684          49.000  
R06  21583256.155   115172386.780        1332.865          39.000                                                                  
G28  22712528.683   119355191.282       -3704.117          37.000    22712526.782    93003941.819       -2886.024          42.000  
E12  23237718.049   122115249.387       -2413.712          45.000    23237714.679    93568991.786       -1849.608          49.000  
E10  22203503.325   116680438.946       -1376.472          47.000    22203502.842    89404617.160       -1054.581          52.000  
E31  25298748.660   132946153.415       -3386.169          43.000    25298750.076   101867901.530       -2594.437          47.000  
G16  21556424.992   113279797.837        2368.303          45.000                                                                  
R13  21496886.315                3       3032.952          24.000    21496909.656                3       2350.576          23.000  
R21  20083544.711   107471550.701       -3221.512          52.000    20083538.140    83588807.685       -2505.531          47.000  
E24  22271406.661   117037044.153       -1584.144          48.000    22271405.271    89677773.878       -1213.753          52.000  
S31  37411828.017   196600577.605        -683.730          44.000  
G29  21587812.673   113445041.046       -2580.247          43.000    21587805.675    88398870.696       -2010.537          36.000  
G25  22628415.838   118913308.473       -4198.488          41.000    22628414.964    92659814.086       -3271.598          40.000  
G31  21409116.125   112505666.820       -2766.592          43.000    21409112.275    87666786.374       -2155.700          40.000  
E36  25684792.881   134974512.129        1637.234          41.000    25684796.321   103422069.487        1254.639          46.000  
G18  19309701.695   101473399.264       -2117.200          48.000    19309697.023    79070332.795       -1649.872          50.000  
G10  22339317.100   117393958.061        3149.890          35.000    22339319.844    91475808.735        2454.230          39.000  
E11  21357847.279   112236473.063          -7.388          43.000    21357844.451    85999481.425          -5.597          48.000  
G05                                                                  23584559.608                3      -2648.228          23.000  
> 2024 04 09 06 23 30.4950000  0 27                     
S33  38371225.029   201642286.482        -683.576          44.000  
G23  20158426.066   105933407.364        1781.475          48.000    20158420.631    82545567.347        1388.231          47.000  
E25  23111531.046   121451884.139        1061.771          47.000    23111530.501    93060575.555         813.476          51.000  
G26  19148187.748   100624403.790         453.446          49.000    19148185.745    78408631.484         353.484          45.000  
G27  22937965.839   120539842.881        1644.025          40.000    22937963.527    93927133.147        1281.348          38.000  
R11  19303151.816   103150320.927       -4140.100          51.000    19303145.679    80227884.545       -3220.160          50.000  
R22  18530316.395    98916434.498        -822.243          52.000    18530312.333    76934908.864        -639.530          51.000  
R23  21138512.253   113076786.557        1514.343          49.000                                                                  
R12  18418918.803    98390513.020         305.494          53.000    18418913.784    76526025.355         237.625          49.000  
R06  21575809.603   115132650.147        1316.504          38.000                                                                  
G28  22733673.279   119466310.896       -3703.804          35.000    22733672.282    93090528.352       -2886.021          42.000  
E12  23251510.957   122187735.661       -2418.485          44.000    23251508.163    93624533.207       -1853.137          49.000  
E10  22211384.943   116721854.676       -1384.570          48.000    22211384.208    89436351.302       -1060.880          52.000  
E31  25318093.057   133047811.805       -3390.827          43.000    25318095.473   101945795.604       -2598.291          47.000  
G16  21542921.752   113208835.834        2362.558          45.000                                                                  
R13  21479888.137                1       3022.469          27.000    21479901.081                3       2342.822          19.000  
R21  20101608.800   107568215.120       -3222.613          51.000    20101603.581    83663991.061       -2506.563          48.000  
E24  22280482.985   117084738.472       -1595.400          48.000    22280481.417    89714318.868       -1222.515          52.000  
S31  37415730.950   196621086.699        -683.506          44.000  
G29  21602550.798   113522492.442       -2583.318          42.000    21602544.560    88459222.430       -2012.779          37.000  
G25  22652398.481   119039339.326       -4203.788          40.000    22652397.982    92758019.764       -3275.498          40.000  
G31  21424941.113   112588826.138       -2777.196          44.000    21424937.334    87731585.828       -2164.350          40.000  
E36  25675460.849   134925476.088        1631.711          41.000    25675464.824   103384496.605        1250.413          46.000  
G18  19321822.446   101537095.912       -2129.150          47.000    19321817.899    79119966.526       -1659.082          50.000  
G10  22321341.431   117299489.089        3148.248          38.000    22321342.158    91402196.781        2453.107          40.000  
E11  21357917.180   112236839.095         -16.860          44.000    21357914.408    85999761.906         -12.890          48.000  
G05                                                                  23603988.785                3      -2655.251          25.000  
> 2024 04 09 06 24 00.4950000  0 27                     
S33  38375125.108   201662782.639        -682.896          44.000  
G23  20148295.908   105880171.782        1767.527          48.000    20148290.515    82504085.079        1377.332          46.000  
E25  23105493.003   121420152.804        1053.774          48.000    23105492.321    93036261.953         807.428          51.000  
G26  19145646.688   100611051.588         436.503          49.000    19145644.814    78398227.171         340.296          45.000  
G27  22928576.578   120490504.126        1645.422          40.000    22928573.862    93888687.405        1281.837          38.000  
R11  19326440.835   103274769.224       -4156.488          51.000    19326434.467    80324677.631       -3232.721          49.000  
R22  18534967.455    98941261.475        -832.948          51.000    18534963.196    76954218.748        -647.850          51.000  
R23  21130043.417   113031484.811        1505.639          48.000                                                                  
R12  18417275.928    98381737.787         279.482          53.000    18417270.975    76519200.180         217.240          49.000  
R06  21568453.226   115093404.482        1300.083          34.000                                                                  
G28  22754818.500   119577424.827       -3703.857          38.000    22754817.155    93177110.418       -2886.073          42.000  
E12  23265331.685   122260363.739       -2423.275          44.000    23265328.784    93680183.301       -1856.876          49.000  
E10  22219311.416   116763510.031       -1392.540          47.000    22219310.880    89468269.057       -1067.036          52.000  
E31  25337465.962   133149614.791       -3395.730          43.000    25337468.407   102023800.445       -2601.992          47.000  
G16  21529450.486   113138042.343        2356.865          46.000                                                                  
R13  21462943.912                        3011.375          28.000                                                                  
R21  20119679.308   107664912.284       -3223.896          51.000    20119673.181    83739199.971       -2507.474          48.000  
E24  22289624.573   117132775.333       -1606.997          49.000    22289622.713    89751126.338       -1231.350          52.000  
S31  37419631.316   196641583.606        -683.135          44.000  
G29  21617305.804   113600032.348       -2586.363          41.000    21617298.960    88519643.107       -2015.201          35.000  
G25  22676409.891   119165519.833       -4208.608          40.000    22676409.497    92856342.070       -3279.423          39.000  
G31  21440827.650   112672305.960       -2788.022          45.000    21440822.901    87796634.968       -2172.449          39.000  
E36  25666160.712   134876602.183        1626.321          41.000    25666164.072   103347047.939        1246.252          46.000  
G18  19334011.515   101601146.781       -2140.979          48.000    19334006.458    79169876.309       -1668.372          50.000  
G10  22303374.195   117205061.051        3146.802          41.000    22303372.577    91328616.659        2451.904          41.000  
E11  21358040.681   112237482.343         -26.091          45.000    21358036.855    86000254.798         -20.077          48.000  
G05                                                                  23623472.653                3      -2661.315          25.000  
> 2024 04 09 06 24 30.4950000  0 27                     
S33  38379023.440   201683268.956        -683.097          44.000  
G23  20138244.745   105827354.250        1753.227          48.000    20138240.360    82462928.602        1366.075          47.000  
E25  23099500.071   121388661.472        1045.390          47.000    23099499.582    93012132.243         801.092          51.000  
G26  19143202.944   100598208.030         419.150          49.000    19143200.711    78388219.179         326.665          45.000  
G27  22919179.223   120441122.826        1646.167          37.000    22919176.777    93850208.482        1283.013          38.000  
R11  19349819.943   103399701.453       -4172.802          51.000    19349814.533    80421847.094       -3245.581          50.000  
R22  18539677.128    98966406.645        -843.772          50.000    18539672.843    76973776.101        -656.311          50.000  
R23  21121622.706   112986442.791        1496.639          48.000                                                                  
R12  18415779.807    98373744.337         252.958          53.000    18415774.780    76512983.030         196.740          49.000  
R06  21561189.870   115054655.904        1282.773          33.000                                                                  
G28  22775962.167   119688532.299       -3703.567          39.000    22775959.965    93263687.498       -2885.836          41.000  
E12  23279178.970   122333134.398       -2428.277          44.000    23279176.845    93735942.634       -1860.721          50.000  
E10  22227284.249   116805406.012       -1400.791          47.000    22227283.585    89500371.177       -1073.428          52.000  
E31  25356866.664   133251563.538       -3400.987          43.000    25356868.881   102101916.966       -2605.925          46.000  
G16  21516011.818   113067421.915        2350.884          46.000                                                                  
R13  21446047.794                1       2999.015          27.000    21446046.951                3       2333.299          22.000  
R21  20137755.686   107761643.145       -3225.299          51.000    20137749.355    83814435.054       -2508.497          48.000  
E24  22298830.934   117181157.029       -1618.816          48.000    22298829.533    89788198.024       -1240.385          53.000  
S31  37423530.039   196662070.739        -683.275          44.000  
G29  21632077.876   113677663.130       -2589.402          40.000    21632071.478    88580134.648       -2017.799          35.000  
G25  22700450.290   119291850.240       -4213.783          41.000    22700449.803    92954781.170       -3283.432          39.000  
G31  21456773.865   112756105.448       -2798.986          43.000    21456769.177    87861933.232       -2181.111          38.000  
E36  25656891.640   134827893.183        1620.511          41.000    25656894.669   103309725.622        1241.664          45.000  
G18  19346267.701   101665552.026       -2153.204          48.000    19346262.840    79220062.198       -1677.771          50.000  
G10  22285413.417   117110679.162        3145.056          39.000    22285412.542    91255072.577        2450.562          41.000  
E11  21358216.717   112238404.477         -35.582          45.000    21358212.021    86000961.367         -27.347          48.000  
G05                                                                  23643005.667                3      -2667.354          17.000  
> 2024 04 09 06 25 00.4950000  0 27                     
S33  38382921.636   201703753.839        -682.941          44.000  
G23  20128275.906   105774967.150        1738.877          49.000    20128271.657    82422107.515        1355.057          48.000  
E25  23093554.111   121357421.209        1037.062          46.000    23093554.731    92988194.925         794.601          51.000  
G26  19140858.548   100585884.296         401.956          50.000    19140855.776    78378616.279         313.249          45.000  
G27  22909775.232   120391708.435        1647.683          40.000    22909773.640    93811703.821        1284.071          37.000  
R11  19373290.369   103525123.860       -4189.086          51.000    19373285.428    80519397.809       -3258.154          50.000  
R22  18544449.465    98991877.875        -854.692          51.000    18544444.264    76993587.087        -664.683          51.000  
R23  21113252.909   112941669.805        1487.799          47.000                                                                  
R12  18414432.250    98366544.027         226.609          53.000    18414427.595    76507382.784         176.225          50.000  
R06  21554025.168   115016417.628        1266.259          34.000                                                                  
G28  22797105.964   119799640.028       -3703.922          39.000    22797104.203    93350264.776       -2885.992          42.000  
E12  23293056.013   122406055.699       -2433.371          44.000    23293053.275    93791817.383       -1864.468          50.000  
E10  22235304.504   116847550.827       -1408.984          47.000    22235303.694    89532663.956       -1079.695          52.000  
E31  25376297.064   133353666.390       -3406.037          43.000    25376298.076   102180151.584       -2609.742          46.000  
G16  21502607.803   112996986.674        2344.567          46.000                                                                  
R13  21429243.485                3       2987.038          24.000    21429233.270                3       2334.000          22.000  
R21  20155839.716   107858415.359       -3226.489          51.000    20155833.617    83889702.330       -2509.520          48.000  
E24  22308104.781   117229893.079       -1630.459          48.000    22308103.928    89825541.238       -1249.387          53.000  
S31  37427428.319   196682557.256        -683.054          44.000  
G29  21646869.015   113755394.809       -2593.503          40.000    21646864.291    88640704.784       -2020.120          37.000  
G25  22724520.745   119418337.942       -4219.323          42.000    22724519.960    93053342.834       -3287.477          39.000  
G31  21472782.642   112840231.370       -2809.803          44.000    21472776.882    87927485.847       -2189.322          38.000  
E36  25647655.122   134779359.003        1615.212          39.000    25647658.562   103272537.251        1237.512          45.000  
G18  19358592.562   101730318.979       -2165.009          48.000    19358587.266    79270529.949       -1687.042          50.000  
G10  22267463.046   117016355.995        3142.883          38.000    22267463.076    91181574.283        2448.889          39.000  
E11  21358446.587   112239614.340         -45.356          45.000    21358441.911    86001888.413         -34.864          47.000  
G05                                                                  23662617.934                3      -2681.703          22.000  
> 2024 04 09 06 25 30.4950000  0 27                     
S33  38386819.594   201724237.565        -682.704          44.000  
G23  20118389.852   105723012.979        1724.602          49.000    20118384.970    82381623.788        1343.868          47.000  
E25  23087656.804   121326433.266        1028.825          45.000    23087657.978    92964450.922         788.292          51.000  
G26  19138613.246   100574081.803         384.765          49.000    19138609.817    78369419.543         299.637          45.000  
G27  22900366.462   120342260.895        1648.638          41.000    22900364.105    93773173.243        1284.782          38.000  
R11  19396851.948   103651032.136       -4205.139          51.000    19396847.838    80617326.460       -3270.685          50.000  
R22  18549281.636    99017673.047        -865.180          51.000    18549277.571    77013650.009        -672.888          51.000  
R23  21104933.384   112897165.095        1479.006          47.000                                                                  
R12  18413232.738    98360138.265         200.265          53.000    18413228.646    76502400.531         155.759          50.000  
R06  21546955.836   114978693.121        1248.994          34.000                                                                  
G28  22818249.253   119910744.713       -3703.365          40.000    22818247.157    93436839.652       -2885.691          42.000  
E12  23306961.501   122479125.742       -2438.260          45.000    23306958.168    93847806.108       -1868.129          50.000  
E10  22243371.172   116889942.848       -1417.172          47.000    22243370.613    89565146.152       -1085.828          52.000  
E31  25395754.445   133455921.970       -3410.975          42.000    25395756.407   102258503.219       -2613.605          45.000  
G16  21489239.999   112926739.023        2338.344          45.000                                                                  
R13  21412514.692                3       2976.441          26.000    21412520.230                        2313.824          27.000  
R21  20173930.697   107955227.147       -3227.681          51.000    20173925.171    83965000.335       -2510.500          47.000  
E24  22317446.036   117278983.185       -1642.242          47.000    22317445.480    89863155.727       -1258.347          53.000  
S31  37431326.562   196703042.276        -682.712          43.000  
G29  21661679.377   113833227.082       -2596.004          41.000    21661674.935    88701353.389       -2023.086          36.000  
G25  22748619.752   119544980.525       -4224.035          42.000    22748620.009    93152025.246       -3291.670          40.000  
G31  21488853.145   112924680.291       -2820.411          45.000    21488846.720    87993290.131       -2197.456          38.000  
E36  25638450.637   134730999.852        1609.024          37.000    25638456.302   103235482.989        1232.973          45.000  
G18  19370985.315   101795445.222       -2176.764          48.000    19370980.380    79321277.689       -1696.387          50.000  
G10  22249525.766   116922094.417        3141.107          40.000    22249524.982    91108123.888        2447.577          39.000  
E11  21358730.898   112241111.045         -54.494          44.000    21358726.476    86003035.251         -41.853          47.000  
G05                                                                  23682264.449                3      -2682.235          23.000  
> 2024 04 09 06 26 00.4950000  0 27                     
S33  38390717.853   201744722.541        -682.916          44.000  
G23  20108586.390   105671495.623        1709.989          49.000    20108581.364    82341480.407        1332.408          47.000  
E25  23081808.887   121295700.301        1020.087          45.000    23081809.748    92940902.281         781.738          51.000  
G26  19136466.073   100562803.255         367.218          49.000    19136463.242    78360631.073         286.156          45.000  
G27  22890951.399   120292781.142        1649.756          40.000    22890948.646    93734617.646        1285.659          38.000  
R11  19420504.843   103777423.413       -4220.923          51.000    19420500.638    80715630.731       -3282.977          51.000  
R22  18554173.965    99043791.461        -875.916          50.000    18554170.131    77033964.338        -681.376          51.000  
R23  21096664.468   112852929.215        1470.017          48.000    21098317.165                3        985.156          10.000  
R12  18412181.866    98354529.929         173.706          52.000    18412178.644    76498038.495         134.962          50.000  
R06  21539983.227   114941486.992        1231.646          31.000                                                                  
G28  22839391.164   120021844.522       -3702.937          40.000    22839389.664    93523410.745       -2885.511          42.000  
E12  23320893.891   122552344.239       -2443.080          45.000    23320891.346    93903908.597       -1871.961          50.000  
E10  22251485.069   116932581.883       -1425.418          47.000    22251484.657    89597817.616       -1092.164          53.000  
E31  25415243.165   133558330.236       -3416.108          43.000    25415243.417   102336971.842       -2617.517          44.000  
G16  21475908.593   112856682.399        2331.860          45.000                                                                  
R13  21395812.189                3       2960.239          25.000    21395822.086                3       2304.384          23.000  
R21  20192030.200   108052078.177       -3228.959          51.000    20192023.779    84040328.883       -2511.407          48.000  
E24  22326855.266   117328428.399       -1654.044          48.000    22326854.473    89901042.313       -1267.362          53.000  
S31  37435224.794   196723528.065        -682.789          44.000  
G29  21676509.410   113911161.275       -2599.698          40.000    21676507.455    88762081.287       -2026.170          38.000  
G25  22772748.867   119671777.066       -4228.886          43.000    22772749.019    93250827.574       -3295.691          41.000  
G31  21504984.266   113009450.238       -2830.948          44.000    21504978.016    88059344.551       -2205.976          38.000  
E36  25629281.265   134682817.198        1603.207          36.000    25629287.623   103198563.995        1228.410          45.000  
G18  19383446.761   101860929.665       -2188.739          48.000    19383442.077    79372304.523       -1705.524          50.000  
G10  22231600.761   116827898.616        3138.708          40.000    22231600.836    91034724.748        2445.996          40.000  
E11  21359070.556   112242895.112         -64.237          44.000    21359065.955    86004402.270         -49.216          47.000  
G05                                                                  23701987.184                3      -2696.262          21.000  
> 2024 04 09 06 26 30.4950000  0 27                     
S33  38394614.877   201765202.529        -682.565          44.000  
G23  20098865.293   105620412.654        1695.298          49.000    20098860.632    82301675.513        1320.879          47.000  
E25  23076009.348   121265218.595        1011.715          46.000    23076009.278    92917546.185         775.143          51.000  
G26  19134418.234   100552045.055         349.724          49.000    19134415.771    78352248.058         272.360          45.000  
G27  22881528.493   120243264.050        1650.640          39.000    22881526.849    93696032.942        1286.460          40.000  
R11  19444246.929   103904288.549       -4236.957          52.000    19444241.626    80814303.618       -3295.447          50.000  
R22  18559126.448    99070225.974        -886.701          50.000    18559121.605    77054524.530        -689.554          51.000  
R23  21088444.078   112808956.405        1461.135          49.000                                                                  
R12  18411280.660    98349714.972         146.987          52.000    18411277.150    76494293.540         114.280          49.000  
R06  21533110.020   114904797.985        1214.176          33.000                                                                  
G28  22860531.196   120132931.284       -3702.718          41.000    22860529.081    93609971.652       -2885.654          41.000  
E12  23334854.323   122625704.442       -2447.923          45.000    23334851.388    93960119.655       -1875.708          50.000  
E10  22259644.991   116975461.344       -1433.404          48.000    22259644.232    89630673.311       -1098.401          53.000  
E31  25434758.002   133660884.823       -3421.161          42.000    25434758.848   102415552.568       -2621.382          44.000  
G16  21462612.462   112786813.989        2325.598          45.000                                                                  
R13  21379209.002                3       2948.634          24.000    21379195.235                3       2297.593          19.000  
R21  20210134.676   108148961.181       -3230.241          49.000    20210128.409    84115682.340       -2512.355          48.000  
E24  22336331.363   117378223.459       -1665.856          48.000    22336330.235    89939196.960       -1276.472          53.000  
S31  37439122.283   196744008.482        -682.811          43.000  
G29  21691359.618   113989192.533       -2602.754          42.000    21691354.999    88822884.833       -2028.078          36.000  
G25  22796905.390   119798720.175       -4233.844          42.000    22796905.110    93349744.087       -3299.183          40.000  
G31  21521175.036   113094532.978       -2841.304          44.000    21521169.520    88125642.784       -2214.141          39.000  
E36  25620146.249   134634806.278        1597.532          37.000    25620151.418   103161776.527        1224.015          46.000  
G18  19395974.879   101926764.902       -2200.568          48.000    19395969.989    79423604.690       -1714.789          50.000  
G10  22213687.977   116733766.422        3136.267          40.000    22213688.377    90961375.182        2443.970          41.000  
E11  21359463.707   112244960.615         -73.788          44.000    21359459.239    86005984.936         -56.615          47.000  
G05                                                                  23721756.429                3      -2705.773          16.000  
> 2024 04 09 06 27 00.4960000  0 27                     
S33  38398511.180   201785678.202        -682.533          44.000  
G23  20089227.283   105569766.930        1680.834          49.000    20089223.019    82262211.343        1309.725          47.000  
E25  23070257.268   121234990.516        1003.207          46.000    23070257.100    92894384.417         768.718          51.000  
G26  19132470.754   100541810.285         332.508          49.000    19132468.173    78344272.902         258.957          45.000  
G27  22872098.316   120193709.723        1652.562          41.000    22872097.364    93657419.217        1287.374          39.000  
R11  19468076.937   104031629.463       -4252.387          52.000    19468071.766    80913346.526       -3307.472          50.000  
R22  18564138.276    99096977.585        -896.982          51.000    18564133.338    77075331.322        -697.620          51.000  
R23  21080272.953   112765246.849        1452.517          48.000                                                                  
R12  18410528.921    98345696.958         120.698          52.000    18410524.545    76491168.416          93.815          49.000  
R06  21526331.420   114868630.059        1196.670          31.000                                                                  
G28  22881667.873   120244007.504       -3701.961          41.000    22881666.535    93696524.390       -2885.011          41.000  
E12  23348841.703   122699209.089       -2452.479          45.000    23348838.804    94016441.389       -1879.165          50.000  
E10  22267850.756   117018583.154       -1441.375          48.000    22267850.107    89663714.692       -1104.419          53.000  
E31  25454302.702   133763589.772       -3425.890          43.000    25454303.248   102494248.519       -2625.118          45.000  
G16  21449353.542   112717135.648        2319.457          45.000                                                                  
R13  21362714.129                3       2939.438          22.000    21362660.576                3       2276.549          19.000  
R07  22545391.067                3       2847.615          25.000                                                                  
R21  20228245.840   108245879.800       -3231.086          50.000    20228241.417    84191063.478       -2513.025          49.000  
E24  22345875.025   117428371.794       -1677.510          48.000    22345872.873    89977622.284       -1285.348          53.000  
S31  37443018.959   196764486.029        -682.639          43.000  
G29  21706228.261   114067325.373       -2606.202          41.000    21706223.896    88883767.516       -2030.640          37.000  
G25  22821090.622   119925813.784       -4238.684          41.000    22821090.125    93448777.863       -3302.846          40.000  
G31  21537425.343   113179930.122       -2851.474          43.000    21537420.987    88192185.926       -2222.063          39.000  
E36  25611043.755   134586967.713        1591.921          37.000    25611047.938   103125121.123        1219.506          46.000  
G18  19408570.257   101992952.756       -2211.975          49.000    19408565.059    79475179.645       -1723.688          50.000  
G10  22195787.602   116639699.557        3134.247          40.000    22195787.723    90888076.536        2442.205          40.000  
E11  21359910.212   112247308.721         -82.818          44.000    21359906.288    86007784.146         -63.451          48.000  
> 2024 04 09 06 27 30.4960000  0 28                     
S33  38402407.032   201806150.204        -682.380          44.000  
G23  20079674.739   105519564.443        1665.896          49.000    20079669.198    82223092.524        1298.128          47.000  
E25  23064554.141   121205019.363         994.565          47.000    23064553.747    92871419.524         762.025          51.000  
G26  19130623.834   100532101.016         314.731          50.000    19130620.357    78336707.227         245.193          44.000  
G27  22862662.267   120144121.392        1653.176          42.000    22862660.257    93618778.980        1288.259          39.000  
R11  19491993.262   104159433.705       -4267.962          52.000    19491988.822    81012749.784       -3319.610          50.000  
R22  18569207.772    99124042.377        -907.438          50.000    18569203.557    77096381.719        -705.780          51.000  
R23  21072151.474   112721802.607        1443.530          49.000                                                                  
R12  18409925.845    98342477.344          93.805          52.000    18409921.906    76488664.262          73.025          50.000  
R06  21519650.399   114832989.050        1178.849          33.000                                                                  
R05  22972429.252                3      -1793.922          11.000                                                                  
G28  22902801.150   120355062.771       -3701.557          41.000    22902799.351    93783060.738       -2884.334          41.000  
E12  23362855.305   122772851.616       -2457.260          44.000    23362852.441    94072868.779       -1882.798          50.000  
E10  22276102.003   117061942.904       -1449.400          48.000    22276101.170    89696938.400       -1110.586          53.000  
E31  25473873.426   133866436.875       -3430.692          42.000    25473874.784   102573053.386       -2628.775          46.000  
G16  21436132.463   112647654.656        2312.908          45.000                                                                  
R13  21346243.786                3       2924.772          19.000    21346214.397                3       2275.518          24.000  
R07  22529431.143                1       2847.913          27.000                                                                  
R21  20246361.425   108342825.745       -3232.080          49.000    20246357.303    84266465.897       -2513.884          48.000  
E24  22355484.788   117478869.764       -1689.272          48.000    22355482.258    90016315.535       -1294.390          52.000  
S31  37446914.924   196784959.714        -682.735          43.000  
G29  21721114.684   114145554.407       -2609.367          41.000    21721109.572    88944725.262       -2033.354          37.000  
G25  22845301.959   120053047.114       -4243.690          41.000    22845301.911    93547920.541       -3306.841          40.000  
G31  21553734.660   113265632.842       -2861.726          42.000    21553729.731    88258967.249       -2230.221          39.000  
E36  25601972.527   134539304.891        1585.809          35.000    25601978.041   103088600.364        1215.047          46.000  
G18  19421231.080   102059486.416       -2223.682          48.000    19421225.677    79527024.056       -1732.758          50.000  
G10  22177901.924   116545707.198        3131.749          41.000    22177900.809    90814835.902        2439.964          39.000  
E11  21360411.300   112249938.470         -92.618          44.000    21360406.771    86009799.150         -70.943          48.000  
> 2024 04 09 06 28 00.4960000  0 27                     
S33  38406302.777   201826622.800        -682.457          44.000  
G23  20070206.953   105469810.049        1650.813          48.000    20070201.742    82184322.878        1286.290          48.000  
E25  23058900.361   121175309.559         985.783          47.000    23058900.200    92848654.870         755.297          51.000  
G26  19128877.195   100522922.333         296.846          50.000    19128873.730    78329555.022         231.282          45.000  
G27  22853220.372   120094501.184        1654.347          41.000    22853216.772    93580113.914        1289.525          37.000  
R11  19515997.631   104287705.515       -4283.575          51.000    19515992.596    81112516.723       -3331.805          50.000  
R22  18574336.838    99151423.430        -918.141          50.000    18574332.861    77117678.110        -714.213          51.000  
R23  21064079.973   112678625.957        1434.690          48.000                                                                  
R12  18409473.855    98340061.261          66.979          52.000    18409469.907    76486785.086          52.093          50.000  
R06  21513071.838   114797880.982        1161.330          33.000                                                                  
G28  22923931.684   120466101.663       -3701.592          40.000    22923929.164    93869584.354       -2884.114          39.000  
E12  23376896.847   122846636.900       -2462.104          44.000    23376893.415    94129405.548       -1886.535          50.000  
E10  22284399.094   117105544.564       -1457.547          48.000    22284398.246    89730347.472       -1116.879          53.000  
E31  25493472.989   133969432.281       -3435.604          43.000    25493474.168   102651971.887       -2632.601          46.000  
G16  21422948.973   112578374.861        2305.763          45.000                                                                  
R07  22513465.307                1       2848.474          28.000    22513460.413                3       2215.198          27.000  
R21  20264485.244   108439804.694       -3233.365          50.000    20264480.709    84341893.973       -2514.973          49.000  
E24  22365161.981   117529722.839       -1701.153          49.000    22365159.382    90055280.869       -1303.508          52.000  
S31  37450811.092   196805433.765        -682.813          43.000  
G29  21736020.573   114223886.515       -2612.913          42.000    21736015.940    89005763.265       -2036.256          38.000  
G25  22869541.504   120180426.066       -4248.602          41.000    22869541.135    93647176.664       -3310.605          40.000  
G31  21570102.240   113351644.827       -2872.012          41.000    21570097.407    88325989.530       -2238.308          39.000  
E36  25592938.218   134491820.418        1580.093          36.000    25592941.807   103052216.268        1210.340          46.000  
G18  19433958.130   102126369.779       -2235.445          48.000    19433952.991    79579140.961       -1741.871          50.000  
G10  22160030.916   116451793.188        3129.066          42.000    22160029.275    90741656.287        2438.081          40.000  
E11  21360965.564   112252853.154        -101.966          44.000    21360961.478    86012032.476         -78.100          48.000  
R13                                                                  21329804.691                3       2264.759          26.000  
> 2024 04 09 06 28 30.4960000  0 28                     
S33  38410198.126   201847093.045        -682.834          44.000  
G23  20060823.162   105420504.377        1635.594          48.000    20060819.622    82145902.901        1274.543          48.000  
E25  23053296.254   121145860.543         976.869          47.000    23053296.287    92826090.036         748.551          52.000  
G26  19127231.898   100514273.674         279.169          50.000    19127228.275    78322815.780         217.360          45.000  
G27  22843771.726   120044847.116        1655.293          42.000    22843767.457    93541422.459        1289.779          37.000  
R11  19540089.447   104416438.824       -4299.060          52.000    19540083.331    81212642.573       -3343.707          50.000  
R22  18579524.822    99179116.753        -928.581          50.000    18579520.562    77139217.374        -722.298          51.000  
R23  21056058.396   112635714.192        1425.736          49.000                                                                  
R12  18409171.860    98338448.128          40.036          52.000    18409168.101    76485530.395          31.119          50.000  
R06  21506594.060   114763307.618        1143.256          37.000                                                                  
R05  22993894.861                3      -1798.328          11.000                                                                  
G28  22945057.679   120577119.246       -3700.376          40.000    22945054.750    93956091.310       -2883.811          39.000  
E12  23390965.019   122920561.342       -2466.870          45.000    23390960.622    94186048.939       -1890.312          50.000  
E10  22292741.452   117149384.727       -1465.587          48.000    22292740.597    89763939.288       -1123.071          52.000  
E31  25513100.415   134072572.772       -3440.751          43.000    25513101.467   102731001.554       -2636.505          47.000  
G16  21409803.963   112509296.578        2298.923          46.000                                                                  
R13  21313480.344                3       2885.606          20.000    21313487.265                        2254.091          28.000  
R07  22497502.696   120430906.8271       2848.596          34.000    22497498.100                3       2215.674          27.000  
R21  20282613.999   108536812.836       -3234.417          50.000    20282608.918    84417344.714       -2515.591          48.000  
E24  22374905.764   117580928.855       -1713.099          48.000    22374903.677    90094516.644       -1312.684          52.000  
S31  37454706.691   196825905.416        -682.937          44.000  
G29  21750944.933   114302319.808       -2616.343          42.000    21750942.351    89066880.097       -2039.091          38.000  
G25  22893808.491   120307946.500       -4253.320          42.000    22893807.796    93746543.047       -3314.524          41.000  
G31  21586527.856   113437960.953       -2882.482          41.000    21586522.439    88393248.770       -2246.003          40.000  
E36  25583934.190   134444512.643        1573.361          35.000    25583939.166   103015967.562        1205.764          47.000  
G18  19446751.239   102193598.556       -2246.966          48.000    19446745.943    79631527.008       -1750.947          50.000  
G10  22142174.875   116357958.512        3126.053          43.000    22142173.387    90668538.553        2435.851          40.000  
E11  21361573.271   112256049.956        -111.650          43.000    21361569.883    86014481.962         -85.464          48.000  
> 2024 04 09 06 29 00.4960000  0 27                     
S33  38414093.063   201867560.789        -682.209          44.000  
G23  20051527.077   105371649.244        1620.960          49.000    20051522.436    82107833.978        1262.980          48.000  
E25  23047741.984   121116672.884         968.567          47.000    23047742.157    92803725.465         742.167          52.000  
G26  19125686.333   100506155.611         261.624          49.000    19125683.285    78316490.018         203.930          45.000  
G27  22834316.235   119995158.214        1656.728          42.000    22834311.677    93502703.849        1291.058          37.000  
R11  19564265.706   104545628.709       -4313.910          52.000    19564259.386    81313123.561       -3355.316          50.000  
R22  18584770.316    99207119.610        -938.488          50.000    18584766.558    77160997.387        -729.995          51.000  
R23  21048086.059   112593065.540        1417.171          49.000                                                                  
R12  18409019.746    98337638.374          13.563          51.000    18409016.560    76484900.560          10.574          50.000  
R06  21500215.278   114729271.445        1125.632          36.000                                                                  
G28  22966179.080   120688111.668       -3699.436          39.000    22966175.026    94042578.600       -2882.341          37.000  
E12  23405058.178   122994622.468       -2470.922          45.000    23405053.810    94242797.070       -1893.419          50.000  
E10  22301129.066   117193461.116       -1473.253          48.000    22301128.044    89797712.106       -1128.821          52.000  
E31  25532753.670   134175856.185       -3445.164          42.000    25532756.170   102810140.721       -2639.858          47.000  
G16  21396696.940   112440421.906        2292.228          45.000                                                                  
R13  21297240.345                3       2887.360          22.000    21297232.205                        2244.679          30.000  
R07  22481537.175   120345442.669        2848.784          37.000    22481526.783    93601980.8041       2215.450          34.000  
R21  20300747.006   108633847.722       -3235.015          50.000    20300740.793    84492816.289       -2516.108          46.000  
E24  22384716.853   117632486.764       -1724.467          48.000    22384714.725    90134022.053       -1321.370          52.000  
S31  37458601.536   196846374.853        -682.256          43.000  
G29  21765890.337   114380853.869       -2619.559          42.000    21765885.573    89128075.402       -2040.948          37.000  
G25  22918100.831   120435605.312       -4257.709          42.000    22918100.576    93846017.223       -3317.649          41.000  
G31  21603009.265   113524576.953       -2892.233          41.000    21603005.102    88460741.756       -2253.900          41.000  
E36  25574967.880   134397380.942        1567.916          38.000    25574970.046   102979853.808        1201.535          46.000  
G18  19459609.595   102261169.614       -2258.138          48.000    19459604.024    79684179.780       -1759.565          49.000  
G10  22124333.862   116264205.347        3123.662          43.000    22124332.910    90595484.322        2434.066          41.000  
E11  21362235.156   112259527.286        -120.758          43.000    21362231.646    86017146.412         -92.482          48.000  
> 2024 04 09 06 29 30.4960000  0 27                     
S33  38417985.877   201888016.710        -681.761          44.000  
G23  20042315.269   105323239.196        1606.050          49.000    20042310.241    82070111.862        1251.379          48.000  
E25  23042235.970   121087740.036         960.015          46.000    23042236.427    92781556.133         735.585          52.000  
G26  19124241.232   100498561.577         244.142          49.000    19124238.535    78310572.585         190.313          44.000  
G27  22824852.029   119945426.545        1658.368          40.000    22824848.064    93463951.998        1291.880          38.000  
R11  19588524.456   104675262.567       -4328.687          52.000    19588518.778    81413949.850       -3366.827          50.000  
R22  18590071.939    99235421.906        -948.536          50.000    18590068.464    77183010.282        -737.764          51.000  
R23  21040159.855   112550671.533        1408.781          47.000                                                                  
R12  18409017.876    98337624.895         -13.087          52.000    18409014.074    76484890.077         -10.188          50.000  
R06  21493938.418   114695767.801        1107.645          36.000                                                                  
G28  22987292.698   120799067.860       -3697.846          35.000    22987288.962    94129037.757       -2881.811          37.000  
E12  23419175.252   123068810.746       -2475.176          45.000    23419171.484    94299642.627       -1896.582          49.000  
E10  22309559.782   117237764.254       -1480.709          48.000    22309558.748    89831658.675       -1134.526          52.000  
E31  25552433.520   134279273.244       -3449.628          43.000    25552435.544   102889382.292       -2643.289          47.000  
G16  21383627.992   112371745.023        2285.728          45.000                                                                  
R07  22465567.139   120259966.318        2849.170          43.000    22465561.352    93535499.302        2216.286          40.000  
R21  20318885.035   108730899.722       -3235.555          51.000    20318877.643    84568301.169       -2516.705          47.000  
E24  22394593.459   117684388.334       -1735.946          48.000    22394591.224    90173790.789       -1330.158          52.000  
S31  37462494.580   196866832.692        -682.120          44.000  
G29  21780853.490   114459479.955       -2622.578          44.000    21780847.296    89189342.476       -2043.528          37.000  
G25  22942417.978   120563392.264       -4261.851          38.000    22942417.974    93945591.242       -3320.909          37.000  
G31  21619546.691   113611482.187       -2902.036          40.000    21619543.254    88528460.042       -2261.271          42.000  
E36  25566031.072   134350417.711        1562.409          37.000    25566033.115   102943869.101        1197.124          46.000  
G18  19472531.340   102329072.656       -2269.209          48.000    19472525.873    79737091.254       -1768.220          49.000  
G10  22106508.119   116170528.705        3120.950          44.000    22106506.713    90522489.692        2431.462          40.000  
E11  21362948.269   112263276.327        -129.694          43.000    21362944.850    86020019.063         -99.263          48.000  
R13                                                                  21281056.049                        2234.235          29.000  
