     3.00           OBSERVATION DATA    M: Mixed            RINEX VERSION / TYPE
CONVBIN 2.4.3                           20240409 061442 UTC PGM / RUN BY / DATE 
format: u-blox UBX                                          COMMENT             
log: data/2024-04-09/20240409060000.ubx                     COMMENT             
AQUI00CHL                                                   MARKER NAME         
                                                            MARKER NUMBER       
                                                            MARKER TYPE         
                                                            OBSERVER / AGENCY   
UNKNOWN             UBLOX-ZED-F9P                           REC # / TYPE / VERS 
UNKNOWN             TWIVSP6037L                             ANT # / TYPE        
  1713381.0000 -5047934.0000 -3490983.0000                  APPROX POSITION XYZ 
        0.0000        0.0000        0.0000                  ANTENNA: DELTA H/E/N
G    8 C1C L1C D1C S1C C2L L2L D2L S2L                      SYS / # / OBS TYPES 
R    8 C1C L1C D1C S1C C2C L2C D2C S2C                      SYS / # / OBS TYPES 
E    8 C1C L1C D1C S1C C7Q L7Q D7Q S7Q                      SYS / # / OBS TYPES 
S    4 C1C L1C D1C S1C                                      SYS / # / OBS TYPES 
  2024    04    09    06    00   00.4950000     GPS         TIME OF FIRST OBS   
  2024    04    09    06    14   30.4950000     GPS         TIME OF LAST OBS    
                                                            END OF HEADER       
> 2024 04 09 06 00 00.4950000  0 25                     
S33  38187093.761   200674670.8491       -690.029          44.000  
G23  20715188.795   108859202.5321       2329.616          48.000    20715183.339    84825406.2291       1815.246          45.000  
E25  23442628.111   123191812.4551       1385.656          48.000    23442628.682    94393767.0241       1061.826          50.000  
G26  19371512.392   101797980.7491       1184.845          48.000    19371510.899    79323107.0051        923.151          46.000  
R11  18324681.261    97921673.7641      -3235.835          52.000    18324674.620    76161160.0391      -2516.742          49.000  
R22  18386319.220    98147766.6841       -248.486          51.000    18386314.697    76337055.5421       -193.291          50.000  
R23  21593429.808   115510269.3051       1937.245          46.000                                                                  
R12  18654987.448    99651549.8101       1449.904          51.000    18654983.664    77506831.7671       1127.731          50.000  
R06  22014325.725   117472656.6701       1951.333          33.000                                                                  
G28  21750378.041   114299079.4981      -3589.073          43.000    21750375.263    89064120.8711      -2796.622          43.000  
E12  22639149.937   118969756.0321      -2128.228          44.000    22639146.990    91158808.5831      -1630.806          49.000  
E10  21896195.409   115065524.5101       -951.239          46.000    21896195.200    88167214.9191       -728.887          51.000  
E31  24443841.028   128453591.7301      -3114.923          44.000    24443843.309    98425550.6791      -2386.658          50.000  
G16  22206110.729   116693924.7841       2551.086          38.000                                                                  
R21  19266995.311   103102028.5221      -3088.788          51.000    19266988.096    80190290.6101      -2402.344          46.000  
E24  21925676.116   115220214.6991      -1053.753          48.000    21925674.225    88285658.0781       -807.424          50.000  
S31  37231609.826   195653523.5711       -689.939          44.000  
G29  20929296.116   109984520.1991      -2438.001          44.000    20929291.210    85702361.5901      -1899.772          44.000  
G25  21564420.738   113321994.4071      -3883.509          43.000    21564416.890    88302950.3801      -3025.802          39.000  
G31  20758237.315   109085277.1091      -2160.425          46.000    20758233.242    85001549.4161      -1683.254          43.000  
G18  18833664.958    98971807.5911      -1486.143          48.000    18833659.649    77121040.4211      -1158.117          49.000  
G05  22763687.685   119624082.0661      -2831.524          41.000    22763681.983    93213473.3961      -2206.097          39.000  
E11  21415131.472   112537493.7451        447.167          45.000    21415127.784    86230133.0451        342.658          49.000  
E36                                                                  26147425.879   105284859.8411       1438.469          33.000  
E33                                                                  26543093.406                3      -2606.710          26.000  
> 2024 04 09 06 00 30.4950000  0 26                     
S33  38191030.113   200695356.432        -689.362          44.000  
G23  20701911.774   108789436.171        2320.868          46.000    20701907.402    84771042.881        1808.564          45.000  
E25  23434730.476   123150310.466        1380.563          48.000    23434731.006    94361966.810        1057.776          50.000  
G26  19364784.939   101762628.213        1171.594          47.000    19364783.114    79295559.569         912.762          46.000  
R11  18342905.828    98019059.032       -3256.981          52.000    18342899.860    76236904.131       -2533.166          49.000  
R22  18387750.860    98155408.798        -261.440          52.000    18387746.162    76342999.421        -203.290          50.000  
R23  21582586.783   115452269.166        1928.831          46.000                                                                  
R12  18646904.572    99608369.704        1428.289          52.000    18646900.238    77473247.240        1110.888          51.000  
R06  22003380.833   117414250.271        1941.726          37.000                                                                  
G28  21770878.625   114406808.068       -3593.241          44.000    21770874.943    89148065.137       -2800.269          42.000  
E12  22651318.430   119033701.321       -2135.088          44.000    22651315.413    91207805.624       -1636.074          49.000  
E10  21901651.877   115094199.195        -960.912          46.000    21901651.626    88189186.439        -736.259          51.000  
E31  24461639.833   128547120.787       -3120.963          44.000    24461641.426    98497215.769       -2391.396          50.000  
G16  22191550.268   116617409.614        2549.371          39.000                                                                  
R21  19284318.736   103194742.416       -3092.633          49.000    19284312.907    80262401.411       -2405.322          45.000  
E24  21931721.041   115251981.479       -1064.486          48.000    21931718.952    88309998.858        -815.705          50.000  
S31  37235545.518   195674205.957        -689.317          44.000  
G29  20943219.331   110057689.904       -2440.342          45.000    20943214.183    85759376.934       -1901.535          43.000  
G25  21586611.636   113438608.564       -3891.173          42.000    21586609.676    88393818.503       -3032.087          40.000  
G31  20770610.339   109150298.265       -2174.911          47.000    20770606.100    85052215.225       -1694.492          44.000  
G18  18842190.202    99016604.982       -1500.850          49.000    18842184.035    77155947.479       -1169.503          48.000  
G05  22779887.936   119709213.027       -2844.738          39.000    22779881.847    93279809.196       -2216.441          40.000  
E11  21412604.881   112524217.097         437.350          45.000    21412600.970    86219960.046         335.161          48.000  
E36                                                                  26136718.927   105241748.646        1435.420          34.000  
E33                                                                  26562508.339                       -2605.491          26.000  
R13                                                                  21419160.304                3       2300.772          11.000  
> 2024 04 09 06 01 00.4950000  0 25                     
S33  38194965.165   200716034.807        -689.196          44.000  
G23  20688688.126   108719946.349        2311.778          47.000    20688684.411    84716895.003        1801.254          46.000  
E25  23426864.837   123108976.817        1374.839          49.000    23426865.476    94330295.573        1053.462          50.000  
G26  19358136.830   101727691.646        1157.617          48.000    19358134.979    79268336.263         902.130          46.000  
R11  18361250.353    98117091.198       -3278.531          51.000    18361245.699    76313151.352       -2549.966          50.000  
R22  18389257.613    98163450.917        -274.845          52.000    18389253.626    76349254.400        -213.686          51.000  
R23  21571794.348   115394536.097        1919.914          47.000                                                                  
R12  18638945.326    99565853.219        1406.077          52.000    18638940.867    77440178.864        1093.626          51.000  
R06  21992494.177   117356152.733        1931.001          37.000                                                                  
G28  21791405.979   114514676.596       -3597.950          45.000    21791401.381    89232118.432       -2803.646          42.000  
E12  22663527.929   119097863.501       -2142.407          44.000    22663525.128    91256968.843       -1641.645          50.000  
E10  21907165.864   115123173.748        -970.780          47.000    21907165.218    88211387.737        -743.866          51.000  
E31  24479474.849   128640844.027       -3127.540          44.000    24479476.459    98569029.664       -2396.326          50.000  
G16  22177003.410   116540961.319        2546.920          39.000                                                                  
R21  19301670.241   103287586.630       -3097.101          52.000    19301662.969    80334613.614       -2408.728          46.000  
E24  21937829.787   115284083.176       -1075.675          48.000    21937827.489    88334596.257        -824.294          49.000  
S31  37239479.930   195694880.918        -689.025          44.000  
G29  20957158.986   110130946.912       -2443.419          45.000    20957154.277    85816460.341       -1904.133          43.000  
G25  21608848.992   113555466.647       -3899.373          41.000    21608846.741    88484876.647       -3038.352          39.000  
G31  20783069.201   109215768.807       -2189.902          48.000    20783064.762    85103231.221       -1706.605          43.000  
G18  18850800.491    99061853.489       -1515.908          49.000    18850794.619    77191206.050       -1181.271          48.000  
G05  22796166.254   119794755.608       -2858.059          37.000    22796160.484    93346465.793       -2227.395          41.000  
E11  21410134.924   112511241.352         427.518          44.000    21410131.572    86210017.604         327.531          48.000  
E36                                                                  26126037.765   105198743.867        1431.920          35.000  
E33                                                                  26581913.033                3      -2607.121          22.000  
> 2024 04 09 06 01 30.4950000  0 25                     
S33  38198897.609   200736699.943        -688.827          44.000  
G23  20675516.680   108650729.686        2302.406          47.000    20675512.049    84662959.995        1794.090          45.000  
E25  23419030.441   123067806.437        1369.329          49.000    23419030.927    94298749.442        1049.177          50.000  
G26  19351567.328   101693166.718        1143.604          48.000    19351564.906    79241433.717         891.052          46.000  
R11  18379715.074    98215760.829       -3299.931          52.000    18379710.133    76389894.388       -2566.573          50.000  
R22  18390837.455    98171884.897        -287.994          52.000    18390832.600    76355814.195        -224.003          50.000  
R23  21561050.437   115337063.948        1911.111          48.000                                                                  
R12  18631109.626    99523996.792        1383.828          52.000    18631105.101    77407623.866        1076.315          50.000  
R06  21981663.835   117298361.891        1920.600          37.000                                                                  
G28  21811957.653   114622675.335       -3602.412          44.000    21811952.359    89316273.183       -2807.038          41.000  
E12  22675777.371   119162234.355       -2149.304          44.000    22675774.431    91306291.955       -1646.945          50.000  
E10  21912735.053   115152440.523        -980.716          47.000    21912734.401    88233812.930        -751.459          51.000  
E31  24497345.622   128734754.020       -3133.622          44.000    24497346.850    98640986.652       -2401.135          50.000  
G16  22162467.786   116464574.691        2544.816          40.000                                                                  
R21  19319043.938   103380552.124       -3101.202          50.000    19319036.168    80406920.051       -2411.963          47.000  
E24  21944000.904   115316513.686       -1086.867          48.000    21943998.716    88359445.602        -832.673          49.000  
S31  37243411.917   195715543.292        -688.774          43.000  
G29  20971115.011   110204284.672       -2446.226          45.000    20971111.014    85873606.594       -1905.769          44.000  
G25  21631131.307   113672560.272       -3907.543          42.000    21631128.121    88576118.362       -3045.060          38.000  
G31  20795611.298   109281679.825       -2204.589          47.000    20795606.904    85154590.435       -1717.907          43.000  
G18  18859495.384    99107544.715       -1530.690          49.000    18859489.296    77226809.621       -1192.758          48.000  
G05  22812519.311   119880701.652       -2871.670          35.000    22812515.120    93413436.731       -2237.853          40.000  
E11  21407720.984   112498559.755         417.307          44.000    21407718.405    86200300.544         319.975          48.000  
E36                                                                  26115381.479   105155840.970        1428.223          34.000  
E33                                                                  26601306.636                3      -2602.227          19.000  
> 2024 04 09 06 02 00.4950000  0 25                     
S33  38202827.959   200757352.923        -688.452          44.000  
G23  20662397.875   108581791.239        2293.136          46.000    20662393.018    84609241.748        1786.812          45.000  
E25  23411227.732   123026802.795        1363.783          49.000    23411228.236    94267331.061        1044.922          49.000  
G26  19345076.484   101659057.566        1129.919          49.000    19345074.189    79214855.163         880.273          46.000  
R11  18398299.305    98315066.998       -3320.905          52.000    18398293.522    76467132.504       -2583.046          50.000  
R22  18392490.279    98180711.106        -300.992          51.000    18392485.172    76362679.030        -234.063          50.000  
R23  21550355.326   115279853.744        1902.401          47.000                                                                  
R12  18623398.295    99482805.658        1361.658          52.000    18623393.970    77375586.310        1059.109          51.000  
R06  21970892.638   117240883.681        1910.120          39.000                                                                  
G28  21832533.714   114730802.973       -3606.578          44.000    21832527.843    89400528.406       -2810.280          41.000  
E12  22688066.840   119226814.221       -2156.428          44.000    22688063.702    91355775.215       -1652.330          50.000  
E10  21918359.551   115182000.240        -990.265          46.000    21918359.589    88256462.591        -758.891          51.000  
E31  24515251.346   128828851.784       -3139.739          44.000    24515252.819    98713087.533       -2405.939          49.000  
G16  22147944.157   116388254.160        2542.266          40.000                                                                  
R21  19336437.734   103473638.307       -3105.029          51.000    19336431.294    80479320.404       -2414.954          47.000  
E24  21950235.574   115349275.358       -1097.823          48.000    21950233.081    88384548.688        -841.144          49.000  
S31  37247341.318   195736193.436        -688.392          43.000  
G29  20985086.805   110277705.257       -2449.023          46.000    20985081.360    85930817.457       -1908.328          43.000  
G25  21653458.651   113789889.442       -3915.186          43.000    21653455.555    88667543.613       -3050.693          40.000  
G31  20808237.572   109348030.600       -2219.245          47.000    20808232.321    85206292.282       -1729.372          42.000  
G18  18868274.217    99153678.734       -1545.274          49.000    18868268.126    77262758.221       -1204.311          48.000  
G05  22828950.445   119967050.943       -2885.166          33.000    22828947.239    93480721.911       -2248.659          41.000  
E11  21405364.456   112486173.904         408.001          44.000    21405361.564    86190810.117         312.470          48.000  
E36                                                                  26104753.126   105113041.870        1424.847          36.000  
E33                                                                  26620694.554                3      -2603.343          19.000  
> 2024 04 09 06 02 30.4950000  0 25                     
S33  38206755.845   200777995.783        -688.201          44.000  
G23  20649332.563   108513135.528        2283.461          45.000    20649328.532    84555743.827        1779.385          45.000  
E25  23403457.541   122985968.766        1357.932          49.000    23403457.442    94236042.654        1040.603          49.000  
G26  19338665.844   101625367.800        1115.717          49.000    19338663.404    79188603.390         869.507          46.000  
R11  18417000.720    98415007.779       -3342.317          51.000    18416996.230    76544864.210       -2599.587          50.000  
R22  18394216.800    98189929.393        -314.212          51.000    18394212.459    76369848.803        -244.304          50.000  
R23  21539709.466   115222907.645        1893.396          46.000                                                                  
R12  18615812.861    99442284.148        1339.080          52.000    18615807.979    77344069.583        1041.517          50.000  
R06  21960180.978   117183723.870        1899.719          38.000                                                                  
G28  21853133.531   114839057.726       -3610.810          44.000    21853129.760    89484882.674       -2813.662          43.000  
E12  22700395.781   119291602.883       -2163.440          44.000    22700392.551    91405418.471       -1657.662          49.000  
E10  21924040.747   115211853.149       -1000.295          46.000    21924040.422    88279336.899        -766.395          51.000  
E31  24533193.253   128923137.823       -3146.410          44.000    24533194.517    98785332.660       -2410.748          49.000  
G16  22133433.814   116312002.953        2540.233          40.000                                                                  
R21  19353855.878   103566844.276       -3109.210          51.000    19353849.995    80551813.965       -2418.378          47.000  
E24  21956533.531   115382370.014       -1109.003          48.000    21956530.782    88409906.926        -849.715          49.000  
S31  37251268.949   195756833.154        -688.314          44.000  
G29  20999075.037   110351210.083       -2451.899          47.000    20999068.977    85988093.913       -1910.652          42.000  
G25  21675830.144   113907453.737       -3923.074          43.000    21675827.782    88759152.074       -3056.837          40.000  
G31  20820947.508   109414820.210       -2234.004          48.000    20820942.049    85258336.102       -1740.562          42.000  
G18  18877137.418    99200255.063       -1560.228          48.000    18877130.882    77299051.449       -1215.695          48.000  
G05  22845460.847   120053802.950       -2898.331          37.000    22845455.377    93548320.911       -2258.904          40.000  
E11  21403063.706   112474084.930         397.934          43.000    21403061.180    86181547.143         304.881          48.000  
E36                                                                  26094149.407   105070348.401        1421.315          36.000  
E33                                                                  26640066.031                3      -2603.280          20.000  
> 2024 04 09 06 03 00.4950000  0 25                     
S33  38210682.990   200798633.224        -687.661          44.000  
G23  20636323.710   108444770.503        2274.120          46.000    20636318.517    84502472.418        1771.927          44.000  
E25  23395720.580   122945310.654        1352.371          48.000    23395720.376    94204889.040        1036.229          49.000  
G26  19332335.899   101592104.355        1101.733          49.000    19332333.202    79162683.824         858.496          46.000  
R11  18435823.058    98515585.431       -3363.082          52.000    18435818.210    76623091.231       -2615.711          50.000  
R22  18396017.813    98199542.917        -326.778          51.000    18396013.666    76377326.006        -254.236          51.000  
R23  21529113.891   115166230.861        1884.896          46.000                                                                  
R12  18608354.499    99402440.519        1316.832          52.000    18608349.096    77313080.079        1024.373          50.000  
R06  21949529.731   117126891.293        1889.056          36.000                                                                  
G28  21873757.451   114947441.188       -3614.433          42.000    21873754.951    89569337.234       -2816.687          43.000  
E12  22712764.661   119356603.519       -2170.088          44.000    22712761.645    91455224.169       -1662.819          49.000  
E10  21929778.057   115242002.863       -1009.812          47.000    21929777.726    88302438.632        -773.739          51.000  
E31  24551171.589   129017615.983       -3152.398          44.000    24551173.233    98857724.999       -2415.455          49.000  
G16  22118938.273   116235828.008        2538.101          41.000                                                                  
R21  19371296.788   103660172.468       -3112.823          50.000    19371290.616    80624402.563       -2421.112          46.000  
E24  21962895.797   115415802.859       -1119.930          48.000    21962892.683    88435524.289        -858.212          49.000  
S31  37255195.644   195777467.750        -687.752          44.000  
G29  21013079.515   110424803.663       -2454.497          47.000    21013073.327    86045439.552       -1912.552          43.000  
G25  21698247.535   114025256.052       -3930.602          44.000    21698244.959    88850946.038       -3062.967          40.000  
G31  20833741.299   109482050.918       -2248.280          47.000    20833736.090    85310723.640       -1751.836          44.000  
G18  18886084.814    99247276.571       -1574.740          48.000    18886078.426    77335691.611       -1227.077          48.000  
G05  22862047.083   120140960.273       -2911.617          37.000    22862039.941    93616235.656       -2269.079          40.000  
E11  21400820.106   112462297.317         387.975          43.000    21400818.085    86172515.087         297.251          48.000  
E36                                                                  26083572.351   105027764.553        1417.694          35.000  
E33                                                                  26659432.517                3      -2600.742          22.000  
> 2024 04 09 06 03 30.4950000  0 26                     
S33  38214610.017   200819268.236        -688.124          44.000  
G23  20623371.368   108376702.925        2263.750          47.000    20623365.304    84449432.771        1763.989          44.000  
E25  23388018.087   122904833.620        1346.007          48.000    23388017.883    94173874.179        1031.298          49.000  
G26  19326087.959   101559273.131        1086.890          49.000    19326085.587    79137101.048         847.070          45.000  
R11  18454764.844    98616800.225       -3384.549          53.000    18454759.245    76701813.850       -2632.568          50.000  
R22  18397894.993    98209553.787        -340.525          52.000    18397889.619    76385112.275        -264.941          51.000  
R23  21518569.640   115109826.651        1875.388          45.000                                                                  
R12  18601022.947    99363281.369        1293.643          52.000    18601019.038    77282622.965        1006.168          50.000  
R06  21938941.466   117070394.036        1877.439          36.000                                                                  
G28  21894407.183   115055953.874       -3619.509          43.000    21894404.728    89653892.436       -2820.313          43.000  
E12  22725174.400   119421818.155       -2177.566          44.000    22725171.471    91505193.830       -1668.543          49.000  
E10  21935573.226   115272451.839       -1020.233          47.000    21935572.049    88325769.682        -781.664          52.000  
E31  24569187.739   129112289.002       -3159.151          44.000    24569188.877    98930266.622       -2420.634          49.000  
G16  22104458.114   116159735.282        2534.732          41.000                                                                  
R21  19388760.252   103753624.615       -3117.365          51.000    19388753.976    80697087.546       -2424.677          46.000  
E24  21969322.390   115449577.926       -1131.699          48.000    21969320.095    88461403.874        -867.163          50.000  
S31  37259121.719   195798100.971        -687.976          43.000  
G29  21027101.098   110498489.869       -2457.906          46.000    21027095.306    86102857.340       -1915.059          42.000  
G25  21720710.600   114143298.205       -3938.943          44.000    21720708.050    88942926.860       -3069.500          41.000  
G31  20846619.240   109549723.763       -2263.339          47.000    20846614.996    85363455.702       -1763.674          45.000  
G18  18895117.949    99294745.041       -1589.881          48.000    18895112.050    77372680.046       -1238.831          48.000  
G05  22878709.800   120228524.553       -2925.830          36.000    22878702.279    93684467.523       -2279.844          40.000  
E11  21398635.756   112450814.407         377.661          43.000    21398632.820    86163716.501         289.308          48.000  
E36                                                                  26073024.252   104985293.660        1413.444          34.000  
E33                                                                  26678790.868                3      -2599.139          24.000  
R13                                                                  22202927.044                3       2430.493          10.000  
> 2024 04 09 06 04 00.4950000  0 25                     
S33  38218536.583   200839903.315        -687.794          44.000  
G23  20610475.776   108308938.235        2253.830          46.000    20610470.570    84396629.154        1755.987          44.000  
E25  23380350.529   122864541.461        1339.891          48.000    23380350.459    94143000.966        1026.653          49.000  
G26  19319923.507   101526878.538        1072.455          50.000    19319921.160    79111858.508         835.480          45.000  
R11  18473825.036    98718651.849       -3405.735          52.000    18473818.731    76781031.767       -2648.897          49.000  
R22  18399844.440    98219962.733        -353.603          51.000    18399839.955    76393208.134        -275.107          52.000  
R23  21508076.664   115053697.438        1866.496          46.000                                                                  
R12  18593821.873    99324812.301        1270.696          52.000    18593817.362    77252702.580         988.322          50.000  
R06  21928417.803   117014238.538        1866.157          36.000                                                                  
G28  21915081.333   115164594.771       -3623.592          42.000    21915077.646    89738547.603       -2823.493          43.000  
E12  22737625.773   119487247.465       -2184.556          44.000    22737622.241    91555327.964       -1673.916          49.000  
E10  21941424.711   115303201.169       -1030.045          47.000    21941423.442    88349330.871        -789.249          52.000  
E31  24587241.206   129207158.265       -3165.536          44.000    24587241.757    99002958.586       -2425.703          48.000  
G16  22089994.685   116083729.173        2532.241          41.000                                                                  
R21  19406247.047   103847200.401       -3121.252          50.000    19406240.611    80769868.689       -2427.625          47.000  
E24  21975814.659   115483697.915       -1143.130          47.000    21975813.008    88487547.739        -875.950          50.000  
S31  37263048.087   195818733.001        -687.670          43.000  
G29  21041141.471   110572271.149       -2460.929          47.000    21041135.017    86160349.231       -1917.683          42.000  
G25  21743219.504   114261580.545       -3946.853          44.000    21743217.295    89035094.843       -3075.453          42.000  
G31  20859580.956   109617838.600       -2277.929          46.000    20859576.314    85416532.161       -1775.102          45.000  
G18  18904235.622    99342660.772       -1604.596          48.000    18904230.783    77410016.988       -1250.410          48.000  
G05  22895449.468   120316496.012       -2939.510          36.000    22895443.199    93753016.699       -2290.579          40.000  
E11  21396509.484   112439638.106         367.194          44.000    21396506.063    86155152.847         281.487          48.000  
E36                                                                  26062505.319   104942938.129        1409.896          34.000  
E33                                                                  26698141.197                3      -2595.792          23.000  
> 2024 04 09 06 04 30.4950000  0 25                     
S33  38222463.927   200860540.736        -688.074          44.000  
G23  20597638.990   108241481.644        2243.185          46.000    20597634.393    84344065.589        1747.823          45.000  
E25  23372718.708   122824437.751        1333.334          48.000    23372719.115    94112272.152        1021.597          50.000  
G26  19313843.253   101494924.834        1057.410          49.000    19313840.473    79086959.507         824.048          45.000  
R11  18493003.376    98821138.907       -3427.080          51.000    18492998.140    76860743.918       -2665.613          49.000  
R22  18401868.139    98230770.201        -367.117          50.000    18401864.441    76401613.965        -285.559          51.000  
R23  21497636.319   114997845.746        1856.744          47.000                                                                  
R12  18586750.998    99287038.345        1247.273          52.000    18586746.392    77223322.855         970.062          50.000  
R06  21917960.072   116958431.112        1853.652          38.000                                                                  
G28  21935779.068   115273362.858       -3627.979          42.000    21935776.949    89823301.827       -2826.978          45.000  
E12  22750117.031   119552892.011       -2191.985          44.000    22750113.827    91605627.035       -1679.594          49.000  
E10  21947333.444   115334251.769       -1040.266          48.000    21947332.006    88373122.903        -797.129          52.000  
E31  24605332.936   129302224.835       -3172.365          45.000    24605332.397    99075801.743       -2430.743          48.000  
G16  22075548.396   116007813.858        2528.928          42.000                                                                  
R21  19423757.332   103940899.593       -3125.573          50.000    19423751.510    80842745.861       -2431.061          47.000  
E24  21982374.726   115518165.258       -1155.046          48.000    21982371.920    88513957.761        -884.918          50.000  
S31  37266974.853   195839368.543        -688.282          43.000  
G29  21055200.257   110646149.149       -2464.474          47.000    21055195.004    86217916.498       -1920.605          42.000  
G25  21765773.849   114380103.243       -3955.123          43.000    21765771.851    89127450.140       -3081.817          41.000  
G31  20872627.016   109686394.813       -2292.780          46.000    20872622.721    85469952.554       -1786.745          45.000  
E36  26052005.988   136904261.0741       1835.104          30.000    26052014.805   104900699.915        1405.422          34.000  
G18  18913439.092    99391023.946       -1619.880          48.000    18913434.205    77447702.574       -1262.232          49.000  
G05  22912268.960   120404874.704       -2952.651          35.000    22912261.176    93821883.129       -2300.823          39.000  
E11  21394441.316   112428770.194         356.981          45.000    21394437.910    86146825.518         273.409          48.000  
E33                                                                  26717483.002                3      -2589.776          23.000  
> 2024 04 09 06 05 00.4950000  0 26                     
S33  38226392.104   200881184.275        -688.589          44.000  
G23  20584861.927   108174340.513        2232.489          46.000    20584857.940    84291747.878        1739.559          45.000  
E25  23365124.475   122784528.290        1326.762          48.000    23365124.799    94081692.174        1016.577          50.000  
G26  19307847.161   101463418.435        1042.426          49.000    19307844.527    79062409.077         812.317          45.000  
R11  18512301.140    98924262.849       -3448.473          51.000    18512296.531    76940951.401       -2682.111          50.000  
R22  18403967.867    98241978.821        -380.707          49.000    18403964.216    76410331.789        -296.139          51.000  
R23  21487247.711   114942275.819        1847.151          48.000                                                                  
R12  18579810.921    99249966.852        1223.658          52.000    18579806.630    77194489.468         951.677          51.000  
R06  21907568.613   116902979.990        1841.927          37.000                                                                  
G28  21956502.727   115382259.163       -3632.413          43.000    21956498.927    89908155.976       -2830.367          45.000  
E12  22762650.053   119618754.367       -2199.512          44.000    22762647.243    91656092.997       -1685.290          49.000  
E10  21953300.017   115365606.735       -1050.582          47.000    21953298.818    88397148.136        -804.990          52.000  
E31  24623460.864   129397492.057       -3179.254          44.000    24623461.006    99148798.663       -2435.994          48.000  
G16  22061121.109   115931995.862        2525.174          43.000                                                                  
R13  22146337.456                3       3723.606          11.000                                                                  
R21  19441290.339   104034724.225       -3129.919          50.000    19441285.558    80915720.529       -2434.308          48.000  
E24  21989000.977   115552984.580       -1166.819          48.000    21988998.155    88540637.497        -894.050          50.000  
S31  37270903.290   195860010.466        -688.454          43.000  
G29  21069277.854   110720128.171       -2468.072          47.000    21069272.372    86275562.471       -1923.020          42.000  
G25  21788373.685   114498868.708       -3963.377          42.000    21788372.116    89219994.618       -3088.278          40.000  
G31  20885757.463   109755394.230       -2307.749          46.000    20885752.801    85523718.269       -1798.199          45.000  
E36  26041550.854   136849294.427        1829.085          32.000    26041554.515   104858582.917        1401.474          34.000  
G18  18922727.969    99439836.883       -1634.945          48.000    18922723.544    77485738.633       -1273.995          49.000  
G05  22929163.042   120493662.772       -2966.646          35.000    22929157.409    93891068.631       -2311.873          39.000  
E11  21392432.865   112418214.564         346.406          45.000    21392429.141    86138737.448         265.480          48.000  
E33                                                                  26736813.251                3      -2594.146          22.000  
> 2024 04 09 06 05 30.4950000  0 25                     
S33  38230322.165   200901836.280        -688.464          44.000  
G23  20572146.851   108107519.598        2222.105          46.000    20572143.022    84239679.665        1731.540          46.000  
E25  23357567.777   122744816.229        1320.707          48.000    23357567.793    94051263.457        1011.848          50.000  
G26  19301937.270   101432363.133        1027.783          49.000    19301935.112    79038210.144         800.818          45.000  
R11  18531718.629    99028022.148       -3469.093          51.000    18531713.734    77021653.057       -2698.176          51.000  
R22  18406142.576    98253588.604        -393.558          50.000    18406139.444    76419361.649        -306.131          52.000  
R23  21476912.703   114886989.295        1838.394          49.000                                                                  
R12  18573002.928    99213602.597        1200.498          52.000    18572999.504    77166206.146         933.700          51.000  
R06  21897243.567   116847891.338        1830.340          35.000                                                                  
G28  21977248.620   115491282.111       -3636.110          43.000    21977245.448    89993108.830       -2833.240          44.000  
E12  22775224.256   119684834.618       -2206.091          44.000    22775222.069    91706725.922       -1690.415          49.000  
E10  21959324.655   115397266.449       -1060.172          47.000    21959323.655    88421406.887        -812.379          52.000  
E31  24641627.632   129492960.636       -3185.535          44.000    24641627.630    99221949.901       -2440.855          47.000  
G16  22046713.338   115856278.713        2522.099          43.000                                                                  
R21  19458846.979   104128674.003       -3133.539          49.000    19458841.460    80988792.598       -2437.085          47.000  
E24  21995693.762   115588157.818       -1178.188          48.000    21995691.623    88567588.434        -902.852          51.000  
S31  37274832.359   195880659.203        -688.092          43.000  
G29  21083374.847   110794210.218       -2470.941          47.000    21083369.754    86333288.731       -1925.463          42.000  
G25  21811019.442   114617876.572       -3970.931          41.000    21811019.178    89312727.986       -3094.178          40.000  
G31  20898972.052   109824835.749       -2321.835          47.000    20898966.243    85577828.503       -1809.274          44.000  
E36  26031120.803   136794488.098        1824.201          34.000    26031125.944   104816588.786        1397.927          35.000  
G18  18932102.618    99489099.227       -1649.384          48.000    18932097.527    77524124.871       -1285.162          48.000  
G05  22946135.693   120582859.202       -2980.160          38.000    22946130.925    93960572.297       -2321.978          39.000  
E11  21390484.190   112407972.558         336.289          45.000    21390480.293    86130889.693         257.692          48.000  
E33                                                                  26756140.484                3      -2597.404          24.000  
> 2024 04 09 06 06 00.4950000  0 26                     
S33  38234251.590   200922486.585        -688.368          44.000  
G23  20559490.760   108041012.417        2211.592          47.000    20559487.111    84187855.946        1723.309          46.000  
E25  23350046.911   122705293.504        1314.252          47.000    23350046.734    94020979.825        1006.917          50.000  
G26  19296111.976   101401751.443        1012.976          49.000    19296110.269    79014356.891         789.166          45.000  
R11  18551252.404    99132404.040       -3489.752          52.000    18551247.329    77102838.945       -2714.202          51.000  
R22  18408391.308    98265588.232        -406.618          50.000    18408387.493    76428694.693        -316.130          52.000  
R23  21466628.842   114831976.284        1829.182          49.000                                                                  
R12  18566326.437    99177938.603        1177.032          52.000    18566322.621    77138467.473         915.510          50.000  
R06  21886987.256   116793159.479        1817.928          37.000                                                                  
G28  21998016.296   115600418.943       -3639.702          40.000    21998013.905    90078150.438       -2836.373          44.000  
E12  22787838.446   119751121.516       -2213.040          44.000    22787836.161    91757517.184       -1695.761          49.000  
E10  21965405.071   115429220.138       -1070.149          47.000    21965404.636    88445890.884        -819.936          52.000  
E31  24659831.582   129588619.993       -3191.871          45.000    24659831.774    99295247.314       -2445.710          48.000  
G16  22032322.615   115780654.789        2519.166          44.000                                                                  
R13  21510904.992                3       3680.683          14.000                                                                  
R21  19476424.568   104222736.390       -3137.335          50.000    19476418.377    81061952.233       -2440.179          46.000  
E24  22002451.609   115623675.825       -1189.797          47.000    22002450.473    88594803.537        -911.590          51.000  
S31  37278761.471   195901306.886        -688.331          43.000  
G29  21097490.205   110868385.617       -2474.185          46.000    21097484.056    86391087.740       -1927.943          42.000  
G25  21833710.066   114737115.408       -3978.473          42.000    21833709.317    89405641.277       -3100.242          40.000  
G31  20912268.015   109894707.360       -2336.357          47.000    20912262.571    85632273.890       -1820.599          44.000  
E36  26020721.588   136739833.131        1818.988          35.000    26020725.026   104774710.579        1394.389          34.000  
G18  18941559.860    99538799.485       -1664.032          48.000    18941554.682    77562852.341       -1296.619          48.000  
G05  22963184.149   120672452.741       -2993.427          37.000    22963178.911    94030385.420       -2332.434          36.000  
E11  21388592.423   112398034.154         326.253          45.000    21388589.174    86123274.554         250.021          48.000  
E33                                                                  26775453.809                3      -2591.333          23.000  
> 2024 04 09 06 06 30.4950000  0 25                     
S33  38238180.516   200943132.464        -688.217          44.000  
G23  20546894.457   107974819.750        2200.940          46.000    20546890.875    84136277.270        1715.071          46.000  
E25  23342561.600   122665959.235        1307.706          47.000    23342561.758    93990840.581        1001.995          50.000  
G26  19290371.647   101371583.206         997.955          49.000    19290369.321    78990849.152         777.783          45.000  
R11  18570901.570    99237402.725       -3510.413          52.000    18570895.579    77184504.558       -2730.295          49.000  
R22  18410711.982    98277973.521        -419.481          50.000    18410707.267    76438327.744        -326.330          51.000  
R23  21456394.894   114777234.469        1819.847          49.000                                                                  
R12  18559781.472    99142975.616        1153.498          52.000    18559776.753    77111274.044         897.201          50.000  
R06  21876798.941   116738786.217        1806.111          36.000                                                                  
G28  22018805.017   115709664.203       -3643.631          39.000    22018803.346    90163276.464       -2839.094          44.000  
E12  22800491.729   119817611.132       -2219.917          44.000    22800488.820    91808463.766       -1700.989          49.000  
E10  21971541.281   115461464.236       -1079.836          47.000    21971540.800    88470597.413        -827.486          53.000  
E31  24678070.477   129684466.857       -3198.233          45.000    24678071.150    99368688.382       -2450.509          48.000  
G16  22017949.424   115705124.204        2515.849          43.000                                                                  
R21  19494023.604   104316907.108       -3141.054          50.000    19494016.210    81135196.125       -2443.034          45.000  
E24  22009275.566   115659536.555       -1201.375          47.000    22009274.406    88622281.245        -920.485          51.000  
S31  37282689.946   195921951.075        -688.428          43.000  
G29  21111622.292   110942651.727       -2477.440          46.000    21111617.142    86448957.434       -1930.421          43.000  
G25  21856442.925   114856580.931       -3986.155          43.000    21856441.682    89498731.212       -3105.970          40.000  
G31  20925644.980   109965004.164       -2350.496          48.000    20925639.629    85687050.581       -1831.443          44.000  
E36  26010347.673   136685327.809        1813.584          35.000    26010353.235   104732947.064        1390.302          33.000  
G18  18951100.182    99588933.342       -1678.547          48.000    18951094.618    77601917.682       -1308.016          48.000  
G05  22980307.285   120762438.870       -3006.057          38.000    22980303.703    94100504.485       -2342.550          38.000  
E11  21386758.230   112388396.710         315.823          44.000    21386754.844    86115890.022         242.025          47.000  
E33                                                                  26794753.919                3      -2587.319          20.000  
> 2024 04 09 06 07 00.4950000  0 25                     
S33  38242108.531   200963774.746        -688.052          44.000  
G23  20534358.475   107908945.767        2190.389          46.000    20534355.429    84084946.942        1706.680          46.000  
E25  23335112.602   122626816.057        1301.541          47.000    23335113.121    93960847.768         997.225          50.000  
G26  19284715.995   101341861.570         983.008          49.000    19284712.932    78967689.426         766.095          44.000  
R11  18590665.825    99343016.155       -3530.817          52.000    18590660.012    77266648.301       -2746.177          50.000  
R22  18413103.477    98290743.979        -432.162          49.000    18413099.253    76448260.355        -336.208          50.000  
R23  21446212.850   114722765.059        1810.953          49.000                                                                  
R12  18553368.215    99108717.508        1130.019          52.000    18553363.577    77084628.831         878.909          50.000  
R06  21866678.529   116684776.733        1794.089          38.000                                                                  
G28  22039615.090   115819015.736       -3646.951          39.000    22039610.767    90248485.325       -2841.713          41.000  
E12  22813182.748   119884302.943       -2226.479          44.000    22813179.832    91859565.266       -1706.004          49.000  
E10  21977732.475   115493998.639       -1089.325          47.000    21977732.150    88495526.373        -834.753          53.000  
E31  24696345.187   129780501.313       -3204.267          44.000    24696346.024    99442273.201       -2455.247          49.000  
G16  22003594.882   115629690.171        2512.853          43.000                                                                  
R21  19511641.664   104411184.940       -3144.428          51.000    19511633.546    81208523.368       -2445.712          44.000  
E24  22016165.344   115695741.438       -1212.633          47.000    22016163.763    88650022.647        -929.150          51.000  
S31  37286617.534   195942591.492        -688.215          43.000  
G29  21125771.933   111017009.996       -2480.251          46.000    21125767.317    86506898.911       -1932.435          42.000  
G25  21879220.235   114976272.286       -3993.560          44.000    21879217.904    89591997.143       -3111.767          40.000  
G31  20939102.127   110035724.735       -2364.385          47.000    20939097.089    85742157.504       -1842.748          44.000  
E36  26000004.657   136630973.731        1809.134          34.000    26000011.440   104691299.404        1386.696          35.000  
G18  18960722.170    99639499.862       -1692.881          48.000    18960717.054    77641320.154       -1319.175          48.000  
G05  22997506.951   120852816.584       -3018.771          40.000    22997502.559    94170928.664       -2352.920          37.000  
E11  21384981.559   112379060.858         306.227          45.000    21384978.418    86108736.594         234.527          48.000  
E33                                                                  26814045.562                3      -2586.109          14.000  
> 2024 04 09 06 07 30.4950000  0 24                     
S33  38246035.599   200984411.117        -688.139          44.000  
G23  20521883.856   107843391.165        2179.646          45.000    20521880.535    84033865.459        1698.315          46.000  
E25  23327700.218   122587863.090        1295.070          47.000    23327700.471    93931000.694         992.322          50.000  
G26  19279145.235   101312586.219         968.188          50.000    19279141.776    78944877.496         754.498          44.000  
R11  18610543.512    99449238.609       -3551.160          52.000    18610538.472    77349265.730       -2762.035          50.000  
R22  18415566.989    98303895.422        -445.067          50.000    18415562.745    76458489.258        -346.094          51.000  
R23  21436080.740   114668565.254        1801.859          48.000                                                                  
R12  18547087.189    99075164.764        1106.402          53.000    18547083.384    77058532.241         860.465          51.000  
R06  21856626.428   116631132.684        1781.721          39.000                                                                  
G28  22060443.141   115928467.948       -3650.411          39.000    22060438.617    90333772.658       -2844.306          41.000  
E12  22825911.253   119951192.951       -2233.165          44.000    22825908.798    91910818.650       -1711.139          49.000  
E10  21983977.507   115526819.695       -1099.045          47.000    21983977.482    88520674.964        -842.097          53.000  
E31  24714654.535   129876720.004       -3210.516          44.000    24714655.996    99515999.174       -2460.012          49.000  
G16  21989258.454   115554352.778        2509.434          43.000                                                                  
R21  19529277.976   104505565.240       -3147.968          49.000    19529271.722    81281930.273       -2448.364          46.000  
E24  22023121.084   115732288.352       -1224.081          48.000    22023118.532    88678026.124        -937.945          51.000  
S31  37290544.343   195963225.805        -688.033          43.000  
G29  21139939.388   111091457.981       -2483.269          47.000    21139933.427    86564910.328       -1935.054          42.000  
G25  21902039.006   115096185.090       -4000.904          43.000    21902037.339    89685435.623       -3117.740          41.000  
G31  20952639.910   110106863.917       -2378.397          47.000    20952635.264    85797590.582       -1853.240          45.000  
E36  25989690.685   136576769.206        1804.257          35.000    25989695.475   104649766.450        1382.540          34.000  
G18  18970426.421    99690494.621       -1707.144          48.000    18970420.648    77681056.353       -1330.324          48.000  
G05  23014779.457   120943581.361       -3032.080          41.000    23014774.241    94241654.432       -2362.632          38.000  
E11  21383262.053   112370023.860         296.103          44.000    21383258.764    86101812.145         226.977          48.000  
> 2024 04 09 06 08 00.4950000  0 25                     
S33  38249961.262   201005040.068        -687.469          44.000  
G23  20509469.909   107778155.908        2169.064          45.000    20509466.237    83983032.829        1690.119          45.000  
E25  23320323.781   122549098.742        1288.938          47.000    23320323.817    93901298.148         987.596          50.000  
G26  19273658.875   101283756.163         953.564          49.000    19273656.466    78922412.529         742.908          45.000  
R11  18630534.607    99556063.880       -3571.024          52.000    18630529.359    77432352.021       -2777.483          50.000  
R22  18418101.405    98317423.057        -457.236          49.000    18418096.763    76469010.780        -355.773          51.000  
R23  21425998.088   114614632.068        1793.340          48.000                                                                  
R12  18540937.875    99042317.124        1083.001          52.000    18540934.642    77032984.069         842.387          51.000  
R06  21846641.635   116577855.077        1769.770          38.000                                                                  
G28  22081290.633   116038014.574       -3653.198          39.000    22081286.052    90419133.529       -2846.454          42.000  
E12  22838676.947   120018276.379       -2239.473          44.000    22838674.086    91962220.244       -1715.958          49.000  
E10  21990276.554   115559923.018       -1108.159          47.000    21990276.596    88546039.862        -849.137          53.000  
E31  24732998.978   129973118.814       -3216.359          44.000    24732999.698    99589863.148       -2464.444          49.000  
G16  21974940.178   115479110.403        2506.291          42.000                                                                  
R13  22034110.464                2       3320.262          29.000    22032414.987                3       2348.305          11.000  
R21  19546933.149   104600042.529       -3150.903          49.000    19546926.930    81355412.603       -2450.650          45.000  
E24  22030139.730   115769174.494       -1235.216          48.000    22030137.681    88706289.535        -946.446          51.000  
S31  37294469.163   195983852.682        -687.386          43.000  
G29  21154122.825   111165992.403       -2486.046          46.000    21154117.381    86622989.061       -1937.234          42.000  
G25  21924899.106   115216314.295       -4007.922          43.000    21924897.691    89779042.686       -3123.009          41.000  
G31  20966255.334   110178415.782       -2392.120          46.000    20966250.479    85853345.233       -1863.913          44.000  
E36  25979402.869   136522711.863        1799.251          34.000    25979407.958   104608346.196        1378.776          33.000  
G18  18980210.964    99741912.553       -1721.058          49.000    18980204.801    77721122.270       -1341.029          48.000  
G05  23032124.021   121034728.054       -3044.933          43.000    23032118.109    94312677.829       -2372.401          38.000  
E11  21381598.348   112361282.155         286.393          44.000    21381595.367    86095113.975         219.321          48.000  
> 2024 04 09 06 08 30.4950000  0 26                     
S33  38253885.484   201025662.918        -687.427          44.000  
G23  20497119.020   107713247.704        2158.184          45.000    20497114.624    83932455.048        1681.662          45.000  
E25  23312984.359   122510529.158        1282.441          47.000    23312984.236    93871744.833         982.637          50.000  
G26  19268258.715   101255378.138         938.257          49.000    19268256.644    78900299.770         731.128          46.000  
R11  18650638.763    99663493.035       -3591.047          52.000    18650633.492    77515908.026       -2792.991          50.000  
R22  18420706.995    98331329.819        -469.791          50.000    18420701.932    76479827.176        -365.477          51.000  
R23  21415966.506   114560970.285        1784.211          48.000                                                                  
R12  18534922.122    99010181.995        1059.251          53.000    18534918.120    77007990.089         823.859          50.000  
R06  21836726.149   116524952.541        1757.387          39.000                                                                  
G28  22102154.036   116147657.041       -3656.388          37.000    22102150.164    90504569.135       -2849.074          41.000  
E12  22851479.440   120085556.305       -2245.834          44.000    22851476.883    92013772.411       -1720.913          49.000  
E10  21996630.611   115593312.063       -1117.578          47.000    21996629.955    88571623.672        -856.357          52.000  
E31  24751376.944   130069701.381       -3222.409          43.000    24751378.524    99663867.947       -2469.058          48.000  
G16  21960641.426   115403970.208        2502.798          42.000                                                                  
R13  22015457.398                1       3312.050          26.000                                                                  
R21  19564609.246   104694619.381       -3154.226          51.000    19564600.443    81428972.371       -2453.213          45.000  
E24  22037225.034   115806404.837       -1246.644          48.000    22037222.643    88734816.677        -955.326          51.000  
S31  37298393.412   196004473.759        -687.264          43.000  
G29  21168323.508   111240618.032       -2489.026          46.000    21168317.189    86681138.896       -1939.321          41.000  
G25  21947800.649   115336662.587       -4015.174          43.000    21947799.076    89872820.499       -3128.811          41.000  
G31  20979950.451   110250382.277       -2405.625          47.000    20979944.529    85909422.977       -1874.600          44.000  
E36  25969143.944   136468806.716        1794.217          32.000    25969151.812                        1375.131          29.000  
G18  18990076.728    99793756.288       -1735.269          49.000    18990070.790    77761519.987       -1352.021          48.000  
G05  23049542.023   121126259.197       -3057.350          45.000    23049536.129    94384000.754       -2381.978          36.000  
E11  21379991.482   112352840.007         276.562          44.000    21379988.873    86088645.329         211.955          48.000  
G10                                                                  22862203.813                1       2456.587          28.000  
> 2024 04 09 06 09 00.4950000  0 26                     
S33  38257809.590   201046283.269        -687.339          44.000  
G23  20484830.533   107648670.603        2146.991          46.000    20484826.017    83882135.294        1672.952          45.000  
E25  23305682.615   122472156.852        1275.592          47.000    23305682.046    93842342.681         977.419          50.000  
G26  19262945.041   101227455.181         922.870          49.000    19262943.089    78878541.613         719.171          46.000  
R11  18670855.308    99771523.744       -3610.998          52.000    18670850.472    77599931.872       -2808.701          50.000  
R22  18423382.625    98345614.986        -482.604          51.000    18423377.583    76490937.876        -375.364          50.000  
R23  21405986.053   114507580.521        1775.073          48.000                                                                  
R12  18529040.486    98978763.386        1035.207          53.000    18529036.491    76983553.395         805.141          51.000  
R06  21826883.621   116472430.430        1744.249          38.000                                                                  
G28  22123035.934   116257393.239       -3659.732          37.000    22123032.181    90590077.738       -2851.453          41.000  
E12  22864320.251   120153032.052       -2252.462          45.000    22864316.840    92065474.603       -1726.079          49.000  
E10  22003038.074   115626986.549       -1127.372          47.000    22003037.642    88597426.208        -863.886          52.000  
E31  24769790.338   130166467.708       -3228.801          42.000    24769792.689    99738013.554       -2474.003          48.000  
G16  21946362.810   115328935.386        2499.235          42.000                                                                  
R13  21996888.792                        3304.901          28.000    21996907.756                3       2570.432          26.000  
R21  19582300.797   104789294.538       -3157.680          49.000    19582293.500    81502608.577       -2455.924          46.000  
E24  22044375.420   115843980.627       -1258.499          49.000    22044373.018    88763608.508        -964.307          51.000  
S31  37302317.070   196025092.794        -687.286          44.000  
G29  21182542.183   111315336.020       -2492.290          47.000    21182536.735    86739360.711       -1942.117          42.000  
G25  21970743.412   115457228.954       -4022.694          43.000    21970741.709    89966768.274       -3134.738          39.000  
G31  20993723.955   110322761.729       -2419.576          47.000    20993718.147    85965822.517       -1885.420          44.000  
E36  25958914.341                        1789.385          29.000    25958938.443                3       1371.351          22.000  
G18  19000022.577    99846024.783       -1749.489          48.000    19000017.532    77802248.678       -1363.240          48.000  
G05  23067033.021   121218172.609       -3070.208          45.000    23067026.446    94455621.613       -2393.091          35.000  
E11  21378443.243   112344698.012         266.177          45.000    21378439.567    86082406.687         203.924          48.000  
G10                                                                  22844212.605                        2456.920          31.000  
> 2024 04 09 06 09 30.4950000  0 26                     
S33  38261732.603   201066900.839        -686.781          44.000  
G23  20472604.946   107584428.615        2136.117          44.000    20472601.136    83832076.647        1664.342          44.000  
E25  23298418.844   122433984.232        1269.369          48.000    23298417.829    93813093.529         972.703          50.000  
G26  19257718.914   101199990.261         908.069          49.000    19257716.745    78857140.379         707.526          46.000  
R11  18691184.225    99880153.706       -3630.654          52.000    18691178.836    77684421.833       -2823.738          50.000  
R22  18426129.858    98360277.830        -494.747          51.000    18426124.353    76502342.324        -384.812          50.000  
R23  21396056.668   114454463.889        1766.220          49.000                                                                  
R12  18523293.176    98948064.654        1011.587          52.000    18523290.031    76959676.599         786.820          51.000  
R06  21817112.343   116420293.724        1731.513          36.000                                                                  
G28  22143932.545   116367220.819       -3662.146          33.000    22143932.871    90675657.611       -2853.652          42.000  
E12  22877198.091   120220703.011       -2258.484          45.000    22877194.143    92117326.366       -1730.578          48.000  
E10  22009501.152   115660946.167       -1136.270          47.000    22009499.698    88623447.222        -870.674          51.000  
E31  24788239.607   130263417.696       -3234.135          42.000    24788241.326    99812299.917       -2478.259          48.000  
G16  21932104.941   115254009.148        2496.094          43.000                                                                  
R13  21978347.389                3       3299.070          25.000    21978357.740                        2564.759          26.000  
R21  19600009.466   104884066.720       -3160.247          48.000    19600004.232    81576320.263       -2457.933          46.000  
E24  22051592.086   115881903.063       -1269.524          49.000    22051589.229    88792665.942        -972.703          51.000  
S31  37306240.147   196045708.691        -686.688          43.000  
G29  21196778.384   111390147.247       -2494.994          46.000    21196773.732    86797655.172       -1944.160          43.000  
G25  21993727.679   115578012.402       -4029.333          43.000    21993726.251    90060885.175       -3139.925          40.000  
G31  21007574.384   110395552.499       -2432.740          46.000    21007570.011    86022542.558       -1895.549          44.000  
E36  25948709.589   136361459.653        1783.952          30.000    25948745.256                3       1364.688          19.000  
G18  19010049.728    99898716.894       -1763.136          47.000    19010044.642    77843307.468       -1373.829          48.000  
G05  23084596.012   121310467.856       -3082.231          45.000    23084590.397    94527539.941       -2401.552          37.000  
G10  22826221.064                3       3155.627          26.000    22826201.770                        2458.475          33.000  
E11  21376951.532   112336856.602         256.928          45.000    21376946.975    86076398.354         196.804          48.000  
> 2024 04 09 06 10 00.4950000  0 26                     
S33  38265654.208   201087509.125        -686.872          44.000  
G23  20460443.430   107520518.660        2124.736          45.000    20460439.177    83782276.704        1655.572          44.000  
E25  23291192.162   122396006.703        1262.560          48.000    23291190.966    93783993.855         967.457          50.000  
G26  19252578.562   101172979.291         892.725          49.000    19252576.665    78836092.876         695.709          46.000  
R11  18711623.662    99989373.623       -3650.423          53.000    18711617.439    77769370.665       -2839.279          50.000  
R22  18428945.895    98375310.285        -507.153          51.000    18428939.641    76514034.250        -394.542          49.000  
R23  21386176.176   114401613.828        1757.206          49.000                                                                  
R12  18517680.043    98918082.541         987.443          52.000    18517677.152    76936357.178         768.002          51.000  
R06  21807413.661   116368540.196        1718.572          37.000                                                                  
G28  22164847.477   116477130.661       -3664.880          32.000    22164848.375    90761301.519       -2856.244          42.000  
E12  22890110.713   120288561.395       -2265.130          45.000    22890107.222    92169321.745       -1735.575          48.000  
E10  22016016.153   115695183.508       -1145.873          47.000    22016014.739    88649681.043        -878.033          51.000  
E31  24806722.929   130360544.236       -3240.366          43.000    24806724.777    99886721.520       -2482.948          49.000  
G16  21917866.714   115179187.436        2492.303          42.000                                                                  
R13  21959852.320                1       3289.099          26.000    21959858.899                        2558.141          26.000  
R21  19617736.915   104978927.754       -3163.455          49.000    19617730.668    81650101.073       -2460.606          46.000  
E24  22058872.723   115920166.233       -1281.162          48.000    22058870.515    88821984.477        -981.633          51.000  
S31  37310161.517   196066315.923        -686.768          44.000  
G29  21211030.247   111465045.535       -2498.171          46.000    21211025.326    86856017.490       -1946.935          41.000  
G25  22016752.615   115699004.768       -4036.345          44.000    22016750.402    90155164.839       -3145.546          40.000  
G31  21021502.172   110468745.601       -2446.329          46.000    21021497.978    86079576.102       -1906.193          43.000  
E36  25938540.948                        1779.538          30.000    25938581.431                3       1371.320          21.000  
G18  19020155.171    99951824.466       -1777.217          47.000    19020151.207    77884689.996       -1384.815          49.000  
G05  23102230.404   121403136.824       -3095.185          45.000    23102225.078    94599749.544       -2411.996          37.000  
E11  21375514.405   112329309.210         246.494          45.000    21375510.730    86070615.295         188.909          48.000  
G10                                                                  22808186.399    93395694.7821       2459.523          32.000  
> 2024 04 09 06 10 30.4950000  0 26                     
S33  38269576.859   201108121.275        -686.903          44.000  
G23  20448348.823   107456955.735        2113.415          47.000    20448343.378    83732747.178        1646.984          44.000  
E25  23284004.666   122358237.726        1255.963          47.000    23284003.801    93755054.005         962.221          50.000  
G26  19247527.682   101146436.259         877.271          49.000    19247525.518    78815409.994         683.661          46.000  
R11  18732174.681   100099191.815       -3670.154          52.000    18732168.038    77854784.778       -2854.573          50.000  
R22  18431833.096    98390722.771        -519.539          52.000    18431827.751    76526021.763        -404.204          50.000  
R23  21376348.717   114349042.466        1748.247          49.000                                                                  
R12  18512204.905    98888831.871         963.208          52.000    18512200.975    76913606.630         749.125          50.000  
R06  21797790.746   116317186.184        1705.576          36.000                                                                  
G28  22185780.364                       -3667.456          30.000    22185781.115    90847016.296       -2858.130          41.000  
E12  22903061.135   120356617.535       -2271.433          45.000    22903057.744    92221468.660       -1740.429          48.000  
E10  22022585.486   115729709.265       -1155.307          47.000    22022584.914    88676135.851        -885.168          51.000  
E31  24825241.521   130457858.186       -3246.521          44.000    24825243.138    99961286.732       -2487.636          49.000  
G16  21903651.339   115104484.485        2488.396          42.000                                                                  
R13  21941392.059                3       3280.851          26.000    21941402.783                        2552.469          25.000  
R21  19635482.857   105073887.438       -3166.645          50.000    19635476.836    81723958.558       -2462.913          47.000  
E24  22066220.363   115958782.376       -1292.732          48.000    22066218.730    88851573.468        -990.560          51.000  
S31  37314083.449   196086926.484        -686.788          43.000  
G29  21225302.198   111540043.021       -2501.042          46.000    21225297.085    86914457.067       -1948.958          42.000  
G25  22039818.802   115820215.999       -4043.591          45.000    22039815.890    90249615.029       -3150.811          40.000  
G31  21035509.398   110542350.558       -2459.941          46.000    21035504.451    86136930.572       -1916.884          43.000  
E36  25928399.036                        1773.907          28.000    25928414.246                        1358.719          28.000  
G18  19030343.057   100005357.415       -1791.021          49.000    19030338.584    77926403.973       -1395.728          50.000  
G05  23119937.681   121496188.446       -3107.821          45.000    23119932.121    94672257.291       -2421.592          37.000  
G10  22790164.946                1       3156.671          29.000    22790167.862                        2459.789          30.000  
E11  21374136.138   112322067.368         236.693          45.000    21374132.848    86065066.369         181.216          48.000  
> 2024 04 09 06 11 00.4950000  0 26                     
S33  38273497.072   201128723.415        -686.510          44.000  
G23  20436317.162   107393730.321        2101.938          47.000    20436312.801    83683480.654        1637.906          45.000  
E25  23276854.441   122320666.222        1249.188          47.000    23276854.054    93726265.450         957.163          50.000  
G26  19242563.827   101120350.609         862.006          49.000    19242561.785    78795083.525         671.722          46.000  
R11  18752833.785   100209592.354       -3689.588          51.000    18752827.364    77940651.846       -2869.554          49.000  
R22  18434788.689    98406500.784        -532.042          52.000    18434783.495    76538293.541        -413.829          50.000  
R23  21366569.377   114296737.155        1739.083          47.000                                                                  
R12  18506864.673    98860302.546         939.061          53.000    18506860.181    76891417.169         730.389          50.000  
R06  21788239.914   116266222.697        1692.345          38.000                                                                  
G28  22206727.773   116697207.491       -3669.879          33.000    22206727.708    90932789.689       -2859.943          40.000  
E12  22916046.389   120424857.244       -2277.613          45.000    22916043.218    92273756.246       -1745.198          48.000  
E10  22029207.732   115764509.588       -1164.509          46.000    22029207.596    88702801.050        -892.278          52.000  
E31  24843793.282   130555346.010       -3252.348          45.000    24843794.363   100035985.161       -2492.147          49.000  
G16  21889456.579   115029889.944        2484.925          42.000                                                                  
R13  21922975.439                3       3272.457          26.000    21922999.843                3       2553.425          18.000  
R21  19653244.234   105168930.852       -3169.478          50.000    19653237.904    81797881.218       -2465.080          46.000  
E24  22073633.978   115997739.136       -1304.203          48.000    22073632.042    88881423.443        -999.315          51.000  
S31  37318003.715   196107527.260        -686.450          44.000  
G29  21239590.556   111615127.161       -2504.138          46.000    21239584.490    86972964.159       -1951.134          41.000  
G25  22062923.274   115941631.537       -4050.353          44.000    22062920.403    90344224.482       -3156.461          40.000  
G31  21049591.324   110616351.868       -2473.342          46.000    21049585.520    86194593.891       -1927.302          42.000  
E36  25918289.753                1       1769.008          26.000    25918300.813   104362263.9481       1355.266          31.000  
G18  19040608.433   100059301.080       -1804.971          48.000    19040603.399    77968437.992       -1406.354          49.000  
G05  23137714.536   121589608.387       -3119.979          44.000    23137709.354    94745052.068       -2431.229          38.000  
E11  21372814.023   112315118.017         226.891          45.000    21372810.516    86059741.541         173.823          48.000  
G10                                                                  22772139.185                        2461.087          28.000  
> 2024 04 09 06 11 30.4950000  0 26                     
S33  38277416.363   201149319.284        -686.239          44.000  
G23  20424351.422   107330849.459        2090.373          47.000    20424345.862    83634482.624        1628.709          44.000  
E25  23269743.326   122283297.736        1242.410          47.000    23269743.075    93697632.462         951.791          50.000  
G26  19237687.806   101094728.338         846.503          48.000    19237686.220    78775118.117         659.552          46.000  
R11  18773602.601   100320575.737       -3708.965          51.000    18773596.869    78026972.240       -2884.842          50.000  
R22  18437813.380    98422646.633        -544.134          52.000    18437808.456    76550851.435        -423.205          50.000  
R23  21356842.167   114244701.445        1730.201          47.000                                                                  
R12  18501659.986    98832501.158         914.747          53.000    18501655.793    76869793.866         711.457          50.000  
R06  21778764.417   116215658.174        1678.764          39.000                                                                  
G28  22227690.683   116807359.617       -3672.906          35.000    22227688.971    91018622.379       -2861.914          39.000  
E12  22929067.626   120493282.919       -2283.855          45.000    22929064.219    92326186.311       -1749.958          48.000  
E10  22035882.809   115799587.232       -1173.791          46.000    22035882.712    88729678.728        -899.403          52.000  
E31  24862378.514   130653010.669       -3258.387          45.000    24862379.036   100110819.069       -2496.602          48.000  
G16  21875283.705   114955410.307        2480.967          42.000                                                                  
R13  21904628.854                1       3264.367          28.000    21904637.056                3       2542.097          18.000  
R21  19671021.796   105264059.879       -3172.155          51.000    19671014.003    81871870.514       -2467.231          45.000  
E24  22081112.912   116037040.749       -1315.641          48.000    22081110.976    88911537.660       -1008.133          51.000  
S31  37321922.884   196128122.237        -686.187          44.000  
G29  21253896.424   111690302.038       -2507.208          46.000    21253889.524    87031541.973       -1953.447          41.000  
G25  22086066.949   116063253.400       -4057.447          44.000    22086064.531    90438994.680       -3161.746          40.000  
G31  21063748.735   110690750.811       -2486.353          46.000    21063742.615    86252567.072       -1937.296          41.000  
G18  19050951.946   100113657.386       -1818.573          48.000    19050947.042    78010793.556       -1417.072          49.000  
G05  23155561.622   121683398.618       -3132.231          43.000    23155557.161    94818135.372       -2441.028          36.000  
E11  21371548.005   112308464.735         216.812          45.000    21371544.330    86054643.575         166.147          48.000  
E36                                                                  25908217.218                        1350.848          30.000  
G10                                                                  22754107.628                        2461.395          28.000  
> 2024 04 09 06 12 00.4950000  0 26                     
S33  38281334.135   201169907.165        -685.656          44.000  
G23  20412449.974   107268312.690        2078.908          46.000    20412445.293    83585752.699        1619.935          44.000  
E25  23262670.312   122246130.334        1235.820          46.000    23262670.396    93669153.540         946.940          50.000  
G26  19232899.602   101069568.024         831.244          48.000    19232898.471    78755512.665         647.632          46.000  
R11  18794479.896   100432134.861       -3727.912          52.000    18794474.516    78113740.397       -2899.619          50.000  
R22  18440905.843    98439155.039        -556.089          52.000    18440901.779    76563691.338        -432.530          51.000  
R23  21347164.524   114192931.663        1721.371          48.000                                                                  
R12  18496592.445    98805426.937         890.574          52.000    18496587.105    76848736.147         692.673          50.000  
R06  21769363.500   116165492.795        1665.370          39.000                                                                  
G28  22248666.661   116917581.163       -3674.719          37.000    22248663.671    91104509.183       -2863.867          39.000  
E12  22942123.304   120561889.562       -2289.618          45.000    22942119.857    92378755.057       -1754.402          48.000  
E10  22042609.578   115834937.473       -1182.639          46.000    22042609.694    88756765.284        -906.222          52.000  
E31  24880996.392   130750847.624       -3263.831          45.000    24880997.089   100185785.023       -2500.844          48.000  
G16  21861131.848   114881044.002        2477.239          42.000                                                                  
R13  21886313.227                        3256.221          29.000    21886305.656                3       2536.166          14.000  
R21  19688813.647   105359269.087       -3174.626          50.000    19688806.442    81945922.120       -2469.327          45.000  
E24  22088656.916   116076683.984       -1326.936          48.000    22088654.848    88941913.647       -1016.758          51.000  
S31  37325840.326   196148708.333        -685.737          44.000  
G29  21268218.014   111765564.064       -2509.906          45.000    21268212.409    87090187.705       -1955.820          42.000  
G25  22109248.870   116185076.081       -4063.899          44.000    22109247.006    90533921.400       -3166.761          41.000  
G31  21077981.612   110765541.278       -2499.312          47.000    21077975.673    86310845.321       -1947.375          42.000  
E36  25898165.653   136095746.9161       1758.520          32.000    25898163.499                        1347.534          31.000  
G18  19061373.195   100168420.832       -1831.946          49.000    19061367.525    78053466.392       -1427.583          49.000  
G05  23173478.679   121777553.053       -3144.252          43.000    23173474.211    94891502.485       -2450.173          37.000  
G10  22736076.592   119478869.6731       3160.153          32.000    22736073.988                        2463.186          31.000  
E11  21370337.870   112302103.573         207.529          45.000    21370334.098    86049769.449         159.048          48.000  
> 2024 04 09 06 12 30.4950000  0 26                     
S33  38285250.513   201190489.224        -686.022          44.000  
G23  20400617.185   107206127.627        2066.714          47.000    20400612.117    83537296.848        1610.494          45.000  
E25  23255637.096   122209170.093        1228.285          46.000    23255636.922    93640833.359         941.186          50.000  
G26  19228200.566   101044876.207         814.990          48.000    19228199.300    78736272.297         635.065          46.000  
R11  18815464.441   100544271.231       -3747.529          52.000    18815459.331    78200957.555       -2914.735          50.000  
R22  18444067.371    98456028.859        -568.674          52.000    18444062.365    76576815.437        -442.199          50.000  
R23  21337537.915   114141432.563        1711.960          49.000                                                                  
R12  18491660.647    98779086.955         865.585          52.000    18491656.212    76828249.493         673.295          50.000  
R06  21760039.426   116115735.465        1651.745          39.000                                                                  
G28  22269655.004   117027873.588       -3677.753          34.000    22269651.532    91190451.221       -2865.625          38.000  
E12  22955213.243   120630680.197       -2296.265          44.000    22955210.628    92431464.753       -1759.475          49.000  
E10  22049389.362   115870563.592       -1192.320          46.000    22049389.194    88784063.217        -913.601          52.000  
E31  24899647.246   130848860.458       -3270.214          44.000    24899648.165   100260885.708       -2505.693          48.000  
G16  21847003.749   114806797.937        2472.874          41.000                                                                  
R13  21868045.472                        3247.857          32.000    21868027.722                3       2523.162          19.000  
R21  19706621.073   105454560.985       -3177.863          51.000    19706613.693    82020038.038       -2471.636          44.000  
E24  22096265.926   116116673.633       -1338.975          48.000    22096264.499    88972555.061       -1025.987          51.000  
S31  37329757.089   196169290.273        -686.152          44.000  
G29  21282557.153   111840918.052       -2513.481          44.000    21282552.351    87148905.057       -1958.523          42.000  
G25  22132469.383   116307102.171       -4071.070          44.000    22132467.963    90629006.582       -3172.365          40.000  
G31  21092288.159   110840724.847       -2512.722          46.000    21092283.034    86369429.882       -1957.930          42.000  
E36  25888137.552   136043077.377        1752.904          32.000    25888141.052   104240835.888        1343.267          34.000  
G18  19071872.187   100223593.921       -1845.960          49.000    19071866.422    78096458.422       -1438.453          49.000  
G05  23191465.139   121872074.145       -3156.935          43.000    23191461.035    94965155.288       -2459.326          36.000  
G10  22718040.443   119384072.101        3160.175          35.000    22718038.544    93026556.524        2462.216          33.000  
E11  21369183.551   112296038.658         196.954          45.000    21369180.384    86045122.319         151.016          49.000  
> 2024 04 09 06 13 00.4950000  0 26                     
S33  38289167.359   201211072.033        -685.921          44.000  
G23  20388852.817   107144302.584        2055.012          47.000    20388847.411    83489121.506        1601.280          45.000  
E25  23248644.163   122172423.831        1221.444          46.000    23248644.323    93612677.147         935.951          50.000  
G26  19223592.916   101020660.185         799.487          47.000    19223590.668    78717402.679         622.870          46.000  
R11  18836557.560   100656986.373       -3766.549          52.000    18836552.947    78288624.878       -2929.636          50.000  
R22  18447297.729    98473271.788        -580.725          52.000    18447292.684    76590226.599        -451.651          50.000  
R23  21327961.830   114090209.044        1702.929          49.000                                                                  
R12  18486868.062    98753489.203         841.028          52.000    18486864.233    76808340.143         654.058          50.000  
R06  21750792.476   116066395.540        1637.812          38.000                                                                  
G28  22290653.570   117138239.289       -3680.243          33.000    22290652.771    91276450.215       -2867.249          35.000  
E12  22968339.108   120699658.317       -2302.198          44.000    22968336.855    92484318.115       -1763.959          49.000  
E10  22056221.717   115906469.615       -1201.262          46.000    22056221.768    88811575.634        -920.476          52.000  
E31  24918332.877   130947053.404       -3276.081          44.000    24918333.592   100336124.412       -2510.042          48.000  
G16  21832899.521   114732679.585        2468.265          40.000                                                                  
R13  21849828.723                        3239.005          30.000    21849813.477                3       2519.968          20.000  
R21  19724444.689   105549938.733       -3180.510          49.000    19724437.584    82094220.733       -2473.613          45.000  
E24  22103943.365   116157015.220       -1350.447          48.000    22103941.126    89003466.135       -1034.777          51.000  
S31  37333673.408   196189872.094        -685.721          44.000  
G29  21296914.248   111916369.412       -2516.466          45.000    21296910.257    87207698.342       -1961.004          42.000  
G25  22155729.418   116429334.959       -4077.798          44.000    22155728.082    90724252.784       -3177.271          41.000  
G31  21106670.936   110916304.152       -2525.627          47.000    21106665.593    86428322.797       -1968.053          42.000  
E36  25878147.912   135990570.720        1747.530          33.000    25878149.100   104200603.814        1338.651          35.000  
G18  19082449.759   100279179.858       -1859.510          49.000    19082444.487    78139772.156       -1448.970          49.000  
G05  23209522.664   121966964.492       -3169.055          43.000    23209516.908    95039095.861       -2468.994          34.000  
G10  22699995.314   119289261.751        3161.170          34.000    22699992.080    92952678.727        2463.200          34.000  
E11  21368087.364   112290274.765         187.347          45.000    21368083.373    86040705.858         143.518          49.000  
> 2024 04 09 06 13 30.4950000  0 26                     
S33  38293082.928   201231648.660        -685.873          44.000  
G23  20377155.266   107082833.758        2042.798          47.000    20377150.928    83441223.760        1591.703          46.000  
E25  23241691.324   122135886.229        1214.219          45.000    23241691.585    93584680.813         930.354          50.000  
G26  19219074.491   100996915.034         783.545          48.000    19219071.911    78698899.970         610.522          45.000  
R11  18857756.846   100770270.109       -3785.740          52.000    18857752.017    78376734.418       -2944.411          49.000  
R22  18450594.958    98490875.014        -592.987          52.000    18450590.296    76603917.992        -461.225          51.000  
R23  21318436.235   114039254.397        1693.924          49.000                                                                  
R12  18482214.560    98728629.300         816.250          52.000    18482210.522    76789004.669         634.753          50.000  
R06  21741624.100   116017470.118        1623.614          38.000                                                                  
G28  22311670.567   117248667.929       -3681.842          38.000    22311667.648    91362498.398       -2869.342          37.000  
E12  22981499.399   120768815.619       -2308.167          44.000    22981497.093    92537308.797       -1768.808          49.000  
E10  22063106.126   115942647.402       -1210.545          46.000    22063106.293    88839296.292        -927.612          52.000  
E31  24937050.933   131045418.588       -3281.913          43.000    24937052.006   100411495.099       -2514.690          48.000  
G16  21818819.149   114658684.671        2464.750          41.000                                                                  
R13  21831664.057                        3229.434          29.000                                                                  
R21  19742282.708   105645393.637       -3183.342          50.000    19742276.200    82168463.427       -2475.860          45.000  
E24  22111685.998   116197702.065       -1362.163          48.000    22111683.581    89034641.760       -1043.787          51.000  
S31  37337588.898   196210447.396        -685.992          43.000  
G29  21311289.904   111991911.187       -2519.692          46.000    21311285.814    87266562.048       -1963.355          42.000  
G25  22179027.734   116551765.560       -4084.463          43.000    22179025.819    90819653.198       -3182.810          40.000  
G31  21121127.461   110992269.468       -2538.865          47.000    21121122.372    86487516.523       -1978.406          43.000  
E36  25868182.875   135938220.644        1742.092          33.000    25868186.763   104160491.680        1334.984          36.000  
G18  19093104.246   100335169.709       -1873.238          49.000    19093099.518    78183400.609       -1459.664          49.000  
G05  23227648.254   122062215.592       -3181.189          42.000    23227643.554    95113317.492       -2478.838          38.000  
E11  21367045.916   112284804.598         177.317          45.000    21367042.367    86036514.444         135.841          49.000  
G10                                                                  22681947.376    92878787.994        2463.397          34.000  
> 2024 04 09 06 14 00.4950000  0 26                     
S33  38296997.455   201252218.877        -685.741          44.000  
G23  20365525.926   107021724.470        2030.973          47.000    20365522.659    83393606.181        1582.519          46.000  
E25  23234778.520   122099559.171        1207.368          45.000    23234778.794    93556845.813         925.104          50.000  
G26  19214646.567   100973643.127         767.816          49.000    19214643.119    78680766.036         598.248          45.000  
R11  18879063.635   100884119.176       -3804.323          52.000    18879056.978    78465283.705       -2958.939          50.000  
R22  18453960.061    98508837.158        -604.703          52.000    18453954.427    76617888.550        -470.379          50.000  
R23  21308960.561   113988568.730        1685.151          48.000                                                                  
R12  18477698.994    98704509.815         791.671          52.000    18477695.279    76770245.067         615.731          50.000  
R06  21732533.927   115968963.472        1609.803          38.000                                                                  
G28  22332695.378   117359156.985       -3683.899          40.000    22332693.543    91448593.568       -2870.520          38.000  
E12  22994692.556   120838150.880       -2314.092          44.000    22994691.197    92590435.809       -1773.168          49.000  
E10  22070042.747   115979096.047       -1219.402          47.000    22070042.304    88867224.476        -934.432          52.000  
E31  24955802.465   131143955.280       -3287.320          44.000    24955802.904   100486997.200       -2518.969          48.000  
G16  21804762.094   114584816.055        2460.227          41.000                                                                  
R13  21813543.222                        3220.665          28.000    21813536.662                3       2516.221          18.000  
R21  19760134.224   105740923.725       -3185.583          50.000    19760127.984    82242764.590       -2477.571          44.000  
E24  22119494.203   116238734.718       -1373.594          48.000    22119491.902    89066082.346       -1052.394          51.000  
S31  37341503.076   196231017.364        -685.485          43.000  
G29  21325682.696   112067543.856       -2522.503          46.000    21325678.246    87325496.552       -1965.578          42.000  
G25  22202363.294   116674392.327       -4090.607          43.000    22202361.072    90915206.419       -3187.469          39.000  
G31  21135655.226   111068618.442       -2551.317          47.000    21135650.913    86547009.181       -1988.119          42.000  
E36  25858250.533   135886028.115        1737.072          33.000    25858253.113   104120500.278        1331.306          35.000  
G18  19103835.607   100391561.691       -1886.360          49.000    19103830.195    78227342.422       -1469.948          49.000  
G05  23245842.059   122157824.815       -3192.944          43.000    23245837.890    95187818.213       -2487.907          38.000  
E11  21366059.962   112279628.005         167.616          44.000    21366057.219    86032547.986         128.368          49.000  
G10                                                                  22663899.133    92804886.775        2463.807          34.000  
> 2024 04 09 06 14 30.4950000  0 26                     
S33  38300910.889   201272783.305        -685.501          44.000  
G23  20353966.562   106960978.524        2018.898          46.000    20353962.196    83346271.691        1573.245          46.000  
E25  23227905.919   122063444.917        1200.523          45.000    23227906.515    93529173.866         919.781          51.000  
G26  19210308.247   100950847.140         752.026          49.000    19210305.096    78663002.936         585.974          45.000  
R11  18900472.760   100998530.622       -3822.889          51.000    18900468.161    78554270.345       -2973.420          50.000  
R22  18457391.134    98527157.189        -616.438          52.000    18457386.649    76632137.480        -479.404          50.000  
R23  21299535.291   113938152.236        1676.245          48.000                                                                  
R12  18473322.936    98681134.336         766.879          52.000    18473319.069    76752064.140         596.519          49.000  
R06  21723523.140   115920880.441        1595.868          38.000                                                                  
G28  22353732.108   117469703.959       -3685.663          41.000    22353729.122    91534733.937       -2871.954          36.000  
E12  23007921.744   120907663.229       -2319.816          45.000    23007919.117    92643698.536       -1777.611          49.000  
E10  22077030.359   116015814.995       -1228.312          47.000    22077029.610    88895359.772        -941.220          52.000  
E31  24974586.449   131242663.210       -3293.158          44.000    24974586.343   100562630.484       -2523.276          48.000  
G16  21790729.399   114511075.916        2455.581          41.000                                                                  
R13  21795473.973                        3211.295          28.000    21795473.498                3       2498.514          25.000  
R21  19778000.777   105836527.760       -3187.834          51.000    19777994.552    82317123.252       -2479.505          46.000  
E24  22127368.652   116280114.074       -1384.941          48.000    22127366.406    89097788.608       -1061.189          51.000  
S31  37345416.571   196251581.230        -685.183          44.000  
G29  21340092.598   112143268.423       -2525.546          46.000    21340088.020    87384502.708       -1967.993          42.000  
G25  22225735.414   116797213.930       -4096.887          43.000    22225733.133    91010911.460       -3192.706          40.000  
G31  21150256.728   111145348.906       -2563.908          48.000    21150251.613    86606799.143       -1997.656          42.000  
E36  25848344.692   135833994.344        1731.866          35.000    25848347.717   104080630.487        1326.549          32.000  
G18  19114642.587   100448354.480       -1899.585          48.000    19114636.584    78271596.557       -1480.145          48.000  
G05  23264104.520   122253791.501       -3204.508          42.000    23264099.992    95262597.456       -2496.925          38.000  
E11  21365131.155   112274745.118         158.216          44.000    21365127.821    86028806.561         121.123          49.000  
G10                                                                  22645850.209    92730977.906        2463.889          34.000  
