     3.00           OBSERVATION DATA    M: Mixed            RINEX VERSION / TYPE
CONVBIN 2.4.3                           20240409 105942 UTC PGM / RUN BY / DATE 
format: u-blox UBX                                          COMMENT             
log: data/2024-04-09/20240409104500.ubx                     COMMENT             
AQUI00CHL                                                   MARKER NAME         
                                                            MARKER NUMBER       
                                                            MARKER TYPE         
                                                            OBSERVER / AGENCY   
UNKNOWN             UBLOX-ZED-F9P                           REC # / TYPE / VERS 
UNKNOWN             TWIVSP6037L                             ANT # / TYPE        
  1713381.0000 -5047934.0000 -3490983.0000                  APPROX POSITION XYZ 
        0.0000        0.0000        0.0000                  ANTENNA: DELTA H/E/N
G    8 C1C L1C D1C S1C C2L L2L D2L S2L                      SYS / # / OBS TYPES 
R    8 C1C L1C D1C S1C C2C L2C D2C S2C                      SYS / # / OBS TYPES 
E    8 C1C L1C D1C S1C C7Q L7Q D7Q S7Q                      SYS / # / OBS TYPES 
S    4 C1C L1C D1C S1C                                      SYS / # / OBS TYPES 
  2024    04    09    10    45   00.0020000     GPS         TIME OF FIRST OBS   
  2024    04    09    10    59   30.0020000     GPS         TIME OF LAST OBS    
                                                            END OF HEADER       
> 2024 04 09 10 45 00.0020000  0 24                     
S33  40312258.460   211842505.7561       -625.472          44.000  
E25  28392215.756                       -3315.692          30.000    28392216.618   114323700.3951      -2541.494          32.000  
E30  27781970.489   145995230.7911       -601.592          38.000    27781971.249   111866490.3371       -461.160          42.000  
G27  21548984.410   113240719.6371      -2836.646          49.000    21548981.687    88239509.9081      -2210.425          48.000  
R01  19767914.417   105670751.6111        160.865          49.000    19767911.149    82188435.7981        125.153          46.000  
R23  21340630.526   114158005.5311      -2044.006          51.000                                                                  
R24  20632395.065   110330722.0021       1136.968          52.000    20632389.280    85812841.3171        884.322          48.000  
R08  21872484.615   117126168.6621      -4003.276          49.000    21872476.192    91098132.3151      -3113.585          47.000  
E02  26772513.010   140690550.3281      -2652.266          39.000    26772513.890   107801887.1681      -2032.312          45.000  
G21  21716508.888   114121070.5891       1649.962          47.000                                                                  
G02  22715966.576   119373225.8451       1877.706          44.000                                                                  
E10  28490338.874   149717935.9701      -2322.913          40.000    28490341.123   114719051.4381      -1780.068          47.000  
G08  20729290.647   108933177.2301       -586.912          49.000    20729288.366    84882973.7831       -457.365          46.000  
R02  22470827.653   119908443.6541       3427.084          51.000    22470824.187    93262304.2861       2665.477          47.000  
E05  25097044.725   131885794.6921       2264.081          44.000    25097044.553   101055390.6001       1734.865          48.000  
S31  39358403.767   206829915.3271       -626.138          43.000  
G03  24035044.471   126305004.1701       1973.496          43.000    24035041.879    98419506.7641       1537.914          42.000  
E34  26708121.971   140352151.6661       1056.223          43.000    26708122.095   107542555.0811        809.125          48.000  
E36  24481324.675   128650294.6221       -294.177          49.000    24481323.490    98576254.0341       -225.394          50.000  
E04  27029264.070   142039749.8541      -2213.074          42.000    27029263.995   108835655.2531      -1695.852          50.000  
G10  23477123.122   123373187.5011      -3749.533          47.000    23477120.372    96134957.9791      -2921.801          45.000  
E11  25193730.661   132394162.7951      -1856.239          40.000    25193726.372   101444983.1141      -1422.295          46.000  
E09  24958897.708   131159906.9901        262.359          49.000    24958895.789   100499135.9471        201.019          50.000  
G32  22148160.529   116389387.4681      -1110.382          47.000    22148157.438    90693033.5641       -865.388          44.000  
> 2024 04 09 10 45 30.0020000  0 24                     
S33  40315829.150   211861269.540        -625.343          44.000  
E30  27785442.810   146013480.886        -614.855          36.000    27785444.893   111880474.144        -471.335          42.000  
G27  21565224.676   113326060.528       -2852.740          49.000    21565220.753    88306009.278       -2223.004          47.000  
R01  19767084.015   105666313.168         134.995          49.000    19767080.861    82184983.661         105.019          46.000  
R23  21352130.900   114219525.577       -2057.501          50.000                                                                  
R24  20626043.190   110296751.949        1127.592          52.000    20626036.467    85786420.147         876.992          48.000  
R08  21894952.284   117246484.705       -4017.848          48.000    21894943.357    91191711.438       -3124.972          47.000  
E02  26787675.182   140770225.192       -2659.138          40.000    26787675.416   107862936.763       -2037.607          45.000  
G21  21707103.715   114071647.260        1644.673          48.000                                                                  
G02  22705256.427   119316941.582        1874.454          44.000                                                                  
E10  28503607.482   149787660.791       -2325.330          40.000    28503609.424   114772476.745       -1781.734          46.000  
G08  20732698.638   108951085.361        -606.867          49.000    20732696.069    84896928.137        -472.853          46.000  
R02  22451591.574   119805798.645        3415.854          51.000    22451588.573    93182469.241        2656.749          48.000  
E05  25084130.921   131817930.585        2260.012          44.000    25084130.574   101003390.799        1731.723          49.000  
S31  39361978.973   206848702.042        -626.182          43.000  
G03  24023799.586   126245913.821        1965.648          43.000    24023797.877    98373462.352        1531.657          43.000  
E34  26702090.318   140320456.574        1056.892          42.000    26702090.619   107518269.234         809.719          47.000  
E36  24483011.661   128659159.179        -296.647          49.000    24483010.496    98583046.335        -227.344          50.000  
E04  27041931.565   142106315.875       -2224.546          43.000    27041930.921   108886660.326       -1704.654          50.000  
G10  23498535.482   123485709.349       -3751.961          47.000    23498531.329    96222637.241       -2923.552          43.000  
E11  25204333.311   132449889.560       -1858.855          38.000    25204331.283   101487682.759       -1424.447          46.000  
E09  24957438.331   131152239.218         248.798          49.000    24957436.634   100493260.638         190.607          50.000  
G32  22154559.793   116423011.289       -1131.334          48.000    22154556.235    90719233.883        -881.470          44.000  
E25                                                                  28411138.304                       -2539.071          30.000  
> 2024 04 09 10 46 00.0020000  0 24                     
S33  40319399.940   211880033.620        -625.491          44.000  
E30  27788993.569   146032127.277        -628.126          35.000    27788993.171   111894761.573        -481.073          41.000  
G27  21581555.300   113411879.993       -2868.445          48.000    21581552.005    88372881.550       -2235.254          47.000  
R01  19766398.663   105662649.936         109.302          49.000    19766395.717    82182134.471          85.138          46.000  
R23  21363707.470   114281451.975       -2070.783          50.000                                                                  
R24  20619743.543   110263064.175        1118.332          53.000    20619736.873    85760218.531         869.791          48.000  
R08  21917502.496   117367242.804       -4032.409          47.000    21917494.350    91285634.361       -3136.390          47.000  
E02  26802877.248   140850108.291       -2666.093          40.000    26802876.756   107924145.839       -2042.733          46.000  
G21  21697728.934   114022382.355        1639.649          48.000                                                                  
G02  22694565.167   119260759.361        1871.217          44.000                                                                  
E10  28516888.732   149857452.006       -2327.373          40.000    28516889.984   114825952.921       -1783.217          45.000  
G08  20736220.268   108969590.316        -626.608          49.000    20736217.078    84911347.580        -488.358          46.000  
R02  22432418.921   119703489.903        3404.730          51.000    22432415.668    93102895.780        2648.057          47.000  
E05  25071237.375   131750183.553        2256.507          43.000    25071238.880   100951480.720        1728.976          49.000  
S31  39365553.762   206867489.525        -626.160          43.000  
G03  24012599.391   126187058.118        1958.216          43.000    24012597.483    98327600.801        1525.657          43.000  
E34  26696054.470   140288740.373        1057.711          42.000    26696054.917   107493967.210         810.451          47.000  
E36  24484711.451   128668095.144        -298.810          48.000    24484710.977    98589893.367        -228.990          50.000  
E04  27054664.495   142173226.686       -2235.973          42.000    27054663.538   108937929.579       -1713.235          50.000  
G10  23519960.289   123598297.696       -3753.777          47.000    23519956.849    96310368.327       -2925.011          43.000  
E11  25214952.776   132505703.805       -1861.821          36.000    25214952.074   101530449.386       -1426.425          46.000  
E09  24956056.524   131144977.682         235.405          50.000    24956054.282   100487696.590         180.455          49.000  
G32  22161077.495   116457260.902       -1151.992          49.000    22161074.083    90745921.864        -897.657          44.000  
E25                                                                  28430037.652                       -2535.247          29.000  
> 2024 04 09 10 46 30.0020000  0 24                     
S33  40322968.965   211898790.357        -625.054          44.000  
E30  27792616.774   146051161.841        -640.511          34.000    27792614.432   111909346.466        -490.884          39.000  
G27  21597975.868   113498168.636       -2884.173          48.000    21597971.761    88440119.382       -2247.294          47.000  
R01  19765857.168   105659754.026          83.588          49.000    19765853.468    82179882.088          65.148          46.000  
R23  21375358.798   114343777.773       -2084.210          51.000                                                                  
R24  20613495.490   110229653.643        1108.924          52.000    20613489.339    85734232.561         862.576          49.000  
R08  21940132.244   117488430.989       -4046.863          46.000    21940124.838    91379891.758       -3147.506          46.000  
E02  26818116.700   140930189.768       -2672.479          40.000    26818115.664   107985506.933       -2047.904          46.000  
G21  21688383.130   113973269.043        1634.586          47.000                                                                  
G02  22683892.536   119204672.733        1867.852          45.000                                                                  
E10  28530181.727   149927302.240       -2329.323          41.000    28530182.325   114879474.321       -1784.651          45.000  
G08  20739854.287   108988684.960        -646.204          49.000    20739850.654    84926226.499        -503.803          46.000  
R02  22413308.637   119601513.191        3393.604          51.000    22413305.357    93023580.525        2639.638          47.000  
E05  25058366.493   131682547.703        2252.594          42.000    25058368.294   100899655.834        1725.950          49.000  
S31  39369127.174   206886268.751        -625.864          43.000  
G03  24001443.316   126128429.921        1950.413          44.000    24001440.923    98281916.488        1519.823          43.000  
E34  26690013.086   140256995.342        1058.700          42.000    26690014.284   107469643.104         811.061          47.000  
E36  24486424.292   128677095.316        -301.138          48.000    24486423.396    98596789.584        -230.730          50.000  
E04  27067462.219   142240473.151       -2247.264          44.000    27067460.681   108989456.021       -1721.835          51.000  
G10  23541395.843   123710942.916       -3755.889          48.000    23541392.757    96398143.773       -2926.633          43.000  
E11  25225588.767   132561598.281       -1864.814          36.000    25225588.109   101573277.548       -1428.613          45.000  
E09  24954750.281   131138115.333         221.976          49.000    24954748.593   100482438.399         170.061          49.000  
G32  22167712.901   116492128.178       -1172.526          49.000    22167709.868    90773091.154        -913.585          44.000  
E25                                                                  28448913.298                       -2531.563          28.000  
> 2024 04 09 10 47 00.0020000  0 24                     
S33  40326536.978   211917540.009        -625.040          44.000  
E30  27796311.690   146070584.983        -654.075          31.000    27796309.904   111924229.136        -501.316          37.000  
G27  21614484.758   113584925.595       -2899.891          48.000    21614480.554    88507722.186       -2259.775          47.000  
R01  19765459.023   105657626.403          57.790          49.000    19765455.667    82178227.258          45.066          46.000  
R23  21387084.412   114406504.342       -2097.895          50.000                                                                  
R24  20607299.802   110196523.682        1099.387          52.000    20607293.888    85708464.798         855.009          49.000  
R08  21962843.682   117610046.121       -4061.211          47.000    21962835.448    91474481.249       -3158.657          46.000  
E02  26833393.021   141010468.431       -2679.615          40.000    26833392.395   108047019.108       -2053.064          46.000  
G21  21679066.964   113924309.860        1629.072          48.000                                                                  
G02  22673238.747   119148683.739        1864.509          46.000                                                                  
E10  28543484.421   149997212.759       -2331.306          38.000    28543485.568   114933041.918       -1786.574          43.000  
G08  20743600.115   109008370.669        -666.336          49.000    20743596.772    84941565.982        -519.236          46.000  
R02  22394260.484   119499872.862        3382.069          50.000    22394257.861    92944526.922        2630.524          47.000  
E05  25045518.069   131615025.690        2248.458          43.000    25045519.444   100847918.157        1722.970          49.000  
S31  39372699.359   206905041.159        -626.008          43.000  
G03  23990330.198   126070030.482        1942.386          44.000    23990327.224    98236410.449        1513.493          43.000  
E34  26683967.641   140225222.355        1059.418          42.000    26683968.134   107445297.563         811.747          47.000  
E36  24488149.742   128686161.029        -303.627          48.000    24488148.443    98603736.038        -232.640          49.000  
E04  27080323.376   142308054.871       -2258.772          43.000    27080320.678   109041239.310       -1730.620          51.000  
G10  23562842.164   123823643.878       -3757.919          47.000    23562838.602    96485962.610       -2928.204          43.000  
E11  25236241.392   132617574.235       -1867.758          36.000    25236240.294   101616168.130       -1431.011          45.000  
E09  24953520.355   131131653.661         208.428          49.000    24953519.308   100477487.228         159.629          50.000  
G32  22174464.907   116527613.415       -1193.424          49.000    22174461.543    90800741.959        -929.967          44.000  
E25                                                                  28467765.053                       -2529.175          28.000  
> 2024 04 09 10 47 30.0020000  0 24                     
S33  40330104.816   211936289.385        -624.722          44.000  
E30  27800083.394   146090403.012        -666.833          31.000    27800081.474   111939414.430        -511.638          35.000  
G27  21631084.120   113672155.919       -2915.496          48.000    21631080.611    88575693.826       -2271.845          47.000  
R01  19765206.411   105656273.672          32.279          49.000    19765202.834    82177175.113          25.011          46.000  
R23  21398887.205   114469639.402       -2111.243          50.000                                                                  
R24  20601159.042   110163683.994        1089.900          52.000    20601153.105    85682922.808         847.697          49.000  
R08  21985635.154   117732090.371       -4075.167          46.000    21985627.110    91569404.524       -3169.715          46.000  
E02  26848708.956   141090948.914       -2686.014          41.000    26848707.561   108108685.953       -2058.247          47.000  
G21  21669781.527   113875513.003        1623.873          48.000                                                                  
G02  22662605.050   119092800.115        1860.972          46.000                                                                  
E10  28556799.837   150067190.742       -2333.168          36.000    28556802.048   114986661.195       -1788.146          42.000  
G08  20747460.261   109028654.640        -686.014          49.000    20747457.226    84957371.654        -534.579          46.000  
R02  22375279.787   119398579.114        3370.726          52.000    22375276.211    92865742.902        2621.526          48.000  
E05  25032693.519   131547626.058        2244.614          44.000    25032693.930   100796274.269        1719.785          49.000  
S31  39376272.131   206923813.135        -625.556          43.000  
G03  23979261.835   126011867.003        1934.902          44.000    23979258.747    98191088.266        1507.693          42.000  
E34  26677918.263   140193428.180        1060.065          42.000    26677917.935   107420935.784         812.444          47.000  
E36  24489887.896   128695299.535        -305.833          47.000    24489887.506    98610738.255        -234.282          50.000  
E04  27093248.716   142375977.167       -2269.637          43.000    27093245.346   109093283.595       -1739.018          50.000  
G10  23584300.093   123936405.402       -3759.613          47.000    23584296.152    96573828.619       -2929.526          43.000  
E11  25246913.379   132673639.042       -1870.255          39.000    25246909.171   101659126.784       -1433.089          45.000  
E09  24952369.343   131125600.097         195.048          49.000    24952367.935   100472848.750         149.421          51.000  
G32  22181336.675   116563722.868       -1213.884          49.000    22181332.737    90828879.137        -945.947          43.000  
E25                                                                  28486593.546                       -2525.956          27.000  
> 2024 04 09 10 48 00.0020000  0 24                     
S33  40333669.985   211955023.306        -624.119          44.000  
E30  27803929.209   146110600.485        -679.960          30.000    27803926.670   111954890.395        -521.077          35.000  
G27  21647770.581   113759842.819       -2930.182          48.000    21647766.705    88644021.220       -2283.356          47.000  
R01  19765095.645   105655681.175           7.331          49.000    19765091.911    82176714.258           5.600          46.000  
R23  21410763.949   114533168.085       -2123.993          50.000                                                                  
R24  20595069.248   110131121.620        1080.995          52.000    20595063.891    85657596.493         840.786          49.000  
R08  22008501.842   117854544.012       -4088.260          46.000    22008495.485    91664646.161       -3180.005          48.000  
E02  26864057.716   141171614.060       -2691.712          40.000    26864058.046   108170494.273       -2062.420          48.000  
G21  21660524.325   113826864.891        1619.317          48.000                                                                  
G02  22651987.794   119037008.087        1858.356          46.000                                                                  
E10  28570126.754   150137221.432       -2334.961          38.000    28570129.664   115040320.836       -1789.081          43.000  
G08  20751430.713   109049522.266        -705.044          48.000    20751428.489    84973632.123        -549.522          47.000  
R02  22356360.183   119297620.179        3359.911          51.000    22356356.734    92787219.269        2613.136          49.000  
E05  25019888.481   131480335.525        2241.495          45.000    25019888.939   100744713.951        1717.448          48.000  
S31  39379841.265   206942569.889        -624.861          43.000  
G03  23968236.099   125953924.903        1927.901          44.000    23968233.327    98145938.574        1502.347          43.000  
E34  26671861.414   140161597.678        1061.909          43.000    26671860.800   107396546.152         813.626          47.000  
E36  24491637.161   128704496.293        -307.350          46.000    24491637.823    98617785.094        -235.419          50.000  
E04  27106235.004   142444223.622       -2279.813          43.000    27106232.628   109145576.269       -1746.986          50.000  
G10  23605766.552   124049210.446       -3760.690          46.000    23605761.378    96661728.540       -2930.337          42.000  
E11  25257596.748   132729778.053       -1872.121          39.000    25257592.225   101702142.292       -1434.536          45.000  
E09  24951291.998   131119940.194         182.267          49.000    24951291.079   100468511.904         139.701          51.000  
G32  22188323.910   116600440.851       -1233.881          48.000    22188320.094    90857490.528        -961.486          42.000  
E25                                                                  28505396.035                       -2521.198          28.000  
> 2024 04 09 10 48 30.0020000  0 24                     
S33  40337230.913   211973737.459        -623.651          44.000  
E30  27807836.181                        -692.449          28.000    27807841.568   111970653.290        -530.393          33.000  
G27  21664542.966   113847980.234       -2945.740          48.000    21664539.063    88712699.703       -2295.509          47.000  
R01  19765125.423   105655843.956         -18.333          49.000    19765122.111    82176840.868         -14.234          46.000  
R23  21422712.818   114597086.773       -2137.372          50.000    21422998.598                3      -1669.303          10.000  
R24  20589031.206   110098834.942        1071.250          51.000    20589025.975    85632484.645         833.121          49.000  
R08  22031444.557   117977398.454       -4101.995          47.000    22031438.155    91760199.551       -3190.402          48.000  
E02  26879442.070   141252457.492       -2697.873          41.000    26879442.312   108232439.200       -2067.270          48.000  
G21  21651294.729   113778363.470        1613.881          48.000                                                                  
G02  22641387.217   118981304.421        1854.971          46.000                                                                  
E10  28583462.844   150207300.800       -2336.999          40.000    28583465.895   115094017.773       -1790.806          44.000  
G08  20755512.212   109070969.755        -724.841          49.000    20755509.740    84990344.414        -564.768          47.000  
R02  22337502.185   119196995.062        3348.245          50.000    22337499.458    92708955.299        2604.161          48.000  
E05  25007104.670   131413151.598        2237.194          46.000    25007104.617   100693235.301        1714.326          49.000  
S31  39383406.559   206961307.615        -624.487          43.000  
G03  23957251.206   125896200.239        1920.215          45.000    23957249.032    98100958.378        1496.166          43.000  
E34  26665795.409   140129726.565        1062.959          42.000    26665795.919   107372125.464         814.125          46.000  
E36  24493397.915   128713747.476        -309.492          47.000    24493398.557    98624873.646        -237.138          50.000  
E04  27119280.618   142512788.556       -2291.178          41.000    27119280.267   109198112.939       -1755.478          50.000  
G10  23627239.325   124162052.712       -3762.401          47.000    23627235.349    96749657.466       -2931.545          43.000  
E11  25268292.192   132785987.449       -1875.263          38.000    25268289.020   101745211.731       -1436.763          46.000  
E09  24950288.541   131114670.209         168.862          49.000    24950288.480   100464473.848         129.358          51.000  
G32  22195425.907   116637762.445       -1254.522          48.000    22195422.540    90886572.282        -977.558          43.000  
E25                                                                  28524170.078                       -2518.109          27.000  
> 2024 04 09 10 49 00.0020000  0 24                     
S33  40340790.066   211992441.422        -623.054          44.000  
E30  27811820.892                3       -705.525          25.000    27811829.093   111986710.143        -539.527          31.000  
G27  21681401.948   113936575.939       -2960.478          48.000    21681398.606    88781735.266       -2306.987          47.000  
R01  19765299.829   105656771.678         -43.346          50.000    19765295.185    82177562.412         -33.884          45.000  
R23  21434737.537   114661405.888       -2150.324          51.000                                                                  
R24  20583047.453   110066836.019        1062.034          51.000    20583041.869    85607596.564         826.079          49.000  
R08  22054463.644   118100659.474       -4115.239          47.000    22054455.608    91856069.152       -3200.650          48.000  
E02  26894862.528   141333486.648       -2703.852          42.000    26894861.902   108294526.451       -2071.729          49.000  
G21  21642094.992   113730019.925        1609.066          48.000                                                                  
G02  22630805.910   118925700.078        1852.245          45.000                                                                  
E10  28596808.972   150277438.805       -2338.354          40.000    28596812.991   115147759.670       -1791.953          44.000  
G08  20759705.533   109093006.917        -743.957          48.000    20759703.211    85007516.207        -579.867          47.000  
R02  22318709.583   119096717.007        3337.088          50.000    22318707.333    92630961.246        2595.470          49.000  
E05  24994341.889   131346085.577        2233.950          45.000    24994342.121   100641847.002        1711.645          48.000  
S31  39386970.272   206980033.392        -623.640          43.000  
G03  23946309.997   125838703.101        1913.130          44.000    23946307.530    98056155.438        1490.715          43.000  
E34  26659724.579   140097824.461        1064.292          42.000    26659725.263   107347680.998         815.328          47.000  
E36  24495170.410   128723063.173        -311.345          47.000    24495171.415    98632011.637        -238.554          51.000  
E04  27132390.296   142581680.135       -2301.515          42.000    27132389.588   109250899.903       -1763.484          49.000  
G10  23648721.162   124274939.899       -3763.413          47.000    23648717.836    96837621.386       -2932.366          45.000  
E11  25279003.304   132842277.332       -1877.882          38.000    25279000.390   101788342.841       -1438.582          45.000  
E09  24949361.996   131109800.373         155.940          49.000    24949361.505   100460742.372         119.483          51.000  
G32  22202644.571   116675696.628       -1274.474          49.000    22202641.638    90916131.350        -993.077          42.000  
E25                                                                  28542918.711                       -2514.241          27.000  
> 2024 04 09 10 49 30.0020000  0 25                     
S33  40344346.790   212011131.346        -622.904          44.000  
G27  21698347.061   114025624.359       -2975.814          48.000    21698343.346    88851123.599       -2319.013          46.000  
R01  19765615.413   105658460.581         -69.103          49.000    19765611.319    82178875.968         -53.707          45.000  
R17  23945944.237                3       2744.110          23.000                                                                  
R23  21446835.065   114726121.978       -2163.849          50.000                                                                  
R24  20577117.106   110035123.747        1052.165          51.000    20577111.189    85582931.456         818.406          48.000  
R08  22077555.428   118224318.697       -4128.740          46.000    22077548.335    91952248.479       -3211.173          49.000  
E02  26910315.572   141414695.675       -2710.039          43.000    26910315.480   108356751.515       -2076.520          48.000  
G21  21632925.392   113681832.047        1603.629          48.000                                                                  
G02  22620242.448   118870192.163        1848.448          44.000                                                                  
E10  28610166.848   150347632.042       -2340.643          40.000    28610170.062   115201543.847       -1793.579          44.000  
G08  20764010.817   109115630.414        -764.143          49.000    20764008.640    85025144.874        -595.310          47.000  
R02  22299983.155   118996785.707        3325.115          51.000    22299980.689    92553236.880        2586.130          49.000  
E05  24981601.291   131279135.451        2229.736          44.000    24981602.112   100590547.523        1708.398          48.000  
S31  39390531.315   206998746.536        -623.533          43.000  
G03  23935410.937   125781430.045        1905.303          44.000    23935408.198    98011527.084        1484.485          42.000  
E34  26653646.965   140065887.574        1065.121          41.000    26653647.976   107323209.884         815.998          47.000  
E36  24496955.247   128732440.097        -313.668          47.000    24496955.840    98639196.527        -240.387          51.000  
E04  27145560.991   142650893.130       -2312.574          42.000    27145560.234   109303933.191       -1771.928          48.000  
G10  23670209.899   124387866.239       -3764.611          47.000    23670207.657    96925615.859       -2933.606          45.000  
E11  25289728.711   132898644.293       -1880.058          38.000    25289726.894   101831533.068       -1440.537          46.000  
E09  24948510.378   131105327.427         142.353          48.000    24948509.819   100457315.009         109.179          50.000  
G32  22209978.838   116714238.899       -1295.038          48.000    22209975.912    90946164.246       -1009.023          42.000  
E25                                                                  28561638.016                3      -2510.996          23.000  
E30                                                                  27815887.561   112003057.752        -549.834          29.000  
> 2024 04 09 10 50 00.0020000  0 25                     
S33  40347902.529   212029816.363        -622.461          44.000  
G27  21715379.831   114115133.151       -2991.170          48.000    21715376.309    88920870.663       -2330.692          46.000  
R01  19766074.993   105660919.973         -94.501          49.000    19766071.233    82180788.822         -73.566          45.000  
R17  23930512.806                2       2747.388          27.000                                                                  
R23  21459008.853   114791245.210       -2177.375          50.000                                                                  
R24  20571242.301   110003710.317        1042.360          51.000    20571236.777    85558498.782         810.619          48.000  
R08  22100723.302   118348381.456       -4141.889          48.000    22100717.151    92048741.680       -3221.459          49.000  
E02  26925806.000   141496091.911       -2716.073          45.000    26925804.937   108419120.024       -2081.184          49.000  
G21  21623787.232   113633810.709        1598.095          48.000                                                                  
G02  22609699.943   118814791.731        1845.046          44.000                                                                  
E10  28623537.674   150417890.299       -2343.018          42.000    28623540.235   115255377.851       -1795.222          44.000  
G08  20768429.467   109138849.973        -783.648          49.000    20768427.005    85043238.023        -610.707          47.000  
R02  22281323.186   118897214.073        3313.229          50.000    22281320.137    92475792.226        2577.136          48.000  
E05  24968884.774   131212312.476        2225.514          44.000    24968886.232   100539345.468        1705.291          48.000  
S31  39394091.030   207017454.011        -623.154          43.000  
G03  23924556.981   125724390.902        1897.713          44.000    23924554.973    97967081.007        1478.718          42.000  
E34  26647563.486   140033925.353        1066.097          41.000    26647565.945   107298719.351         816.883          47.000  
E36  24498753.347   128741888.231        -315.961          47.000    24498753.917    98646435.986        -241.969          51.000  
E04  27158794.307   142720435.655       -2323.167          41.000    27158794.709   109357218.932       -1780.241          49.000  
G10  23691707.998   124500839.324       -3766.239          46.000    23691706.036    97013646.700       -2934.615          46.000  
E11  25300472.364   132955098.365       -1882.859          38.000    25300469.654   101874789.991       -1442.687          45.000  
E09  24947737.775   131101261.406         129.004          49.000    24947735.841   100454199.439          98.762          50.000  
G32  22217430.814   116753398.002       -1315.363          49.000    22217428.237    90976677.804       -1024.843          43.000  
E25                                                                  28580335.334                3      -2510.002          22.000  
E30                                                                  27820021.636                        -559.716          28.000  
> 2024 04 09 10 50 30.0020000  0 25                     
S33  40351456.051   212048490.843        -622.591          44.000  
G27  21732499.654   114205094.619       -3006.315          49.000    21732495.405    88990970.448       -2342.665          46.000  
R01  19766677.887   105664143.655        -120.340          49.000    19766674.447    82183296.112         -93.697          45.000  
R17  23915098.930                        2750.953          25.000    23915099.956                3       2140.653          23.000  
R23  21471256.551   114856770.341       -2191.077          48.000                                                                  
R24  20565422.678   109972592.443        1032.242          51.000    20565417.284    85534295.941         802.873          48.000  
R08  22123965.148   118472837.766       -4155.214          48.000    22123958.275    92145540.984       -3231.900          49.000  
E02  26941329.290   141577667.382       -2722.342          45.000    26941327.618   108481625.866       -2085.917          48.000  
G21  21614679.618   113585951.578        1592.484          48.000                                                                  
G02  22599176.945   118759493.853        1841.423          44.000                                                                  
E10  28636918.077   150488208.018       -2345.247          41.000    28636921.501   115309257.421       -1796.892          44.000  
G08  20772960.771   109162660.149        -803.590          49.000    20772957.905    85061791.383        -626.280          47.000  
R02  22262729.869   118797999.679        3300.954          50.000    22262727.437    92398625.438        2567.411          49.000  
E05  24956192.217   131145612.587        2221.080          44.000    24956193.209   100488237.720        1701.929          48.000  
S31  39397648.924   207036151.603        -623.306          43.000  
G03  23913746.029   125667580.250        1889.776          43.000    23913744.119    97922812.987        1472.508          42.000  
E34  26641475.550   140001932.045        1066.577          40.000    26641477.808   107274204.996         817.401          47.000  
E36  24500564.708   128751402.255        -318.469          48.000    24500564.421    98653725.934        -243.905          51.000  
E04  27172089.502   142790300.425       -2334.494          42.000    27172089.474   109410751.555       -1788.756          49.000  
G10  23713214.037   124613851.372       -3767.884          48.000    23713211.672    97101707.948       -2935.898          46.000  
E11  25311229.956   133011634.171       -1886.168          38.000    25311227.786   101918109.545       -1445.284          45.000  
E09  24947039.856   131097596.994         115.353          49.000    24947038.655   100451391.617          88.273          50.000  
G32  22224999.164   116793167.440       -1336.005          49.000    22224996.233    91007666.901       -1041.004          43.000  
E25                                                                  28599003.237                3      -2499.867          20.000  
E30                                                                  27824227.327                        -568.760          26.000  
> 2024 04 09 10 51 00.0020000  0 25                     
S33  40355009.145   212067162.128        -622.320          44.000  
E30  27828506.840                3       -754.625          25.000    27828507.182                        -579.703          25.000  
G27  21749705.476   114295514.286       -3021.416          48.000    21749701.470    89061427.281       -2354.293          46.000  
R01  19767424.886   105668138.488        -145.944          49.000    19767421.914    82186403.184        -113.370          45.000  
R17  23899654.661                1       2752.943          28.000    23899655.319                        2141.399          28.000  
R23  21483581.780   114922705.403       -2204.517          49.000                                                                  
R24  20559660.694   109941780.031        1022.115          51.000    20559655.175    85510330.715         794.932          48.000  
R08  22147280.271   118597690.301       -4168.110          48.000    22147272.967    92242648.445       -3241.963          48.000  
E02  26956887.190   141659427.325       -2728.345          45.000    26956886.201   108544273.077       -2090.446          49.000  
G21  21605605.270   113538263.672        1586.826          48.000                                                                  
G02  22588674.849   118704307.166        1837.811          44.000                                                                  
E10  28650313.226   150558592.999       -2347.284          42.000    28650315.648   115363188.485       -1798.421          45.000  
G08  20777605.270   109187068.570        -823.425          49.000    20777602.473    85080810.922        -641.607          46.000  
R02  22244206.144   118699153.125        3288.789          49.000    22244204.025    92321744.744        2558.008          49.000  
E05  24943525.156   131079044.940        2216.792          45.000    24943525.706   100437231.286        1698.556          48.000  
S31  39401206.646   207054845.069        -622.953          43.000  
G03  23902979.968   125611005.845        1882.274          42.000    23902977.477    97878729.033        1466.540          41.000  
E34  26635383.891   139969914.967        1067.790          40.000    26635385.193   107249672.439         818.078          47.000  
E36  24502389.368   128760990.060        -320.703          48.000    24502389.073    98661072.421        -245.773          51.000  
E04  27185447.102   142860493.382       -2345.167          41.000    27185446.874   109464535.661       -1796.832          49.000  
G10  23734728.111   124726907.856       -3769.221          47.000    23734725.738    97189803.784       -2936.849          45.000  
E11  25322006.690   133068259.521       -1889.080          38.000    25322003.183   101961497.670       -1447.296          45.000  
E09  24946420.690   131094342.113         101.847          48.000    24946419.381   100448897.573          78.047          50.000  
G32  22232684.506   116833553.762       -1356.445          49.000    22232680.231    91039136.699       -1057.018          42.000  
E25                                                                  28617646.395                3      -2496.736          19.000  
> 2024 04 09 10 51 30.0020000  0 25                     
S33  40358561.514   212085830.971        -622.143          44.000  
E30  27832869.766                        -768.895          27.000    27832858.839                3       -587.949          23.000  
G27  21766998.818   114386391.750       -3036.650          49.000    21766995.586    89132240.850       -2366.307          47.000  
R01  19768317.133   105672906.232        -171.722          49.000    19768313.459    82190111.416        -133.462          44.000  
R17  23884212.686                        2756.453          29.000    23884208.870                        2144.009          29.000  
R23  21495985.104   114989052.522       -2218.402          47.000                                                                  
R24  20553957.032   109911277.166        1011.726          51.000    20553950.948    85486606.250         786.821          48.000  
R08  22170669.829   118722936.714       -4181.240          48.000    22170662.027    92340062.231       -3252.022          48.000  
E02  26972479.500   141741371.087       -2734.392          44.000    26972480.075   108607061.133       -2095.165          49.000  
G21  21596564.008   113490750.491        1580.991          48.000                                                                  
G02  22578194.684   118649234.132        1833.973          44.000                                                                  
E10  28663720.169   150629046.969       -2349.438          41.000    28663722.134   115417172.461       -1800.360          43.000  
G08  20782363.905   109212076.978        -843.530          48.000    20782361.497    85100297.980        -657.365          47.000  
R02  22225752.174   118600679.566        3276.214          49.000    22225750.363    92245154.156        2548.293          49.000  
E05  24930883.581   131012612.759        2212.324          45.000    24930883.902   100386328.644        1695.163          48.000  
S31  39404763.299   207073536.365        -622.835          43.000  
G03  23892259.735   125554669.523        1873.939          42.000    23892257.048    97834830.621        1460.419          41.000  
E34  26629286.328   139937875.671        1068.471          41.000    26629288.436   107225122.852         818.810          47.000  
E36  24504228.187   128770653.622        -323.167          48.000    24504228.160    98668476.943        -247.724          51.000  
E04  27198867.290   142931014.532       -2355.849          41.000    27198866.606   109518571.264       -1805.307          48.000  
G10  23756250.378   124840008.346       -3770.516          46.000    23756247.332    97277933.927       -2938.006          44.000  
E11  25332798.852   133124976.281       -1891.428          38.000    25332796.480   102004955.894       -1449.540          45.000  
E09  24945879.113   131091498.749          88.036          48.000    24945878.528   100446718.846          67.521          50.000  
G32  22240486.837   116874557.657       -1376.978          49.000    22240482.521    91071087.716       -1073.029          42.000  
E25                                                                  28636263.377                3      -2492.389          20.000  
> 2024 04 09 10 52 00.0020000  0 25                     
S33  40362113.462   212104494.898        -621.843          44.000  
E30  27837290.063                1       -781.072          27.000    27837284.982                3       -601.799          21.000  
G27  21784379.150   114477722.631       -3051.589          49.000    21784375.513    89203407.693       -2377.968          47.000  
R01  19769353.698   105678443.524        -197.134          50.000    19769348.653    82194418.179        -153.199          44.000  
R17  23868750.121                3       2758.309          25.000    23868735.186                3       2144.792          24.000  
R23  21508465.451   115055809.430       -2231.848          49.000                                                                  
R24  20548310.549   109881084.341        1001.484          51.000    20548305.235    85463122.910         778.906          49.000  
R08  22194130.506   118848570.262       -4193.924          48.000    22194122.549    92437777.127       -3261.897          49.000  
E02  26988107.185   141823493.985       -2740.155          45.000    26988107.816   108669986.437       -2099.544          50.000  
G21  21587556.003   113443410.934        1575.380          49.000                                                                  
G02  22567736.728   118594273.629        1830.422          44.000                                                                  
E10  28677138.996   150699567.773       -2351.439          40.000    28677141.523   115471207.625       -1801.820          43.000  
G08  20787237.023   109237683.036        -863.251          49.000    20787233.919    85120250.716        -672.693          47.000  
R02  22207368.042   118502579.542        3263.894          48.000    22207366.390    92168854.136        2538.560          49.000  
E05  24918267.289   130946315.195        2207.976          44.000    24918268.099   100335529.182        1691.634          48.000  
S31  39408319.403   207092223.658        -622.599          43.000  
G03  23881583.546   125498569.073        1866.261          40.000    23881581.440    97791116.003        1454.163          41.000  
E34  26623184.913   139905811.653        1069.266          41.000    26623186.850   107200554.312         819.440          47.000  
E36  24506081.128   128780390.938        -325.583          48.000    24506081.065    98675937.968        -249.510          51.000  
E04  27212348.490   143001859.854       -2366.622          41.000    27212348.614   109572855.231       -1813.395          49.000  
G10  23777780.540   124953148.450       -3771.783          46.000    23777777.171    97366094.915       -2939.144          44.000  
E11  25343608.397   133181782.548       -1894.771          38.000    25343606.341   102048482.650       -1451.744          45.000  
E09  24945415.548   131089064.828          74.454          48.000    24945415.221   100444853.863          57.128          50.000  
G32  22248406.285   116916175.801       -1397.323          49.000    22248401.826    91103517.379       -1088.715          41.000  
E25                                                                  28654852.719                3      -2478.581          14.000  
> 2024 04 09 10 52 30.0020000  0 24                     
S33  40365664.674   212123158.381        -621.920          44.000  
E30  27841793.216                        -795.492          28.000    27841790.145                3       -606.864          25.000  
G27  21801845.527   114569508.640       -3067.110          48.000    21801841.830    89274929.222       -2390.090          47.000  
R01  19770533.840   105684754.163        -223.146          49.000    19770529.118    82199326.444        -173.522          44.000  
R17  23853273.891   127643740.3251       2761.851          35.000    23853252.148                3       2148.298          23.000  
R23  21521022.107   115122980.535       -2245.905          49.000                                                                  
R24  20542723.063   109851207.632         990.643          51.000    20542718.788    85439885.447         770.525          49.000  
R08  22217663.510   118974589.997       -4206.969          48.000    22217656.023    92535792.377       -3272.058          49.000  
E02  27003768.587   141905797.618       -2746.471          44.000    27003769.159   108733050.239       -2104.364          49.000  
G21  21578581.382   113396250.372        1569.079          49.000                                                                  
G02  22557300.681   118539430.513        1826.194          45.000                                                                  
E10  28690573.841   150770159.452       -2354.417          42.000    28690575.178   115525297.085       -1804.052          43.000  
G08  20792224.221   109263890.652        -883.508          49.000    20792221.032    85140672.190        -688.515          47.000  
R02  22189056.864   118404860.269        3251.065          50.000    22189054.238    92092850.264        2528.544          50.000  
E05  24905678.768   130880157.795        2202.794          45.000    24905678.641   100284837.100        1687.904          48.000  
S31  39411875.161   207110909.848        -622.782          43.000  
G03  23870952.955   125442708.516        1858.455          39.000    23870951.368    97747588.302        1448.050          40.000  
E34  26617080.212   139873726.637        1069.747          41.000    26617081.504   107175969.673         819.696          47.000  
E36  24507948.927   128790206.243        -328.479          48.000    24507948.670    98683458.755        -251.615          51.000  
E04  27225891.899   143073031.688       -2377.904          40.000    27225891.422   109627389.365       -1821.877          48.000  
G10  23799318.805   125066329.971       -3773.402          47.000    23799315.653    97454288.177       -2940.266          45.000  
E11  25354437.326   133238682.412       -1898.395          38.000    25354434.237   102092081.137       -1454.470          45.000  
E09  24945031.688   131087044.561          60.436          48.000    24945031.199   100443305.827          46.342          50.000  
G32  22256443.517   116958411.055       -1418.065          49.000    22256438.621    91136427.944       -1104.744          41.000  
> 2024 04 09 10 53 00.0020000  0 24                     
S33  40369216.145   212141821.187        -621.791          44.000  
G27  21819397.819   114661748.243       -3081.998          48.000    21819395.187    89346804.170       -2401.560          48.000  
R01  19771859.025   105691837.712        -248.668          50.000    19771854.516    82204835.855        -193.432          44.000  
R17  23837782.894   127560863.065        2764.040          34.000    23837770.975                1       2150.127          27.000  
R23  21533656.163   115190566.659       -2259.528          49.000                                                                  
R24  20537196.607   109821649.950         980.173          53.000    20537190.710    85416896.112         762.408          48.000  
R08  22241268.065   119100992.237       -4219.476          48.000    22241261.526    92634105.173       -3281.815          49.000  
E02  27019464.541   141988280.178       -2752.097          44.000    27019464.989   108796251.135       -2108.729          49.000  
G21  21569641.090   113349271.266        1563.196          48.000                                                                  
G02  22546887.231   118484706.611        1822.386          45.000                                                                  
E10  28704020.631   150840822.559       -2356.475          42.000    28704022.193   115579441.300       -1805.463          44.000  
G08  20797325.505   109290700.317        -903.391          48.000    20797322.246    85161562.820        -703.933          46.000  
R02  22170815.336   118307525.691        3238.440          50.000    22170813.770    92017145.582        2518.714          49.000  
E05  24893116.675   130814142.573        2198.222          45.000    24893116.415   100234253.976        1684.478          49.000  
S31  39415430.848   207129594.410        -622.453          43.000  
G03  23860369.791   125387088.581        1850.302          40.000    23860367.381    97704248.101        1441.657          40.000  
E34  26610971.468   139841620.967        1070.957          42.000    26610971.709   107151369.242         820.429          46.000  
E36  24509831.956   128800100.404        -330.977          48.000    24509831.324    98691039.964        -253.493          51.000  
E04  27239495.807   143144528.776       -2388.743          40.000    27239496.872   109682172.788       -1830.130          48.000  
G10  23820863.454   125179551.376       -3774.410          47.000    23820860.233    97542512.585       -2941.080          44.000  
E11  25365282.681   133295676.575       -1901.234          39.000    25365279.980   102135751.918       -1456.798          45.000  
E09  24944725.882   131085438.738          46.821          48.000    24944725.258   100442075.364          35.840          50.000  
G32  22264598.396   117001262.834       -1438.451          50.000    22264593.270    91169818.934       -1120.788          42.000  
E30                                                                  27846370.693                3       -618.473          26.000  
> 2024 04 09 10 53 30.0020000  0 24                     
S33  40372767.037   212160480.732        -621.562          44.000  
G27  21837036.217   114754437.528       -3096.682          49.000    21837033.253    89419029.526       -2412.867          47.000  
R01  19773328.232   105699691.620        -274.144          49.000    19773324.519    82210944.422        -213.297          45.000  
R17  23822277.478                        2766.331          32.000    23822292.458                        2152.116          28.000  
R23  21546369.510   115258566.227       -2273.114          51.000                                                                  
R24  20531728.872   109792412.178         969.675          52.000    20531722.871    85394155.589         754.090          48.000  
R08  22264942.998   119227770.639       -4231.651          47.000    22264937.018    92732710.522       -3291.308          49.000  
E02  27035193.563   142070937.625       -2757.564          43.000    27035193.973   108859586.021       -2113.077          49.000  
G21  21560735.407   113302472.884        1557.257          48.000                                                                  
G02  22536496.710   118430101.199        1818.676          46.000                                                                  
E10  28717479.395   150911555.585       -2358.498          39.000    28717483.163   115633639.093       -1807.211          44.000  
G08  20802541.532   109318110.295        -923.297          49.000    20802538.336    85182921.201        -719.376          46.000  
R02  22152646.919   118210576.953        3225.442          50.000    22152644.725    91941740.949        2508.720          48.000  
E05  24880581.678   130748269.431        2193.822          45.000    24880581.530   100183779.715        1680.938          49.000  
S31  39418986.076   207148277.560        -622.362          42.000  
G03  23849831.653   125331707.641        1842.438          40.000    23849829.596    97661094.152        1435.397          41.000  
E34  26604856.785   139809492.837        1071.639          41.000    26604857.552   107126751.578         821.058          46.000  
E36  24511729.296   128810072.035        -333.266          48.000    24511728.883    98698680.535        -255.422          51.000  
E04  27253163.639   143216347.799       -2398.798          41.000    27253164.035   109737202.869       -1838.081          48.000  
G10  23842415.811   125292808.911       -3775.363          47.000    23842413.662    97630765.096       -2941.956          44.000  
E11  25376144.050   133352763.802       -1903.775          37.000    25376143.262   102179493.983       -1458.904          45.000  
E09  24944499.469   131084245.929          33.380          48.000    24944497.974   100441161.355          25.471          50.000  
G32  22272869.879   117044728.407       -1458.715          50.000    22272865.295    91203688.182       -1137.007          43.000  
E30                                                                  27851019.927                        -629.137          26.000  
> 2024 04 09 10 54 00.0020000  0 24                     
S33  40376315.160   212179128.020        -621.312          44.000  
G27  21854757.309   114847564.838       -3111.307          48.000    21854754.538    89491596.206       -2424.587          47.000  
R01  19774939.592   105708305.698        -299.762          49.000    19774935.769    82217644.243        -233.122          45.000  
R17  23806759.385                        2769.705          29.000    23806759.547                3       2150.569          17.000  
R23  21559156.897   115326969.660       -2286.670          49.000                                                                  
R24  20526319.951   109763486.703         959.021          52.000    20526313.723    85371657.957         745.879          48.000  
R08  22288685.979   119354910.699       -4243.827          47.000    22288679.087    92831597.142       -3300.797          49.000  
E02  27050953.779   142153758.063       -2763.330          44.000    27050954.228   108923045.799       -2117.286          49.000  
G21  21551862.418   113255847.306        1551.398          47.000                                                                  
G02  22526126.978   118375605.530        1814.742          46.000                                                                  
E10  28730951.293   150982349.085       -2360.649          41.000    28730955.303   115687883.225       -1808.764          45.000  
G08  20807869.550   109346110.995        -943.214          49.000    20807867.376    85204739.887        -734.966          47.000  
R02  22134549.909   118114007.546        3212.719          50.000    22134547.777    91866631.411        2498.739          49.000  
E05  24868071.413   130682530.342        2189.265          45.000    24868071.776   100133408.177        1677.364          49.000  
S31  39422538.630   207166946.862        -621.730          43.000  
G03  23839337.225   125276556.296        1834.785          41.000    23839334.074    97618119.071        1429.766          41.000  
E34  26598736.247   139777332.529        1072.700          41.000    26598737.750   107102109.275         821.779          46.000  
E36  24513639.127   128820111.936        -335.594          48.000    24513639.421    98706373.414        -257.236          51.000  
E04  27266889.606   143288477.588       -2409.564          41.000    27266890.037   109792471.032       -1846.295          48.000  
G10  23863972.991   125406091.055       -3776.252          46.000    23863969.139    97719036.761       -2942.618          42.000  
E11  25387025.419   133409934.760       -1907.127          39.000    25387022.604   102223300.180       -1461.296          45.000  
E09  24944349.365   131083456.832          19.653          48.000    24944347.947   100440556.665          15.101          49.000  
G32  22281255.650   117088797.042       -1478.961          50.000    22281251.464    91238027.345       -1152.740          42.000  
E30                                                                  27855743.842                1       -638.166          26.000  
> 2024 04 09 10 54 30.0020000  0 24                     
S33  40379862.471   212197768.663        -621.208          44.000  
G27  21872562.636   114941134.269       -3126.329          48.000    21872559.850    89564507.376       -2435.967          47.000  
R01  19776694.220   105717685.346        -325.451          50.000    19776690.813    82224939.486        -253.054          45.000  
R17  23791229.910                1       2771.701          28.000    23791253.674                3       2155.676          25.000  
R23  21572021.745   115395783.855       -2300.647          50.000                                                                  
R24  20520971.464   109734882.566         948.098          53.000    20520964.401    85349410.268         737.348          48.000  
R08  22312496.157   119482414.600       -4256.154          47.000    22312489.344    92930766.769       -3310.359          49.000  
E02  27066745.154   142236745.379       -2768.773          43.000    27066746.103   108986633.443       -2121.647          49.000  
G21  21543024.395   113209402.272        1545.209          47.000                                                                  
G02  22515778.625   118321226.994        1810.557          47.000                                                                  
E10  28744436.199   151053209.461       -2363.003          41.000    28744439.596   115742178.584       -1810.770          46.000  
G08  20813312.032   109374708.528        -963.324          49.000    20813309.489    85227023.627        -750.696          47.000  
R02  22116525.842   118017827.173        3199.553          51.000    22116523.807    91791824.423        2488.536          48.000  
E05  24855588.554   130616933.159        2184.369          44.000    24855589.278   100083145.350        1673.782          50.000  
S31  39426090.125   207185609.220        -621.837          43.000  
G03  23828886.767   125221640.887        1826.621          40.000    23828884.572    97575327.869        1423.281          42.000  
E34  26592612.580   139745146.183        1073.449          41.000    26592613.071   107077447.010         822.397          46.000  
E36  24515564.309   128830226.762        -338.319          48.000    24515564.142    98714123.693        -259.329          50.000  
E04  27280675.750   143360922.643       -2419.950          40.000    27280675.405   109847980.770       -1854.265          47.000  
G10  23885535.426   125519401.969       -3777.499          46.000    23885531.932    97807330.874       -2943.612          42.000  
E11  25397920.719   133467195.874       -1910.271          39.000    25397918.917   102267175.480       -1463.759          45.000  
E09  24944277.443   131083077.905           5.797          48.000    24944275.512   100440266.278           4.532          49.000  
G32  22289757.420   117133473.872       -1499.484          49.000    22289754.129    91272840.408       -1168.239          44.000  
E30                                                                  27860534.766                        -648.435          26.000  
> 2024 04 09 10 55 00.0020000  0 24                     
S33  40383408.600   212216402.753        -621.361          44.000  
G27  21890452.566   115035144.307       -3141.020          48.000    21890449.395    89637761.886       -2447.538          47.000  
R01  19778592.280   105727830.733        -351.058          49.000    19778589.277    82232830.359        -273.154          45.000  
R17  23775716.924                3       2773.550          23.000    23775684.831                3       2158.725          26.000  
R23  21584962.227   115465009.453       -2314.429          50.000                                                                  
R24  20515682.433   109706602.730         937.135          52.000    20515676.592    85327414.820         728.802          48.000  
R08  22336373.599   119610278.875       -4268.183          46.000    22336367.483    93030216.667       -3319.822          50.000  
E02  27082569.256   142319897.959       -2774.553          43.000    27082569.432   109050347.725       -2126.006          49.000  
G21  21534221.269   113163139.937        1538.861          48.000                                                                  
G02  22505453.773   118266967.559        1806.508          47.000                                                                  
E10  28757934.416   151124137.552       -2365.486          41.000    28757937.105   115796525.784       -1812.412          46.000  
G08  20818867.241   109403903.466        -983.258          49.000    20818864.538    85249772.894        -766.178          46.000  
R02  22098575.903   117922039.283        3186.234          51.000    22098572.912    91717322.697        2478.094          48.000  
E05  24843132.824   130551480.084        2179.256          45.000    24843133.926   100032992.973        1669.724          50.000  
S31  39429640.798   207204266.594        -622.119          43.000  
G03  23818481.536   125166962.260        1818.538          40.000    23818478.530    97532721.160        1417.288          40.000  
E34  26586481.951   139712934.356        1074.211          41.000    26586483.129   107052765.240         822.951          46.000  
E36  24517503.554   128840417.545        -341.033          48.000    24517503.575    98721932.175        -261.305          51.000  
E04  27294522.009   143433681.984       -2430.530          41.000    27294521.355   109903731.356       -1862.527          47.000  
G10  23907102.505   125632740.378       -3778.511          44.000    23907098.876    97895646.379       -2944.574          40.000  
E11  25408835.549   133524548.245       -1913.213          39.000    25408832.869   102311120.704       -1465.950          45.000  
E09  24944283.401   131083110.071          -8.069          49.000    24944281.565   100440290.888          -6.184          48.000  
G32  22298374.472   117178758.404       -1519.663          49.000    22298372.282    91308127.023       -1184.209          46.000  
E30                                                                  27865402.621                        -658.194          28.000  
> 2024 04 09 10 55 30.0020000  0 24                     
S33  40386953.758   212235033.341        -620.940          44.000  
G27  21908426.746   115129595.270       -3155.812          48.000    21908423.061    89711359.987       -2459.121          46.000  
R01  19780633.870   105738743.242        -376.561          49.000    19780630.498    82241317.842        -292.937          45.000  
R17  23760128.409                        2776.148          32.000    23760102.693    98890629.6101       2159.453          33.000  
R23  21597980.527   115534649.443       -2328.186          49.000                                                                  
R24  20510455.756   109678652.266         926.018          52.000    20510450.215    85305675.540         720.201          49.000  
R08  22360318.271   119738501.443       -4280.037          46.000    22360312.016    93129945.259       -3329.029          49.000  
E02  27098423.843   142403215.965       -2779.867          42.000    27098424.328   109114188.748       -2130.151          49.000  
G21  21525453.692   113117064.629        1532.581          47.000                                                                  
G02  22495151.852   118212830.815        1802.502          48.000                                                                  
E10  28771444.521   151195135.910       -2367.874          41.000    28771447.567   115850926.841       -1814.294          45.000  
G08  20824537.625   109433698.203       -1003.314          50.000    20824534.301    85272989.548        -781.791          47.000  
R02  22080700.634   117826649.724        3172.833          51.000    22080695.981    91643130.803        2467.777          46.000  
E05  24830705.434   130486175.217        2174.233          44.000    24830706.861    99982954.108        1666.001          49.000  
S31  39433190.153   207222919.379        -621.805          43.000  
G03  23808120.758   125112522.952        1810.714          39.000    23808119.502    97490300.949        1411.148          41.000  
E34  26580347.766   139680699.471        1074.756          41.000    26580348.872   107028065.789         823.533          45.000  
E36  24519458.196   128850687.184        -343.675          48.000    24519458.085    98729801.075        -263.327          51.000  
E04  27308426.440   143506756.437       -2441.016          39.000    27308426.767   109959723.365       -1870.513          47.000  
G10  23928675.511   125746106.777       -3779.439          43.000    23928672.244    97983983.714       -2944.899          42.000  
E11  25419767.449   133581994.516       -1916.277          40.000    25419765.086   102355137.876       -1468.376          46.000  
E09  24944368.491   131083556.044         -21.824          49.000    24944366.223   100440632.571         -16.686          48.000  
G32  22307108.020   117224651.989       -1540.032          49.000    22307105.851    91343888.199       -1200.075          45.000  
E30                                                                  27870343.723                        -668.219          27.000  
> 2024 04 09 10 56 00.0020000  0 24                     
S33  40390498.426   212253660.676        -620.620          44.000  
E30  27875355.102                3       -884.188          23.000    27875354.982                        -677.755          28.000  
G27  21926483.489   115224486.614       -3170.121          48.000    21926480.322    89785301.226       -2470.182          46.000  
R01  19782819.586   105750423.987        -401.907          50.000    19782815.270    82250402.842        -312.655          45.000  
R17  23744543.219   127062039.6201       2779.133          36.000    23744529.841    98825815.052        2161.555          37.000  
R23  21611075.256   115604705.676       -2342.023          48.000                                                                  
R24  20505290.490   109651035.455         915.203          51.000    20505285.703    85284195.772         711.790          49.000  
R08  22384329.581   119867079.380       -4291.499          45.000    22384323.457    93229950.224       -3337.902          50.000  
E02  27114310.576   142486698.760       -2785.274          42.000    27114310.566   109178156.028       -2134.055          49.000  
G21  21516721.646   113071179.390        1526.648          47.000                                                                  
G02  22484873.712   118158819.460        1798.639          46.000                                                                  
E10  28784968.467   151266206.382       -2369.918          41.000    28784971.887   115905383.152       -1815.837          45.000  
G08  20830321.883   109464094.196       -1022.936          49.000    20830319.049    85296674.706        -797.063          47.000  
R02  22062900.702   117731663.144        3159.707          51.000    22062896.219    91569252.309        2457.552          48.000  
E05  24818307.411   130421021.756        2169.541          44.000    24818308.969    99933031.274        1662.349          50.000  
S31  39436739.019   207241569.269        -621.487          43.000  
G03  23797807.332   125058324.822        1803.351          38.000    23797806.301    97448068.648        1404.500          41.000  
E34  26574210.221   139648443.045        1076.037          41.000    26574210.585   107003349.822         824.337          45.000  
E36  24521427.624   128861037.683        -346.113          48.000    24521427.865    98737731.953        -265.186          51.000  
E04  27322392.896   143580146.010       -2451.419          40.000    27322393.020   110015956.797       -1878.260          47.000  
G10  23950254.322   125859500.838       -3780.099          43.000    23950251.317    98072342.614       -2945.459          42.000  
E11  25430717.555   133639536.755       -1919.756          40.000    25430715.574   102399228.537       -1470.771          46.000  
E09  24944532.119   131084417.711         -35.421          48.000    24944530.401   100441292.781         -27.092          49.000  
G32  22315957.422   117271155.061       -1559.953          49.000    22315954.814    91380124.304       -1215.557          45.000  
> 2024 04 09 10 56 30.0020000  0 24                     
S33  40394041.982   212272282.650        -620.339          44.000  
G27  21944623.446   115319813.741       -3184.443          48.000    21944620.830    89859582.054       -2481.398          47.000  
R01  19785147.326   105762869.459        -427.255          49.000    19785143.770    82260082.631        -332.169          45.000  
R17  23728952.741   126978637.539        2781.924          32.000    23728946.834    98760946.765        2163.420          41.000  
R23  21624249.940   115675175.562       -2355.552          49.000                                                                  
R24  20500188.620   109623752.215         904.234          52.000    20500183.888    85262975.442         703.285          49.000  
R08  22408406.501   119996005.896       -4302.844          43.000    22408399.891    93330226.275       -3346.736          50.000  
E02  27130228.305   142570341.559       -2790.555          43.000    27130227.468   109242245.913       -2138.103          49.000  
G21  21508025.704   113025483.454        1520.374          47.000                                                                  
G02  22474619.785   118104932.286        1794.412          47.000                                                                  
E10  28798506.527   151337346.696       -2372.273          41.000    28798509.894   115959892.992       -1817.645          46.000  
G08  20836220.340   109495088.916       -1042.908          49.000    20836217.000    85320826.394        -812.641          47.000  
R02  22045176.070   117637080.444        3146.306          51.000    22045172.187    91495687.964        2447.167          48.000  
E05  24805937.715   130356018.892        2164.712          44.000    24805939.900    99883223.855        1658.560          51.000  
S31  39440287.239   207260214.381        -620.954          44.000  
G03  23787538.659   125004365.528        1794.530          38.000    23787538.846    97406022.386        1398.726          42.000  
E34  26568067.862   139616162.647        1076.739          42.000    26568068.019   106978615.491         824.961          45.000  
E36  24523412.266   128871467.085        -348.644          48.000    24523412.709    98745723.275        -267.113          51.000  
E04  27336419.221   143653846.543       -2461.728          41.000    27336417.687   110072428.519       -1886.206          47.000  
G10  23971835.431   125972918.217       -3780.612          42.000    23971834.451    98160719.692       -2945.915          43.000  
E11  25441685.611   133697172.833       -1922.829          40.000    25441682.994   102443391.145       -1473.113          46.000  
E09  24944774.333   131085692.875         -49.118          48.000    24944773.564   100442269.825         -37.622          49.000  
G32  22324921.933   117318264.003       -1580.077          48.000    22324918.861    91416832.467       -1231.192          45.000  
E30                                                                  27880441.688                        -686.917          27.000  
> 2024 04 09 10 57 00.0020000  0 24                     
S33  40397584.892   212290900.658        -620.331          44.000  
G27  21962846.108   115415574.731       -3199.146          47.000    21962843.066    89934200.940       -2492.700          46.000  
R01  19787618.042   105776079.040        -452.900          49.000    19787615.388    82270356.720        -352.342          46.000  
R17  23713327.818                1       2782.833          24.000    23713349.519    98696025.888        2165.162          39.000  
R23  21637501.363   115746060.221       -2369.558          49.000                                                                  
R24  20495149.949   109596805.275         892.726          52.000    20495144.999    85242016.693         694.286          50.000  
R08  22432546.967   120125276.754       -4314.587          43.000    22432540.988    93430770.143       -3355.729          49.000  
E02  27146174.330   142654142.368       -2795.742          43.000    27146174.124   109306456.883       -2142.294          49.000  
G21  21499366.664   112979978.813        1513.800          47.000                                                                  
G02  22464389.215   118051170.419        1790.013          47.000                                                                  
E10  28812057.988   151408557.265       -2374.621          43.000    28812061.566   116014456.668       -1819.426          47.000  
G08  20842231.933   109526682.440       -1062.901          49.000    20842228.991    85345444.674        -828.241          46.000  
R02  22027527.499   117542905.078        3132.611          51.000    22027523.445    91422440.422        2436.385          48.000  
E05  24793596.436   130291168.510        2159.182          44.000    24793599.050    99833533.266        1654.555          51.000  
S31  39443834.021   207278853.558        -621.173          44.000  
G03  23777313.952   124950645.412        1787.858          37.000    23777315.965    97364162.588        1392.440          41.000  
E34  26561920.564   139583858.502        1077.350          42.000    26561920.667   106953862.939         825.547          46.000  
E36  24525411.683   128881976.064        -351.470          49.000    24525412.498    98753775.590        -269.338          51.000  
E04  27350501.173   143727856.699       -2471.948          39.000    27350501.485   110129137.491       -1894.229          46.000  
G10  23993423.736   126086357.354       -3781.487          43.000    23993421.943    98249113.698       -2946.618          43.000  
E11  25452671.349   133754903.356       -1925.365          40.000    25452669.069   102487626.138       -1475.498          46.000  
E09  24945096.065   131087382.023         -63.034          49.000    24945095.302   100443564.082         -48.237          49.000  
G32  22334000.287   117365977.850       -1600.366          47.000    22333998.538    91454012.060       -1246.964          44.000  
E30                                                                  27885598.063                        -696.777          29.000  
> 2024 04 09 10 57 30.0020000  0 24                     
S33  40401126.540   212309511.202        -620.321          44.000  
G27  21981151.389   115511766.109       -3213.440          48.000    21981148.242    90009155.189       -2504.138          47.000  
R01  19790232.053   105790050.610        -478.355          49.000    19790229.683    82281223.475        -372.113          46.000  
R17  23697740.545                        2785.541          29.000    23697738.102    98631052.597        2166.438          38.000  
R23  21650829.656   115817358.021       -2383.450          49.000                                                                  
R24  20490173.646   109570195.735         881.357          52.000    20490168.589    85221320.352         685.431          50.000  
R08  22456750.620   120254886.094       -4325.800          41.000    22456744.766    93531577.303       -3364.574          49.000  
E02  27162150.500   142738097.613       -2801.036          42.000    27162150.351   109370786.176       -2146.259          48.000  
G21  21490743.951   112934665.597        1507.159          48.000                                                                  
G02  22454181.976   117997534.081        1785.792          47.000                                                                  
E10  28825622.217   151479836.983       -2376.999          44.000    28825626.266   116069073.312       -1821.284          48.000  
G08  20848357.840   109558873.261       -1083.092          49.000    20848354.565    85370528.384        -843.951          46.000  
R02  22009955.098   117449138.781        3118.715          51.000    22009952.427    91349511.037        2425.698          48.000  
E05  24781284.833   130226470.867        2154.143          44.000    24781287.281    99783959.710        1650.543          50.000  
S31  39447379.713   207297486.795        -620.833          44.000  
G03  23767137.753   124897163.409        1778.744          38.000    23767137.469    97322488.272        1385.990          40.000  
E34  26555768.512   139551529.272        1078.148          42.000    26555768.819   106929091.161         826.029          46.000  
E36  24527426.434   128892563.785        -354.132          48.000    24527427.322    98761888.227        -271.419          51.000  
E04  27364644.134   143802173.510       -2482.341          40.000    27364643.481   110186081.400       -1902.042          46.000  
G10  24015013.898   126199815.012       -3782.283          40.000    24015012.734    98337522.159       -2947.268          44.000  
E11  25463674.497   133812727.355       -1928.718          40.000    25463672.442   102531932.717       -1477.944          46.000  
E09  24945497.185   131089484.056         -76.915          49.000    24945495.501   100445174.692         -58.910          50.000  
G32  22343194.549   117414294.065       -1620.436          48.000    22343193.483    91491661.028       -1262.844          45.000  
E30                                                                  27890827.719                        -706.707          29.000  
> 2024 04 09 10 58 00.0020000  0 24                     
S33  40404666.552   212328114.366        -620.276          44.000  
E30  27896134.738                3       -934.578          25.000    27896128.799                        -716.259          27.000  
G27  21999537.943   115608385.951       -3228.071          48.000    21999533.996    90084443.317       -2515.414          46.000  
R01  19792988.243   105804783.368        -504.039          49.000    19792985.469    82292682.266        -392.073          46.000  
R17  23682107.810                3       2785.110          22.000    23682113.990    98566028.313        2168.696          36.000  
R23  21664235.622   115889069.692       -2397.573          49.000                                                                  
R24  20485261.392   109543926.529         869.603          52.000    20485256.023    85200888.733         676.373          49.000  
R08  22481016.306   120384830.324       -4337.165          43.000    22481010.832    93632644.934       -3373.536          48.000  
E02  27178155.412   142822205.336       -2806.349          42.000    27178155.531   109435232.298       -2150.317          48.000  
G21  21482157.775   112889546.164        1500.446          47.000                                                                  
G02  22443999.074   117944025.022        1781.091          46.000                                                                  
E10  28839200.437   151551186.366       -2379.683          45.000    28839203.818   116123743.353       -1823.438          48.000  
G08  20854597.085   109591661.551       -1103.184          49.000    20854594.400    85396077.674        -859.809          47.000  
R02  21992461.307   117355784.916        3104.560          52.000    21992457.475    91276902.446        2414.675          48.000  
E05  24769003.718   130161927.944        2148.740          45.000    24769005.163    99734504.704        1646.363          50.000  
S31  39450924.572   207316113.007        -620.969          44.000  
G03  23757007.725   124843919.909        1770.255          41.000    23757005.877    97280999.798        1379.735          40.000  
E34  26549612.228   139519175.310        1078.604          43.000    26549612.235   106904300.427         826.491          46.000  
E36  24529456.729   128903231.083        -357.153          49.000    24529457.181    98770061.831        -273.744          51.000  
E04  27378845.699   143876795.630       -2492.624          41.000    27378843.297   110243259.276       -1910.016          46.000  
G10  24036607.575   126313289.651       -3783.108          41.000    24036606.587    98425943.788       -2947.773          44.000  
E11  25474695.309   133870645.540       -1932.630          40.000    25474693.708   102576311.486       -1480.710          45.000  
E09  24945975.469   131091999.522         -91.068          49.000    24945974.091   100447102.090         -69.708          50.000  
G32  22352504.512   117463211.768       -1640.892          48.000    22352501.427    91529778.644       -1278.703          44.000  
> 2024 04 09 10 58 30.0020000  0 24                     
S33  40408206.799   212346719.058        -619.981          44.000  
E30  27901507.657                3       -949.141          24.000    27901502.607                        -726.321          26.000  
G27  22018006.237   115705439.833       -3242.306          47.000    22018003.001    90160069.635       -2526.512          46.000  
R01  19795887.616   105820284.265        -529.247          48.000    19795884.388    82304738.490        -411.601          45.000  
R17  23666507.055                1       2789.703          28.000    23666479.880    98500960.760        2169.375          35.000  
R23  21677720.000   115961203.362       -2411.345          49.000                                                                  
R24  20480414.383   109518008.150         858.210          52.000    20480408.393    85180729.991         667.594          49.000  
R08  22505344.572   120515112.519       -4348.024          44.000    22505339.445    93733975.459       -3381.912          47.000  
E02  27194191.217   142906470.996       -2811.244          43.000    27194190.907   109499799.454       -2154.132          49.000  
G21  21473610.946   112844629.723        1493.994          46.000                                                                  
G02  22433842.430   117890651.931        1776.862          46.000                                                                  
E10  28852792.623   151622613.383       -2382.149          45.000    28852795.786   116178472.843       -1825.210          47.000  
G08  20860951.914   109625054.775       -1123.008          50.000    20860949.626    85422098.303        -874.959          47.000  
R02  21975045.516   117262854.502        3090.699          51.000    21975042.572    91204623.192        2403.821          50.000  
E05  24756753.406   130097549.117        2143.224          46.000    24756753.860    99685175.418        1642.249          50.000  
S31  39454468.705   207334740.080        -620.653          44.000  
G03  23746924.402   124790922.764        1762.806          42.000    23746921.135    97239703.334        1373.280          40.000  
E34  26543452.354   139486804.310        1079.414          43.000    26543452.368   106879496.635         827.181          47.000  
E36  24531503.778   128913986.131        -359.829          49.000    24531503.667    98778302.672        -275.731          51.000  
E04  27393105.517   143951729.186       -2502.933          41.000    27393103.076   110300675.758       -1917.793          46.000  
G10  24058206.212   126426787.170       -3783.539          40.000    24058203.349    98514383.282       -2948.280          42.000  
E11  25485737.730   133928666.033       -1935.715          40.000    25485735.442   102620768.632       -1483.349          46.000  
E09  24946533.213   131094936.353        -104.833          48.000    24946532.923   100449352.348         -80.354          50.000  
G32  22361929.437   117512737.381       -1660.892          48.000    22361925.802    91568369.968       -1294.162          44.000  
> 2024 04 09 10 59 00.0020000  0 24                     
S33  40411747.349   212365323.165        -620.052          44.000  
E30  27906951.514                3       -960.234          25.000    27906947.896                3       -736.531          25.000  
G27  22036557.107   115802924.036       -3256.283          47.000    22036553.712    90236031.284       -2537.291          46.000  
R01  19798930.728   105836550.725        -554.547          48.000    19798926.755    82317390.186        -431.382          44.000  
R17  23650856.235   126560425.7831       2792.000          35.000    23650834.386    98435849.629        2171.382          33.000  
R23  21691282.791   116033757.459       -2425.157          49.000                                                                  
R24  20475633.518   109492441.505         846.640          52.000    20475627.135    85160844.809         658.417          49.000  
R08  22529736.195   120645726.967       -4358.925          44.000    22529732.147    93835564.405       -3390.379          48.000  
E02  27210256.122   142990890.868       -2816.110          43.000    27210255.612   109564484.749       -2157.870          49.000  
G21  21465102.436   112799916.215        1487.347          47.000                                                                  
G02  22423712.165   117837414.510        1772.598          48.000                                                                  
E10  28866398.519   151694116.715       -2384.239          44.000    28866402.482   116233260.815       -1826.937          46.000  
G08  20867421.059   109659051.284       -1143.090          50.000    20867419.402    85448589.052        -890.759          48.000  
R02  21957710.305   117170348.939        3076.777          51.000    21957706.404    91132674.386        2392.885          49.000  
E05  24744534.871   130033334.536        2138.076          46.000    24744534.212    99635971.979        1638.261          49.000  
S31  39458013.363   207353366.767        -620.417          44.000  
G03  23736886.015   124738170.685        1754.738          43.000    23736882.192    97198597.828        1367.222          39.000  
E34  26537288.431   139454414.839        1080.291          42.000    26537288.908   106854678.705         827.733          47.000  
E36  24533567.322   128924827.976        -362.524          49.000    24533566.815    98786610.027        -277.836          51.000  
E04  27407423.230   144026971.078       -2512.755          39.000    27407421.034   110358328.506       -1925.431          46.000  
G10  24079806.303   126540304.301       -3783.954          39.000    24079805.450    98602838.075       -2948.622          43.000  
E11  25496797.128   133986787.595       -1938.456          40.000    25496795.658   102665303.220       -1485.499          46.000  
E09  24947172.445   131098293.315        -118.503          48.000    24947171.709   100451924.513         -90.833          50.000  
G32  22371468.860   117562868.165       -1680.824          48.000    22371465.790    91607432.849       -1309.627          45.000  
> 2024 04 09 10 59 30.0020000  0 24                     
S33  40415285.241   212383916.481        -619.657          44.000  
E30  27912469.261                3       -972.462          24.000    27912467.339                        -745.262          28.000  
G27  22055187.059   115900826.947       -3270.548          47.000    22055183.714    90312319.216       -2548.390          46.000  
R01  19802115.150   105853572.033        -580.123          48.000    19802110.377    82330628.931        -451.126          44.000  
R17  23635194.324   126476647.934        2793.392          39.000    23635177.152    98370689.139        2172.267          32.000  
R23  21704922.743   116106722.855       -2439.210          49.000                                                                  
R24  20470916.803   109467219.617         834.822          53.000    20470910.538    85141227.758         649.269          49.000  
R08  22554188.547   120776659.846       -4369.901          46.000    22554183.186    93937400.986       -3398.715          48.000  
E02  27226347.624   143075453.319       -2821.307          43.000    27226347.646   109629279.298       -2161.763          48.000  
G21  21456631.179   112755398.251        1480.438          48.000                                                                  
G02  22413605.787   117784304.971        1768.082          49.000                                                                  
E10  28880017.338   151765687.151       -2386.781          42.000    28880022.325   116288100.236       -1828.937          46.000  
G08  20874003.056   109693641.349       -1163.115          49.000    20874001.390    85475542.326        -906.365          48.000  
R02  21940453.065   117078262.304        3062.346          51.000    21940449.380    91061051.419        2381.863          49.000  
E05  24732344.392   129969276.399        2132.648          45.000    24732344.474    99586888.440        1633.907          49.000  
S31  39461555.988   207371982.587        -620.477          44.000  
G03  23726892.380   124685654.362        1746.470          42.000    23726888.517    97157675.975        1360.958          40.000  
E34  26531120.107   139421997.512        1080.907          42.000    26531120.313   106829839.450         828.146          47.000  
E36  24535645.099   128935747.710        -365.480          49.000    24535644.690    98794977.051        -280.056          51.000  
E04  27421797.639   144102510.223       -2522.997          39.000    27421795.739   110416209.029       -1933.124          45.000  
G10  24101409.856   126653829.810       -3784.493          39.000    24101408.395    98691299.368       -2948.970          42.000  
E11  25507874.869   134045001.362       -1942.108          40.000    25507872.898   102709908.457       -1488.041          45.000  
E09  24947889.344   131102061.198        -132.505          48.000    24947889.040   100454811.543        -101.517          50.000  
G32  22381121.415   117613593.420       -1700.907          47.000    22381118.684    91646958.969       -1325.438          44.000  
