     3.00           OBSERVATION DATA    M: Mixed            RINEX VERSION / TYPE
CONVBIN 2.4.3                           20240409 024442 UTC PGM / RUN BY / DATE 
format: u-blox UBX                                          COMMENT             
log: data/2024-04-09/20240409023000.ubx                     COMMENT             
AQUI00CHL                                                   MARKER NAME         
                                                            MARKER NUMBER       
                                                            MARKER TYPE         
                                                            OBSERVER / AGENCY   
UNKNOWN             UBLOX-ZED-F9P                           REC # / TYPE / VERS 
UNKNOWN             TWIVSP6037L                             ANT # / TYPE        
  1713381.0000 -5047934.0000 -3490983.0000                  APPROX POSITION XYZ 
        0.0000        0.0000        0.0000                  ANTENNA: DELTA H/E/N
G    8 C1C L1C D1C S1C C2L L2L D2L S2L                      SYS / # / OBS TYPES 
R    8 C1C L1C D1C S1C C2C L2C D2C S2C                      SYS / # / OBS TYPES 
E    8 C1C L1C D1C S1C C7Q L7Q D7Q S7Q                      SYS / # / OBS TYPES 
S    4 C1C L1C D1C S1C                                      SYS / # / OBS TYPES 
  2024    04    09    02    30   00.0100000     GPS         TIME OF FIRST OBS   
  2024    04    09    02    44   30.0100000     GPS         TIME OF LAST OBS    
                                                            END OF HEADER       
> 2024 04 09 02 30 00.0100000  0 25                     
S33  42759354.317   224702043.6071       -729.946          44.000  
E26  29338171.963   154173228.2401      -2243.132          41.000    29338171.737   118132786.3581      -1718.639          49.000  
G24  25075035.594   131770295.1481      -3619.534          46.000    25075034.125   102678231.0061      -2820.562          44.000  
E09  29089022.288   152863768.0231      -2737.624          45.000    29089023.617   117129487.3501      -2097.648          47.000  
E05  28547980.086   150020743.2471       -547.235          38.000    28547980.897   114950920.0321       -419.160          45.000  
R16  27102368.022   144776423.2911      -3645.253          39.000    27102368.046   112604064.7761      -2835.606          39.000  
R09  23215364.428   123969060.9271      -1736.583          52.000    23215359.634    96420470.0611      -1350.625          50.000  
R19  24778072.620   132546323.5941      -4151.741          41.000    24778066.781   103091740.6391      -3228.667          47.000  
G28  26582813.140   139693712.7241       2460.491          37.000    26582808.048   108852152.1081       1917.468          37.000  
G32  26446915.272   138979413.2991      -1979.785          47.000    26446912.800   108295648.3811      -1542.688          42.000  
E12  29412839.281   154565665.2861       2250.067          42.000    29412839.783   118433578.4881       1723.976          44.000  
E31  26802205.557   140846884.7101       -563.614          48.000    26802205.200   107921713.0681       -431.852          50.000  
G12  24409047.482   128270758.2981      -1359.296          47.000    24409042.694    99951425.5511      -1059.089          48.000  
R20  22459789.902   120102918.2311        564.591          40.000    22459787.044    93413452.9591        439.004          45.000  
R10  23146456.687   123383647.7071        996.158          47.000                                                                  
R21  25585474.106   136913353.1411       3579.694          49.000    25585476.346   106487952.4761       2784.023          47.000  
E24  29041989.753   152616688.9961        846.770          44.000    29041989.211   116940096.2751        648.829          47.000  
S31  41805378.826   219688829.1831       -728.849          44.000  
G29  24252294.741   127446991.1631        915.850          49.000    24252291.217    99309479.1491        713.697          45.000  
G25  24002463.288   126134009.2791        213.327          49.000    24002460.608    98286342.7461        166.333          45.000  
G06  27438739.977   144191526.7131      -3368.405          31.000    27438739.471   112357079.5871      -2624.564          38.000  
G20  28085743.318   147591585.8081       1278.636          36.000                                                                  
E33  27458581.550   144296094.4571        217.889          47.000    27458579.612   110564731.1231        166.984          48.000  
E04  30721189.550   161440754.3461      -3492.267          39.000    30721205.423   123701403.2371      -2675.627          48.000  
G11  25521186.844   134114979.8501      -1561.023          47.000    25521181.732   104505409.2201      -1216.323          42.000  
> 2024 04 09 02 30 30.0100000  0 25                     
S33  42763517.999   224723923.371        -729.271          44.000  
E26  29351009.636   154240687.610       -2254.572          42.000    29351009.265   118184475.987       -1727.615          49.000  
G24  25095730.365   131879046.453       -3630.812          46.000    25095729.243   102762972.209       -2829.059          44.000  
E09  29104670.618   152945995.843       -2744.539          45.000    29104671.453   117192493.029       -2102.965          48.000  
E05  28551137.660   150037336.694        -559.717          39.000    28551137.798   114963634.481        -428.627          45.000  
R16  27122856.717   144885869.021       -3651.886          35.000    27122857.702   112689188.953       -2840.061          35.000  
R09  23225154.510   124021340.833       -1749.180          51.000    23225149.393    96461132.235       -1360.478          50.000  
R19  24801392.561   132671073.352       -4165.882          39.000    24801387.138   103188768.235       -3239.995          46.000  
G28  26568781.590   139619980.095        2454.804          38.000    26568777.141   108794698.155        1912.621          38.000  
G32  26458257.598   139039018.058       -1994.186          46.000    26458255.302   108342093.609       -1554.014          42.000  
E12  29400002.063   154498201.217        2247.181          42.000    29400000.924   118381885.617        1721.866          44.000  
E31  26805426.830   140863812.902        -565.282          48.000    26805426.356   107934684.038        -433.187          50.000  
G12  24416818.288   128311595.286       -1363.593          47.000    24416813.363    99983246.583       -1062.561          47.000  
R20  22456693.340   120086363.020         539.038          39.000    22456691.366    93400576.709         418.984          45.000  
R10  23140871.285   123353877.363         988.260          48.000                                                                  
R21  25565425.200   136806064.944        3572.460          50.000    25565425.812   106404507.179        2778.589          46.000  
E24  29037152.888   152591268.023         847.621          45.000    29037151.517   116920617.880         649.386          47.000  
S31  41809537.232   219710679.500        -728.154          44.000  
G29  24247102.329   127419704.488         902.858          49.000    24247099.064    99288216.840         703.581          45.000  
G25  24001254.224   126127655.734         209.867          48.000    24001251.626    98281391.938         163.510          46.000  
G06  27457999.715                       -3380.738          30.000    27458002.131   112435957.322       -2634.231          38.000  
G20  28078454.030   147553278.755        1275.280          37.000                                                                  
E33  27457374.046   144289752.117         204.590          47.000    27457372.807   110559871.439         156.726          48.000  
E04  30741112.793   161545449.890       -3488.061          38.000    30741128.482   123781624.202       -2672.652          47.000  
G11  25530149.736   134162081.573       -1579.526          47.000    25530144.060   104542111.906       -1230.444          42.000  
> 2024 04 09 02 31 00.0100000  0 25                     
S33  42767677.577   224745781.137        -728.338          45.000  
E26  29363912.255   154308495.397       -2266.230          41.000    29363911.422   118236432.559       -1736.352          47.000  
G24  25116488.524   131988128.920       -3641.792          47.000    25116487.397   102847971.451       -2837.671          44.000  
E09  29120357.500   153028430.842       -2751.430          45.000    29120358.486   117255657.462       -2108.164          48.000  
E05  28554366.589   150054310.183        -572.438          38.000    28554367.437   114976640.140        -438.430          44.000  
R16  27143379.415   144995505.060       -3657.253          32.000    27143382.889                       -2845.762          32.000  
R09  23235016.770   124074001.282       -1761.794          52.000    23235011.890    96502090.350       -1370.327          50.000  
R19  24824793.784   132796256.510       -4180.064          40.000    24824789.245   103286132.905       -3251.199          47.000  
G28  26554786.230   139546427.108        2448.711          39.000    26554780.903   108737384.126        1908.075          39.000  
G32  26469680.665   139099045.810       -2007.953          46.000    26469677.721   108388868.404       -1564.520          42.000  
E12  29387179.399   154430821.737        2244.361          42.000    29387178.671   118330257.563        1719.672          45.000  
E31  26808658.057   140880792.950        -567.108          48.000    26808657.536   107947694.723        -434.517          50.000  
G12  24424614.202   128352560.943       -1367.770          48.000    24424608.832   100015167.867       -1065.693          47.000  
R20  22453742.043   120070580.530         513.036          40.000    22453740.082    93388301.450         399.074          45.000  
R10  23135330.943   123324343.782         980.301          47.000                                                                  
R21  25545415.798   136698995.223        3565.178          49.000    25545416.936   106321231.854        2773.037          47.000  
E24  29032312.053   152565825.208         848.233          45.000    29032310.095   116901122.750         649.978          47.000  
S31  41813690.408   219732507.818        -727.474          44.000  
G29  24241984.756   127392811.612         889.769          49.000    24241980.765    99267261.392         693.233          45.000  
G25  24000065.879   126121410.675         206.271          47.000    24000063.373    98276525.668         160.706          45.000  
G20  28071185.495   147515083.722        1271.779          39.000                                                                  
E33  27456243.908   144283809.917         191.222          47.000    27456242.303   110555318.342         146.512          48.000  
E04  30761014.608   161650033.056       -3484.588          38.000    30761030.200   123861759.014       -2669.832          47.000  
G11  25539218.505   134209736.481       -1597.877          47.000    25539215.033   104579245.603       -1245.045          44.000  
G06                                                                  27477333.366   112515116.337       -2643.597          37.000  
> 2024 04 09 02 31 30.0100000  0 25                     
S33  42771816.841   224767533.159        -722.321          45.000  
E26  29376866.100   154376565.929       -2272.672          41.000    29376865.237   118288590.486       -1741.286          47.000  
G24  25137293.796   132097456.102       -3647.550          47.000    25137291.044   102933161.425       -2842.339          43.000  
E09  29136066.147   153110986.688       -2753.145          43.000    29136068.337   117318914.485       -2109.531          49.000  
E05  28557653.011   150071579.104        -579.882          38.000    28557653.933   114989872.172        -444.274          44.000  
R16  27163923.768                       -3659.061          27.000    27163926.569                       -2846.083          30.000  
R09  23244933.412   124126957.231       -1769.500          52.000    23244928.986    96543278.297       -1376.312          51.000  
R19  24848259.855   132921782.635       -4189.082          39.000    24848254.384   103383764.331       -3258.238          47.000  
G28  26540808.147   139472971.860        2447.576          39.000    26540803.442   108680146.276        1907.089          40.000  
G32  26481167.938   139159409.856       -2017.043          46.000    26481165.373   108435905.298       -1571.664          43.000  
E12  29374357.575   154363444.476        2246.480          42.000    29374357.124   118278631.199        1721.357          45.000  
E31  26811882.900   140897740.873        -563.588          48.000    26811882.399   107960680.792        -431.888          50.000  
G12  24432417.900   128393571.262       -1367.211          47.000    24432412.754   100047123.948       -1065.179          47.000  
R20  22450919.166   120055486.412         492.428          39.000    22450916.753    93376561.592         383.137          44.000  
R10  23129820.012   123294963.622         977.406          48.000                                                                  
R21  25525431.991   136592061.582        3562.750          48.000    25525432.865   106238062.361        2771.057          46.000  
E24  29027450.223   152540276.132         854.094          45.000    29027448.423   116881546.220         654.487          47.000  
S31  41817824.075   219754229.716        -721.469          44.000  
G29  24236926.323   127366228.219         881.704          48.000    24236921.753    99246547.087         686.907          44.000  
G25  23998881.745   126115190.421         207.447          47.000    23998879.482    98271678.735         161.639          45.000  
G20  28063922.674   147476919.159        1272.290          39.000                                                                  
E33  27455173.542   144278184.256         182.951          48.000    27455172.142   110551007.793         140.222          49.000  
E04  30780879.132   161754417.512       -3475.421          40.000    30780893.972   123941741.600       -2662.948          48.000  
G11  25548375.856   134257859.462       -1611.087          46.000    25548370.637   104616744.045       -1255.425          44.000  
G06                                                                  27496716.042   112594488.882       -2648.846          38.000  
> 2024 04 09 02 32 00.0100000  0 25                     
S33  42775940.555   224789204.406        -722.319          45.000  
E26  29389874.828   154444924.405       -2284.314          43.000    29389873.626   118340969.045       -1750.378          48.000  
G24  25158148.997   132207052.459       -3658.923          47.000    25158146.770   103018561.100       -2851.219          43.000  
E09  29151804.417   153193687.926       -2760.226          43.000    29151806.145   117382282.913       -2115.187          49.000  
E05  28560999.322   150089169.783        -592.748          39.000    28561001.450   115003350.759        -454.272          45.000  
R16  27184488.873                3      -3665.358          26.000    27184492.622                3      -2849.720          26.000  
R09  23254911.608   124180237.121       -1782.553          53.000    23254905.610    96584718.202       -1386.428          50.000  
R19  24871793.921   133047674.566       -4203.545          38.000    24871788.288   103481680.252       -3269.568          46.000  
G28  26526854.627   139399643.461        2441.052          41.000    26526849.136   108623007.324        1901.710          41.000  
G32  26492722.506   139220134.469       -2031.416          44.000    26492721.455   108483223.135       -1582.851          44.000  
E12  29361541.437   154296098.075        2243.114          41.000    29361541.667   118227028.483        1718.689          46.000  
E31  26815107.154   140914683.579        -565.828          48.000    26815106.416   107973662.857        -433.614          50.000  
G12  24440235.514   128434653.390       -1371.788          46.000    24440230.475   100079135.987       -1069.054          47.000  
R20  22448229.806   120041108.231         466.248          39.000    22448228.392    93365378.588         362.554          45.000  
R10  23124343.378   123265766.430         968.949          48.000                                                                  
R21  25505479.398   136485295.268        3554.782          47.000    25505480.114   106155022.911        2764.843          46.000  
E24  29022572.757   152514647.290         854.422          45.000    29022571.801   116861908.576         654.567          48.000  
S31  41821942.750   219775872.442        -721.466          44.000  
G29  24231931.593   127339981.200         868.183          48.000    24231926.422    99226094.889         676.552          44.000  
G25  23997708.210   126109022.287         203.489          47.000    23997705.433    98266872.400         158.511          45.000  
G20  28056672.006   147438814.698        1267.607          40.000                                                                  
E33  27454168.353   144272902.623         169.161          48.000    27454167.074   110546960.857         129.557          49.000  
E04  30800709.898   161858628.073       -3471.797          40.000    30800724.857   124021590.957       -2660.214          47.000  
G11  25557627.707   134306476.473       -1629.927          46.000    25557623.997   104654627.423       -1270.137          46.000  
G06                                                                  27516156.529   112674093.746       -2657.942          36.000  
> 2024 04 09 02 32 30.0100000  0 25                     
S33  42780063.377   224810869.273        -722.906          45.000  
E26  29402949.981   154513642.230       -2297.403          41.000    29402950.524   118393622.928       -1760.233          48.000  
G24  25179068.071   132316988.469       -3670.843          46.000    25179067.133   103104225.426       -2860.231          44.000  
E09  29167582.418   153276605.167       -2768.082          42.000    29167585.107   117445816.826       -2121.009          49.000  
E05  28564421.153   150107154.628        -606.703          38.000    28564423.862   115017131.357        -464.969          45.000  
R16  27205096.810                3      -3672.777          26.000    27205098.456                1      -2857.535          27.000  
R09  23264963.627   124233915.112       -1796.566          52.000    23264958.103    96626467.741       -1397.316          50.000  
R19  24895409.220   133174002.016       -4218.364          36.000    24895404.043   103579934.924       -3281.165          47.000  
G28  26512939.319   139326517.068        2433.630          42.000    26512933.090   108566025.728        1895.969          41.000  
G32  26504359.026   139281289.933       -2046.333          44.000    26504358.796   108530876.723       -1594.748          44.000  
E12  29348745.260   154228856.944        2238.919          42.000    29348746.343   118175506.416        1715.503          47.000  
E31  26818343.701   140931694.027        -568.868          49.000    26818343.185   107986696.835        -435.802          50.000  
G12  24448080.827   128475880.361       -1377.264          45.000    24448075.924   100111260.887       -1073.258          47.000  
R20  22445689.157   120027521.306         439.076          40.000    22445688.073    93354810.978         341.596          45.000  
R10  23118914.931   123236828.636         959.636          48.000                                                                  
R21  25485571.662   136378773.208        3546.012          46.000    25485573.302   106072173.493        2757.924          46.000  
E24  29017694.518   152489011.266         853.896          46.000    29017693.452   116842265.419         654.403          48.000  
S31  41826059.820   219797507.918        -721.743          44.000  
G29  24227015.107   127314143.162         853.784          48.000    24227009.493    99205961.383         665.238          44.000  
G25  23996558.161   126102979.524         198.648          48.000    23996555.294    98262163.772         154.938          45.000  
G06  27535661.634                3      -3424.646          26.000    27535666.046   112753985.500       -2667.969          36.000  
G20  28049447.712   147400845.776        1262.908          39.000                                                                  
E33  27453242.822   144268038.367         154.521          48.000    27453241.483   110543233.724         118.367          49.000  
E04  30820521.215   161962735.566       -3469.241          39.000    30820536.163   124101361.345       -2658.184          45.000  
G11  25566987.089   134355659.250       -1649.409          46.000    25566982.558   104692951.680       -1285.475          46.000  
> 2024 04 09 02 33 00.0100000  0 26                     
S33  42784187.609   224832543.377        -722.782          45.000  
E26  29416097.663   154582734.077       -2309.301          42.000    29416097.397   118446563.439       -1769.461          47.000  
G24  25200056.365   132427278.130       -3682.369          47.000    25200054.501   103190165.329       -2869.407          44.000  
E09  29183404.331   153359752.507       -2775.652          42.000    29183406.896   117509527.049       -2126.755          49.000  
E05  28567922.637   150125549.491        -620.006          38.000    28567924.124   115031226.104        -475.281          45.000  
R11  26453106.607                2       2540.484          28.000                                                                  
R16  27225746.193                3      -3668.627          17.000    27225745.436                3      -2862.277          25.000  
R09  23275093.477   124288008.614       -1810.249          52.000    23275087.715    96668540.460       -1407.885          50.000  
R19  24919108.244   133300776.930       -4233.488          34.000    24919103.892   103678537.593       -3292.684          47.000  
G28  26499065.645   139253611.359        2426.416          43.000    26499059.165   108509216.113        1890.797          41.000  
G32  26516081.423   139342890.051       -2060.815          43.000    26516080.878   108578876.734       -1605.947          44.000  
E12  29335974.191   154161739.377        2234.836          43.000    29335974.236   118124078.996        1712.640          47.000  
E31  26821596.735   140948788.739        -571.400          48.000    26821596.095   107999795.382        -437.781          49.000  
G12  24455956.266   128517268.613       -1382.476          46.000    24455951.747   100143511.476       -1077.157          47.000  
R20  22443300.050   120014742.948         412.311          41.000    22443298.247    93344872.287         320.708          45.000  
R10  23113538.245   123208168.649         950.488          48.000                                                                  
R21  25465714.486   136272516.167        3537.362          49.000    25465715.560   105989530.105        2751.281          46.000  
E24  29012817.906   152463384.161         853.821          46.000    29012816.839   116822629.102         654.203          48.000  
S31  41830178.551   219819151.568        -721.492          44.000  
G29  24222179.083   127288730.384         839.844          48.000    24222174.121    99186159.249         654.314          44.000  
G25  23995435.617   126097079.071         194.071          48.000    23995432.250    98257566.036         151.381          45.000  
G20  28042251.627   147363031.383        1257.660          41.000                                                                  
E33  27452399.920   144263608.440         140.260          48.000    27452398.630   110539839.381         107.464          50.000  
E04  30840316.361   162066754.288       -3465.680          37.000    30840330.590   124181063.734       -2655.701          43.000  
G11  25576456.106   134405423.232       -1668.680          46.000    25576451.399   104731728.828       -1300.183          46.000  
G06                                                                  27555249.268   112834174.797       -2677.538          35.000  
> 2024 04 09 02 33 30.0100000  0 26                     
S33  42788315.612   224854235.171        -723.728          45.000  
E26  29429318.665   154652208.810       -2322.540          42.000    29429318.156   118499797.300       -1779.455          47.000  
G24  25221112.394   132537929.276       -3694.700          47.000    25221110.488   103276386.911       -2878.982          44.000  
E09  29199273.118   153443137.932       -2783.677          42.000    29199274.299   117573419.698       -2132.983          48.000  
E05  28571503.678   150144364.111        -634.237          39.000    28571504.334   115045642.488        -486.308          44.000  
R11  26438796.108                3       2542.803          26.000                                                                  
R16  27246442.050                3      -3698.582          19.000                                                                  
R09  23285302.809   124342529.112       -1824.813          52.000    23285298.429    96710945.266       -1419.284          51.000  
R19  24942891.467   133428005.183       -4249.000          33.000    24942887.653   103777492.847       -3304.474          46.000  
G28  26485236.141   139180938.889        2418.520          43.000    26485229.699   108452588.291        1884.055          40.000  
G32  26527889.995   139404942.365       -2076.309          44.000    26527889.269   108627229.178       -1617.842          43.000  
E12  29323227.524   154094757.134        2230.321          42.000    29323227.275   118072755.287        1708.864          47.000  
E31  26824867.412   140965978.063        -574.861          48.000    26824867.143   108012966.440        -440.482          49.000  
G12  24463865.532   128558828.664       -1388.478          46.000    24463860.299   100175895.935       -1081.925          47.000  
R20  22441063.919   120002785.418         384.722          40.000    22441061.707    93335572.032         299.283          44.000  
R10  23108215.976   123179799.313         940.620          47.000                                                                  
R21  25445909.023   136166537.603        3527.772          49.000    25445909.093   105907103.295        2743.571          44.000  
E24  29007944.539   152437775.919         852.992          45.000    29007943.596   116803007.218         653.619          48.000  
S31  41834300.929   219840815.465        -722.889          44.000  
G29  24217425.895   127263752.789         825.076          48.000    24217420.561    99166696.205         643.057          43.000  
G25  23994342.153   126091331.599         188.836          48.000    23994338.831    98253087.524         146.916          45.000  
G20  28035087.265   147325384.625        1251.714          41.000                                                                  
E33  27451640.897   144259623.555         125.101          47.000    27451640.323   110536786.047          95.932          50.000  
E04  30860096.065   162170692.489       -3463.308          34.000    30860109.898   124260704.386       -2654.026          41.000  
G11  25586039.609   134455777.659       -1688.735          46.000    25586034.560   104770966.022       -1315.836          46.000  
G06                                                                  27574906.900   112914667.518       -2688.403          35.000  
> 2024 04 09 02 34 00.0100000  0 26                     
S33  42792449.103   224875956.585        -724.911          45.000  
E26  29442614.269   154722074.241       -2335.496          43.000    29442613.064   118553330.565       -1789.599          46.000  
G24  25242238.759   132648949.044       -3706.943          46.000    25242237.855   103362895.732       -2888.346          45.000  
E09  29215187.513   153526768.715       -2791.999          43.000    29215188.694   117637500.355       -2139.328          48.000  
E05  28575164.743   150163607.507        -648.910          37.000    28575166.045   115060387.400        -497.007          44.000  
R11  26424500.469                        2544.338          31.000                                                                  
R16  27267169.278                1      -3696.627          26.000                                                                  
R09  23295594.685   124397486.561       -1839.485          51.000    23295590.091    96753689.941       -1430.659          51.000  
R19  24966762.047   133555692.347       -4264.285          35.000    24966757.585   103876805.069       -3316.389          46.000  
G28  26471453.386   139108511.518        2409.992          43.000    26471447.118   108396151.432        1877.734          40.000  
G32  26539784.937   139467453.882       -2091.657          43.000    26539784.080   108675939.445       -1629.951          42.000  
E12  29310508.579   154027921.672        2225.020          42.000    29310508.464   118021544.021        1705.028          47.000  
E31  26828158.405   140983271.698        -578.492          48.000    26828158.040   108026217.403        -443.219          49.000  
G12  24471809.259   128600570.389       -1394.709          47.000    24471803.159   100208421.934       -1086.710          47.000  
R20  22438982.595   119991658.045         356.822          39.000    22438981.382    93326917.431         277.559          44.000  
R10  23102950.309   123151732.922         930.392          46.000                                                                  
R21  25426157.218   136060850.639        3517.785          48.000    25426157.011   105824903.219        2735.855          43.000  
E24  29003076.682   152412195.835         851.992          45.000    29003075.797   116783406.900         652.787          48.000  
S31  41838428.702   219862506.928        -723.685          44.000  
G29  24212757.653   127239219.977         810.132          49.000    24212751.832    99147579.760         631.105          44.000  
G25  23993279.293   126085747.148         183.189          48.000    23993275.712    98248736.002         142.762          45.000  
G06  27594636.791                3      -3464.537          25.000    27594638.832   112995468.790       -2698.688          34.000  
G20  28027956.756   147287917.477        1245.524          40.000                                                                  
E33  27450969.011   144256093.800         109.821          47.000    27450968.376   110534081.466          84.143          49.000  
E04  30879858.388   162274557.612       -3461.056          30.000    30879874.994   124340289.076       -2652.032          39.000  
G11  25595735.161   134506730.946       -1708.576          46.000    25595729.569   104810669.901       -1331.467          45.000  
> 2024 04 09 02 34 30.0100000  0 26                     
S33  42796590.136   224897719.538        -726.531          45.000  
E26  29455986.461   154792342.609       -2349.137          42.000    29455984.951   118607172.541       -1800.101          47.000  
G24  25263437.040   132760348.810       -3720.166          46.000    25263436.658   103449700.647       -2898.763          45.000  
E09  29231151.322   153610656.312       -2800.884          43.000    29231151.950   117701777.781       -2146.295          48.000  
E05  28578909.502   150183292.851        -664.017          36.000    28578911.256   115075470.994        -508.729          42.000  
R11  26410212.635   141128156.5361       2545.004          33.000    26410209.701                3       1980.283          25.000  
R16  27287958.843                3      -3726.444          14.000                                                                  
R09  23305971.559   124452895.489       -1855.040          51.000    23305966.367    96796785.779       -1442.832          51.000  
R19  24990718.963   133683847.834       -4280.038          35.000    24990714.897   103976481.507       -3329.157          46.000  
G28  26457720.014   139036345.236        2400.693          42.000    26457714.450   108339917.995        1870.726          41.000  
G32  26551769.934   139530435.726       -2107.767          43.000    26551769.823   108725016.163       -1642.397          43.000  
E12  29297821.160   153961248.314        2219.246          42.000    29297820.926   117970457.003        1700.306          47.000  
E31  26831471.878   141000683.514        -582.837          48.000    26831471.540   108039558.930        -446.589          50.000  
G12  24479790.283   128642507.297       -1401.661          48.000    24479783.933   100241100.047       -1092.193          47.000  
R20  22437061.070   119981376.229         328.004          40.000    22437058.649    93318920.467         255.192          45.000  
R10  23097744.598   123123985.049         919.037          45.000                                                                  
R21  25406464.522   135955472.895        3506.885          49.000    25406463.508   105742943.680        2727.251          44.000  
E24  28998216.214   152386657.347         850.122          44.000    28998215.898   116763838.466         651.390          48.000  
S31  41842564.314   219884239.645        -725.894          44.000  
G29  24208176.431   127215145.244         794.391          48.000    24208170.917    99128820.259         618.975          44.000  
G25  23992250.290   126080339.984         176.837          48.000    23992246.998    98244522.633         137.888          45.000  
G20  28020865.105   147250646.479        1238.657          41.000                                                                  
E33  27450387.263   144253033.390          93.648          47.000    27450385.537   110531736.495          71.792          49.000  
E04  30899610.944                       -3459.492          27.000    30899627.992   124419826.820       -2650.856          37.000  
G11  25605548.063   134558295.756       -1729.349          47.000    25605542.412   104850850.270       -1347.640          45.000  
G06                                                                  27614449.612   113076587.208       -2710.380          33.000  
> 2024 04 09 02 35 00.0100000  0 26                     
S33  42800739.585   224919524.404        -728.112          45.000  
E26  29469434.830   154863013.752       -2362.881          41.000    29469433.306   118661323.117       -1810.521          47.000  
G24  25284708.160   132872127.498       -3732.463          46.000    25284707.263   103536800.844       -2908.496          44.000  
E09  29247162.110   153694799.935       -2809.585          42.000    29247163.904   117766251.342       -2152.655          48.000  
E05  28582740.341   150203421.106        -678.640          36.000    28582740.948   115090893.932        -520.057          41.000  
R11  26395927.585                1       2546.736          28.000    26395939.520   109706979.1591       1980.025          32.000  
R16  27308781.934                3      -3713.277          26.000                                                                  
R09  23316432.282   124508758.509       -1870.156          51.000    23316428.331    96840234.765       -1454.449          51.000  
R19  25014764.157   133812468.074       -4295.433          36.000    25014758.962   104076519.436       -3341.039          45.000  
G28  26444037.617   138964443.810        2391.833          43.000    26444032.171   108283890.941        1863.979          42.000  
G32  26563843.563   139593886.631       -2123.453          44.000    26563844.365   108774458.362       -1654.561          43.000  
E12  29285164.588   153894740.302        2213.677          42.000    29285164.361   117919496.636        1696.241          47.000  
E31  26834808.111   141018215.104        -586.880          48.000    26834807.839   108052992.218        -449.704          50.000  
G12  24487808.388   128684641.294       -1408.190          49.000    24487802.032   100273931.721       -1097.245          48.000  
R20  22435295.453   119971941.597         300.489          38.000    22435293.951    93311582.456         233.075          44.000  
R10  23092599.690   123096559.686         908.355          45.000                                                                  
R21  25386830.674   135850409.368        3496.454          49.000    25386829.964   105661228.475        2719.412          44.000  
E24  28993364.815   152361161.684         848.815          44.000    28993364.213   116744302.876         650.327          48.000  
S31  41846707.961   219906015.685        -727.189          43.000  
G29  24203682.526   127191530.041         779.084          49.000    24203677.595    99110418.840         607.156          45.000  
G25  23991255.063   126075112.051         170.897          47.000    23991252.615    98240448.939         133.158          45.000  
G20  28013810.546   147213575.674        1231.890          41.000                                                                  
E33  27449894.185   144250444.230          77.941          47.000    27449892.511   110529752.615          59.750          48.000  
G11  25615477.171   134610472.467       -1749.927          46.000    25615471.218   104891507.446       -1363.416          45.000  
E04                                                                  30919369.571   124499317.064       -2649.140          35.000  
G06                                                                  27634336.820   113158021.667       -2720.477          33.000  
> 2024 04 09 02 35 30.0100000  0 25                     
S33  42804900.221   224941388.150        -730.211          45.000  
E26  29482964.016   154934101.554       -2376.562          42.000    29482960.609   118715792.987       -1821.195          47.000  
G24  25306053.603   132984298.314       -3745.791          46.000    25306052.768   103624206.600       -2918.785          44.000  
E09  29263225.146   153779212.783       -2818.523          42.000    29263227.140   117830931.260       -2159.701          48.000  
E05  28586657.605   150224007.224        -694.092          36.000    28586658.955   115106667.722        -531.839          41.000  
R11  26381628.622   140975368.8431       2546.675          33.000    26381628.665   109647546.586        1980.950          32.000  
R09  23326981.290   124565091.409       -1885.901          51.000    23326976.987    96884049.251       -1466.888          50.000  
R19  25038895.364   133941564.661       -4311.938          35.000    25038892.455   104176927.906       -3353.291          45.000  
G28  26430409.179   138892825.129        2382.304          44.000    26430403.376   108228084.186        1856.260          41.000  
G32  26576011.106   139657819.545       -2139.402          45.000    26576010.469   108824276.150       -1667.283          43.000  
E12  29272542.785   153828414.962        2207.363          42.000    29272542.365   117868676.237        1691.434          47.000  
E31  26838170.398   141035882.158        -591.431          48.000    26838169.904   108066529.300        -453.200          50.000  
G12  24495865.981   128726987.971       -1415.376          48.000    24495860.484   100306929.148       -1103.098          48.000  
R20  22433692.328   119963371.155         270.878          39.000    22433691.105    93304916.557         210.735          45.000  
R10  23087517.866   123069474.848         896.833          45.000                                                                  
R21  25367257.466   135745679.095        3485.158          47.000    25367258.025   105579772.451        2710.628          44.000  
E24  28988524.641   152335724.170         846.662          44.000    28988523.658   116724811.808         648.797          48.000  
S31  41850862.902   219927850.003        -729.149          44.000  
G29  24199279.663   127168389.688         763.245          49.000    24199274.782    99092387.469         594.592          45.000  
G25  23990296.410   126070079.422         164.294          47.000    23990295.004    98236527.422         127.984          45.000  
G20  28006797.185   147176723.367        1224.302          41.000                                                                  
E33  27449494.773   144248342.392          61.627          48.000    27449492.861   110528142.148          47.181          48.000  
G11  25625525.164   134663275.470       -1770.707          45.000    25625519.289   104932652.678       -1379.903          45.000  
E04                                                                  30939102.039   124578770.257       -2647.688          32.000  
G06                                                                  27654303.392   113239782.151       -2730.986          31.000  
> 2024 04 09 02 36 00.0100000  0 26                     
S33  42809072.230   224963311.945        -731.862          45.000  
E26  29496570.139   155005607.636       -2390.640          40.000    29496568.059   118770583.312       -1831.560          47.000  
G24  25327474.170   133096861.871       -3758.559          47.000    25327472.993   103711918.409       -2928.990          44.000  
E09  29279340.351   153863895.763       -2826.983          43.000    29279342.255   117895818.150       -2166.277          48.000  
E05  28590663.937   150245053.694        -708.887          37.000    28590665.248   115122794.260        -543.364          42.000  
R11  26367311.050                3       2548.044          27.000    26367313.845                        1982.111          30.000  
R16  27350578.997                3      -3732.044          23.000                                                                  
R09  23337619.939   124621898.297       -1901.406          51.000    23337614.491    96928232.370       -1478.908          50.000  
R19  25063117.888   134071136.228       -4326.889          38.000    25063115.470   104277705.817       -3365.375          45.000  
G28  26416835.415   138821494.649        2372.789          44.000    26416829.789   108172502.012        1849.171          42.000  
G32  26588269.261   139722234.888       -2155.041          45.000    26588268.076   108874469.878       -1679.223          42.000  
E12  29259957.045   153762277.057        2201.595          43.000    29259956.416   117817999.451        1686.746          46.000  
E31  26841557.745   141053687.963        -595.687          48.000    26841558.227   108080172.719        -456.497          50.000  
G12  24503965.041   128769550.894       -1422.385          48.000    24503960.039   100340095.060       -1108.197          48.000  
R20  22432253.255   119955668.320         242.254          40.000    22432250.643    93298925.467         188.472          45.000  
R10  23082502.754   123042736.505         885.431          46.000                                                                  
R21  25347749.712   135641288.897        3474.101          49.000    25347748.718   105498580.876        2701.937          44.000  
E24  28983695.280   152310347.599         844.953          44.000    28983694.639   116705367.445         647.396          48.000  
S31  41855029.231   219949745.047        -730.842          44.000  
G29  24194967.002   127145726.853         747.612          49.000    24194961.741    99074728.156         582.385          45.000  
G25  23989376.463   126065245.754         157.875          47.000    23989374.641    98232760.944         122.876          45.000  
G20  27999826.138   147140095.163        1217.082          40.000                                                                  
E33  27449188.799   144246731.458          45.513          48.000    27449186.238   110526907.817          34.898          48.000  
G11  25635692.156   134716706.779       -1791.558          45.000    25635687.659   104974287.503       -1396.115          46.000  
E04                                                                  30958824.734                       -2646.226          30.000  
G06                                                                  27674350.183                       -2741.620          29.000  
> 2024 04 09 02 36 30.0100000  0 26                     
S33  42813251.376   224985274.335        -733.085          44.000  
E26  29510253.293   155077507.303       -2403.391          41.000    29510249.842   118825675.244       -1841.599          47.000  
G24  25348964.204   133209792.809       -3770.677          47.000    25348962.205   103799916.412       -2938.124          43.000  
E09  29295502.119   153948823.623       -2834.927          43.000    29295503.757   117960892.674       -2172.423          49.000  
E05  28594752.280   150266537.054        -723.644          38.000    28594754.023   115139255.531        -554.532          42.000  
R11  26353040.258                3       2553.500          24.000    26353011.738                3       1983.646          16.000  
R16  27371556.579                3      -3728.883          19.000                                                                  
R09  23348342.543   124679156.244       -1916.335          50.000    23348337.625    96972766.330       -1490.443          50.000  
R19  25087425.182   134201154.915       -4341.390          40.000    25087421.491   104378831.443       -3376.801          46.000  
G28  26403312.602   138750431.749        2363.957          44.000    26403307.285   108117128.354        1842.280          42.000  
G32  26600614.429   139787107.026       -2170.234          45.000    26600612.609   108925019.506       -1691.096          42.000  
E12  29247402.698   153696305.404        2195.979          43.000    29247402.187   117767450.011        1682.757          46.000  
E31  26844968.205   141071609.761        -599.455          48.000    26844968.479   108093904.994        -459.355          50.000  
G12  24512100.962   128812307.317       -1428.636          48.000    24512096.153   100373411.773       -1113.215          48.000  
R20  22430970.388   119948809.955         214.359          39.000    22430968.487    93293591.214         166.729          45.000  
R10  23077548.091   123016323.262         874.905          47.000                                                                  
R21  25328300.598   135537218.813        3463.400          48.000    25328300.578   105417638.205        2693.881          45.000  
E24  28978873.620   152285008.903         843.839          44.000    28978872.899   116685952.105         646.550          49.000  
S31  41859202.899   219971677.653        -731.949          44.000  
G29  24190740.514   127123518.398         732.425          49.000    24190735.085    99057422.895         570.710          44.000  
G25  23988490.512   126060588.615         152.055          47.000    23988488.495    98229132.004         118.542          45.000  
G20  27992895.529   147103670.551        1210.357          41.000                                                                  
E33  27448971.336   144245588.876          30.123          48.000    27448968.651   110526032.355          23.073          48.000  
G11  25645975.367   134770742.251       -1811.191          45.000    25645969.405   105016393.065       -1411.527          45.000  
E04                                                                  30978534.176                       -2645.196          26.000  
G06                                                                  27694466.398                3      -2751.345          23.000  
> 2024 04 09 02 37 00.0100000  0 27                     
S33  42817440.364   225007288.018        -734.774          44.000  
E26  29524011.558   155149813.369       -2417.381          40.000    29524008.951   118881078.540       -1852.144          46.000  
G24  25370526.441   133323103.055       -3783.517          46.000    25370524.537   103888210.003       -2948.190          43.000  
E09  29311711.984   154034008.412       -2843.839          43.000    29311714.147   118026164.055       -2179.145          50.000  
E05  28598925.017   150288470.989        -738.612          38.000    28598927.863   115156062.041        -566.002          42.000  
R11  26338674.929                1       2550.476          32.000    26338713.191                1       1983.895          27.000  
R16  27392586.304                3      -3756.361          17.000                                                                  
R09  23359152.926   124736880.566       -1932.099          51.000    23359147.280    97017663.007       -1502.692          50.000  
R19  25111816.792   134331630.853       -4356.885          41.000    25111811.338   104480312.720       -3388.575          45.000  
G28  26389843.566   138679653.070        2354.358          44.000    26389838.539   108061976.188        1834.528          43.000  
G32  26613047.650   139852447.550       -2185.723          45.000    26613046.403   108975934.156       -1703.167          42.000  
E12  29234883.371   153630516.093        2189.887          43.000    29234882.646   117717040.294        1677.808          46.000  
E10  30870351.774                1       2428.671          30.000    30870364.791   124302166.1391       1860.753          35.000  
E31  26848404.059   141089662.008        -604.134          48.000    26848403.750   108107737.228        -462.898          50.000  
G12  24520276.805   128855271.457       -1435.788          49.000    24520272.082   100406890.324       -1118.805          47.000  
R20  22429848.100   119942811.891         185.502          39.000    22429845.994    93288926.036         144.285          45.000  
R10  23072657.005   122990251.706         863.113          46.000                                                                  
R21  25308914.627   135433486.784        3451.907          49.000    25308916.096   105336958.462        2684.755          45.000  
E24  28974061.937   152259722.093         841.750          44.000    28974061.117   116666576.530         644.980          49.000  
S31  41863386.599   219993662.532        -733.968          44.000  
G29  24186603.475   127101778.538         716.643          48.000    24186598.822    99040482.776         558.350          45.000  
G25  23987641.167   126056122.891         145.664          48.000    23987639.182    98225652.247         113.479          45.000  
G20  27986006.990   147067466.963        1202.970          43.000                                                                  
E33  27448845.419   144244929.474          13.620          48.000    27448843.356   110525527.116          10.503          49.000  
G11  25656374.298   134825395.024       -1832.205          43.000    25656370.705   105058979.628       -1427.618          46.000  
E04                                                                  30998230.031                3      -2644.115          26.000  
G06                                                                  27714661.063                3      -2758.290          23.000  
> 2024 04 09 02 37 30.0100000  0 26                     
S33  42821639.612   225029356.125        -736.346          44.000  
E26  29537847.339   155222526.602       -2430.579          39.000    29537845.961   118936793.866       -1862.236          47.000  
G24  25392161.405   133436792.585       -3795.985          46.000    25392159.483   103976799.132       -2957.972          44.000  
E09  29327971.162   154119450.357       -2852.324          43.000    29327973.280   118091632.493       -2185.618          50.000  
E05  28603184.676   150310857.454        -753.556          37.000    28603187.059   115173215.300        -577.444          41.000  
R11  26324358.559                        2550.826          31.000    26324378.324                1       1983.942          28.000  
R09  23370050.086   124795074.270       -1947.671          50.000    23370045.215    97062924.751       -1514.771          50.000  
R19  25136292.702   134462562.226       -4371.810          41.000    25136287.028   104582148.236       -3400.409          44.000  
G28  26376429.358   138609163.483        2344.643          43.000    26376425.002   108007049.252        1827.179          43.000  
G32  26625571.129   139918256.311       -2201.646          44.000    26625570.340   109027213.646       -1715.474          43.000  
E12  29222399.526   153564913.343        2183.561          43.000    29222399.233   117666773.522        1673.181          47.000  
E10  30856487.519   162151934.2901       2427.862          34.000    30856502.123   124246348.780        1860.171          38.000  
E31  26851863.905   141107847.398        -608.364          48.000    26851864.475   108121671.493        -466.138          50.000  
G12  24528493.359   128898446.435       -1442.704          49.000    24528487.882   100440533.182       -1124.232          47.000  
R20  22428887.423   119937676.793         156.644          39.000    22428886.185    93284932.101         121.989          45.000  
R10  23067830.852   122964526.733         851.776          46.000                                                                  
R21  25289594.671   135330098.767        3440.487          50.000    25289594.940   105256546.241        2675.944          46.000  
E24  28969260.942   152234489.457         840.264          45.000    28969259.553   116647242.457         643.809          49.000  
S31  41867580.151   220015701.077        -735.673          44.000  
G29  24182555.812   127080509.697         701.098          49.000    24182551.392    99023909.674         546.494          44.000  
G25  23986828.879   126051851.665         139.119          49.000    23986826.459    98222324.023         108.429          46.000  
G20  27979161.192   147031489.453        1195.623          40.000                                                                  
E33  27448812.328   144244756.134          -2.370          47.000    27448810.572   110525394.323          -1.763          49.000  
G11  25666892.230   134880666.352       -1852.609          44.000    25666887.173   105102048.227       -1443.739          45.000  
E04                                                                  31017921.159                       -2642.190          29.000  
G06                                                                  27734943.815                3      -2767.177          22.000  
> 2024 04 09 02 38 00.0100000  0 27                     
S33  42825849.373   225051478.590        -738.258          44.000  
E26  29551760.888   155295646.767       -2444.343          38.000    29551760.294   118992820.960       -1872.639          46.000  
G24  25413867.547   133550860.269       -3808.359          45.000    25413866.253   104065682.924       -2967.424          44.000  
E09  29344278.213   154205148.469       -2860.686          43.000    29344281.128   118157297.208       -2192.042          50.000  
E05  28607532.351   150333697.115        -768.464          39.000    28607533.223   115190715.803        -589.104          40.000  
R11  26310029.701                        2551.801          31.000    26310039.023                        1984.930          26.000  
R16  27434755.352                3      -3763.034          19.000                                                                  
R09  23381036.316   124853739.323       -1963.239          51.000    23381031.472    97108553.117       -1526.935          50.000  
R19  25160852.983   134593945.626       -4386.975          41.000    25160846.964   104684335.335       -3411.955          43.000  
G28  26363071.477   138538966.626        2335.150          43.000    26363067.189   107952350.431        1819.592          44.000  
G32  26638182.985   139984531.871       -2216.736          45.000    26638181.787   109078856.894       -1727.331          43.000  
E12  29209951.612   153499500.252        2177.293          43.000    29209951.103   117616652.073        1668.435          46.000  
E10  30842631.903   162079118.207        2427.010          37.000    30842645.136   124190555.210        1859.328          40.000  
E31  26855350.192   141126167.458        -612.864          48.000    26855350.569   108135708.934        -469.550          50.000  
G12  24536750.308   128941833.881       -1449.669          49.000    24536743.724   100474341.582       -1129.493          47.000  
R20  22428089.288   119933406.559         128.183          40.000    22428087.379    93281610.815          99.576          45.000  
R10  23063070.715   122939152.202         839.944          45.000                                                                  
R21  25270339.578   135227059.622        3428.923          51.000    25270338.587   105176405.350        2666.924          46.000  
E24  28964469.739   152209312.131         838.262          45.000    28964468.399   116627950.750         642.405          49.000  
S31  41871784.341   220037794.257        -737.120          44.000  
G29  24178598.068   127059712.429         685.529          48.000    24178593.654    99007704.023         534.246          45.000  
G25  23986053.250   126047776.743         132.809          49.000    23986051.083    98219148.762         103.476          45.000  
G20  27972358.757   146995741.639        1188.000          37.000                                                                  
E33  27448872.374   144245070.557         -18.616          47.000    27448870.494   110525635.263         -14.287          50.000  
G11  25677528.037   134936556.388       -1873.445          43.000    25677522.899   105145598.896       -1459.608          46.000  
E04                                                                  31037596.322                       -2640.228          30.000  
G06                                                                  27755305.758                3      -2780.797          22.000  
> 2024 04 09 02 38 30.0100000  0 27                     
S33  42830067.402   225073644.682        -739.144          44.000  
E26  29565751.173   155369160.334       -2456.815          38.000    29565749.554   119049149.562       -1882.287          46.000  
G24  25435643.149   133665291.800       -3820.080          45.000    25435642.493   104154850.249       -2976.547          45.000  
E09  29360633.617   154291088.703       -2868.224          45.000    29360635.117   118223147.425       -2197.779          50.000  
E05  28611962.815   150356977.566        -783.008          39.000    28611963.390   115208554.019        -599.691          40.000  
R11  26295699.838                        2553.846          32.000    26295699.132                        1986.113          28.000  
R16  27455915.922                3      -3786.625          13.000                                                                  
R09  23392108.614   124912864.531       -1978.123          51.000    23392104.055    97154539.359       -1538.480          51.000  
R19  25185495.088   134725764.080       -4400.814          41.000    25185489.420   104786860.790       -3422.686          43.000  
G28  26349767.280   138469053.052        2326.105          44.000    26349763.079   107897872.347        1812.678          44.000  
G32  26650881.503   140051259.702       -2231.344          46.000    26650879.391   109130852.536       -1738.595          43.000  
E12  29197537.986   153434266.672        2171.865          43.000    29197536.867   117566668.157        1664.104          46.000  
E10  30828779.449   162006322.924        2426.244          39.000    30828791.962   124134777.551        1859.231          43.000  
E31  26858860.505   141144610.571        -616.390          49.000    26858860.082   108149840.671        -472.318          50.000  
G12  24545044.088   128985421.846       -1455.837          48.000    24545038.515   100508306.230       -1134.464          47.000  
R20  22427450.493   119929989.872         100.325          40.000    22427448.239    93278953.404          77.907          45.000  
R10  23058373.352   122914118.617         829.265          46.000                                                                  
R21  25251147.082   135124360.535        3418.038          51.000    25251146.073   105096528.916        2658.635          46.000  
E24  28959687.015   152184178.113         837.646          46.000    28959685.429   116608692.251         641.715          49.000  
S31  41875997.098   220059931.576        -738.134          44.000  
G29  24174727.968   127039374.974         670.704          48.000    24174723.448    98991856.678         522.504          45.000  
G25  23985312.880   126043886.987         126.920          49.000    23985310.105    98216117.793          98.922          45.000  
G20  27965597.628   146960214.858        1181.222          39.000                                                                  
E33  27449022.519   144245861.400         -33.826          47.000    27449021.391   110526241.267         -26.019          50.000  
G11  25688279.595   134993052.038       -1892.943          44.000    25688273.590   105189621.471       -1474.952          46.000  
E04                                                                  31057257.342                       -2637.855          27.000  
G06                                                                  27775728.376                3      -2799.657          19.000  
> 2024 04 09 02 39 00.0100000  0 26                     
S33  42834292.595   225095847.644        -740.467          44.000  
E26  29579814.347   155443059.875       -2469.535          39.000    29579811.918   119105773.873       -1892.214          46.000  
G24  25457486.069   133780078.792       -3832.032          45.000    25457485.631   104244294.584       -2986.108          44.000  
E09  29377032.510   154377262.844       -2876.155          46.000    29377033.697   118289176.876       -2203.777          50.000  
E05  28616474.097   150380692.142        -797.152          40.000    28616476.336   115226724.969        -611.175          41.000  
R11  26281363.502                3       2556.473          24.000    26281358.018                3       1987.114          28.000  
R09  23403266.323   124972443.932       -1993.484          52.000    23403260.276    97200878.900       -1550.409          50.000  
R19  25210217.108   134858008.299       -4415.044          42.000    25210211.819   104889717.385       -3433.817          44.000  
G28  26336516.444   138399419.225        2316.489          44.000    26336512.575   107843612.251        1805.190          44.000  
G32  26663663.763   140118431.120       -2246.414          47.000    26663661.166   109183193.884       -1750.485          42.000  
E12  29185156.963   153369208.465        2165.801          42.000    29185156.490   117516818.609        1659.518          46.000  
E10  30814928.341   161933544.051        2425.743          38.000    30814942.268   124079012.522        1858.756          44.000  
E31  26862392.559   141163171.043        -620.544          49.000    26862391.841   108164062.330        -475.497          49.000  
G12  24553375.498   129029204.986       -1462.512          47.000    24553369.975   100542422.960       -1139.701          47.000  
R20  22426970.048   119927420.017          71.555          41.000    22426967.158    93276954.643          55.602          44.000  
R10  23053740.980   122889422.194         817.785          47.000                                                                  
R21  25232018.472   135021999.086        3406.532          50.000    25232015.617   105016915.089        2649.519          46.000  
E24  28954910.800   152159081.323         836.091          45.000    28954909.606   116589462.271         640.587          49.000  
S31  41880216.414   220082104.976        -739.482          44.000  
G29  24170944.654   127019491.173         655.328          49.000    24170939.414    98976362.818         510.559          45.000  
G25  23984607.335   126040177.053         120.740          49.000    23984603.776    98213226.926          94.078          45.000  
G20  27958879.362   146924905.915        1173.702          40.000                                                                  
E33  27449263.046   144247123.107         -49.814          47.000    27449261.868   110527208.049         -38.129          51.000  
G11  25699143.717   135050146.154       -1913.090          42.000    25699137.968   105234110.384       -1490.750          46.000  
E04                                                                  31076901.906                3      -2637.056          25.000  
G06                                                                  27796238.333                3      -2810.364          15.000  
> 2024 04 09 02 39 30.0100000  0 26                     
S33  42838523.681   225118083.055        -741.986          44.000  
E26  29593947.991   155517339.914       -2482.454          38.000    29593946.911   119162689.751       -1902.153          46.000  
G24  25479395.966   133895215.075       -3843.803          45.000    25479395.848   104334011.077       -2995.305          44.000  
E09  29393473.459   154463664.858       -2883.922          45.000    29393475.633   118355380.930       -2209.805          50.000  
E05  28621069.051   150404836.643        -812.221          40.000    28621071.297   115245225.254        -622.319          41.000  
R11  26267090.611                3       2556.301          26.000    26267016.132                1       1987.792          27.000  
R09  23414507.948   125032474.619       -2008.718          51.000    23414504.081    97247569.426       -1562.399          51.000  
R19  25235017.104   134990668.643       -4429.071          42.000    25235011.709   104992897.630       -3444.761          45.000  
G28  26323318.635   138330063.752        2307.017          44.000    26323314.579   107789569.049        1797.754          44.000  
G32  26676529.759   140186039.721       -2260.988          46.000    26676526.531   109235875.873       -1761.886          42.000  
E12  29172808.945   153304323.565        2160.053          42.000    29172809.163   117467101.855        1654.924          46.000  
E10  30801081.684   161860779.463        2425.340          37.000    30801095.236   124023258.457        1858.177          44.000  
E31  26865946.484   141181845.328        -624.565          49.000    26865945.464   108178371.203        -478.543          50.000  
G12  24561743.954   129073179.493       -1469.189          49.000    24561738.593   100576688.809       -1144.924          47.000  
R20  22426647.614   119925693.882          43.226          41.000    22426644.329    93275612.119          33.649          44.000  
R10  23049171.805   122865061.683         806.175          48.000                                                                  
R21  25212951.875   134919974.746        3394.960          50.000    25212949.016   104937563.398        2640.591          47.000  
E24  28950141.076   152134017.824         834.666          45.000    28950139.950   116570257.794         639.625          49.000  
S31  41884442.086   220104311.119        -741.112          44.000  
G29  24167247.289   127000056.886         640.246          49.000    24167240.890    98961219.235         498.801          44.000  
G25  23983935.341   126036643.794         114.706          49.000    23983931.154    98210473.744          89.509          44.000  
G20  27952201.396   146889813.348        1166.217          39.000                                                                  
E33  27449591.992   144248852.304         -65.591          47.000    27449590.750   110528533.040         -50.271          51.000  
G11  25710120.068   135107833.637       -1932.867          44.000    25710116.915   105279061.687       -1506.124          47.000  
E04                                                                  31096533.329                3      -2632.921          25.000  
G06                                                                  27816787.020                3      -2807.954          16.000  
> 2024 04 09 02 40 00.0100000  0 26                     
S33  42842760.501   225140346.739        -742.240          44.000  
E26  29608155.274   155591994.202       -2494.589          39.000    29608153.058   119219892.365       -1911.461          46.000  
G24  25501371.030   134010693.513       -3854.742          45.000    25501370.785   104423994.113       -3003.456          44.000  
E09  29409957.014   154550287.867       -2890.889          44.000    29409959.170   118421754.304       -2215.127          50.000  
E05  28625745.102   150429405.696        -825.867          41.000    28625746.079   115264050.848        -632.701          40.000  
R11  26252657.138                1       2557.884          30.000    26252662.516                        1989.234          28.000  
R09  23425832.441   125092952.422       -2023.060          51.000    23425829.062    97294607.687       -1573.468          51.000  
R19  25259892.246   135123736.497       -4442.026          41.000    25259887.951   105096394.869       -3454.857          46.000  
G28  26310173.226   138260984.381        2298.358          44.000    26310168.623   107735740.973        1790.850          44.000  
G32  26689476.496   140254078.025       -2274.567          45.000    26689473.856   109288892.676       -1772.388          42.000  
E12  29160493.404   153239609.229        2154.430          41.000    29160494.555   117417515.761        1650.923          47.000  
E10  30787235.560   161788026.102        2425.447          37.000    30787249.959   123967512.995        1858.305          43.000  
E31  26869520.912   141200629.013        -627.703          49.000    26869519.946   108192763.889        -480.958          50.000  
G12  24570147.705   129117341.143       -1474.852          48.000    24570142.487   100611100.470       -1149.210          47.000  
R20  22426481.901   119924807.931          15.689          41.000    22426479.673    93274923.060          12.354          45.000  
R10  23044664.537   122841034.555         795.546          48.000                                                                  
R21  25193948.524   134818286.661        3384.269          50.000    25193946.264   104858473.239        2632.092          47.000  
E24  28945376.954   152108982.756         834.333          45.000    28945376.233   116551075.118         639.238          49.000  
S31  41888673.369   220126546.043        -741.318          44.000  
G29  24163633.195   126981067.074         625.771          48.000    24163626.912    98946422.008         487.649          44.000  
G25  23983295.579   126033283.174         109.515          49.000    23983292.035    98207855.091          85.205          45.000  
G20  27945563.469   146854935.218        1159.417          37.000                                                                  
E33  27450009.091   144251044.746         -80.495          47.000    27450007.536   110530212.971         -61.734          51.000  
G11  25721210.286   135166108.657       -1951.995          43.000    25721205.334   105324470.760       -1520.976          46.000  
E04                                                                  31116144.329                       -2630.671          28.000  
G06                                                                  27837416.871                3      -2817.382          17.000  
> 2024 04 09 02 40 30.0100000  0 25                     
S33  42846999.262   225162622.612        -743.011          44.000  
E26  29622431.461   155667005.803       -2506.552          40.000    29622426.949   119277368.787       -1920.559          45.000  
G24  25523408.366   134126496.319       -3865.653          45.000    25523406.584   104514229.964       -3012.133          43.000  
E09  29426478.549   154637114.262       -2897.791          44.000    29426481.721   118488283.553       -2220.382          50.000  
E05  28630498.461   150454383.347        -839.675          42.000    28630498.697   115283189.556        -643.479          40.000  
R11  26238293.458   140209707.0351       2558.991          33.000    26238304.297                        1990.440          31.000  
R09  23437239.127   125153862.155       -2037.734          50.000    23437235.747    97341981.929       -1584.939          51.000  
R19  25284839.801   135257191.919       -4455.136          41.000    25284835.758   105200193.547       -3465.216          45.000  
G28  26297077.755   138192168.238        2289.389          44.000    26297072.897   107682118.021        1783.842          44.000  
G32  26702501.539   140322528.088       -2288.782          45.000    26702499.387   109342230.307       -1783.313          42.000  
E12  29148209.483   153175051.901        2148.992          43.000    29148209.637   117368049.989        1646.677          47.000  
E10  30773389.467   161715270.412        2424.935          36.000    30773404.614   123911765.727        1858.092          45.000  
E31  26873113.627   141219507.134        -631.081          49.000    26873112.433   108207228.936        -483.489          50.000  
G12  24578583.818   129161674.905       -1480.891          49.000    24578579.250   100645646.249       -1154.006          48.000  
R20  22426471.085   119924745.944         -11.974          42.000    22426468.339    93274874.861          -9.216          45.000  
R10  23040217.394   122817327.318         784.619          48.000                                                                  
R21  25175006.420   134716922.286        3373.149          50.000    25175004.278   104779634.843        2623.616          48.000  
E24  28940615.312   152083960.759         833.612          45.000    28940614.860   116531902.440         638.722          50.000  
S31  41892906.571   220148792.866        -742.091          44.000  
G29  24160100.322   126962506.262         611.202          48.000    24160095.048    98931959.087         476.419          45.000  
G25  23982685.595   126030080.564         104.016          48.000    23982682.515    98205359.558          80.890          44.000  
G20  27938963.788   146820259.181        1152.540          37.000                                                                  
E33  27450511.049   144253685.546         -95.763          46.000    27450509.902   110532236.432         -73.384          51.000  
G11  25732408.230   135224954.499       -1971.243          44.000    25732403.584   105370324.670       -1536.131          46.000  
E04                                                                  31135734.883                       -2627.963          27.000  
> 2024 04 09 02 41 00.0100000  0 25                     
S33  42851241.770   225184916.354        -743.273          44.000  
E26  29636774.566   155742378.232       -2518.317          40.000    29636769.645   119335121.649       -1929.592          44.000  
G24  25545507.035   134242626.166       -3876.232          45.000    25545505.434   104604720.630       -3020.351          43.000  
E09  29443039.483   154724146.963       -2904.368          43.000    29443043.186   118554970.869       -2225.492          50.000  
E05  28635329.800   150479774.049        -853.263          41.000    28635330.600   115302644.770        -653.965          40.000  
R11  26223929.571                        2561.993          31.000    26223910.765                3       1992.104          22.000  
R09  23448728.303   125215209.417       -2051.995          52.000    23448723.988    97389696.467       -1596.045          51.000  
R19  25309861.115   135391035.397       -4467.423          41.000    25309856.656   105304294.015       -3474.924          45.000  
G28  26284034.410   138123622.825        2280.443          44.000    26284028.664   107628706.013        1776.965          43.000  
G32  26715605.610   140391392.200       -2302.118          45.000    26715604.140   109395890.567       -1793.866          42.000  
E12  29135956.573   153110658.420        2143.720          44.000    29135955.343   117318709.737        1642.736          47.000  
E10  30759545.574   161642518.975        2425.170          38.000    30759559.782   123856021.763        1858.113          44.000  
E31  26876724.543   141238484.998        -634.187          49.000    26876723.680   108221770.413        -485.941          50.000  
G12  24587054.185   129206186.359       -1486.470          49.000    24587049.059   100680330.485       -1158.281          48.000  
R20  22426615.010   119925513.902         -39.234          41.000    22426611.500    93275472.183         -30.718          45.000  
R10  23035831.353   122793948.044         774.075          48.000                                                                  
R21  25156126.210   134615890.412        3362.389          51.000    25156124.342   104701055.031        2615.137          49.000  
E24  28935857.044   152058956.800         833.166          45.000    28935856.817   116512743.584         638.488          50.000  
S31  41897143.734   220171057.404        -742.420          44.000  
G29  24156650.683   126944379.122         597.201          48.000    24156646.134    98917834.097         465.335          45.000  
G25  23982107.430   126027041.737          98.798          48.000    23982103.873    98202991.625          76.813          44.000  
G20  27932405.221   146785793.020        1145.484          37.000                                                                  
E33  27451100.407   144256780.099        -110.587          46.000    27451098.609   110534607.581         -84.768          51.000  
G11  25743715.676   135284375.043       -1989.975          43.000    25743710.535   105416626.382       -1550.855          45.000  
E04                                                                  31155305.954                3      -2626.861          18.000  
> 2024 04 09 02 41 30.0100000  0 25                     
S33  42855486.134   225207221.631        -743.602          44.000  
E26  29651184.177   155818104.033       -2529.770          40.000    29651180.333   119393145.304       -1938.599          45.000  
G24  25567665.680   134359074.774       -3886.949          44.000    25567665.130   104695459.721       -3028.865          43.000  
E09  29459639.530   154811377.940       -2910.904          43.000    29459642.977   118621810.101       -2230.385          49.000  
E05  28640237.998   150505571.455        -866.596          41.000    28640239.484   115322411.560        -663.944          40.000  
R11  26209547.569   140056046.754        2562.104          33.000    26209539.304                1       1992.907          31.000  
R09  23460297.627   125276989.140       -2066.535          51.000    23460293.264    97437747.344       -1607.220          51.000  
R19  25334952.683   135525256.809       -4480.563          41.000    25334947.713   105408688.420       -3484.687          46.000  
G28  26271041.983   138055344.818        2271.596          44.000    26271035.772   107575502.399        1770.057          43.000  
G32  26728787.468   140460661.860       -2315.662          45.000    26728786.179   109449866.848       -1804.486          43.000  
E12  29123733.153   153046424.846        2138.565          44.000    29123731.912   117269492.019        1638.574          47.000  
E10  30745700.765   161569767.787        2425.193          38.000    30745715.041   123800277.932        1858.008          44.000  
E31  26880353.584   141257557.116        -637.254          49.000    26880353.016   108236384.114        -488.332          50.000  
G12  24595557.812   129250870.008       -1492.331          49.000    24595551.575   100715148.917       -1162.907          47.000  
R20  22426911.939   119927105.774         -66.900          40.000    22426909.384    93276710.309         -52.068          45.000  
R10  23031506.246   122770893.192         763.129          47.000                                                                  
R21  25137306.637   134515188.729        3351.303          49.000    25137305.311   104622732.025        2606.609          49.000  
E24  28931101.446   152033964.970         832.972          45.000    28931100.740   116493594.037         638.196          49.000  
S31  41901382.485   220193333.247        -742.711          44.000  
G29  24153283.267   126926679.632         582.945          49.000    24153278.261    98904042.314         454.152          45.000  
G25  23981559.670   126024161.532          93.317          48.000    23981556.308    98200747.307          72.803          45.000  
G20  27925885.841   146751533.708        1138.756          37.000                                                                  
E33  27451773.409   144260323.083        -125.523          45.000    27451772.712   110537322.344         -96.180          51.000  
G11  25755130.039   135344363.133       -2008.922          43.000    25755125.659   105463370.360       -1565.459          45.000  
E04                                                                  31174851.611                3      -2626.134          15.000  
> 2024 04 09 02 42 00.0100000  0 25                     
S33  42859734.668   225229547.391        -744.185          44.000  
E26  29665662.702   155894191.622       -2541.870          40.000    29665659.565   119451446.175       -1947.655          46.000  
G24  25589887.051   134475849.696       -3897.327          43.000    25589886.721   104786453.060       -3036.913          43.000  
E09  29476279.218   154898815.006       -2917.609          44.000    29476281.370   118688807.256       -2235.548          48.000  
E05  28645226.268   150531784.898        -880.203          40.000    28645227.709   115342497.168        -674.488          40.000  
R11  26195159.387                        2564.727          31.000    26195154.095   108872498.4851       1993.954          33.000  
R09  23471949.339   125339211.756       -2081.050          50.000    23471945.548    97486142.708       -1618.623          51.000  
R19  25360115.914   135659861.779       -4492.726          41.000    25360109.582   105513381.169       -3494.139          44.000  
G28  26258101.955   137987346.640        2262.359          44.000    26258096.213   107522516.835        1762.964          43.000  
G32  26742047.891   140530344.310       -2329.199          46.000    26742045.868   109504164.794       -1814.972          42.000  
E12  29111542.769   152982362.882        2133.132          44.000    29111540.700   117220405.805        1634.261          46.000  
E10  30731858.921   161497028.475        2425.215          38.000    30731872.135   123744543.208        1858.183          44.000  
E31  26884002.943   141276733.841        -640.599          49.000    26884002.222   108251077.951        -490.888          50.000  
G12  24604095.750   129295736.384       -1498.239          50.000    24604089.399   100750109.709       -1167.354          47.000  
R20  22427365.114   119929532.045         -94.182          40.000    22427363.318    93278597.398         -73.261          46.000  
R10  23027244.486   122748175.451         751.960          47.000                                                                  
R21  25118551.606   134414830.572        3339.954          49.000    25118550.580   104544676.190        2597.704          49.000  
E24  28926350.396   152008995.224         832.336          46.000    28926348.919   116474461.410         637.788          49.000  
S31  41905625.616   220215630.540        -742.990          44.000  
G29  24149998.596   126909417.415         568.457          49.000    24149993.332    98890591.256         442.997          45.000  
G25  23981044.349   126021450.717          88.049          49.000    23981040.981    98198634.967          68.646          45.000  
G20  27919408.151   146717493.999        1131.928          38.000                                                                  
E33  27452535.950   144264324.875        -140.752          46.000    27452534.431   110540388.664        -107.686          51.000  
G11  25766655.456   135404927.492       -2027.955          44.000    25766651.535   105510563.341       -1580.223          45.000  
E04                                                                  31194377.620                3      -2621.069          21.000  
> 2024 04 09 02 42 30.0100000  0 25                     
S33  42863986.119   225251889.534        -745.446          44.000  
E26  29680208.850   155970634.376       -2554.411          40.000    29680206.170   119510019.170       -1957.108          46.000  
G24  25612168.611   134592943.560       -3908.921          42.000    25612168.882   104877694.883       -3045.758          43.000  
E09  29492955.584   154986450.904       -2924.660          44.000    29492958.072   118755956.766       -2241.013          48.000  
E05  28650293.290   150558408.714        -894.556          41.000    28650293.816   115362897.212        -685.416          40.000  
R11  26180765.219                        2564.977          31.000    26180758.485                        1994.942          31.000  
R09  23483684.304   125401873.204       -2096.168          51.000    23483680.144    97534879.363       -1630.447          51.000  
R19  25385349.024   135794840.810       -4505.597          40.000    25385342.353   105618364.827       -3504.447          45.000  
G28  26245214.842   137919625.756        2252.466          44.000    26245209.365   107469747.346        1755.140          44.000  
G32  26755385.508   140600431.792       -2343.042          46.000    26755383.340   109558778.359       -1825.916          42.000  
E12  29099383.113   152918469.448        2126.850          43.000    29099381.725   117171448.704        1629.584          46.000  
E10  30718019.253   161424297.702        2423.940          39.000    30718031.064   123688815.004        1857.240          44.000  
E31  26887671.192   141296010.484        -644.481          49.000    26887670.739   108265848.359        -493.739          51.000  
G12  24612667.329   129340780.670       -1504.606          49.000    24612660.956   100785209.155       -1172.416          47.000  
R20  22427973.228   119932787.627        -122.817          39.000    22427971.814    93281129.521         -95.239          46.000  
R10  23023045.102   122725791.857         740.357          47.000                                                                  
R21  25099860.260   134314814.675        3328.112          48.000    25099858.921   104466886.520        2588.322          48.000  
E24  28921602.098   151984042.506         831.198          46.000    28921600.623   116455341.830         637.012          49.000  
S31  41909871.683   220237943.574        -744.040          44.000  
G29  24146795.699   126892587.271         553.629          49.000    24146790.668    98877476.866         431.398          45.000  
G25  23980560.105   126018905.040          81.903          49.000    23980556.357    98196651.320          63.824          45.000  
G20  27912972.249   146683671.352        1123.767          38.000                                                                  
E33  27453382.846   144268780.771        -156.273          45.000    27453382.514   110543802.947        -119.695          51.000  
G11  25778289.341   135466061.765       -2047.433          44.000    25778285.134   105558200.444       -1595.386          45.000  
E04                                                                  31213882.800                3      -2619.766          21.000  
> 2024 04 09 02 43 00.0100000  0 25                     
S33  42868242.111   225274255.179        -745.923          44.000  
E26  29694823.638   156047438.003       -2566.145          39.000    29694821.266   119568868.689       -1966.240          45.000  
G24  25634512.437   134710361.130       -3919.330          43.000    25634512.958   104969188.941       -3053.833          43.000  
E09  29509672.033   155074290.832       -2931.380          44.000    29509673.404   118823262.569       -2245.994          48.000  
E05  28655439.886   150585449.603        -908.249          41.000    28655439.214   115383616.851        -695.865          41.000  
R11  26166383.950                3       2574.858          22.000    26166353.127   108752772.890        1997.245          31.000  
R09  23495503.926   125464981.207       -2110.920          51.000    23495498.963    97583963.407       -1641.885          51.000  
R19  25410652.003   135930197.246       -4518.025          39.000    25410645.767   105723642.014       -3513.885          45.000  
G28  26232382.713   137852192.003        2243.109          44.000    26232376.764   107417201.569        1747.731          44.000  
G32  26768800.866   140670928.940       -2356.659          46.000    26768798.163   109613711.114       -1836.230          42.000  
E12  29087257.667   152854753.765        2121.015          43.000    29087256.829   117122627.790        1625.159          46.000  
E10  30704182.069   161351584.479        2423.476          39.000    30704193.412   123633100.269        1856.864          44.000  
E31  26891359.449   141315394.703        -647.797          49.000    26891359.896   108280701.210        -496.492          51.000  
G12  24621273.778   129386010.431       -1510.787          49.000    24621268.004   100820453.115       -1177.075          47.000  
R20  22428737.696   119936880.316        -150.465          39.000    22428737.401    93284312.723        -117.018          46.000  
R10  23018910.897   122703752.942         729.026          48.000                                                                  
R21  25081235.476   134215151.972        3316.233          49.000    25081233.000   104389371.503        2579.360          47.000  
E24  28916858.752   151959114.047         830.633          46.000    28916856.770   116436240.827         636.500          49.000  
S31  41914122.002   220260279.934        -744.813          44.000  
G29  24143676.379   126876196.169         539.108          49.000    24143671.583    98864704.596         420.165          45.000  
G25  23980108.343   126016532.556          76.251          49.000    23980104.591    98194802.652          59.442          45.000  
G20  27906579.586   146650076.019        1115.769          38.000                                                                  
E33  27454319.516   144273698.540        -171.540          45.000    27454318.297   110547571.114        -131.436          51.000  
G11  25790032.319   135527771.934       -2066.578          44.000    25790026.292   105606286.281       -1610.319          43.000  
E04                                                                  31233370.124                3      -2617.877          17.000  
> 2024 04 09 02 43 30.0100000  0 25                     
S33  42872499.043   225296626.034        -745.746          44.000  
E26  29709503.100   156124582.829       -2577.157          39.000    29709501.654   119627979.640       -1974.636          45.000  
G24  25656914.736   134828081.921       -3929.150          44.000    25656914.017   105060919.322       -3061.476          42.000  
E09  29526422.912   155162314.394       -2937.136          44.000    29526423.896   118890709.104       -2250.582          48.000  
E05  28660660.581   150612888.812        -921.237          41.000    28660660.852   115404641.731        -706.073          41.000  
R11  26151993.410   139748311.3101       2568.758          31.000    26151939.915                        1997.854          31.000  
R09  23507400.729   125528517.845       -2125.099          51.000    23507396.865    97633380.756       -1652.851          51.000  
R19  25436021.237   136065908.127       -4529.746          38.000    25436015.448   105829194.880       -3523.011          44.000  
G28  26219603.085   137785029.761        2234.080          44.000    26219596.007   107364867.354        1740.850          43.000  
G32  26782289.600   140741814.896       -2369.342          46.000    26782288.082   109668946.879       -1846.283          43.000  
E12  29075163.456   152791199.484        2115.595          43.000    29075162.715   117073930.533        1621.057          46.000  
E10  30690344.800   161278872.422        2423.836          39.000    30690356.541   123577386.445        1856.925          45.000  
E31  26895065.558   141334868.799        -650.702          49.000    26895065.872   108295622.898        -498.628          51.000  
G12  24629912.714   129431408.120       -1516.092          49.000    24629907.193   100855827.929       -1181.367          47.000  
R20  22429656.736   119941791.080        -177.509          40.000    22429655.515    93288132.197        -138.008          45.000  
R10  23014837.660   122682042.319         718.284          47.000                                                                  
R21  25062674.078   134115827.086        3305.108          49.000    25062671.144   104312119.252        2570.761          47.000  
E24  28912116.366   151934191.751         830.525          47.000    28912114.292   116417144.546         636.399          49.000  
S31  41918373.274   220282621.838        -744.807          44.000  
G29  24140637.044   126860225.748         525.339          49.000    24140632.423    98852260.145         409.276          45.000  
G25  23979686.907   126014315.956          71.198          49.000    23979682.967    98193075.415          55.499          45.000  
G20  27900226.855   146616692.598        1108.943          39.000                                                                  
E33  27455338.635   144279060.449        -186.187          44.000    27455338.467   110551679.592        -142.629          51.000  
G11  25801881.403   135590038.482       -2084.918          45.000    25801876.385   105654805.653       -1624.537          44.000  
E04                                                                  31252830.509                3      -2610.462          18.000  
> 2024 04 09 02 44 00.0100000  0 24                     
S33  42876760.037   225319016.735        -746.588          44.000  
E26  29724251.703   156202082.454       -2589.198          40.000    29724249.554   119687362.457       -1983.843          45.000  
G24  25679376.715   134946118.728       -3939.521          45.000    25679375.323   105152895.925       -3069.848          42.000  
E09  29543210.037   155250534.686       -2943.850          44.000    29543211.908   118958306.366       -2255.543          48.000  
E05  28665960.173   150640740.977        -935.036          40.000    28665961.135   115425982.974        -716.355          42.000  
R11  26137542.885                3       2569.663          30.000    26137531.484                3       1998.771          23.000  
R09  23519382.916   125592499.129       -2139.843          51.000    23519377.783    97683143.964       -1664.362          50.000  
R19  25461458.240   136201984.768       -4541.907          35.000    25461454.219   105935032.237       -3532.465          45.000  
G28  26206877.434   137718156.710        2224.389          44.000    26206870.494   107312758.506        1733.506          43.000  
G32  26795855.208   140813102.131       -2382.788          46.000    26795853.554   109724495.317       -1856.696          43.000  
E12  29063103.393   152727823.618        2109.735          43.000    29063102.792   117025369.968        1616.555          46.000  
E10  30676510.489   161206178.512        2423.089          38.000    30676522.811   123521686.503        1856.466          45.000  
E31  26898790.869   141354448.331        -654.293          48.000    26898791.747   108310625.389        -501.315          51.000  
G12  24638586.044   129476989.146       -1522.219          49.000    24638580.595   100891345.593       -1186.225          46.000  
R20  22430732.300   119947536.042        -205.523          41.000    22430729.786    93292600.500        -159.539          45.000  
R10  23010829.395   122660678.063         706.468          47.000                                                                  
R21  25044179.562   134016859.474        3293.090          51.000    25044176.589   104235144.844        2561.509          47.000  
E24  28907377.195   151909290.844         829.806          46.000    28907375.743   116398064.672         635.859          49.000  
S31  41922628.703   220304983.923        -745.646          44.000  
G29  24137680.836   126844690.885         510.658          49.000    24137675.559    98840155.099         397.874          45.000  
G25  23979297.435   126012271.191          65.369          48.000    23979293.774    98191482.088          51.019          45.000  
G20  27893918.166   146583538.998        1101.317          38.000                                                                  
E33  27456446.541   144284882.003        -201.647          45.000    27456446.356   110556140.269        -154.443          52.000  
G11  25813839.240   135652875.318       -2103.814          45.000    25813833.896   105703769.402       -1639.160          45.000  
> 2024 04 09 02 44 30.0100000  0 24                     
S33  42881023.787   225341424.835        -747.097          44.000  
E26  29739065.802   156279932.859       -2600.654          40.000    29739063.879   119747014.065       -1992.866          45.000  
G24  25701898.164   135064466.711       -3950.053          45.000    25701896.139   105245115.009       -3078.076          42.000  
E09  29560034.714   155338947.099       -2950.216          43.000    29560036.604   119026050.860       -2260.474          48.000  
E05  28671338.758   150669002.992        -949.142          41.000    28671340.282   115447638.287        -726.994          44.000  
R11  26123112.543                3       2571.437          27.000    26123067.614   108572915.6481       1999.877          32.000  
R09  23531446.836   125656923.316       -2154.774          50.000    23531442.216    97733251.638       -1675.978          50.000  
R19  25486963.265   136338420.312       -4554.333          33.000    25486959.572   106041148.747       -3541.930          46.000  
G28  26194207.046   137651572.978        2214.727          44.000    26194200.184   107260875.124        1725.681          43.000  
G32  26809495.965   140884785.490       -2395.880          46.000    26809495.040   109780352.433       -1867.108          43.000  
E12  29051077.521   152664625.639        2103.686          43.000    29051076.893   116976945.708        1611.857          47.000  
E10  30662679.383   161133502.072        2422.201          39.000    30662692.438   123465999.951        1856.066          45.000  
E31  26902536.700   141374131.308        -657.792          48.000    26902537.256   108325707.154        -503.976          52.000  
G12  24647294.707   129522751.749       -1528.435          49.000    24647288.852   100927004.774       -1190.990          46.000  
R20  22431962.641   119954112.675        -233.196          41.000    22431959.598    93297715.683        -181.226          45.000  
R10  23006885.780   122639660.454         694.814          47.000                                                                  
R21  25025751.504   133918249.990        3281.007          50.000    25025748.690   104158448.999        2551.895          47.000  
E24  28902641.953   151884408.919         829.178          46.000    28902640.854   116378999.330         635.286          49.000  
S31  41926887.286   220327362.835        -746.152          44.000  
G29  24134806.984   126829588.640         496.299          49.000    24134800.930    98828387.133         386.778          44.000  
G25  23978940.406   126010396.658          59.766          48.000    23978937.059    98190021.423          46.576          45.000  
G20  27887652.870   146550615.605        1093.477          38.000                                                                  
E33  27457642.567   144291161.203        -216.843          46.000    27457641.593   110560951.613        -166.152          52.000  
G11  25825903.687   135716278.608       -2122.680          45.000    25825900.057   105753174.587       -1654.221          46.000  
