     3.00           OBSERVATION DATA    M: Mixed            RINEX VERSION / TYPE
CONVBIN 2.4.3                           20240409 112942 UTC PGM / RUN BY / DATE 
format: u-blox UBX                                          COMMENT             
log: data/2024-04-09/20240409111500.ubx                     COMMENT             
AQUI00CHL                                                   MARKER NAME         
                                                            MARKER NUMBER       
                                                            MARKER TYPE         
                                                            OBSERVER / AGENCY   
UNKNOWN             UBLOX-ZED-F9P                           REC # / TYPE / VERS 
UNKNOWN             TWIVSP6037L                             ANT # / TYPE        
  1713381.0000 -5047934.0000 -3490983.0000                  APPROX POSITION XYZ 
        0.0000        0.0000        0.0000                  ANTENNA: DELTA H/E/N
G    8 C1C L1C D1C S1C C2L L2L D2L S2L                      SYS / # / OBS TYPES 
R    8 C1C L1C D1C S1C C2C L2C D2C S2C                      SYS / # / OBS TYPES 
E    8 C1C L1C D1C S1C C7Q L7Q D7Q S7Q                      SYS / # / OBS TYPES 
S    4 C1C L1C D1C S1C                                      SYS / # / OBS TYPES 
  2024    04    09    11    15   00.0030000     GPS         TIME OF FIRST OBS   
  2024    04    09    11    29   30.0030000     GPS         TIME OF LAST OBS    
                                                            END OF HEADER       
> 2024 04 09 11 15 00.0030000  0 24                     
S33  40524858.734   212959723.0501       -618.738          44.000  
G28  25830580.714   135740626.2561       1576.782          41.000    25830580.428   105771917.3591       1228.690          45.000  
G27  22670859.300   119136196.5101      -3675.309          46.000    22670857.013    92833383.9771      -2863.841          46.000  
R01  19970493.952   106753651.0341      -1347.599          49.000    19970490.575    83030689.4141      -1048.289          45.000  
R17  23146817.518   123863390.5721       2815.038          41.000    23146808.655    96338171.1171       2189.699          46.000  
R23  22166963.151   118578305.6531      -2876.470          51.000                                                                  
R24  20360320.795   108875813.5321        422.443          52.000    20360315.764    84681244.1291        328.603          49.000  
R08  23338340.989   124975741.3781      -4639.178          48.000    23338333.081    97203349.4051      -3608.139          46.000  
E02  27737334.876   145760694.4451      -2942.371          40.000    27737333.179   111686799.5111      -2254.568          38.000  
G21  21215345.792   111487435.0091       1235.350          48.000                                                                  
G02  22114786.635   116213999.2271       1600.394          47.000                                                                  
E10  29309786.591   154024099.4171      -2471.719          37.000    29309791.395   118018562.4361      -1893.811          39.000  
G08  21134617.210   111063171.0691      -1779.448          49.000    21134615.061    86542706.8521      -1386.541          47.000  
R02  21448509.083   114453148.4211       2566.583          52.000    21448505.742    89019295.1201       1996.221          50.000  
E05  24371934.157   128075306.9311       1930.971          46.000    24371935.654    98135663.8011       1479.620          51.000  
S31  39571259.264   207948472.7571       -619.372          43.000  
G03  23440441.082   123180338.1181       1489.789          46.000    23440438.587    95984701.4741       1160.997          44.000  
E34  26338391.845   138409203.3181       1095.344          45.000    26338391.857   106053801.4761        839.312          48.000  
E36  24609018.905   129321322.7231       -467.854          48.000    24609018.935    99090416.1961       -358.471          53.000  
E04  27894752.186   146587896.2131      -2813.433          43.000    27894751.572   112320592.2701      -2155.871          45.000  
G10  24771176.690   130173452.3931      -3777.014          39.000    24771176.860   101433857.5251      -2942.999          34.000  
E11  25861405.489   135902805.2031      -2055.909          39.000    25861404.627   104133417.2621      -1575.217          44.000  
E09  25010017.772   131428542.4941       -570.341          47.000    25010017.845   100704971.3071       -437.014          52.000  
G32  22735937.843   119478157.0391      -2300.872          48.000    22735933.883    93099863.8031      -1792.980          42.000  
> 2024 04 09 11 15 30.0030000  0 24                     
S33  40528391.809   212978288.541        -618.431          44.000  
G28  25821586.700   135693366.240        1574.208          40.000    25821587.592   105735091.422        1226.639          44.000  
G27  22691875.606   119246636.979       -3687.069          46.000    22691873.121    92919441.356       -2872.926          45.000  
R01  19978125.051   106794441.177       -1371.369          49.000    19978121.251    83062415.040       -1066.727          45.000  
R17  23131033.269   123778947.547        2814.535          42.000    23131027.853    96272493.174        2189.057          46.000  
R23  22183135.485   118664817.205       -2890.565          50.000                                                                  
R24  20357993.341   108863367.150         407.678          52.000    20357988.529    84671563.558         317.115          50.000  
R08  23364350.095   125115018.391       -4645.645          48.000    23364343.299    97311675.860       -3613.311          47.000  
E02  27754141.477   145849014.533       -2944.877          39.000    27754140.926   111754473.310       -2256.717          40.000  
G21  21208320.018   111450512.982        1226.520          48.000                                                                  
G02  22105670.150   116166089.514        1593.823          48.000                                                                  
E10  29323906.932   154098301.098       -2474.588          36.000    29323912.982   118075417.916       -1896.427          40.000  
G08  21144832.761   111116854.029       -1799.075          49.000    21144831.215    86584537.670       -1401.845          47.000  
R02  21434129.767   114376419.509        2549.041          52.000    21434126.341    88959617.076        1982.530          49.000  
E05  24360932.006   128017492.124        1923.597          46.000    24360933.759    98091364.113        1474.055          51.000  
S31  39574796.304   207967060.666        -619.327          43.000  
G03  23431961.172   123135775.034        1481.421          47.000    23431958.672    95949976.961        1154.253          44.000  
E34  26332138.937   138376345.944        1095.723          45.000    26332139.537   106028625.018         839.404          48.000  
E36  24611701.397   129335421.871        -471.713          48.000    24611702.121    99101219.399        -361.381          53.000  
E04  27910841.033   146672440.366       -2822.357          43.000    27910840.730   112385372.726       -2162.484          47.000  
G10  24792737.538   130286757.531       -3776.007          38.000    24792738.276   101522147.061       -2942.584          34.000  
E11  25873157.718   135964554.085       -2060.171          40.000    25873154.846   104180731.238       -1578.522          43.000  
E09  25013315.484   131445870.926        -584.499          47.000    25013315.805   100718248.886        -447.792          52.000  
G32  22749126.780   119547466.672       -2319.344          47.000    22749123.502    93153871.251       -1807.437          42.000  
> 2024 04 09 11 16 00.0030000  0 24                     
S33  40531924.798   212996855.585        -618.481          44.000  
G28  25812608.600   135646186.040        1571.459          41.000    25812609.087   105698327.642        1224.642          43.000  
G27  22712959.795   119357431.629       -3698.825          47.000    22712955.661    93005774.767       -2882.249          44.000  
R01  19985888.811   106835946.532       -1395.100          49.000    19985885.509    83094696.931       -1085.069          45.000  
R17  23115256.755   123694521.416        2814.224          44.000    23115250.176    96206828.380        2188.776          46.000  
R23  22199387.019   118751752.682       -2904.624          51.000                                                                  
R24  20355749.896   108851365.439         392.915          52.000    20355743.980    84662228.886         305.565          50.000  
R08  23390395.339   125254491.973       -4652.104          48.000    23390389.174    97420155.194       -3618.241          48.000  
E02  27770964.726   145937418.536       -2948.265          37.000    27770963.234   111822211.335       -2258.771          40.000  
G21  21201346.244   111413863.236        1217.409          48.000                                                                  
G02  22096589.910   116118370.458        1587.677          48.000                                                                  
E10  29338045.626   154172591.158       -2477.535          37.000    29338050.318   118132341.057       -1898.499          40.000  
G08  21155159.554   111171123.395       -1818.532          49.000    21155158.146    86626825.447       -1417.072          47.000  
R02  21419849.739   114300220.038        2531.384          52.000    21419846.792    88900350.799        1968.848          49.000  
E05  24349972.698   127959902.008        1916.111          45.000    24349974.856    98047236.576        1468.192          51.000  
S31  39578333.588   207985648.075        -619.191          43.000  
G03  23423528.353   123091463.311        1473.036          47.000    23423526.370    95915448.314        1147.908          44.000  
E34  26325884.764   138343481.804        1095.744          44.000    26325885.794   106003443.365         839.644          48.000  
E36  24614405.663   129349634.196        -475.246          48.000    24614406.739    99112109.334        -364.254          53.000  
E04  27926978.162   146757240.802       -2830.577          42.000    27926977.957   112450349.564       -2169.039          48.000  
G10  24814293.322   130400034.329       -3775.208          40.000    24814292.968   101610414.483       -2940.540          32.000  
E11  25884930.397   136026423.063       -2064.260          40.000    25884928.653   104228137.268       -1581.552          44.000  
E09  25016693.959   131463624.966        -598.671          47.000    25016694.373   100731852.580        -458.706          53.000  
G32  22762421.341   119617330.748       -2337.660          47.000    22762417.213    93208310.746       -1821.638          42.000  
> 2024 04 09 11 16 30.0030000  0 24                     
S33  40535457.404   213015418.481        -618.768          44.000  
G28  25803646.399   135599086.469        1569.124          42.000    25803646.013   105661626.713        1222.539          43.000  
G27  22734109.743   119468575.903       -3710.496          46.000    22734105.251    93092380.571       -2891.289          44.000  
R01  19993786.455   106878163.044       -1418.826          49.000    19993783.744    83127531.969       -1103.634          46.000  
R17  23099483.116   123610112.311        2813.418          44.000    23099475.516    96141176.808        2188.374          46.000  
R23  22215717.049   118839109.073       -2918.705          49.000                                                                  
R24  20353587.848   108839808.810         377.971          51.000    20353583.078    84653240.343         293.956          50.000  
R08  23416476.422   125394155.719       -4658.380          48.000    23416470.792    97528782.435       -3623.156          46.000  
E02  27787801.928   146025902.145       -2950.751          36.000    27787801.169   111890010.391       -2261.146          40.000  
G21  21194423.790   111377486.069        1208.346          48.000                                                                  
G02  22087545.397   116070841.531        1581.271          48.000                                                                  
E10  29352197.280   154246967.636       -2480.473          38.000    29352202.916   118189330.599       -1900.469          39.000  
G08  21165597.872   111225976.106       -1837.944          49.000    21165595.997    86669567.774       -1432.216          47.000  
R02  21405669.807   114224550.951        2513.733          52.000    21405667.318    88841497.022        1955.115          50.000  
E05  24339056.663   127902536.060        1908.646          46.000    24339058.518    98003280.792        1462.521          51.000  
S31  39581870.421   208004233.748        -619.677          43.000  
G03  23415143.974   123047400.867        1464.832          47.000    23415141.151    95881113.888        1141.299          44.000  
E34  26319629.530   138310609.133        1096.080          44.000    26319630.317   105978255.167         839.913          48.000  
E36  24617131.031   129363958.389        -479.134          48.000    24617132.521    99123084.974        -367.089          53.000  
E04  27943162.986   146842293.799       -2839.142          39.000    27943162.893   112515519.915       -2175.395          48.000  
G10  24835843.973   130513279.285       -3774.072          41.000    24835841.551   101698657.221       -2940.759          33.000  
E11  25896725.810   136088410.598       -2067.997          41.000    25896724.388   104275634.094       -1584.544          44.000  
E09  25020153.149   131481802.338        -612.772          48.000    25020153.542   100745780.655        -469.581          53.000  
G32  22775820.578   119687745.237       -2356.052          47.000    22775817.498    93263179.073       -1835.983          44.000  
> 2024 04 09 11 17 00.0030000  0 24                     
S33  40538989.620   213033980.146        -618.685          44.000  
G28  25794700.515   135552069.862        1565.936          44.000    25794698.971   105624990.456        1220.190          43.000  
G27  22755326.071   119580066.579       -3721.775          46.000    22755322.266    93179256.353       -2900.237          45.000  
R01  20001816.534   106921087.725       -1442.387          49.000    20001813.184    83160917.796       -1121.950          45.000  
R17  23083711.781   123525721.885        2812.949          43.000    23083704.668    96075539.813        2187.674          46.000  
R23  22232125.436   118926885.881       -2932.732          50.000                                                                  
R24  20351510.056   108828699.088         362.931          51.000    20351505.636    84644599.417         282.429          50.000  
R08  23442592.410   125534005.269       -4664.560          48.000    23442586.326    97637554.143       -3628.078          47.000  
E02  27804652.670   146114462.589       -2953.158          34.000    27804653.946   111957868.334       -2262.668          40.000  
G21  21187553.330   111341382.128        1198.971          48.000                                                                  
G02  22078536.674   116023503.640        1575.054          47.000                                                                  
E10  29366367.452   154321430.353       -2483.445          39.000    29366373.136   118246386.156       -1902.809          38.000  
G08  21176146.906   111281410.468       -1857.344          48.000    21176145.112    86712763.326       -1447.311          47.000  
R02  21391589.027   114149413.995        2495.800          52.000    21391586.107    88783057.143        1941.315          49.000  
E05  24328183.043   127845395.303        1901.076          46.000    24328185.644    97959497.576        1456.635          52.000  
S31  39585407.017   208022817.252        -619.367          43.000  
G03  23406806.158   123003586.952        1456.491          47.000    23406804.216    95846973.155        1134.706          44.000  
E34  26313371.852   138277727.730        1096.431          44.000    26313373.245   105953060.288         840.055          48.000  
E36  24619878.373   129378394.616        -482.959          48.000    24619879.767    99134146.455        -370.032          53.000  
E04  27959395.556   146927597.015       -2847.038          37.000    27959395.967   112580882.018       -2181.742          49.000  
G10  24857386.435   130626490.580       -3772.992          39.000    24857386.415   101786873.576       -2939.899          35.000  
E11  25908545.350   136150516.558       -2071.787          42.000    25908543.105   104323221.647       -1587.438          44.000  
E09  25023692.733   131500402.290        -626.887          48.000    25023692.898   100760032.522        -480.306          53.000  
G32  22789324.210   119758707.552       -2374.264          46.000    22789323.080    93318474.310       -1850.129          46.000  
> 2024 04 09 11 17 30.0030000  0 24                     
S33  40542522.497   213052545.028        -618.889          44.000  
G28  25785770.530   135505144.650        1562.774          44.000    25785769.681   105588425.394        1217.629          43.000  
G27  22776607.144   119691906.803       -3733.751          46.000    22776605.572    93266404.474       -2909.505          45.000  
R01  20009979.756   106964724.059       -1466.404          49.000    20009976.576    83194857.104       -1140.388          45.000  
R17  23067945.167   123441358.387        2811.722          42.000    23067939.745    96009923.701        2186.887          46.000  
R23  22248615.038   119015087.944       -2947.138          50.000                                                                  
R24  20349517.288   108818044.688         347.559          51.000    20349513.472    84636312.622         270.255          50.000  
R08  23468743.281   125674042.598       -4670.951          48.000    23468735.732    97746471.954       -3633.057          44.000  
E02  27821520.594   146203103.342       -2955.956          34.000    27821522.048   112025787.808       -2264.922          41.000  
G21  21180735.896   111305558.774        1189.475          48.000                                                                  
G02  22069566.269   115976364.457        1567.959          47.000                                                                  
E10  29380554.989   154395984.926       -2486.593          38.000    29380560.791   118303512.034       -1905.606          38.000  
G08  21186807.697   111337430.938       -1877.141          50.000    21186805.099    86756415.591       -1462.836          46.000  
R02  21377609.744   114074817.440        2477.482          52.000    21377606.274    88725037.553        1926.988          48.000  
E05  24317354.429   127788486.934        1893.104          46.000    24317356.150    97915892.422        1450.600          52.000  
S31  39588943.726   208041402.960        -619.650          43.000  
G03  23398516.790   122960027.158        1447.679          47.000    23398514.698    95813030.394        1128.134          43.000  
E34  26307115.242   138244843.564        1096.272          45.000    26307115.829   105927863.285         839.999          49.000  
E36  24622647.571   129392949.201        -487.103          48.000    24622649.565    99145298.638        -373.264          53.000  
E04  27975675.539   147013154.478       -2856.213          34.000    27975677.126   112646438.858       -2188.473          49.000  
G10  24878923.150   130739672.599       -3771.991          37.000    24878925.055   101875067.107       -2939.581          35.000  
E11  25920387.386   136212746.963       -2076.452          42.000    25920384.981   104370904.548       -1591.109          44.000  
E09  25027313.788   131519430.177        -641.318          48.000    25027313.672   100774612.288        -491.454          53.000  
G32  22802932.805   119830221.307       -2392.985          46.000    22802931.471    93374199.221       -1864.446          45.000  
> 2024 04 09 11 18 00.0030000  0 24                     
S33  40546056.809   213071118.130        -619.226          44.000  
G28  25776859.009   135458318.863        1559.408          43.000    25776858.450   105551937.871        1214.926          42.000  
G27  22797956.836   119804099.150       -3745.572          46.000    22797955.025    93353826.982       -2918.724          45.000  
R01  20018277.169   107009075.015       -1490.222          50.000    20018273.278    83229352.289       -1158.998          45.000  
R17  23052184.947   123357029.533        2810.406          42.000    23052181.240    95944334.569        2185.850          47.000  
R23  22265183.403   119103720.630       -2961.575          49.000                                                                  
R24  20347611.380   108807853.347         331.980          51.000    20347607.885    84628385.974         258.173          50.000  
R08  23494929.419   125814268.539       -4677.361          47.000    23494923.025    97855536.382       -3637.856          46.000  
E02  27838403.530   146291827.486       -2958.825          32.000    27838405.898   112093771.146       -2267.177          41.000  
G21  21173974.155   111270024.610        1179.719          47.000                                                                  
G02  22060634.794   115929430.675        1560.985          47.000                                                                  
E10  29394761.573   154470636.892       -2489.900          38.000    29394767.477   118360712.537       -1907.955          40.000  
G08  21197580.515   111394041.681       -1896.853          50.000    21197577.924    86800527.784       -1478.034          46.000  
R02  21363733.163   114000769.348        2459.204          52.000    21363729.337    88667444.558        1912.744          48.000  
E05  24306571.394   127731817.765        1884.871          46.000    24306572.379    97872470.554        1444.383          52.000  
S31  39592481.779   208059997.537        -619.802          43.000  
G03  23390277.177   122916726.552        1439.067          47.000    23390275.782    95779289.633        1121.104          44.000  
E34  26300857.967   138211962.265        1096.086          45.000    26300858.742   105902668.490         839.824          49.000  
E36  24625441.151   129407628.176        -491.412          48.000    24625442.850    99156546.113        -376.479          53.000  
E04  27992005.334   147098969.446       -2864.461          34.000    27992007.392   112712193.116       -2194.997          49.000  
G10  24900456.822   130852829.118       -3771.086          41.000    24900459.381   101963240.855       -2938.692          34.000  
E11  25932253.725   136275107.467       -2080.879          42.000    25932251.785   104418687.167       -1594.541          44.000  
E09  25031016.393   131538891.006        -655.890          48.000    25031017.216   100789523.786        -502.511          53.000  
G32  22816647.180   119902289.663       -2411.361          46.000    22816645.320    93430356.339       -1879.133          46.000  
> 2024 04 09 11 18 30.0030000  0 24                     
S33  40549591.890   213089694.733        -619.171          44.000  
G28  25767968.254   135411592.778        1555.636          44.000    25767966.159   105515528.029        1212.218          42.000  
G27  22819373.019   119916638.248       -3756.977          47.000    22819370.676    93441519.714       -2927.728          44.000  
R01  20026705.947   107054135.792       -1513.804          49.000    20026703.002    83264399.528       -1177.350          45.000  
R17  23036433.310   123272734.874        2809.192          42.000    23036429.136    95878772.008        2184.867          47.000  
R23  22281831.764   119192780.559       -2975.766          50.000                                                                  
R24  20345792.109   108798124.706         316.543          51.000    20345788.351    84620819.225         246.201          50.000  
R08  23521149.997   125954676.474       -4683.155          48.000    23521142.803    97964742.457       -3642.611          45.000  
E02  27855296.932   146380630.038       -2961.333          31.000    27855304.480   112161814.563       -2269.035          40.000  
G21  21167267.314   111234778.689        1170.066          48.000                                                                  
G02  22051743.036   115882701.119        1554.279          47.000                                                                  
E10  29408984.870   154545383.584       -2492.980          38.000    29408991.965   118417985.704       -1910.283          42.000  
G08  21208465.042   111451238.709       -1916.368          50.000    21208462.019    86845096.844       -1493.272          46.000  
R02  21349958.472   113927269.307        2440.867          52.000    21349955.384    88610277.858        1898.424          48.000  
E05  24295832.763   127675386.559        1877.047          46.000    24295833.881    97829231.036        1438.314          51.000  
S31  39596021.181   208078596.812        -619.866          43.000  
G03  23382085.677   122873682.333        1430.411          46.000    23382084.483    95745748.629        1114.774          45.000  
E34  26294601.372   138179081.380        1096.070          45.000    26294601.723   105877474.026         839.833          49.000  
E36  24628258.146   129422429.452        -495.381          48.000    24628259.439    99167887.303        -379.563          53.000  
E04  28008384.527   147185037.600       -2873.187          31.000    28008386.125   112778141.322       -2201.474          50.000  
G10  24921984.185   130965956.230       -3770.282          38.000    24921987.562                       -2937.718          31.000  
E11  25944145.728   136337595.696       -2085.144          42.000    25944143.607   104466567.633       -1597.578          44.000  
E09  25034801.706   131558781.762        -670.108          48.000    25034802.279   100804764.718        -513.541          53.000  
G32  22830465.823   119974907.795       -2429.703          46.000    22830464.182    93486941.815       -1893.338          45.000  
> 2024 04 09 11 19 00.0030000  0 24                     
S33  40553128.681   213108279.388        -619.584          44.000  
G28  25759095.789   135364969.671        1552.155          44.000    25759094.352   105479198.420        1209.722          43.000  
G27  22840854.428   120029522.055       -3768.719          47.000    22840851.748    93529481.039       -2936.453          44.000  
R01  20035268.047   107099904.172       -1537.600          49.000    20035264.385    83299997.112       -1195.896          45.000  
R17  23020688.217   123188477.166        2807.853          44.000    23020683.914    95813238.217        2183.788          47.000  
R23  22298561.264   119282267.913       -2990.208          50.000                                                                  
R24  20344060.845   108788861.857         300.806          51.000    20344055.464    84613614.752         233.983          49.000  
R08  23547403.971   126095263.673       -4689.313          48.000    23547397.231    98074087.859       -3647.314          44.000  
E02  27872214.200   146469509.273       -2963.747          32.000    27872217.990   112229916.789       -2271.028          40.000  
G21  21160615.025   111199822.353        1160.206          47.000                                                                  
G02  22042890.328   115836178.002        1547.164          49.000                                                                  
E10  29423227.891   154620225.724       -2496.428          40.000    29423234.092   118475331.951       -1912.876          43.000  
G08  21219460.628   111509021.375       -1935.960          49.000    21219457.692    86890122.251       -1508.611          46.000  
R02  21336288.769   113854320.414        2422.238          53.000    21336285.956    88553539.821        1884.001          49.000  
E05  24285139.780   127619195.415        1869.063          46.000    24285140.912    97786175.466        1432.035          51.000  
S31  39599561.584   208097202.009        -620.397          43.000  
G03  23373943.289   122830894.874        1421.936          46.000    23373941.685    95712407.695        1107.823          45.000  
E34  26288344.529   138146201.845        1095.951          46.000    26288344.860   105852280.590         839.732          49.000  
E36  24631098.744   129437354.332        -499.721          49.000    24631099.690    99179323.197        -382.868          53.000  
G10  24943507.497   131079053.170       -3769.523          41.000    24943508.553   102139519.010       -2937.284          37.000  
E11  25956061.230   136400212.545       -2089.215          42.000    25956059.047   104514546.683       -1601.002          44.000  
E09  25038668.690   131579102.664        -684.623          48.000    25038669.307   100820335.240        -524.598          53.000  
G32  22844389.240   120048074.107       -2448.097          45.000    22844386.891    93543954.446       -1907.686          46.000  
E04                                                                  28024812.455   112844282.544       -2207.978          50.000  
> 2024 04 09 11 19 30.0030000  0 24                     
S33  40556665.736   213126867.693        -619.951          44.000  
G28  25750243.229   135318451.665        1548.628          42.000    25750242.621   105442950.747        1206.803          43.000  
G27  22862400.530   120142747.206       -3779.925          47.000    22862397.264    93617708.329       -2945.323          43.000  
R01  20043961.636   107146377.272       -1560.952          49.000    20043958.700    83336142.820       -1214.095          45.000  
R17  23004948.814   123104258.018        2806.696          43.000    23004945.475    95747734.398        2182.731          47.000  
R23  22315370.000   119372181.283       -3004.342          50.000                                                                  
R24  20342415.776   108780066.544         285.269          51.000    20342410.839    84606773.938         221.847          50.000  
R08  23573690.246   126236025.310       -4695.204          48.000    23573683.343    98183569.042       -3651.615          45.000  
E02  27889143.442   146558462.424       -2966.279          35.000    27889144.657   112298075.609       -2273.093          39.000  
G21  21154019.157   111165158.336        1150.417          48.000                                                                  
G02  22034076.802   115789862.247        1540.261          49.000                                                                  
E10  29437487.359   154695162.681       -2499.646          37.000    29437494.359   118532750.844       -1915.251          42.000  
G08  21230567.383   111567387.719       -1955.525          50.000    21230564.839    86935602.476       -1523.766          46.000  
R02  21322721.705   113781924.904        2403.807          52.000    21322719.283    88497232.170        1869.559          49.000  
E05  24274492.612   127563245.174        1860.765          46.000    24274494.232    97743304.464        1425.826          52.000  
S31  39603103.354   208115812.361        -620.683          43.000  
G03  23365849.769   122788363.293        1413.344          46.000    23365848.181    95679266.149        1101.226          44.000  
E34  26282086.947   138113323.315        1095.724          45.000    26282088.281   105827087.916         839.692          49.000  
E36  24633962.920   129452402.807        -503.920          49.000    24633963.313    99190853.796        -386.050          53.000  
G10  24965023.357   131192117.737       -3768.280          42.000    24965023.313   102227621.052       -2936.110          37.000  
E11  25968001.766   136462957.654       -2093.858          42.000    25967998.628   104562624.017       -1604.329          43.000  
E09  25042617.853   131599852.687        -698.928          49.000    25042618.206   100836234.572        -535.631          53.000  
G32  22858416.122   120121785.773       -2466.263          46.000    22858413.311    93601392.037       -1921.739          45.000  
E04                                                                  28041286.327   112910614.922       -2214.381          50.000  
> 2024 04 09 11 20 00.0030000  0 24                     
S33  40560204.087   213145460.498        -620.052          44.000  
G28  25741411.730   135272041.090        1544.927          43.000    25741411.236   105406786.768        1203.963          44.000  
G27  22884011.139   120256310.443       -3791.315          46.000    22884007.352    93706199.048       -2954.099          43.000  
R01  20052786.589   107193551.741       -1584.267          49.000    20052783.807    83372834.047       -1232.265          45.000  
R17  22989218.051   123020079.603        2804.886          44.000    22989214.963    95682262.257        2181.727          46.000  
R23  22332256.922   119462519.746       -3018.545          49.000                                                                  
R24  20340859.074   108771740.560         269.466          52.000    20340854.286    84600298.128         209.544          50.000  
R08  23600007.947   126376956.335       -4700.819          47.000    23600003.130    98293181.925       -3656.200          46.000  
E02  27906085.769   146647486.526       -2968.755          37.000    27906085.565   112366288.812       -2275.096          39.000  
G21  21147478.769   111130787.574        1140.640          47.000                                                                  
G02  22025302.971   115743755.542        1533.201          48.000                                                                  
E10  29451765.125   154770194.033       -2502.640          38.000    29451773.015   118590242.075       -1917.787          43.000  
G08  21241785.034   111626335.841       -1974.778          50.000    21241782.870    86981536.019       -1538.867          47.000  
R02  21309258.893   113710084.104        2385.135          52.000    21309255.921    88441355.967        1855.081          49.000  
E05  24263891.160   127507536.718        1852.593          45.000    24263893.216    97700618.740        1419.633          51.000  
S31  39606645.378   208134426.517        -620.793          43.000  
G03  23357804.906   122746086.816        1404.579          46.000    23357803.265    95646323.401        1094.498          44.000  
E34  26275830.844   138080445.495        1095.622          45.000    26275832.163   105801895.791         839.584          49.000  
E36  24636849.623   129467574.950        -508.061          49.000    24636850.517    99202479.167        -389.212          53.000  
G10  24986532.676   131305148.242       -3767.147          42.000    24986530.520   102315696.517       -2935.465          34.000  
E11  25979964.364   136525830.832       -2098.297          40.000    25979962.861   104610799.498       -1607.764          43.000  
E09  25046647.834   131621030.896        -713.259          49.000    25046648.282   100852462.000        -546.532          53.000  
G32  22872546.389   120196040.052       -2484.335          46.000    22872543.824    93659252.445       -1935.883          45.000  
E04                                                                  28057807.253   112977136.603       -2220.715          50.000  
> 2024 04 09 11 20 30.0030000  0 24                     
S33  40563743.061   213164058.477        -620.137          44.000  
G28  25732601.047   135225742.332        1541.562          43.000    25732600.777   105370709.912        1201.107          42.000  
G27  22905685.734   120370210.661       -3802.185          47.000    22905682.347    93794952.390       -2962.549          44.000  
R01  20061742.913   107241426.938       -1607.443          49.000    20061739.510    83410070.301       -1250.327          45.000  
R17  22973497.323   122935945.760        2803.633          46.000    22973493.084    95616824.772        2180.852          47.000  
R23  22349224.714   119553284.187       -3032.459          49.000                                                                  
R24  20339391.335   108763888.075         253.885          52.000    20339386.139    84594190.602         197.506          49.000  
R08  23626357.410   126518055.371       -4705.987          47.000    23626352.334    98402925.476       -3660.172          45.000  
E02  27923040.388   146736581.054       -2970.636          38.000    27923039.301   112434555.967       -2276.178          38.000  
G21  21140994.929   111096713.639        1130.819          48.000                                                                  
G02  22016569.369   115697860.387        1526.364          48.000                                                                  
E10  29466062.107   154845321.464       -2505.602          40.000    29466069.824   118647806.939       -1919.912          42.000  
G08  21253112.663   111685866.060       -1993.948          50.000    21253111.301    87027923.147       -1553.769          48.000  
R02  21295900.343   113638802.129        2366.746          52.000    21295897.593    88385914.415        1840.825          48.000  
E05  24253335.162   127452073.148        1844.880          44.000    24253338.334    97658120.683        1413.469          51.000  
S31  39610188.506   208153046.173        -620.490          43.000  
G03  23349809.103   122704066.885        1396.500          46.000    23349808.059    95613580.568        1088.155          45.000  
E34  26269575.522   138047570.415        1095.865          46.000    26269576.276   105776705.754         839.741          50.000  
E36  24639759.572   129482873.149        -511.983          47.000    24639761.679    99214201.120        -392.281          53.000  
E04  28074383.192   147531878.7001      -2906.355          29.000    28074374.809   113043847.469       -2226.690          50.000  
G10  25008034.720   131418145.077       -3765.773          42.000    25008032.284                       -2934.402          31.000  
E11  25991954.363   136588834.115       -2102.149          40.000    25991952.158   104659074.637       -1610.620          43.000  
E09  25050759.957   131642638.586        -727.248          49.000    25050760.023   100869018.505        -557.282          53.000  
G32  22886779.687   120270836.390       -2502.144          45.000    22886777.613    93717535.228       -1949.746          46.000  
> 2024 04 09 11 21 00.0030000  0 24                     
S33  40567282.891   213182660.141        -620.201          45.000  
G28  25723811.743   135179555.930        1537.554          43.000    25723811.986   105334720.590        1197.914          42.000  
G27  22927422.477   120484442.908       -3813.225          46.000    22927420.294    93883964.427       -2971.287          43.000  
R01  20070828.773   107289997.867       -1630.672          48.000    20070825.894    83447847.652       -1268.447          45.000  
R17  22957783.868   122851856.382        2802.179          48.000    22957778.742    95551421.889        2179.528          46.000  
R23  22366271.177   119644471.806       -3046.670          50.000    22365937.882                3      -2318.033          11.000  
R24  20338011.795   108756509.056         237.985          52.000    20338005.821    84588451.334         185.118          49.000  
R08  23652737.227   126659315.549       -4711.556          46.000    23652732.009    98512794.380       -3664.413          46.000  
E02  27940007.023   146825741.504       -2973.230          39.000    27940005.837   112502873.594       -2278.024          38.000  
G21  21134567.159   111062935.653        1120.897          48.000                                                                  
G02  22007875.856   115652176.218        1519.217          48.000                                                                  
E10  29480376.090   154920542.754       -2509.031          39.000    29480384.059   118705443.689       -1922.401          42.000  
G08  21264550.948   111745974.674       -2013.307          50.000    21264549.550    87074760.974       -1568.826          47.000  
R02  21282646.603   113568078.997        2348.070          52.000    21282644.095    88330907.515        1826.138          49.000  
E05  24242827.576   127396853.666        1836.619          44.000    24242829.929    97615809.620        1407.163          50.000  
S31  39613732.565   208171668.707        -620.817          43.000  
G03  23341861.932   122662300.993        1387.871          47.000    23341860.037    95581035.667        1081.541          44.000  
E34  26263319.440   138014696.036        1095.713          46.000    26263320.563   105751516.257         839.617          50.000  
E36  24642694.661   129498295.720        -516.306          48.000    24642696.511    99226018.380        -395.598          54.000  
E04  28090996.820   147619185.007       -2914.276          31.000    28090988.777   113110744.374       -2233.070          50.000  
G10  25029529.275   131531104.525       -3764.571          40.000    25029529.249   102491765.898       -2933.792          33.000  
E11  26003966.827   136651965.401       -2106.326          38.000    26003965.533   104707447.876       -1613.948          43.000  
E09  25054952.016   131664673.012        -741.714          48.000    25054952.957   100885902.007        -568.275          53.000  
G32  22901114.949   120346170.271       -2520.033          45.000    22901113.121    93776236.864       -1963.599          45.000  
> 2024 04 09 11 21 30.0030000  0 24                     
S33  40570823.849   213201268.403        -620.242          45.000  
G28  25715046.051   135133488.659        1533.496          44.000    25715044.594   105298824.110        1194.736          41.000  
G27  22949224.453   120599008.446       -3824.243          47.000    22949221.421    93973236.175       -2979.743          44.000  
R01  20080045.451   107339266.058       -1653.761          49.000    20080042.287    83486167.312       -1286.118          45.000  
R17  22942079.930   122767818.165        2800.590          49.000    22942073.758    95486058.815        2178.193          45.000  
R23  22383397.926   119736086.188       -3060.794          50.000                                                                  
R24  20336720.836   108749609.909         222.122          52.000    20336715.443    84583085.284         172.745          49.000  
R08  23679146.218   126800737.004       -4716.567          44.000    23679142.152    98622788.708       -3668.440          46.000  
E02  27956987.791   146914969.509       -2975.301          40.000    27956985.964   112571243.026       -2279.587          40.000  
G21  21128197.134   111029460.000        1110.897          47.000                                                                  
G02  21999223.514   115606708.773        1512.072          48.000                                                                  
E10  29494709.216   154995862.024       -2512.483          39.000    29494716.728   118763155.548       -1924.827          40.000  
G08  21276099.636   111806664.353       -2032.447          49.000    21276098.097    87122051.607       -1583.697          47.000  
R02  21269498.872   113497921.404        2329.344          51.000    21269496.430    88276340.446        1811.636          48.000  
E05  24232366.790   127341883.721        1828.285          45.000    24232369.828    97573689.760        1400.907          50.000  
S31  39617277.781   208190299.287        -620.967          43.000  
G03  23333962.935   122620792.901        1379.477          45.000    23333961.295    95548691.650        1074.843          44.000  
E34  26257064.946   137981826.736        1095.686          46.000    26257065.748   105726330.658         839.491          50.000  
E36  24645654.031   129513847.397        -520.358          47.000    24645655.790    99237934.557        -398.769          53.000  
E04  28107655.268   147706736.160       -2921.713          33.000    28107649.437   113177828.975       -2239.216          50.000  
G10  25051019.357   131644029.335       -3763.424          42.000    25051020.609                       -2933.283          30.000  
E11  26016005.094   136715229.101       -2110.867          38.000    26016004.871   104755922.567       -1617.379          43.000  
E09  25059226.706   131687137.778        -755.837          48.000    25059227.661   100903115.255        -579.119          52.000  
G32  22915553.904   120422043.423       -2538.017          45.000    22915551.660    93835358.692       -1977.607          45.000  
> 2024 04 09 11 22 00.0030000  0 24                     
S33  40574365.083   213219878.008        -620.020          45.000  
G28  25706301.903   135087537.178        1529.842          44.000    25706300.201   105263017.837        1192.213          41.000  
G27  22971087.721   120713898.381       -3834.940          47.000    22971084.415    94062760.703       -2988.266          44.000  
R01  20089391.668   107389222.449       -1676.431          49.000    20089387.651    83525022.249       -1303.834          45.000  
R17  22926384.697   122683827.186        2799.138          49.000    22926377.530    95420732.444        2176.985          44.000  
R23  22400601.943   119828120.441       -3074.666          50.000                                                                  
R24  20335519.870   108743186.817         206.357          52.000    20335514.766    84578089.481         160.527          50.000  
R08  23705583.464   126942309.518       -4721.277          43.000    23705579.451    98732900.510       -3672.016          44.000  
E02  27973979.078   147004256.766       -2976.697          40.000    27973977.985   112639657.827       -2281.205          41.000  
G21  21121883.621   110996283.071        1101.061          48.000                                                                  
G02  21990611.847   115561453.563        1505.139          48.000                                                                  
E10  29509059.403   155071273.178       -2514.992          40.000    29509067.198   118820937.793       -1927.035          42.000  
G08  21287757.603   111867927.534       -2051.379          49.000    21287756.301    87169789.091       -1598.326          48.000  
R02  21256456.235   113428325.063        2310.624          51.000    21256454.573    88222209.914        1797.091          48.000  
E05  24221953.892   127287158.626        1820.335          45.000    24221956.198    97531757.516        1394.677          50.000  
S31  39620823.271   208208929.670        -620.725          43.000  
G03  23326111.517   122579536.223        1371.372          45.000    23326110.537    95516543.565        1068.428          43.000  
E34  26250810.198   137948956.738        1095.862          46.000    26250810.681   105701144.512         839.681          50.000  
E36  24648636.500   129529522.707        -524.422          48.000    24648638.769    99249945.462        -401.890          53.000  
E04  28124354.207   147794524.371       -2929.807          33.000    28124354.940   113245095.169       -2245.180          49.000  
G10  25072499.963   131756912.048       -3761.661          44.000    25072499.950                       -2931.378          28.000  
E11  26028069.029   136778619.349       -2115.100          39.000    26028067.586   104804494.241       -1620.583          43.000  
E09  25063582.674   131710026.321        -769.826          48.000    25063583.185   100920653.199        -589.866          52.000  
G32  22930092.831   120498447.383       -2555.555          46.000    22930090.954    93894894.195       -1991.309          45.000  
> 2024 04 09 11 22 30.0030000  0 24                     
S33  40577906.629   213238487.706        -620.154          45.000  
G28  25697579.952   135041704.101        1525.767          44.000    25697578.897   105227303.878        1189.173          43.000  
G27  22993011.518   120829109.840       -3845.646          45.000    22993008.080    94152535.791       -2996.689          44.000  
R01  20098865.149   107439864.641       -1699.490          49.000    20098861.055    83564410.583       -1321.644          44.000  
R17  22910697.701   122599885.554        2797.223          48.000    22910690.786    95355444.490        2175.667          44.000  
R23  22417885.555   119920573.561       -3088.745          50.000                                                                  
R24  20334408.221   108737241.948         190.182          52.000    20334403.837    84573465.681         147.941          50.000  
R08  23732047.755   127084029.472       -4726.364          41.000    23732043.766    98843127.044       -3675.990          44.000  
E02  27990979.669   147093600.803       -2978.969          38.000    27990979.944   112708116.088       -2282.628          41.000  
G21  21115626.893   110963406.174        1090.954          47.000                                                                  
G02  21982040.747   115516412.084        1497.798          49.000                                                                  
E10  29523428.406   155146776.072       -2518.162          40.000    29523436.204   118878790.378       -1929.628          43.000  
G08  21299524.211   111929762.575       -2070.772          49.000    21299523.034    87217972.180       -1613.551          47.000  
R02  21243520.284   113359292.511        2291.697          51.000    21243517.688    88168517.925        1782.444          48.000  
E05  24211587.634   127232679.657        1811.916          46.000    24211589.482    97490013.856        1388.312          51.000  
S31  39624368.733   208227560.704        -621.130          43.000  
G03  23318308.737   122538530.548        1362.807          45.000    23318307.125    95484591.054        1061.916          43.000  
E34  26244554.978   137916086.179        1095.788          46.000    26244555.506   105675957.943         839.643          50.000  
E36  24651643.655   129545322.168        -528.605          48.000    24651645.152    99262051.495        -404.989          53.000  
E04  28141097.506   147882547.535       -2938.116          32.000    28141105.119   113312541.398       -2251.132          49.000  
G10  25093972.744   131869751.230       -3760.491          45.000    25093966.976   102755645.994       -2930.813          32.000  
E11  26040157.641   136842136.297       -2119.474          40.000    26040154.225   104853162.959       -1623.939          43.000  
E09  25068018.944   131733338.006        -784.057          48.000    25068019.428   100938515.366        -600.779          52.000  
G32  22944732.232   120575379.737       -2573.092          47.000    22944730.683    93954841.434       -2004.944          45.000  
> 2024 04 09 11 23 00.0030000  0 24                     
S33  40581447.343   213257093.900        -619.862          45.000  
G28  25688880.253   134995988.260        1522.215          43.000    25688879.243   105191681.246        1186.311          42.000  
G27  23014995.366   120944636.026       -3855.844          46.000    23014992.818    94242556.086       -3004.566          44.000  
R01  20108465.392   107491185.616       -1721.569          49.000    20108462.067    83604326.871       -1339.089          44.000  
R17  22895019.960   122515991.929        2795.898          47.000    22895013.471    95290193.870        2174.544          46.000  
R23  22435247.262   120013440.875       -3102.166          50.000                                                                  
R24  20333385.192   108731773.627         174.573          51.000    20333381.428    84569212.510         135.746          50.000  
R08  23758540.338   127225888.831       -4730.739          42.000    23758535.412    98953461.937       -3679.462          46.000  
E02  28007988.794   147182995.428       -2980.059          37.000    28007991.149   112776613.101       -2283.607          42.000  
G21  21109427.320   110930827.288        1081.238          47.000                                                                  
G02  21973510.130   115471581.934        1491.085          49.000                                                                  
E10  29537812.930   155222366.797       -2521.032          41.000    29537820.325   118936710.149       -1931.539          42.000  
G08  21311399.909   111992164.035       -2089.204          50.000    21311397.298    87266596.621       -1627.814          47.000  
R02  21230688.689   113290821.867        2273.328          51.000    21230685.321    88115262.975        1768.022          47.000  
E05  24201267.341   127178444.228        1804.050          46.000    24201268.572    97448456.817        1382.326          51.000  
S31  39627913.345   208246188.379        -620.638          43.000  
G03  23310552.584   122497771.491        1354.677          46.000    23310550.039    95452830.710        1055.841          43.000  
E34  26238298.488   137883211.438        1095.932          45.000    26238299.646   105650768.171         839.932          50.000  
E36  24654673.112   129561242.494        -532.404          48.000    24654674.758    99274250.144        -408.028          53.000  
E04  28157893.527   147970799.949       -2945.507          34.000    28157899.346   113380163.270       -2256.785          48.000  
G10  25115436.694   131982541.645       -3758.496          45.000    25115434.993   102843534.408       -2928.641          37.000  
E11  26052268.364   136905776.239       -2122.881          41.000    26052264.592   104901925.944       -1626.713          43.000  
E09  25072534.612   131757068.393        -797.693          48.000    25072535.159   100956698.351        -611.222          52.000  
G32  22959471.205   120652834.206       -2590.241          47.000    22959470.126    94015195.530       -2018.463          46.000  
> 2024 04 09 11 23 30.0030000  0 24                     
S33  40584987.318   213275697.372        -620.304          45.000  
G28  25680203.420   134950394.255        1517.748          43.000    25680202.647   105156153.537        1182.905          41.000  
G27  23037038.680   121060475.974       -3866.440          46.000    23037036.360    94332820.868       -3012.818          44.000  
R01  20118193.653   107543184.549       -1744.448          49.000    20118189.554    83644770.431       -1356.465          44.000  
R17  22879351.068   122432150.512        2794.054          47.000    22879346.115    95224983.843        2173.144          46.000  
R23  22452684.926   120106723.588       -3116.283          49.000                                                                  
R24  20332452.754   108726785.988         158.235          51.000    20332448.340    84565333.209         122.989          49.000  
R08  23785058.818   127367885.634       -4735.599          43.000    23785052.319    99063903.709       -3683.058          47.000  
E02  28025011.790   147272440.180       -2982.218          39.000    28025012.275   112845148.498       -2285.115          42.000  
G21  21103285.373   110898550.179        1070.860          48.000                                                                  
G02  21965019.455   115426966.682        1483.699          48.000                                                                  
E10  29552213.055   155298047.148       -2524.022          39.000    29552222.019   118994698.654       -1933.861          42.000  
G08  21323382.352   112055132.183       -2108.295          50.000    21323379.057    87315662.677       -1642.983          46.000  
R02  21217962.929   113222917.060        2254.025          51.000    21217960.560    88062448.055        1753.196          48.000  
E05  24190994.137   127124455.564        1795.527          47.000    24190994.770    97407088.856        1375.819          51.000  
S31  39631457.648   208264813.188        -620.595          43.000  
G03  23302844.071   122457260.889        1346.250          47.000    23302841.005    95421263.955        1049.014          42.000  
E34  26232042.864   137850334.616        1096.004          46.000    26232043.428   105625576.826         839.740          50.000  
E36  24657726.417   129577286.143        -536.738          48.000    24657727.720    99286543.281        -411.321          53.000  
E04  28174734.992   148059281.450       -2953.267          37.000    28174737.115   113447960.665       -2262.813          48.000  
G10  25136891.009   132095283.804       -3757.152          44.000    25136891.075   102931385.231       -2927.277          39.000  
E11  26064400.682   136969541.341       -2127.471          39.000    26064399.396   104950784.810       -1630.241          44.000  
E09  25077129.652   131781218.760        -811.922          48.000    25077130.808   100975203.150        -622.084          52.000  
G32  22974310.231   120730810.246       -2607.773          45.000    22974308.824    94075955.995       -2032.109          47.000  
> 2024 04 09 11 24 00.0030000  0 24                     
S33  40588528.495   213294305.520        -620.142          44.000  
G28  25671551.611   134904930.542        1513.259          45.000    25671551.514   105120727.322        1179.307          42.000  
G27  23059142.116   121176632.554       -3877.117          46.000    23059139.818    94423332.407       -3021.132          44.000  
R01  20128048.196   107595864.339       -1767.195          49.000    20128044.430    83685743.582       -1374.638          45.000  
R17  22863694.785   122348369.440        2791.708          49.000    22863689.809    95159820.758        2171.276          46.000  
R23  22470200.713   120200426.706       -3130.352          48.000                                                                  
R24  20331611.683   108722287.072         141.784          52.000    20331606.554    84561834.016         110.305          49.000  
R08  23811602.549   127510021.609       -4740.060          43.000    23811595.165    99174453.764       -3686.667          46.000  
E02  28042043.010   147361938.328       -2984.135          40.000    28042043.158   112913724.858       -2286.474          41.000  
G21  21097202.969   110866582.430        1060.380          48.000                                                                  
G02  21956571.719   115382573.696        1476.003          47.000                                                                  
E10  29566633.151   155373822.961       -2527.450          38.000    29566641.536   119052760.356       -1936.480          39.000  
G08  21335473.449   112118671.143       -2127.380          50.000    21335470.442    87365173.513       -1657.641          46.000  
R02  21205345.037   113155586.214        2234.795          51.000    21205343.043    88010079.633        1738.239          48.000  
E05  24180768.778   127070720.714        1787.014          47.000    24180769.546    97365915.386        1369.286          51.000  
S31  39635003.064   208283442.394        -621.093          44.000  
G03  23295183.757   122417003.933        1337.723          47.000    23295179.944    95389894.828        1042.424          41.000  
E34  26225787.630   137817461.778        1095.865          46.000    26225787.938   105600388.516         839.605          49.000  
E36  24660804.179   129593459.445        -541.295          48.000    24660805.481    99298935.760        -414.640          53.000  
E04  28191618.395   148147995.911       -2960.852          40.000    28191619.108   113515936.529       -2268.716          48.000  
G10  25158336.563   132207982.144       -3756.098          44.000    25158337.929   103019201.934       -2926.294          38.000  
E11  26076561.660   137033437.438       -2131.988          41.000    26076559.180   104999744.036       -1633.653          45.000  
E09  25081806.683   131805794.297        -826.197          48.000    25081807.470   100994033.715        -633.060          52.000  
G32  22989248.021   120809311.145       -2625.333          45.000    22989246.957    94137125.442       -2045.826          47.000  
> 2024 04 09 11 24 30.0030000  0 24                     
S33  40592070.237   213312916.685        -620.311          44.000  
G28  25662925.974   134859600.748        1508.703          44.000    25662925.195   105085405.466        1175.504          43.000  
G27  23081306.449   121293103.871       -3887.729          46.000    23081304.228    94514089.177       -3029.274          45.000  
R01  20138029.980   107649223.227       -1790.020          49.000    20138026.453    83727244.907       -1392.130          45.000  
R17  22848050.645   122264651.917        2789.491          49.000    22848045.347    95094707.123        2169.504          46.000  
R23  22487796.445   120294550.391       -3144.426          49.000                                                                  
R24  20330862.028   108718280.126         125.336          51.000    20330857.199    84558717.462          97.521          49.000  
R08  23838170.728   127652293.590       -4744.457          43.000    23838163.857    99285109.611       -3690.327          47.000  
E02  28059083.912   147451488.561       -2985.766          40.000    28059083.736   112982341.135       -2287.792          41.000  
G21  21091178.959   110834927.172        1049.959          49.000                                                                  
G02  21948166.527   115338405.434        1468.507          47.000                                                                  
E10  29581071.622   155449695.086       -2530.655          33.000    29581079.477   119110895.855       -1938.820          35.000  
G08  21347672.522   112182780.203       -2146.487          50.000    21347670.524    87415128.585       -1672.518          46.000  
R02  21192835.945   113088832.122        2215.510          52.000    21192833.200    87958159.733        1723.027          48.000  
E05  24170592.290   127017241.983        1778.297          47.000    24170593.045    97324938.155        1362.610          51.000  
S31  39638548.613   208302075.050        -621.325          43.000  
G03  23287571.602   122377001.143        1329.230          46.000    23287568.798    95358723.784        1035.570          43.000  
E34  26219533.366   137784594.111        1095.462          46.000    26219533.540   105575204.164         839.463          50.000  
E36  24663907.089   129609763.912        -545.624          48.000    24663908.127    99311428.752        -418.139          53.000  
E04  28208544.333   148236942.280       -2968.789          40.000    28208544.977   113584090.096       -2274.669          47.000  
G10  25179775.044   132320636.229       -3754.272          44.000    25179774.870   103106984.128       -2925.468          36.000  
E11  26088744.557   137097465.712       -2136.601          40.000    26088743.599   105048804.584       -1637.047          45.000  
E09  25086563.569   131830795.275        -840.330          47.000    25086565.099   101013190.287        -643.956          52.000  
G32  23004286.121   120888335.363       -2642.864          46.000    23004284.663    94198702.694       -2059.288          46.000  
> 2024 04 09 11 25 00.0030000  0 24                     
S33  40595611.355   213331525.505        -620.264          44.000  
G28  25654324.085   134814401.046        1504.399          43.000    25654323.681   105050184.969        1172.310          43.000  
G27  23103528.609   121409880.508       -3897.572          47.000    23103526.257    94605083.855       -3037.130          44.000  
R01  20148136.536   107703251.723       -1812.121          48.000    20148133.789    83769267.056       -1409.751          45.000  
R17  22832417.473   122180993.966        2787.493          49.000    22832412.021    95029639.789        2168.116          45.000  
R23  22505470.705   120389086.959       -3158.127          50.000                                                                  
R24  20330203.454   108714760.449         109.131          51.000    20330198.800    84555979.888          84.836          49.000  
R08  23864762.199   127794691.457       -4748.744          41.000    23864756.159    99395863.338       -3693.376          48.000  
E02  28076132.920   147541082.085       -2987.311          40.000    28076133.232   113050990.550       -2288.808          41.000  
G21  21085213.510   110803579.702        1039.735          48.000                                                                  
G02  21939803.649   115294456.685        1461.059          47.000                                                                  
E10  29595526.548                       -2533.278          29.000    29595535.325   119169100.126       -1941.143          33.000  
G08  21359979.729   112247451.233       -2164.934          50.000    21359977.732    87465521.557       -1686.944          47.000  
R02  21180434.281   113022650.546        2196.342          52.000    21180432.068    87906685.155        1708.337          49.000  
E05  24160463.444   126964014.135        1770.000          47.000    24160464.307    97284153.175        1356.296          52.000  
S31  39642093.597   208320704.893        -620.802          43.000  
G03  23280006.276   122337245.655        1320.982          46.000    23280003.665    95327745.472        1029.418          43.000  
E34  26213279.296   137751725.371        1095.581          46.000    26213278.979   105550018.998         839.507          50.000  
E36  24667033.876   129626193.660        -549.793          48.000    24667034.766    99324017.743        -421.235          53.000  
E04  28225512.592   148326112.138       -2976.009          42.000    28225513.395   113652414.919       -2280.304          46.000  
G10  25201203.455   132433238.363       -3752.793          45.000    25201202.162   103194725.940       -2924.480          36.000  
E11  26100951.925   137161619.890       -2140.714          39.000    26100950.881   105097961.574       -1640.080          44.000  
E09  25091401.202   131856214.638        -854.276          48.000    25091402.237   101032667.434        -654.674          52.000  
G32  23019421.594   120967873.972       -2659.820          45.000    23019420.174    94260680.770       -2072.657          46.000  
> 2024 04 09 11 25 30.0030000  0 24                     
S33  40599152.609   213350134.153        -620.243          44.000  
G28  25645748.204   134769336.937        1499.855          43.000    25645747.904   105015070.136        1168.886          42.000  
G27  23125809.168   121526962.345       -3907.779          47.000    23125806.142    94696316.367       -3045.012          44.000  
R01  20158369.362   107757949.575       -1834.302          48.000    20158366.101    83811809.768       -1426.582          44.000  
R17  22816796.147   122097400.838        2785.332          49.000    22816789.794    94964622.867        2166.420          44.000  
R23  22523221.479   120484038.671       -3171.931          50.000                                                                  
R24  20329637.258   108711733.206          92.676          51.000    20329633.429    84553625.330          72.083          50.000  
R08  23891376.268   127937214.086       -4752.831          41.000    23891371.612    99506714.111       -3696.638          48.000  
E02  28093189.621   147630719.233       -2988.636          39.000    28093190.217   113119673.410       -2289.812          41.000  
G21  21079308.076   110772544.777        1029.401          49.000                                                                  
G02  21931483.245   115250732.075        1453.724          47.000                                                                  
G08  21372393.134   112312685.278       -2183.796          49.000    21372391.291    87516353.226       -1701.631          47.000  
R02  21168139.953   112957045.943        2177.213          52.000    21168137.613    87855659.361        1693.450          49.000  
E05  24150382.556   126911041.256        1761.447          47.000    24150383.535    97243563.553        1349.665          51.000  
S31  39645639.024   208339334.876        -621.112          43.000  
G03  23272488.545   122297739.848        1312.649          46.000    23272486.205    95296961.704        1022.791          44.000  
E34  26207024.318   137718858.614        1095.764          46.000    26207024.755   105524835.368         839.467          50.000  
E36  24670185.101   129642752.045        -554.053          48.000    24670185.808    99336705.304        -424.527          53.000  
E04  28242524.417   148415506.270       -2983.553          43.000    28242524.627   113720911.594       -2286.107          45.000  
G10  25222621.907   132545789.803       -3751.102          45.000    25222620.722   103282428.219       -2922.959          34.000  
E11  26113183.862   137225902.925       -2144.963          39.000    26113183.547   105147217.313       -1643.364          43.000  
E09  25096318.603   131882054.479        -868.312          48.000    25096319.431   101052466.750        -665.268          52.000  
G32  23034656.409   121047927.223       -2676.929          46.000    23034653.738    94323059.830       -2086.063          46.000  
E10                                                                  29610008.471                       -1944.095          29.000  
> 2024 04 09 11 26 00.0030000  0 24                     
S33  40602694.290   213368746.304        -620.428          44.000  
G28  25637200.652   134724415.068        1495.167          44.000    25637199.975   104980066.103        1165.077          43.000  
G27  23148147.590   121644350.332       -3917.966          47.000    23148144.628    94787787.434       -3053.039          44.000  
R01  20168727.785   107813317.877       -1856.673          49.000    20168723.701    83854873.972       -1444.174          44.000  
R17  22801187.406   122013878.773        2782.897          49.000    22801181.840    94899661.249        2164.384          45.000  
R23  22541048.424   120579408.459       -3185.960          49.000                                                                  
R24  20329164.321   108709204.663          75.984          51.000    20329160.638    84551658.648          59.262          50.000  
R08  23918015.392   128079861.505       -4756.984          42.000    23918010.705    99617661.933       -3699.901          48.000  
E02  28110256.017   147720401.580       -2990.087          40.000    28110256.273   113188390.880       -2291.113          41.000  
G21  21073462.405   110741828.216        1018.484          49.000                                                                  
G02  21923206.647   115207236.838        1445.910          47.000                                                                  
G08  21384914.427   112378484.509       -2202.668          49.000    21384911.882    87567625.294       -1716.285          47.000  
R02  21155955.080   112892024.712        2157.689          52.000    21155952.619    87805087.287        1678.084          49.000  
E05  24140352.111   126858328.499        1752.765          47.000    24140352.656    97203173.240        1343.044          51.000  
S31  39649184.831   208357967.820        -621.027          43.000  
G03  23265018.702   122258487.185        1304.136          45.000    23265016.687    95266375.187        1016.106          44.000  
E34  26200770.683   137685998.038        1095.261          45.000    26200771.562   105499656.454         839.255          50.000  
E36  24673361.821   129659443.541        -558.738          48.000    24673362.094    99349494.856        -428.005          53.000  
E04  28259578.593   148505126.577       -2991.121          45.000    28259579.243   113789581.563       -2291.776          45.000  
G10  25244029.811   132658293.192       -3748.937          42.000    25244028.182   103370093.002       -2921.326          33.000  
E11  26125443.268   137290318.821       -2149.261          40.000    26125442.054   105196574.871       -1647.072          44.000  
E09  25101316.815   131908318.036        -882.573          49.000    25101317.137   101072590.739        -676.178          52.000  
G32  23049988.219   121128496.485       -2694.288          47.000    23049985.655    94385840.975       -2099.233          46.000  
E10                                                                  29624498.941                       -1946.468          28.000  
> 2024 04 09 11 26 30.0030000  0 24                     
S33  40606236.344   213387358.720        -620.267          44.000  
G28  25628680.115   134679635.547        1490.428          45.000    25628678.137   104945172.992        1161.345          43.000  
G27  23170542.778   121762039.031       -3927.866          46.000    23170540.449    94879492.823       -3060.757          45.000  
R01  20179209.896   107869351.033       -1878.731          49.000    20179206.085    83898455.295       -1461.287          45.000  
R17  22785592.824   121930427.742        2780.638          48.000    22785586.934    94834754.868        2162.575          46.000  
R23  22558954.588   120675192.820       -3199.612          50.000                                                                  
R24  20328785.104   108707174.101          59.479          51.000    20328780.575    84550079.308          46.271          50.000  
R08  23944676.325   128222627.051       -4760.613          43.000    23944671.138    99728701.631       -3702.782          48.000  
E02  28127328.763   147810124.229       -2991.259          38.000    28127329.806   113257139.235       -2291.904          41.000  
G21  21067677.762   110711429.173        1008.097          48.000                                                                  
G02  21914973.496   115163970.401        1438.647          47.000                                                                  
G08  21397541.803   112444844.615       -2221.198          48.000    21397539.670    87619334.419       -1730.929          46.000  
R02  21143879.863   112827585.975        2138.271          52.000    21143876.829    87754968.227        1663.076          48.000  
E05  24130370.486   126805874.607        1744.314          48.000    24130371.048    97162981.272        1336.548          51.000  
S31  39652730.669   208376601.425        -621.193          43.000  
G03  23257596.666   122219484.694        1296.004          46.000    23257594.347    95235983.612        1009.908          43.000  
E34  26194517.376   137653141.346        1095.245          44.000    26194519.212   105474480.522         839.212          50.000  
E36  24676562.580   129676266.181        -562.669          48.000    24676563.351    99362384.896        -431.261          53.000  
E04  28276675.475   148594968.620       -2998.203          45.000    28276675.655   113858421.447       -2297.308          45.000  
G10  25265428.006   132770744.774       -3747.506          42.000    25265426.727   103457717.401       -2920.518          35.000  
E11  26137725.205   137354865.292       -2153.771          39.000    26137724.750   105246032.468       -1650.269          43.000  
E09  25106395.338   131935002.092        -896.369          50.000    25106394.875   101093036.921        -686.764          52.000  
G32  23065417.093   121209576.688       -2710.975          46.000    23065413.942    94449020.305       -2112.475          45.000  
E10                                                                  29639008.496                3      -1949.308          25.000  
> 2024 04 09 11 27 00.0030000  0 24                     
S33  40609777.049   213405966.934        -620.150          44.000  
G28  25620184.578   134634996.099        1485.453          43.000    25620183.941   104910389.023        1157.522          43.000  
G27  23192992.761   121880020.479       -3937.654          45.000    23192992.106    94971426.321       -3068.462          45.000  
R01  20189814.454   107926040.990       -1900.665          49.000    20189811.109    83942547.473       -1478.396          44.000  
R17  22770011.173   121847045.210        2778.129          49.000    22770004.602    94769901.774        2160.813          46.000  
R23  22576937.676   120771385.645       -3213.375          50.000                                                                  
R24  20328497.881   108705638.711          42.743          51.000    20328492.785    84548885.093          33.353          49.000  
R08  23971358.153   128365502.170       -4764.499          44.000    23971351.696    99839826.552       -3705.643          48.000  
E02  28144408.107   147899879.813       -2992.441          38.000    28144410.028   113325912.845       -2292.888          41.000  
G21  21061953.198   110681344.548         997.509          50.000                                                                  
G02  21906782.884   115120929.126        1430.736          46.000                                                                  
G08  21410274.572   112511758.813       -2239.766          48.000    21410273.050    87671475.295       -1745.228          46.000  
R02  21131911.365   112763726.777        2118.876          50.000    21131908.622    87705299.956        1648.065          47.000  
E05  24120437.111   126753675.841        1735.587          47.000    24120438.063    97122984.799        1329.887          51.000  
S31  39656275.918   208395230.890        -621.073          44.000  
G03  23250221.625   122180726.970        1287.618          46.000    23250218.217    95205782.754        1003.379          43.000  
E34  26188264.284   137620283.834        1095.356          44.000    26188266.852   105449303.970         839.188          50.000  
E36  24679787.800   129693215.562        -567.228          49.000    24679788.606    99375372.047        -434.648          53.000  
E04  28293812.646   148685025.371       -3005.451          45.000    28293813.320   113927425.833       -2302.912          45.000  
G10  25286815.275   132883138.212       -3745.618          41.000    25286814.877   103545296.446       -2919.115          36.000  
E11  26150033.898   137419537.434       -2157.825          41.000    26150031.971   105295586.347       -1653.471          43.000  
E09  25111551.750   131962100.965        -910.294          50.000    25111551.617   101113800.957        -697.476          52.000  
G32  23080941.122   121291160.274       -2727.927          46.000    23080938.943    94512591.892       -2125.738          45.000  
E10                                                                  29653534.416                3      -1948.923          20.000  
> 2024 04 09 11 27 30.0030000  0 24                     
S33  40613318.359   213424575.406        -620.396          44.000  
G28  25611718.091   134590504.677        1480.317          43.000    25611717.545   104875720.402        1153.548          44.000  
G27  23215500.282   121998297.154       -3947.621          45.000    23215498.748    95063589.841       -3076.070          44.000  
R01  20200542.741   107983390.323       -1922.750          49.000    20200539.504    83987152.484       -1495.310          45.000  
R17  22754443.481   121763739.017        2775.375          49.000    22754437.119    94705108.062        2158.738          47.000  
R23  22594996.661   120867991.507       -3227.115          50.000                                                                  
R24  20328304.718   108704606.046          25.943          51.000    20328299.516    84548081.893          20.039          49.000  
R08  23998059.090   128508488.037       -4768.081          43.000    23998053.313    99951037.616       -3708.584          48.000  
E02  28161496.010   147989671.309       -2993.588          39.000    28161496.756   113394713.956       -2293.806          42.000  
G21  21056288.964   110651581.728         986.546          49.000                                                                  
G02  21898637.020   115078119.877        1423.044          47.000                                                                  
G08  21423113.869   112579230.648       -2258.437          48.000    21423113.063    87724050.702       -1759.927          47.000  
R02  21120053.701   112700454.464        2098.988          50.000    21120050.916    87656088.135        1632.508          47.000  
E05  24110552.943   126701738.767        1726.874          46.000    24110554.546    97083188.866        1323.105          51.000  
S31  39659820.870   208413859.907        -621.319          44.000  
G03  23242894.939   122142218.877        1279.374          48.000    23242891.385    95175776.394         996.980          44.000  
E34  26182012.856   137587431.135        1094.893          43.000    26182015.154   105424131.115         838.905          51.000  
E36  24683038.662   129710297.604        -571.759          49.000    24683039.366    99388460.851        -438.128          53.000  
E04  28310991.330   148775300.244       -3012.863          45.000    28310991.872   113996597.328       -2308.614          45.000  
G10  25308192.960   132995477.505       -3743.826          42.000    25308193.606   103632833.343       -2917.255          39.000  
E11  26162364.746   137484340.760       -2162.354          40.000    26162363.104   105345240.761       -1656.752          42.000  
E09  25116788.239   131989619.290        -924.395          50.000    25116788.337   101134886.394        -708.343          52.000  
G32  23096562.078   121373250.044       -2744.725          47.000    23096561.356    94576557.861       -2138.831          46.000  
E10                                                                  29668078.062                3      -1946.575          22.000  
> 2024 04 09 11 28 00.0030000  0 24                     
S33  40616860.232   213443188.145        -620.705          44.000  
G28  25603281.265   134546168.737        1475.052          42.000    25603280.797   104841172.967        1149.481          43.000  
G27  23238064.916   122116870.730       -3957.486          47.000    23238062.475    95155984.745       -3083.522          44.000  
R01  20211394.676   108041400.357       -1944.891          49.000    20211391.596    84032271.356       -1512.458          45.000  
R17  22738891.091   121680516.205        2772.389          49.000    22738884.841    94640379.189        2156.274          47.000  
R23  22613134.255   120965014.131       -3241.294          50.000                                                                  
R24  20328207.680   108704083.014           8.674          52.000    20328202.426    84547675.034           6.733          49.000  
R08  24024780.518   128651585.367       -4771.945          42.000    24024776.049   100062335.387       -3711.440          48.000  
E02  28178590.060   148079501.068       -2994.988          40.000    28178591.209   113463544.413       -2295.115          43.000  
G21  21050688.098   110622147.254         975.347          49.000                                                                  
G02  21890535.930   115035549.064        1414.571          47.000                                                                  
G08  21436060.403   112647263.022       -2277.236          48.000    21436059.558    87777062.893       -1774.502          47.000  
R02  21108308.438   112637776.044        2079.158          52.000    21108306.497    87607338.239        1616.906          48.000  
E05  24100721.084   126650069.411        1717.502          47.000    24100722.343    97043598.042        1316.047          51.000  
S31  39663367.033   208432494.563        -621.472          43.000  
G03  23235615.399   122103964.660        1270.547          47.000    23235611.978    95145967.880         990.100          43.000  
E34  26175762.612   137554588.260        1094.443          43.000    26175765.583   105398965.762         838.519          51.000  
E36  24686315.139   129727517.617        -576.545          48.000    24686316.303    99401655.368        -441.790          53.000  
E04  28328211.728   148865795.953       -3020.347          44.000    28328212.678   114065938.052       -2314.398          44.000  
G10  25329561.702   133107766.154       -3742.229          43.000    25329561.093   103720330.721       -2915.652          38.000  
E11  26174721.512   137549280.172       -2167.022          38.000    26174719.960   105394999.446       -1660.467          41.000  
E09  25122105.204   132017561.050        -938.612          50.000    25122105.391   101156296.272        -719.228          52.000  
G32  23112281.003   121455848.118       -2762.008          48.000    23112279.333    94640919.907       -2152.179          46.000  
E10                                                                  29682643.455                3      -1953.113          25.000  
> 2024 04 09 11 28 30.0030000  0 24                     
S33  40620403.426   213461805.146        -620.511          44.000  
G28  25594873.989   134501989.925        1470.336          42.000    25594873.848   104806747.964        1145.521          44.000  
G27  23260684.710   122235737.268       -3966.835          46.000    23260682.199    95248607.918       -3091.064          44.000  
R01  20222369.297   108100067.165       -1966.367          49.000    20222366.705    84077901.058       -1529.363          45.000  
R17  22723355.037   121597378.492        2769.974          50.000    22723348.820    94575716.525        2154.424          47.000  
R23  22631348.409   121062451.811       -3254.793          50.000                                                                  
R24  20328205.300   108704070.766          -7.995          52.000    20328200.526    84547665.464          -6.163          49.000  
R08  24051522.401   128794789.964       -4775.048          41.000    24051518.395   100173716.587       -3713.810          46.000  
E02  28195691.357   148169365.727       -2996.250          40.000    28195692.388   113532401.575       -2295.484          44.000  
G21  21045149.456   110593041.952         964.727          48.000                                                                  
G02  21882480.035   114993217.501        1407.141          47.000                                                                  
G08  21449113.087   112715853.044       -2295.361          49.000    21449112.291    87830509.606       -1788.568          47.000  
R02  21096674.693   112575691.709        2059.684          52.000    21096671.694    87559050.396        1602.131          49.000  
E05  24090939.787   126598667.931        1709.014          47.000    24090940.777    97004212.478        1309.593          51.000  
S31  39666913.801   208451132.023        -621.184          43.000  
G03  23228382.634   122065962.827        1262.583          46.000    23228380.775    95116356.041         983.943          44.000  
E34  26169514.747   137521754.476        1094.430          43.000    26169517.642   105373807.379         838.597          51.000  
E36  24689618.299   129744875.167        -580.777          49.000    24689619.127    99414955.273        -444.944          52.000  
E04  28345473.188   148956509.494       -3027.253          44.000    28345474.495   114135445.691       -2319.512          43.000  
G10  25350919.798   133220001.854       -3740.057          43.000    25350919.184   103807786.932       -2914.816          37.000  
E11  26187106.008   137614354.763       -2171.500          39.000    26187103.310   105444861.695       -1663.817          41.000  
E09  25127502.458   132045924.473        -952.315          50.000    25127502.582   101178029.244        -729.637          51.000  
G32  23128095.274   121538950.809       -2778.438          48.000    23128092.943    94705675.162       -2164.856          46.000  
E10                                                                  29697225.529                3      -1959.158          14.000  
> 2024 04 09 11 29 00.0030000  0 23                     
S33  40623947.365   213480428.892        -621.430          44.000  
G28  25586498.368   134457974.922        1463.971          43.000    25586498.901   104772450.618        1140.924          44.000  
G27  23283360.680   122354897.709       -3977.188          47.000    23283358.439    95341460.114       -3099.100          45.000  
R01  20233467.060   108159391.693       -1988.797          48.000    20233464.689    84124042.314       -1546.499          45.000  
R17  22707835.765   121514332.331        2766.229          50.000    22707829.716    94511125.043        2151.450          47.000  
R23  22649642.054   121160307.250       -3269.204          50.000                                                                  
R24  20328300.029   108704575.053         -25.781          51.000    20328295.059    84548057.686         -20.073          50.000  
R08  24078284.733   128938101.861       -4779.154          40.000    24078279.929   100285181.222       -3717.075          45.000  
E02  28212798.735   148259266.887       -2997.719          40.000    28212800.238   113601286.744       -2296.801          45.000  
G21  21039674.663   110564272.111         953.035          48.000                                                                  
G02  21874470.697   114951130.169        1398.383          47.000                                                                  
G08  21462272.168   112785002.822       -2314.633          48.000    21462270.138    87884392.507       -1803.609          46.000  
R02  21085151.862   112514207.674        2039.113          52.000    21085149.498    87511229.460        1585.927          49.000  
E05  24081210.824   126547539.565        1699.332          47.000    24081211.621    96965036.186        1302.105          51.000  
S31  39670461.819   208469777.111        -621.957          43.000  
G03  23221199.514   122028216.908        1253.447          46.000    23221198.312    95086943.627         976.655          44.000  
E34  26163269.804   137488934.057        1093.341          43.000    26163272.227   105348659.243         837.867          52.000  
E36  24692948.061   129762374.795        -585.953          48.000    24692949.272    99428364.053        -449.004          52.000  
E04  28362776.653   149047442.863       -3035.015          43.000    28362778.250   114205121.808       -2325.648          42.000  
G10  25372267.876   133332187.297       -3738.878          43.000    25372268.097   103895203.969       -2913.547          38.000  
E11  26199515.053   137679568.597       -2176.472          38.000    26199513.284   105494830.635       -1667.695          42.000  
E09  25132981.150   132074712.814        -966.981          50.000    25132980.866   101200087.807        -740.966          51.000  
G32  23144005.972   121622559.490       -2795.780          49.000    23144002.958    94770824.712       -2178.359          45.000  
> 2024 04 09 11 29 30.0030000  0 23                     
S33  40627491.461   213499053.957        -621.016          44.000  
G28  25578153.049   134414121.020        1458.659          42.000    25578154.386   104738278.845        1136.737          44.000  
G27  23306089.917   122474343.825       -3986.450          46.000    23306088.243    95434534.913       -3106.358          45.000  
R01  20244686.341   108219365.493       -2010.152          48.000    20244683.887    84170688.608       -1563.512          45.000  
R17  22692333.031   121431374.724        2763.554          49.000    22692327.179    94446602.434        2149.481          48.000  
R23  22668012.793   121258574.056       -3282.579          50.000                                                                  
R24  20328488.980   108705592.710         -42.800          50.000    20328485.161    84548849.163         -33.197          50.000  
R08  24105066.099   129081511.589       -4782.144          41.000    24105060.458   100396721.975       -3719.260          43.000  
E02  28229911.900   148349196.889       -2998.543          39.000    28229913.653   113670194.001       -2297.548          44.000  
G21  21034262.807   110535833.861         942.185          48.000                                                                  
G02  21866507.411   114909283.527        1390.698          47.000                                                                  
G08  21475536.030   112854705.061       -2332.771          49.000    21475533.186    87938705.880       -1817.565          46.000  
R02  21073741.814   112453320.363        2019.395          52.000    21073739.407    87463872.663        1570.634          48.000  
E05  24071532.116   126496680.164        1690.583          47.000    24071533.259    96926065.973        1295.442          51.000  
S31  39674009.891   208488423.592        -621.632          43.000  
G03  23214064.427   121990721.082        1245.397          46.000    23214063.379    95057726.071         970.455          44.000  
E34  26157026.653   137456121.966        1093.296          43.000    26157028.240   105323517.482         837.717          51.000  
E36  24696305.683   129780011.770        -590.525          49.000    24696305.550    99441878.063        -452.426          52.000  
E04  28380121.266   149138588.719       -3041.941          44.000    28380123.293   114274960.708       -2330.813          42.000  
G10  25393604.794   133444315.907       -3737.184          41.000    25393606.036   103982576.671       -2911.657          38.000  
E11  26211950.363   137744916.582       -2180.436          37.000    26211949.479   105544902.376       -1670.812          43.000  
E09  25138538.906   132103919.942        -980.782          50.000    25138538.899   101222467.253        -751.503          51.000  
G32  23160010.485   121706666.171       -2812.048          48.000    23160008.312    94836362.341       -2191.268          46.000  
