     3.00           OBSERVATION DATA    M: Mixed            RINEX VERSION / TYPE
CONVBIN 2.4.3                           20240409 064442 UTC PGM / RUN BY / DATE 
format: u-blox UBX                                          COMMENT             
log: data/2024-04-09/20240409063000.ubx                     COMMENT             
AQUI00CHL                                                   MARKER NAME         
                                                            MARKER NUMBER       
                                                            MARKER TYPE         
                                                            OBSERVER / AGENCY   
UNKNOWN             UBLOX-ZED-F9P                           REC # / TYPE / VERS 
UNKNOWN             TWIVSP6037L                             ANT # / TYPE        
  1713381.0000 -5047934.0000 -3490983.0000                  APPROX POSITION XYZ 
        0.0000        0.0000        0.0000                  ANTENNA: DELTA H/E/N
G    8 C1C L1C D1C S1C C2L L2L D2L S2L                      SYS / # / OBS TYPES 
R    8 C1C L1C D1C S1C C2C L2C D2C S2C                      SYS / # / OBS TYPES 
E    8 C1C L1C D1C S1C C7Q L7Q D7Q S7Q                      SYS / # / OBS TYPES 
S    4 C1C L1C D1C S1C                                      SYS / # / OBS TYPES 
  2024    04    09    06    30   00.4960000     GPS         TIME OF FIRST OBS   
  2024    04    09    06    44   30.4960000     GPS         TIME OF LAST OBS    
                                                            END OF HEADER       
> 2024 04 09 06 30 00.4960000  0 27                     
S33  38421877.194   201908467.1791       -681.444          44.000  
G23  20033188.822   105275281.8591       1591.130          48.000    20033184.340    82032742.5441       1239.872          48.000  
E25  23036779.737   121059068.4351        951.448          46.000    23036780.486    92759586.9791        729.050          52.000  
G26  19122897.117   100491498.0021        226.693          49.000    19122894.290    78305068.5131        176.519          45.000  
G27  22815380.256   119895657.1191       1659.569          40.000    22815378.574    93425170.6431       1293.344          38.000  
R11  19612867.533   104805341.9501      -4343.262          52.000    19612861.872    81515122.6551      -3378.052          50.000  
R22  18595431.298    99264026.8331       -958.413          51.000    18595426.996    77205258.5661       -745.389          50.000  
R23  21032282.006   112508536.6981       1400.227          46.000                                                                  
R12  18409166.175    98338414.1621        -39.603          52.000    18409162.265    76485503.9651        -30.783          51.000  
R06  21487761.070   114662805.2361       1089.908          37.000                                                                  
G28  23008399.100   120909989.9451      -3696.208          34.000    23008397.743    94215470.3031      -2880.378          38.000  
E12  23433317.231   123143129.6491      -2479.357          45.000    23433313.923    94356588.2781      -1899.816          49.000  
E10  22318034.090   117282297.7871      -1488.164          48.000    22318033.136    89865781.7831      -1140.255          52.000  
E31  25572139.571   134382827.7881      -3454.197          43.000    25572140.824   102968729.2101      -2646.526          46.000  
G16  21370597.428   112303273.0951       2279.313          44.000                                                                  
R07  22449597.864   120174486.9051       2849.440          48.000    22449593.757    93469015.4661       2216.225          45.000  
R21  20337024.872   108827972.1481      -3235.920          50.000    20337017.466    84643801.9391      -2516.835          47.000  
E24  22404535.874   117736638.4551      -1747.355          48.000    22404534.179    90213826.5871      -1338.899          52.000  
S31  37466386.727   196887284.7531       -681.470          44.000  
G29  21795833.414   114538203.3311      -2625.674          42.000    21795829.155    89250685.3731      -2045.890          38.000  
G25  22966760.565                       -4266.232          34.000    22966760.022    94045267.3761      -3324.410          35.000  
G31  21636140.445   113698678.3551      -2911.312          41.000    21636136.452    88596405.0201      -2268.430          43.000  
E36  25557126.985   134303628.1661       1556.995          35.000    25557129.418   102908017.5111       1192.959          45.000  
G18  19485517.087   102397310.4591      -2280.084          49.000    19485511.231    79790263.5741      -1776.653          50.000  
G10  22088698.726   116076936.6631       3118.423          45.000    22088695.895    90449560.9191       2429.822          40.000  
E11  21363715.103   112267301.3751       -138.790          44.000    21363710.833    86023103.2051       -106.308          48.000  
R13                                                                  21264950.665                        2224.505          27.000  
> 2024 04 09 06 30 30.4960000  0 27                     
S33  38425766.995   201928907.444        -681.019          44.000  
G23  20024148.774   105227776.072        1575.996          49.000    20024143.532    81995725.084        1228.008          48.000  
E25  23031373.649   121030655.760         942.747          47.000    23031373.616    92737816.227         722.401          52.000  
G26  19121653.558   100484962.533         208.964          50.000    19121651.094    78299975.942         162.827          45.000  
G27  22805901.910   119845846.042        1661.313          42.000    22805900.413    93386356.888        1294.646          38.000  
R11  19637291.882   104935858.507       -4357.770          52.000    19637285.461    81616635.507       -3389.240          49.000  
R22  18600847.169    99292928.717        -968.289          52.000    18600841.939    77227737.834        -753.186          51.000  
R23  21024453.560   112466656.755        1391.849          47.000                                                                  
R12  18409463.004    98340003.446         -66.348          51.000    18409459.586    76486740.059         -51.595          50.000  
R06  21481685.528   114630383.232        1071.648          38.000                                                                  
G28  23029500.421   121020871.199       -3695.472          34.000    23029498.058    94301870.998       -2879.549          37.000  
E12  23447483.908   123217573.870       -2483.618          45.000    23447480.063    94413629.937       -1903.054          49.000  
E10  22326550.821   117327056.514       -1495.657          48.000    22326550.285    89900077.429       -1146.024          52.000  
E31  25591870.441   134486514.706       -3458.273          43.000    25591871.589   103048177.594       -2649.916          45.000  
G16  21357606.125   112235004.948        2272.195          44.000                                                                  
R13  21248926.972                3       2845.188          22.000    21248922.142    88252959.305        2214.080          31.000  
R07  22433629.492   120089004.981        2849.427          47.000    22433625.246    93402529.737        2216.291          47.000  
R21  20355167.812   108925059.647       -3236.394          51.000    20355161.743    84719314.420       -2517.190          47.000  
E24  22414543.614   117789233.064       -1758.787          48.000    22414542.703    90254126.348       -1347.653          53.000  
S31  37470276.799   196907727.441        -681.409          43.000  
G29  21810832.323   114617021.217       -2629.049          42.000    21810826.699    89312101.904       -2048.554          38.000  
G25  22991127.521                       -4270.312          30.000    22991125.214    94145040.984       -3327.207          30.000  
G31  21652787.245   113786158.390       -2920.678          42.000    21652782.540    88664571.222       -2275.839          42.000  
E36  25548254.853   134257008.877        1551.085          37.000    25548258.228   102872296.354        1188.548          45.000  
G18  19498564.543   102465876.939       -2291.040          48.000    19498559.491    79843692.016       -1785.114          49.000  
G10  22070904.162   115983428.458        3115.608          45.000    22070901.707    90376697.508        2428.104          40.000  
E11  21364532.285   112271597.784        -147.568          44.000    21364528.222    86026395.284        -113.315          48.000  
> 2024 04 09 06 31 00.4960000  0 27                     
S33  38429655.686   201949343.341        -681.402          44.000  
G23  20015196.490   105180729.675        1560.188          49.000    20015190.601    81959065.574        1215.838          48.000  
E25  23026017.326   121002508.647         933.483          46.000    23026017.310    92716248.962         715.331          51.000  
G26  19120511.773   100478961.776         190.828          50.000    19120509.054    78295300.021         148.846          45.000  
G27  22796416.387   119795998.672        1661.941          42.000    22796415.012    93347514.835        1295.225          38.000  
R11  19661797.515   105066813.673       -4372.711          51.000    19661792.104    81718489.507       -3401.013          50.000  
R22  18606316.880    99322130.953        -978.743          51.000    18606312.866    77250450.670        -761.143          51.000  
R23  21016674.543   112425036.160        1382.733          48.000                                                                  
R12  18409911.512    98342399.201         -93.614          51.000    18409907.341    76488603.413         -72.767          50.000  
R06  21475712.624   114598510.588        1052.793          39.000                                                                  
G28  23050594.843   121131713.831       -3694.375          36.000    23050590.975    94388241.670       -2879.047          38.000  
E12  23461674.603   123292147.082       -2488.219          45.000    23461670.911    94470770.438       -1906.626          49.000  
E10  22335111.988   117372044.273       -1503.730          47.000    22335111.111    89934548.565       -1152.224          52.000  
E31  25611627.139   134590338.016       -3463.429          43.000    25611627.772   103127730.476       -2653.819          43.000  
G16  21344655.683   112166948.509        2264.817          44.000                                                                  
R07  22417661.845   120003529.379        2848.538          47.000    22417658.359    93336048.880        2215.562          45.000  
R21  20373312.742   109022165.953       -3237.473          49.000    20373307.733    84794841.535       -2518.105          47.000  
E24  22424617.714   117842177.221       -1770.855          47.000    22424617.938    90294693.941       -1356.949          53.000  
S31  37474166.091   196928164.699        -681.485          43.000  
G29  21825849.036   114695938.683       -2632.639          42.000    21825844.629    89373595.987       -2051.338          38.000  
G31  21669488.590   113873924.431       -2930.679          45.000    21669483.272    88732960.291       -2283.706          42.000  
E36  25539420.299   134210565.356        1545.034          38.000    25539420.290   102836709.846        1183.635          45.000  
G18  19511675.233   102534775.079       -2302.393          47.000    19511670.674    79897378.861       -1794.067          50.000  
G10  22053127.164   115890012.358        3111.833          45.000    22053124.471    90303905.913        2424.675          39.000  
E11  21365402.783   112276170.041        -157.213          44.000    21365398.303    86029898.703        -120.357          48.000  
G25                                                                  23015516.261                       -3330.961          26.000  
R13                                                                  21232971.538                        2203.065          32.000  
> 2024 04 09 06 31 30.4960000  0 27                     
S33  38433544.302   201969776.986        -681.280          44.000  
G23  20006332.278   105134148.686        1544.903          49.000    20006326.430    81922768.706        1203.842          48.000  
E25  23020712.275   120974632.053         924.682          46.000    23020712.315    92694888.986         708.570          51.000  
G26  19119472.826   100473500.529         173.068          50.000    19119469.765    78291044.512         134.798          45.000  
G27  22786924.982   119746118.434        1663.104          43.000    22786922.492    93308647.117        1296.238          38.000  
R11  19686385.735   105198206.808       -4387.048          50.000    19686381.023    81820684.120       -3412.091          50.000  
R22  18611843.481    99351635.127        -988.383          51.000    18611839.899    77273398.359        -768.752          51.000  
R23  21008942.558   112383678.021        1374.164          48.000                                                                  
R12  18410512.182    98345605.992        -120.433          51.000    18410507.595    76491097.604         -93.690          49.000  
R06  21469842.954   114567193.885        1034.415          38.000                                                                  
G28  23071679.555   121242518.439       -3693.120          36.000    23071677.436    94474582.692       -2877.666          39.000  
E12  23475890.378   123366851.255       -2492.299          45.000    23475886.722    94528011.283       -1909.627          49.000  
E10  22343715.491   117417263.078       -1511.027          46.000    22343715.996    89969196.749       -1157.908          52.000  
E31  25631411.010   134694299.881       -3467.685          43.000    25631411.433   103207389.542       -2656.996          44.000  
G16  21331746.950   112099109.699        2257.522          44.000                                                                  
R13  21217099.456                3       2818.136          25.000    21217099.830    88120777.487        2192.556          34.000  
R07  22401698.341   119918068.548        2848.368          49.000    22401693.115    93269579.516        2215.311          44.000  
R21  20391463.465   109119293.169       -3237.868          51.000    20391457.457    84870384.907       -2518.266          46.000  
E24  22434760.620   117895474.197       -1782.310          47.000    22434760.133    90335531.863       -1365.693          53.000  
S31  37478054.582   196948601.093        -681.082          43.000  
G29  21840886.214   114774958.930       -2635.602          42.000    21840880.868    89435170.206       -2053.960          38.000  
G31  21686244.713   113961976.820       -2939.906          45.000    21686238.962    88801572.473       -2290.536          42.000  
E36  25530615.164   134164301.258        1539.623          36.000    25530616.196   102801260.876        1179.379          44.000  
G18  19524849.753   102604006.049       -2313.293          48.000    19524844.614    79951325.052       -1802.515          50.000  
G10  22035369.803   115796694.963        3108.931          45.000    22035365.636    90231191.181        2422.245          37.000  
E11  21366325.319   112281020.886        -166.449          44.000    21366321.509    86033615.605        -127.561          48.000  
G25                                                                  23039932.158                3      -3333.154          24.000  
> 2024 04 09 06 32 00.4960000  0 27                     
S33  38437431.122   201990202.802        -680.639          44.000  
G23  19997555.735   105088028.913        1529.718          48.000    19997551.161    81886831.230        1191.891          48.000  
E25  23015458.193   120947020.693         916.031          46.000    23015457.989    92673732.231         701.942          51.000  
G26  19118535.369   100468573.433         155.393          49.000    19118532.247    78287205.211         121.040          45.000  
G27  22777425.855   119696198.588        1664.722          44.000    22777422.616    93269748.638        1297.076          36.000  
R11  19711054.841   105330026.885       -4401.056          52.000    19711049.580    81923210.803       -3423.016          50.000  
R22  18617426.068    99381432.601        -998.097          51.000    18617421.190    77296574.174        -776.293          50.000  
R23  21001257.910   112342574.564        1365.951          46.000                                                                  
R12  18411262.921    98349618.120        -147.121          51.000    18411259.148    76494218.125        -114.437          51.000  
R06  21464078.822   114536429.830        1016.524          39.000                                                                  
G28  23092756.589   121353275.440       -3691.158          36.000    23092754.663    94560886.513       -2875.946          40.000  
E12  23490129.630   123441678.077       -2496.177          45.000    23490125.811    94585346.124       -1912.687          49.000  
E10  22352362.183   117462704.807       -1518.416          45.000    22352363.218    90004015.724       -1163.438          52.000  
E31  25651219.837   134798392.345       -3471.803          43.000    25651220.471   103287148.647       -2660.249          45.000  
G16  21318878.436   112031484.124        2250.646          44.000                                                                  
R13  21201319.065   113213696.0691       2804.714          32.000    21201301.875    88055166.532        2181.547          35.000  
R07  22385735.784   119832619.378        2848.057          49.000    22385727.847    93203119.190        2215.159          43.000  
R21  20409617.033   109216432.873       -3238.121          50.000    20409611.433    84945938.000       -2518.671          47.000  
E24  22444968.801   117949116.959       -1793.788          47.000    22444967.947    90376634.759       -1374.410          53.000  
S31  37481942.014   196969028.727        -680.605          43.000  
G29  21855941.703   114854075.706       -2638.792          42.000    21855937.226    89496819.626       -2056.547          39.000  
G31  21703053.480   114050305.624       -2948.820          46.000    21703047.285    88870400.086       -2297.890          42.000  
E36  25521842.432   134118210.270        1533.268          32.000    25521844.290   102765944.501        1175.064          42.000  
G18  19538085.885   102673560.889       -2323.901          48.000    19538080.453    80005523.622       -1810.748          49.000  
G10  22017629.753   115703472.560        3105.789          45.000    22017624.789    90158550.454        2419.988          37.000  
E11  21367300.098   112286142.685        -175.205          44.000    21367296.267    86037540.100        -134.065          48.000  
G25                                                                  23064372.443                3      -3331.125          22.000  
> 2024 04 09 06 32 30.4960000  0 27                     
S33  38441315.468   202010617.055        -680.560          44.000  
G23  19988866.993   105042370.379        1514.006          49.000    19988862.772    81851253.181        1179.652          49.000  
E25  23010254.515   120919673.462         906.905          47.000    23010254.055    92652777.873         694.821          51.000  
G26  19117698.796   100464179.305         137.316          49.000    19117696.293    78283781.209         106.994          45.000  
G27  22767918.164   119646236.637        1665.979          44.000    22767915.143    93230817.275        1298.199          36.000  
R11  19735802.739   105462267.483       -4415.240          52.000    19735796.300    82026064.594       -3434.137          50.000  
R22  18623061.667    99411518.828       -1007.824          51.000    18623056.688    77319974.587        -784.062          50.000  
R23  20993621.426   112301722.963        1357.334          45.000                                                                  
R12  18412164.775    98354433.991        -174.173          52.000    18412160.881    76497963.789        -135.559          51.000  
R06  21458417.000   114506219.196         997.233          39.000                                                                  
G28  23113822.474   121463979.130       -3689.447          35.000    23113822.101    94647148.956       -2874.868          39.000  
E12  23504391.527   123516623.517       -2500.473          45.000    23504387.255    94642771.849       -1915.944          49.000  
E10  22361051.610   117508365.497       -1525.937          46.000    22361052.139    90039002.490       -1169.255          52.000  
E31  25671052.126   134902611.598       -3476.198          43.000    25671052.787   103367004.878       -2663.710          46.000  
G16  21306050.011   111964071.876        2243.273          44.000                                                                  
R13  21185596.447                        2790.399          31.000    21185580.517    87989875.833        2170.302          35.000  
R07  22369775.447   119747183.903        2847.413          46.000    22369767.479    93136669.521        2214.581          43.000  
R21  20427772.229   109313581.193       -3238.576          50.000    20427765.313    85021497.841       -2518.959          46.000  
E24  22455241.405   118003102.781       -1805.512          47.000    22455241.152    90418000.516       -1383.470          53.000  
S31  37485827.291   196989445.802        -680.631          43.000  
G29  21871016.074   114933286.664       -2642.131          43.000    21871010.170    89558542.454       -2058.828          39.000  
G31  21719913.183   114138905.297       -2957.970          47.000    21719908.317    88939438.751       -2305.031          43.000  
E36  25513106.382   134072289.974        1527.422          34.000    25513105.574   102730758.971        1170.487          41.000  
G18  19551382.089   102743434.755       -2334.735          48.000    19551377.157    80059970.797       -1819.250          49.000  
G10  21999908.325   115610345.674        3102.332          45.000    21999903.114    90085984.213        2417.501          38.000  
E11  21368326.263   112291532.215        -184.392          44.000    21368321.896    86041669.758        -141.275          48.000  
G25                                                                  23088821.008                3      -3334.008          17.000  
> 2024 04 09 06 33 00.4960000  0 26                     
S33  38445200.824   202031033.402        -680.545          44.000  
G23  19980269.542   104997188.272        1497.917          49.000    19980265.084    81816046.333        1167.272          49.000  
E25  23005102.616   120892604.469         897.485          46.000    23005103.045    92632036.696         687.719          51.000  
G26  19116966.583   100460332.124         118.912          49.000    19116963.574    78280783.396          92.723          45.000  
G27  22758404.377   119596245.295        1666.687          43.000    22758401.651    93191863.058        1298.785          36.000  
R11  19760630.092   105594937.000       -4429.498          51.000    19760623.849    82129251.959       -3445.349          50.000  
R22  18628753.620    99441904.804       -1017.945          51.000    18628749.289    77343608.120        -791.831          50.000  
R23  20986033.295   112261135.537        1348.273          46.000                                                                  
R12  18413219.767    98360067.280        -201.556          52.000    18413215.751    76502345.216        -156.743          51.000  
R06  21452861.922   114476577.941         978.152          38.000                                                                  
G28  23134879.624   121574639.489       -3688.419          35.000    23134880.206    94733377.552       -2873.236          39.000  
E12  23518676.944   123591698.716       -2504.708          45.000    23518673.672    94700297.012       -1919.242          49.000  
E10  22369785.516   117554256.416       -1533.799          47.000    22369784.975    90074165.655       -1175.158          52.000  
E31  25690910.693   135006969.045       -3480.993          43.000    25690911.243   103446966.973       -2667.259          46.000  
G16  21293264.930   111896887.839        2235.466          44.000                                                                  
R13  21169953.548                        2776.585          31.000    21169939.397    87924918.613        2159.791          36.000  
R07  22353818.991   119661778.993        2846.160          45.000    22353814.541    93070243.601        2213.622          46.000  
R21  20445930.624   109410749.487       -3239.372          52.000    20445923.729    85097073.123       -2519.502          47.000  
E24  22465582.450   118057444.045       -1817.278          47.000    22465581.748    90459638.628       -1392.580          53.000  
S31  37489712.993   197009864.599        -680.797          43.000  
G29  21886110.219   115012604.647       -2646.049          41.000    21886103.963    89620348.597       -2061.547          39.000  
G31  21736826.733   114227785.062       -2967.433          47.000    21736821.625    89008695.642       -2312.292          43.000  
E36  25504400.320   134026553.361        1521.895          33.000    25504401.933   102695714.216        1165.439          40.000  
G18  19564741.108   102813638.057       -2345.715          48.000    19564736.176    80114674.671       -1827.899          49.000  
G10  21982207.195   115517330.068        3098.354          45.000    21982203.272    90013504.690        2414.079          38.000  
E11  21369405.371   112297201.247        -193.825          45.000    21369400.404    86046013.574        -148.590          48.000  
> 2024 04 09 06 33 30.4960000  0 26                     
S33  38449086.058   202051451.407        -680.743          44.000  
G23  19971762.211   104952485.241        1482.030          48.000    19971758.464    81781212.835        1154.836          49.000  
E25  23000004.916   120865815.270         888.261          46.000    23000005.465    92611509.914         680.525          52.000  
G26  19116338.830   100457033.332         100.762          49.000    19116335.914    78278212.935          78.433          45.000  
G27  22748884.978   119546224.774        1667.810          41.000    22748883.656    93152886.085        1299.225          36.000  
R11  19785536.177   105728031.672       -4443.530          51.000    19785530.521    82232769.981       -3456.091          49.000  
R22  18634502.495    99472588.834       -1027.797          51.000    18634497.200    77367473.502        -799.378          50.000  
R23  20978495.733   112220811.884        1339.865          46.000                                                                  
R12  18414426.926    98366519.186        -228.808          52.000    18414423.065    76507363.366        -177.887          50.000  
R06  21447412.784   114447509.587         959.240          37.000                                                                  
G28  23155928.289   121685253.669       -3686.190          36.000    23155928.849    94819570.220       -2872.335          36.000  
E12  23532987.488   123666902.419       -2508.841          45.000    23532984.688    94757920.629       -1922.506          49.000  
E10  22378562.232   117600376.283       -1541.273          48.000    22378561.007    90109504.244       -1180.913          52.000  
E31  25710794.675   135111463.499       -3485.401          43.000    25710796.031   103527034.114       -2670.743          46.000  
G16  21280523.966   111829934.919        2227.861          44.000                                                                  
R13  21154392.175                        2762.181          30.000    21154380.313    87860297.852        2148.219          36.000  
R07  22337871.218   119576409.072        2845.057          48.000    22337867.375    93003844.886        2212.799          46.000  
R21  20464091.096   109507936.275       -3239.942          51.000    20464084.978    85172662.883       -2519.898          46.000  
E24  22475990.774   118112140.651       -1829.143          47.000    22475990.001    90501549.007       -1401.594          53.000  
S31  37493598.857   197030284.808        -680.715          43.000  
G29  21901224.590   115092029.779       -2649.370          41.000    21901217.179    89682238.307       -2064.115          39.000  
G31  21753792.874   114316942.047       -2976.526          46.000    21753788.224    89078168.563       -2319.291          44.000  
E36  25495732.011   133981000.963        1515.052          33.000    25495733.414   102660810.492        1160.904          40.000  
G18  19578162.805   102884168.721       -2356.512          48.000    19578157.186    80169633.652       -1836.188          48.000  
G10  21964528.372   115424428.987        3094.670          45.000    21964525.588    89941114.370        2411.612          39.000  
E11  21370537.062   112303149.175        -202.670          45.000    21370531.874    86050571.094        -155.416          47.000  
> 2024 04 09 06 34 00.4960000  0 26                     
S33  38452970.405   202071864.825        -680.858          44.000  
G23  19963345.917   104908257.462        1466.071          48.000    19963341.804    81746749.645        1142.311          49.000  
E25  22994958.876   120839300.988         879.052          45.000    22994960.179    92591193.777         673.456          52.000  
G26  19115814.617   100454277.856          82.653          49.000    19115812.220    78276065.818          64.185          45.000  
G27  22739360.115   119496168.803        1668.884          42.000    22739358.483    93113881.479        1300.403          37.000  
R11  19810519.536   105861540.840       -4457.438          50.000    19810514.602    82336610.363       -3466.872          49.000  
R22  18640304.143    99503562.629       -1037.625          51.000    18640299.853    77391564.190        -807.007          50.000  
R23  20971004.982   112180744.476        1330.991          45.000                                                                  
R12  18415786.593    98373784.112        -255.966          51.000    18415783.353    76513013.855        -199.062          50.000  
R06  21442072.359   114419010.872         939.782          37.000                                                                  
G28  23176967.299   121795812.513       -3684.589          37.000    23176967.167    94905719.791       -2870.919          33.000  
E12  23547320.586   123742226.593       -2512.902          44.000    23547318.458    94815636.549       -1925.573          49.000  
E10  22387381.086   117646717.330       -1548.456          48.000    22387379.386    90145012.319       -1186.555          52.000  
E31  25730703.702   135216087.437       -3489.982          43.000    25730705.601   103607200.438       -2674.068          46.000  
G16  21267826.028   111763209.146        2220.389          43.000                                                                  
R13  21138909.856   112880496.507        2748.055          31.000    21138901.706    87796011.424        2136.974          37.000  
R07  22321929.289   119491071.980        2843.706          48.000    22321924.510    92937471.707        2211.804          45.000  
R21  20482255.342   109605133.649       -3240.332          51.000    20482247.812    85248260.821       -2520.383          46.000  
E24  22486466.836   118167185.989       -1840.838          49.000    22486464.620    90543726.592       -1410.554          52.000  
S31  37497483.753   197050700.481        -680.882          43.000  
G29  21916357.175   115171555.795       -2653.103          40.000    21916351.370    89744206.649       -2067.326          39.000  
G31  21770809.629   114406366.836       -2985.584          45.000    21770805.608    89147850.136       -2326.278          45.000  
E36  25487096.423   133935626.541        1509.398          33.000    25487098.276   102626043.232        1156.547          39.000  
G18  19591644.991   102955018.091       -2367.236          49.000    19591639.433    80224840.940       -1844.476          48.000  
G10  21946871.405   115331639.181        3090.722          45.000    21946868.458    89868810.751        2408.151          40.000  
E11  21371720.390   112309368.895        -212.127          44.000    21371715.032    86055336.863        -162.510          47.000  
> 2024 04 09 06 34 30.4960000  0 26                     
S33  38456856.320   202092283.569        -680.814          44.000  
G23  19955022.772   104864517.670        1449.642          48.000    19955018.786    81712666.693        1129.673          49.000  
E25  22989967.339   120813073.281         869.362          45.000    22989969.188    92571097.227         666.131          52.000  
G26  19115396.508   100452077.175          63.988          50.000    19115393.699    78274350.978          49.827          46.000  
G27  22729830.109   119446087.663        1669.806          42.000    22729827.763    93074857.232        1301.264          37.000  
R11  19835581.792   105995470.700       -4471.408          49.000    19835578.045    82440777.975       -3477.742          49.000  
R22  18646163.695    99534834.692       -1047.609          52.000    18646158.575    77415886.892        -814.735          50.000  
R23  20963563.990   112140943.293        1322.136          44.000                                                                  
R12  18417300.748    98381873.191        -283.629          51.000    18417297.511    76519305.356        -220.558          50.000  
R06  21436842.310   114391095.591         920.468          38.000                                                                  
G28  23197996.497   121906323.420       -3682.843          37.000    23197996.670    94991831.862       -2869.686          36.000  
E12  23561679.327   123817680.189       -2517.234          44.000    23561676.636    94873451.642       -1928.994          49.000  
E10  22396242.681   117693288.434       -1556.240          47.000    22396241.869    90180696.676       -1192.546          52.000  
E31  25750639.056   135320849.718       -3494.164          43.000    25750641.515   103687472.816       -2677.570          47.000  
G16  21255174.190   111696723.475        2211.963          43.000                                                                  
R13  21123513.180                        2732.892          31.000    21123505.555    87732071.008        2125.575          36.000  
R07  22305996.916   119405782.257        2841.954          48.000    22305991.996    92871135.389        2210.300          45.000  
R21  20500423.544   109702350.714       -3241.175          52.000    20500415.873    85323874.068       -2520.798          46.000  
E24  22497010.292   118222589.987       -1852.835          49.000    22497007.585    90586179.013       -1419.775          52.000  
S31  37501369.977   197071121.886        -681.023          43.000  
G29  21931510.366   115251193.488       -2656.607          40.000    21931505.838    89806261.951       -2069.996          39.000  
G31  21787879.200   114496066.347       -2994.632          45.000    21787874.824    89217745.812       -2333.418          44.000  
E36  25478498.960   133890440.755        1502.309          33.000    25478499.463   102591420.408        1151.779          39.000  
G18  19605189.473   103026194.147       -2378.156          48.000    19605183.750    80280302.798       -1852.936          48.000  
G10  21929237.799   115238973.983        3086.718          46.000    21929235.547    89796604.211        2405.312          41.000  
E11  21372957.033   112315869.716        -221.333          44.000    21372952.298    86060318.054        -169.709          47.000  
> 2024 04 09 06 35 00.4960000  0 26                     
S33  38460741.843   202112702.635        -680.823          44.000  
G23  19946792.071   104821263.997        1433.775          48.000    19946787.972    81678962.568        1117.185          49.000  
E25  22985030.533   120787129.310         860.055          45.000    22985031.956    92551218.083         659.073          52.000  
G26  19115082.102   100450428.257          45.836          49.000    19115079.609    78273066.119          35.599          45.000  
G27  22720294.817   119395977.182        1670.850          41.000    22720291.762    93035810.128        1301.855          37.000  
R11  19860722.819   106129812.804       -4484.843          50.000    19860718.871    82545266.257       -3488.335          49.000  
R22  18652076.517    99566398.712       -1056.929          51.000    18652071.455    77440436.706        -822.060          50.000  
R23  20956173.725   112101403.485        1313.724          47.000                                                                  
R12  18418969.243    98390783.101        -310.662          52.000    18418965.687    76526235.270        -241.604          51.000  
R06  21431719.929   114363762.504         901.469          36.000                                                                  
G28  23219015.825   122016779.122       -3681.061          38.000    23219016.003    95077900.957       -2868.149          38.000  
E12  23576061.498   123893257.358       -2521.111          44.000    23576058.194    94931361.390       -1931.751          49.000  
E10  22405147.625   117740083.861       -1563.487          47.000    22405146.930    90216552.916       -1198.048          52.000  
E31  25770599.306   135425744.873       -3498.656          41.000    25770602.748   103767846.964       -2680.862          47.000  
G16  21242567.677   111630476.089        2204.136          44.000                                                                  
R13  21108200.947   112716522.292        2718.196          32.000    21108193.387    87668476.034        2114.138          37.000  
R07  22290072.296   119320539.968        2840.643          47.000    22290068.605    92804835.911        2209.350          47.000  
R21  20518592.902   109799581.473       -3241.194          52.000    20518585.468    85399497.987       -2520.982          46.000  
E24  22507620.336   118278348.119       -1864.483          49.000    22507618.052    90628902.765       -1428.596          52.000  
S31  37505256.269   197091544.484        -680.710          44.000  
G29  21946686.401   115330938.277       -2660.144          40.000    21946681.285    89868400.785       -2072.722          40.000  
G31  21804998.693   114586033.342       -3003.444          44.000    21804994.782    89287849.922       -2340.099          44.000  
E36  25469936.982   133845439.372        1496.946          33.000    25469936.500   102556938.980        1147.054          39.000  
G18  19618794.342   103097690.339       -2388.538          48.000    19618789.091    80336014.133       -1861.176          48.000  
G10  21911627.780   115146432.235        3082.471          46.000    21911625.851    89724493.873        2401.981          41.000  
E11  21374246.326   112322646.642        -230.308          44.000    21374241.892    86065510.782        -176.393          47.000  
> 2024 04 09 06 35 30.4960000  0 26                     
S33  38464626.476   202133116.869        -680.812          44.000  
G23  19938653.140   104778492.448        1417.484          49.000    19938648.048    81645634.098        1104.513          48.000  
E25  22980146.845   120761463.975         850.652          46.000    22980147.948    92531552.445         651.785          52.000  
G26  19114871.954   100449325.853          27.536          49.000    19114869.468    78272207.097          21.313          45.000  
G27  22710751.996   119345830.855        1672.015          40.000    22710749.478    92996735.089        1302.869          38.000  
R11  19885939.252   106264556.185       -4498.081          51.000    19885934.415    82650066.649       -3498.549          49.000  
R22  18658042.300    99598246.400       -1066.424          51.000    18658036.973    77465207.150        -829.520          49.000  
R23  20948830.751   112062117.247        1305.176          47.000    20949085.416                3        978.530          12.000  
R12  18420790.274    98400507.756        -337.831          52.000    18420785.379    76533798.879        -262.702          50.000  
R06  21426706.021   114337008.079         882.297          35.000                                                                  
G28  23240022.973   122127170.300       -3678.656          37.000    23240023.172    95163919.780       -2866.682          41.000  
E12  23590466.193   123968950.112       -2525.213          45.000    23590461.878    94989359.733       -1934.906          48.000  
E10  22414093.260   117787095.709       -1570.858          48.000    22414092.867    90252574.989       -1203.687          52.000  
E31  25790583.870   135530765.114       -3503.019          41.000    25790587.585   103848316.930       -2684.065          48.000  
G16  21230005.663   111564462.996        2196.423          44.000                                                                  
R13  21092968.444   112635198.492        2704.018          32.000    21092964.566    87605224.239        2102.225          38.000  
R07  22274156.641   119235342.984        2838.924          46.000    22274152.691    92738571.721        2208.175          47.000  
R21  20536762.514   109896818.083       -3241.397          50.000    20536757.009    85475126.442       -2521.001          47.000  
E24  22518296.644   118334453.557       -1876.124          48.000    22518294.446    90671892.633       -1437.510          52.000  
S31  37509141.482   197111961.222        -680.664          44.000  
G29  21961880.798   115410784.080       -2663.245          41.000    21961874.976    89930618.262       -2075.234          39.000  
G31  21822167.744   114676257.960       -3011.840          45.000    21822164.027    89358154.765       -2346.932          43.000  
E36  25461406.942   133800616.177        1490.558          31.000    25461406.965   102522594.091        1142.233          40.000  
G18  19632458.560   103169497.896       -2398.834          48.000    19632454.141    80391968.092       -1869.324          49.000  
G10  21894040.365   115054010.433        3078.500          46.000    21894037.399    89652476.994        2398.829          40.000  
E11  21375587.276   112329692.314        -239.677          44.000    21375583.041    86070909.430        -183.528          48.000  
> 2024 04 09 06 36 00.4960000  0 26                     
S33  38468510.903   202153530.126        -680.780          44.000  
G23  19930607.035   104736210.066        1400.847          48.000    19930601.663    81612686.802        1091.594          48.000  
E25  22975317.128   120736083.346         840.922          46.000    22975318.243    92512104.954         644.340          52.000  
G26  19114767.175   100448775.768           8.802          49.000    19114764.205    78271778.448           6.854          44.000  
G27  22701203.297   119295653.473        1672.748          40.000    22701201.099    92957635.897        1303.516          38.000  
R11  19911230.401   106399701.764       -4511.897          51.000    19911225.513    82755179.845       -3509.336          50.000  
R22  18664061.831    99630380.450       -1076.361          51.000    18664056.959    77490200.279        -837.149          50.000  
R23  20941533.496   112023089.086        1296.370          46.000                                                                  
R12  18422763.715    98411052.666        -365.529          52.000    18422759.645    76542000.476        -284.359          50.000  
R06  21421800.893   114310840.265         862.549          34.000                                                                  
G28  23261018.468   122237498.718       -3676.996          39.000    23261018.378    95249889.716       -2864.954          42.000  
E12  23604891.984   124044761.554       -2529.419          45.000    23604888.367    95047449.032       -1938.101          48.000  
E10  22423080.895   117834327.185       -1578.350          47.000    22423080.624    90288765.348       -1209.406          52.000  
E31  25810593.361   135635913.716       -3507.380          41.000    25810596.938   103928885.276       -2687.518          48.000  
G16  21217490.183   111498691.186        2188.033          43.000                                                                  
R13  21077822.470   112554324.701        2688.106          35.000    21077820.072    87542322.357        2090.294          39.000  
R07  22258251.647   119150199.981        2836.820          46.000    22258247.357    92672349.551        2206.369          47.000  
R21  20554936.151   109994063.828       -3241.936          49.000    20554929.481    85550762.047       -2521.581          47.000  
E24  22529040.446   118390910.616       -1888.055          49.000    22529037.766    90715151.929       -1446.710          52.000  
S31  37513026.444   197132377.111        -680.995          44.000  
G29  21977094.474   115490735.737       -2666.995          40.000    21977088.535    89992918.269       -2078.399          39.000  
G31  21839386.337   114766741.782       -3020.873          44.000    21839382.229    89428661.593       -2353.849          43.000  
E36  25452913.716   133755976.050        1484.937          33.000    25452913.462   102488389.475        1137.709          41.000  
G18  19646182.962   103241619.223       -2409.662          48.000    19646178.024    80448166.506       -1877.637          49.000  
G10  21876477.478   114961716.388        3073.789          47.000    21876474.226    89580559.656        2395.501          42.000  
E11  21376979.771   112337010.480        -248.536          44.000    21376975.636    86076516.872        -190.479          48.000  
> 2024 04 09 06 36 30.4960000  0 26                     
S33  38472393.850   202173935.624        -680.359          44.000  
G23  19922652.865   104694411.894        1385.011          48.000    19922647.717    81580116.808        1079.220          48.000  
E25  22970539.890   120710981.485         831.843          46.000    22970541.533    92492871.057         637.436          52.000  
G26  19114766.614   100448771.841          -9.177          49.000    19114763.687    78271775.369          -7.118          45.000  
G27  22691647.094   119245437.777        1674.341          41.000    22691645.812    92918506.828        1304.657          39.000  
R11  19936593.983   106535237.863       -4524.536          51.000    19936589.105    82860596.757       -3519.107          50.000  
R22  18670133.576    99662791.482       -1085.166          51.000    18670128.508    77515408.845        -844.089          50.000  
R23  20934284.314   111984310.494        1288.209          46.000                                                                  
R12  18424889.699    98422410.962        -392.314          51.000    18424885.812    76550834.707        -305.131          50.000  
R06  21417005.108   114285254.594         843.351          34.000                                                                  
G28  23281999.735   122347754.223       -3673.979          40.000    23281999.856    95335802.850       -2862.896          41.000  
E12  23619339.412   124120682.932       -2532.691          45.000    23619335.847    95105622.571       -1940.650          48.000  
E10  22432108.767   117881769.537       -1584.967          47.000    22432108.073    90325117.288       -1214.485          51.000  
E31  25830626.188   135741182.072       -3510.940          43.000    25830628.339   104009545.356       -2690.103          47.000  
G16  21205019.757   111433155.927        2180.472          44.000                                                                  
R13  21062761.237   112473897.257        2673.407          36.000    21062759.648    87479767.701        2079.385          39.000  
R07  22242355.036   119065107.797        2835.418          46.000    22242351.746    92606166.860        2205.310          48.000  
R21  20573109.614   110091310.059       -3241.633          50.000    20573103.207    85626397.969       -2521.271          48.000  
E24  22539849.476   118447711.608       -1899.199          49.000    22539846.531    90758674.769       -1455.250          52.000  
S31  37516909.835   197152784.708        -680.476          44.000  
G29  21992328.593   115570786.255       -2670.175          41.000    21992321.762    90055295.258       -2080.197          38.000  
G31  21856651.147   114857474.055       -3028.608          44.000    21856648.599    89499361.993       -2359.989          43.000  
E36  25444452.603   133711512.009        1478.832          34.000    25444452.072   102454319.695        1133.244          42.000  
G18  19659965.522   103314044.642       -2419.348          48.000    19659960.344    80504601.884       -1885.132          49.000  
G10  21858937.665   114869545.866        3070.095          46.000    21858934.779    89508738.597        2392.273          42.000  
E11  21378422.353   112344592.935        -257.343          43.000    21378418.396    86082326.797        -197.141          48.000  
> 2024 04 09 06 37 00.4960000  0 26                     
S33  38476275.477   202194332.186        -679.853          44.000  
G23  19914792.014   104653102.247        1368.816          48.000    19914787.068    81547927.499        1066.450          49.000  
E25  22965816.395   120686161.717         822.414          46.000    22965818.445    92473853.311         630.234          52.000  
G26  19114870.965   100449317.126         -27.522          49.000    19114867.697    78272200.253         -21.611          44.000  
G27  22682084.766   119195185.746        1675.342          40.000    22682083.078    92879349.450        1305.621          40.000  
R11  19962030.735   106671161.734       -4537.129          52.000    19962024.587    82966315.284       -3528.905          49.000  
R22  18676256.138    99695479.661       -1094.315          50.000    18676252.154    77540832.988        -851.159          50.000  
R23  20927080.605   111945783.384        1280.074          45.000                                                                  
R12  18427169.424    98434585.234        -419.564          53.000    18427165.032    76560303.573        -326.346          50.000  
R06  21412318.510   114260256.207         822.936          31.000                                                                  
G28  23302966.846   122457935.833       -3671.528          41.000    23302966.944    95421658.403       -2860.824          41.000  
E12  23633807.852   124196714.584       -2536.385          45.000    23633804.530    95163880.592       -1943.495          49.000  
E10  22441177.464   117929423.247       -1592.154          48.000    22441176.159    90361631.174       -1219.897          51.000  
E31  25850681.467   135846570.768       -3515.276          43.000    25850682.993   104090297.666       -2693.390          46.000  
G16  21192595.190   111367861.521        2172.221          45.000                                                                  
R13  21047784.918   112393922.012        2658.064          36.000    21047782.655    87417564.724        2067.160          39.000  
R07  22226471.203   118980072.836        2833.387          49.000    22226465.794    92540028.664        2203.656          47.000  
R21  20591282.423   110188557.075       -3241.759          50.000    20591276.434    85702034.542       -2521.423          48.000  
E24  22550723.278   118504858.091       -1910.722          48.000    22550721.216    90802462.328       -1464.056          52.000  
S31  37520791.709   197173185.747        -680.167          44.000  
G29  22007580.775   115650937.457       -2673.570          40.000    22007574.485    90117750.753       -2083.335          38.000  
G31  21873964.217   114948453.584       -3036.908          45.000    21873961.202    89570255.057       -2366.494          43.000  
E36  25436021.585   133667225.995        1473.344          34.000    25436024.793   102420386.356        1128.510          42.000  
G18  19673805.400   103386773.832       -2429.480          48.000    19673800.661    80561273.980       -1893.066          49.000  
G10  21841422.443   114777503.882        3065.597          46.000    21841419.607    89437017.676        2388.731          42.000  
E11  21379915.696   112352440.806        -266.146          43.000    21379911.974    86088340.102        -203.997          48.000  
> 2024 04 09 06 37 30.4960000  0 26                     
S33  38480156.752   202214729.315        -679.908          44.000  
G23  19907025.095   104612289.190        1351.928          48.000    19907020.952    81516125.114        1053.606          49.000  
E25  22961148.595   120661631.120         812.667          46.000    22961150.328    92455057.140         622.743          52.000  
G26  19115080.490   100450418.404         -46.226          49.000    19115077.189    78273058.386         -35.922          45.000  
G27  22672516.150   119144903.203        1676.520          40.000    22672514.500    92840168.273        1306.494          40.000  
R11  19987539.814   106807475.336       -4550.241          52.000    19987533.675    83072336.919       -3539.105          48.000  
R22  18682433.757    99728448.837       -1103.793          52.000    18682428.905    77566475.668        -858.523          50.000  
R23  20919925.945   111907512.349        1271.280          44.000                                                                  
R12  18429602.593    98447581.549        -447.033          52.000    18429598.005    76570411.813        -347.698          50.000  
R06  21407745.771                         803.057          32.000                                                                  
G28  23323919.958   122568046.396       -3669.160          41.000    23323920.623    95507458.589       -2859.096          42.000  
E12  23648297.738   124272860.768       -2540.238          44.000    23648294.822    95222226.358       -1946.463          49.000  
E10  22450287.048   117977292.549       -1599.356          48.000    22450285.716    90398310.263       -1225.534          52.000  
E31  25870759.476   135952084.134       -3519.224          42.000    25870761.315   104171145.512       -2696.539          46.000  
G16  21180217.908   111302816.353        2163.737          45.000                                                                  
R13  21032894.352   112314408.609        2642.594          37.000    21032892.047    87355720.989        2055.361          39.000  
R07  22210599.591   118895105.199        2830.944          49.000    22210592.902    92473942.857        2201.842          46.000  
R21  20609455.158   110285809.346       -3241.972          49.000    20609449.638    85777675.164       -2521.447          47.000  
E24  22561664.351   118562355.404       -1922.516          47.000    22561662.631    90846518.701       -1473.094          52.000  
S31  37524674.011   197193585.876        -680.099          43.000  
G29  22022852.965   115731195.233       -2677.511          36.000    22022848.048    90180289.164       -2085.816          38.000  
G31  21891324.441   115039682.839       -3045.197          45.000    21891321.302    89641342.750       -2373.057          42.000  
E36  25427628.523   133623123.918        1467.072          34.000    25427632.564   102386593.934        1123.938          43.000  
G18  19687703.717   103459810.172       -2439.697          48.000    19687698.769    80618185.408       -1901.141          49.000  
G10  21823933.838   114685599.203        3060.977          45.000    21823930.861    89365403.739        2385.052          43.000  
E11  21381460.278   112360558.857        -275.038          43.000    21381456.694    86094560.444        -210.832          48.000  
> 2024 04 09 06 38 00.4960000  0 27                     
S33  38484036.762   202235119.120        -679.862          44.000  
G23  19899352.365   104571968.706        1335.189          47.000    19899348.825    81484706.570        1040.581          50.000  
E25  22956535.219   120637384.697         803.185          46.000    22956536.470    92436478.705         615.409          52.000  
G26  19115394.621   100452070.420         -64.754          49.000    19115391.839    78274345.666         -50.383          45.000  
G27  22662941.136   119094583.803        1677.582          41.000    22662939.326    92800958.425        1307.043          40.000  
R11  20013119.292   106944167.682       -4563.075          52.000    20013113.330    83178653.145       -3549.148          48.000  
R22  18688660.992    99761690.715       -1113.072          52.000    18688656.322    77592330.458        -865.699          50.000  
R23  20912818.952   111869489.974        1262.895          46.000                                                                  
R12  18432188.026    98461394.246        -474.428          52.000    18432183.202    76581155.007        -368.981          49.000  
R06  21403283.980                         783.699          32.000                                                                  
R05  23232860.998                3      -2065.721          11.000                                                                  
G28  23344858.606   122678076.696       -3666.681          41.000    23344858.964    95593196.225       -2857.218          41.000  
E12  23662807.272   124349113.564       -2543.981          43.000    23662805.112    95280653.826       -1949.220          49.000  
E10  22459436.473   118025369.657       -1606.391          48.000    22459434.752    90435148.562       -1230.875          52.000  
E31  25890860.005   136057714.554       -3523.100          42.000    25890861.976   104252083.027       -2699.668          46.000  
G16  21167886.917   111238016.834        2155.573          44.000                                                                  
R13  21018089.610   112235354.243        2626.791          36.000    21018087.588    87294234.277        2043.513          40.000  
R07  22194738.480   118810202.962        2828.525          49.000    22194731.322    92407907.859        2200.023          45.000  
R21  20627629.383   110383059.070       -3241.991          50.000    20627624.242    85853313.865       -2521.561          48.000  
E24  22572670.650   118620196.799       -1934.034          47.000    22572669.566    90890838.731       -1481.956          52.000  
S31  37528554.385   197213978.253        -680.170          43.000  
G29  22038145.445   115811553.210       -2680.431          41.000    22038140.316    90242905.756       -2089.033          38.000  
G31  21908731.376   115131152.295       -3053.331          45.000    21908727.171    89712617.577       -2379.253          42.000  
E36  25419266.477   133579199.633        1460.956          32.000    25419273.458   102352937.726        1119.310          43.000  
G18  19701658.469   103533145.000       -2449.896          48.000    19701653.300    80675329.423       -1908.942          48.000  
G10  21806470.523   114593828.566        3056.339          46.000    21806468.070    89293894.274        2381.487          43.000  
E11  21383055.027   112368939.862        -284.176          43.000    21383051.664    86100982.262        -217.709          48.000  
> 2024 04 09 06 38 30.4960000  0 26                     
S33  38487915.280   202255500.641        -679.503          44.000  
G23  19891773.738   104532142.914        1319.311          47.000    19891770.216    81453673.512        1028.098          50.000  
E25  22951976.068   120613423.701         794.111          46.000    22951976.729    92418118.979         608.364          51.000  
G26  19115814.190   100454274.085         -82.635          49.000    19115811.004    78276062.819         -64.329          45.000  
G27  22653359.201   119044227.559        1679.059          41.000    22653356.190    92761719.825        1308.215          40.000  
R11  20038769.455   107081234.475       -4575.109          52.000    20038763.842    83285260.601       -3558.361          48.000  
R22  18694939.100    99795203.147       -1121.566          52.000    18694934.112    77618395.693        -872.384          50.000  
R23  20905758.414   111831715.916        1254.966          47.000                                                                  
R12  18434926.670    98476023.608        -501.248          52.000    18434921.501    76592533.388        -389.904          49.000  
R06  21398936.551                         763.936          31.000                                                                  
G28  23365780.905   122788023.743       -3663.823          41.000    23365780.861    95678868.983       -2854.553          40.000  
E12  23677338.085   124425471.415       -2546.989          44.000    23677335.275    95339161.787       -1951.603          48.000  
E10  22468624.127   118073652.956       -1612.854          48.000    22468622.827    90472144.860       -1235.876          52.000  
E31  25910983.446   136163460.546       -3526.629          42.000    25910985.044   104333109.085       -2702.312          46.000  
G16  21155602.848   111173465.209        2147.690          44.000                                                                  
R13  21003372.905   112156762.760        2612.374          37.000    21003369.680    87233107.622        2031.715          39.000  
R07  22178890.911   118725370.043        2826.612          49.000    22178883.891    92341926.798        2198.461          46.000  
R21  20645801.391   110480304.790       -3241.378          49.000    20645796.849    85928949.420       -2521.095          47.000  
E24  22583743.149   118678381.734       -1945.216          47.000    22583741.750    90935421.992       -1490.505          52.000  
S31  37532433.391   197234363.290        -679.158          43.000  
G29  22053455.914   115892011.390       -2683.923          39.000    22053450.984    90305600.458       -2091.449          36.000  
G31  21926183.229   115222858.374       -3060.691          46.000    21926178.560    89784076.801       -2385.163          42.000  
E36  25410941.833   133535453.131        1455.471          33.000    25410948.804   102319417.756        1115.048          43.000  
G18  19715670.263   103606775.934       -2459.259          48.000    19715664.199    80732704.191       -1916.461          48.000  
G10  21789033.760   114502194.961        3052.226          46.000    21789030.592    89222491.572        2378.037          43.000  
E11  21384699.619   112377582.755        -292.627          43.000    21384696.409    86107604.749        -224.137          48.000  
> 2024 04 09 06 39 00.4960000  0 26                     
S33  38491792.167   202275874.115        -679.318          44.000  
G23  19884289.732   104492814.163        1302.617          47.000    19884285.810    81423027.737        1015.001          49.000  
E25  22947471.717   120589749.501         784.156          47.000    22947471.516    92399979.002         600.904          51.000  
G26  19116338.239   100457030.495        -101.135          49.000    19116335.605    78278210.675         -78.822          45.000  
G27  22643769.142   118993834.552        1680.377          40.000    22643765.878    92722452.543        1309.369          39.000  
R11  20064489.060   107218671.696       -4587.395          52.000    20064483.024    83392156.201       -3568.346          47.000  
R22  18701268.093    99828984.353       -1130.560          52.000    18701262.491    77644669.977        -879.504          50.000  
R23  20898743.759   111794189.050        1246.687          47.000                                                                  
R12  18437817.814    98491469.736        -528.610          52.000    18437813.354    76604547.033        -411.103          49.000  
R06  21394700.122                         743.214          29.000                                                                  
G28  23386686.808   122897884.769       -3660.938          41.000    23386686.359    95764474.715       -2852.648          38.000  
E12  23691888.615   124501932.796       -2550.435          44.000    23691885.403    95397749.060       -1954.330          48.000  
E10  22477850.742   118122141.019       -1619.778          48.000    22477849.785    90509298.061       -1241.185          52.000  
E31  25931127.502   136269320.725       -3530.603          42.000    25931129.806   104414222.639       -2705.378          47.000  
G16  21143365.426   111109163.559        2138.982          43.000                                                                  
R13  20988743.846   112078637.967        2596.344          38.000    20988739.232    87172343.888        2019.445          39.000  
R07  22163056.161   118640610.987        2823.995          48.000    22163049.896    92276003.139        2196.468          45.000  
R21  20663974.720   110577545.136       -3241.299          50.000    20663967.284    86004580.813       -2521.039          46.000  
E24  22594880.687   118736909.821       -1956.719          47.000    22594879.667    90980268.183       -1499.342          53.000  
S31  37536311.182   197254740.481        -679.261          43.000  
G29  22068785.909   115972570.188       -2686.872          41.000    22068781.020    90368373.528       -2093.551          36.000  
G31  21943678.168   115314798.228       -3068.809          45.000    21943673.906    89855718.174       -2391.339          41.000  
E36  25402651.721   133491884.595        1449.412          33.000    25402657.795   102286034.141        1110.375          43.000  
G18  19729737.936   103680700.663       -2469.086          49.000    19729731.934    80790307.886       -1924.091          48.000  
G10  21771622.230   114410701.397        3047.374          46.000    21771619.363    89151198.020        2374.432          43.000  
E11  21386394.544   112386486.666        -301.111          43.000    21386390.668    86114427.227        -230.733          48.000  
> 2024 04 09 06 39 30.4960000  0 26                     
S33  38495668.592   202296244.944        -678.938          44.000  
G23  19876900.798   104453989.679        1285.623          46.000    19876897.484    81392774.911        1001.876          49.000  
E25  22943022.510   120566368.379         774.498          47.000    22943022.256    92382063.606         593.458          51.000  
G26  19116969.053   100460345.590        -119.763          50.000    19116967.048    78280793.853         -93.416          45.000  
G27  22634173.908   118943409.868        1681.500          41.000    22634169.427    92683160.607        1309.949          38.000  
R11  20090277.822   107356479.928       -4599.697          50.000    20090272.347    83499340.350       -3577.546          48.000  
R22  18707646.694    99863037.509       -1139.505          52.000    18707642.186    77671155.768        -886.253          50.000  
R23  20891774.655   111756913.826        1238.311          48.000                                                                  
R12  18440863.333    98507738.163        -555.940          52.000    18440858.903    76617200.252        -432.367          49.000  
R06  21390577.480   114144205.028         723.080          33.000                                                                  
G28  23407576.982   123007661.805       -3657.826          40.000    23407577.000    95850014.970       -2850.062          40.000  
E12  23706460.035   124578501.203       -2554.017          44.000    23706455.807    95456418.318       -1957.011          48.000  
E10  22487118.137   118170837.400       -1626.631          48.000    22487116.515    90546610.857       -1246.375          52.000  
E31  25951294.753   136375298.694       -3534.441          43.000    25951297.021   104495426.463       -2708.332          47.000  
G16  21131178.201   111045119.597        2130.574          44.000                                                                  
R13  20974200.714   112000988.706        2580.415          37.000    20974197.732    87111950.065        2006.934          39.000  
R07  22147237.573   118555934.746        2821.094          48.000    22147231.492    92210143.906        2194.196          45.000  
R21  20682145.610   110674784.025       -3241.165          51.000    20682138.017    86080211.017       -2520.874          45.000  
E24  22606084.525   118795785.571       -1968.240          47.000    22606083.604    91025380.756       -1508.114          53.000  
S31  37540188.291   197275114.359        -678.868          44.000  
G29  22084135.188   116053234.657       -2690.595          41.000    22084130.653    90431228.882       -2096.850          35.000  
G31  21961217.714   115406973.401       -3076.272          44.000    21961214.414    89927542.937       -2396.981          41.000  
E36  25394397.502   133448499.145        1443.399          35.000    25394401.563   102252790.788        1105.738          43.000  
G18  19743861.103   103754921.836       -2478.912          48.000    19743856.669    80848142.551       -1931.561          49.000  
G10  21754239.730   114319356.058        3042.586          46.000    21754236.678    89080019.941        2370.660          43.000  
E11  21388140.000   112395655.661        -310.017          44.000    21388135.361    86121452.824        -237.664          48.000  
> 2024 04 09 06 40 00.4960000  0 26                     
S33  38499544.775   202316613.652        -679.000          44.000  
G23  19869610.356   104415673.276        1268.498          47.000    19869605.597    81362917.994         988.394          49.000  
E25  22938629.142   120543283.287         764.223          46.000    22938629.394    92364375.034         585.648          51.000  
G26  19117707.044   100464221.905        -138.835          50.000    19117704.547    78283814.347        -108.114          46.000  
G27  22624572.619   118892955.126        1682.294          41.000    22624568.412    92643845.279        1310.590          40.000  
R11  20116134.518   107494656.740       -4612.300          49.000    20116130.575    83606811.119       -3587.431          48.000  
R22  18714076.303    99897362.218       -1148.974          51.000    18714072.543    77697852.766        -893.600          50.000  
R23  20884853.936   111719890.897        1229.613          49.000                                                                  
R12  18444063.311    98524830.924        -583.760          53.000    18444058.828    76630494.630        -454.099          49.000  
R06  21386566.414   114122806.428         702.856          33.000                                                                  
G28  23428450.125   123117353.652       -3655.080          39.000    23428451.604    95935488.841       -2848.167          41.000  
E12  23721050.165   124655176.634       -2557.882          44.000    23721046.603    95515169.618       -1960.007          48.000  
E10  22496424.514   118219742.154       -1633.794          48.000    22496422.854    90584083.333       -1251.999          52.000  
E31  25971484.439   136481394.653       -3538.793          43.000    25971486.567   104576720.696       -2711.577          47.000  
G16  21119040.695   110981337.458        2121.385          44.000                                                                  
R13  20959747.664   111923820.441        2563.596          38.000    20959746.356    87051930.346        1994.221          39.000  
R07  22131435.780   118471347.500        2817.764          48.000    22131430.308    92144353.927        2191.675          45.000  
R21  20700315.226   110772021.624       -3241.385          49.000    20700310.139    86155840.275       -2521.114          46.000  
E24  22617355.235   118855010.098       -1980.204          48.000    22617353.679    91070760.579       -1517.310          53.000  
S31  37544065.145   197295487.249        -679.275          43.000  
G29  22099506.331   116134006.499       -2694.421          42.000    22099501.552    90494167.914       -2099.639          34.000  
G31  21978802.843   115499382.011       -3084.351          43.000    21978799.347    89999549.588       -2403.333          40.000  
E36  25386177.048   133405298.424        1436.825          37.000    25386181.148   102219689.022        1100.697          44.000  
G18  19758041.193   103829438.708       -2489.069          48.000    19758036.325    80906207.652       -1939.478          48.000  
G10  21736886.416   114228163.502        3037.158          47.000    21736883.365    89008960.925        2366.240          42.000  
E11  21389935.614   112405090.370        -319.219          44.000    21389930.872    86128682.013        -244.498          48.000  
> 2024 04 09 06 40 30.4960000  0 26                     
S33  38503419.825   202336978.097        -678.636          44.000  
G23  19862415.462   104377864.441        1251.761          47.000    19862410.518    81333456.593         975.433          49.000  
E25  22934291.965   120520492.806         754.760          46.000    22934292.507    92346912.209         578.366          51.000  
G26  19118551.342   100468657.700        -157.168          50.000    19118548.592    78287270.844        -122.618          46.000  
G27  22614964.809   118842467.771        1683.405          41.000    22614961.712    92604504.505        1311.859          40.000  
R11  20142060.948   107633194.943       -4623.978          50.000    20142055.443    83714562.999       -3596.362          47.000  
R22  18720557.297    99931953.886       -1157.462          52.000    18720552.917    77724757.380        -900.309          50.000  
R23  20877978.972   111683116.833        1221.574          48.000                                                                  
R12  18447417.254    98542745.455        -610.835          53.000    18447413.214    76644428.143        -475.101          50.000  
R06  21382668.234   114102018.667         682.676          33.000                                                                  
G28  23449306.905   123226954.678       -3651.599          39.000    23449307.609    96020892.005       -2845.512          40.000  
E12  23735660.041   124731955.014       -2561.051          43.000    23735656.861    95573999.798       -1962.326          48.000  
E10  22505769.072   118268851.046       -1640.240          48.000    22505767.940    90621712.219       -1256.845          52.000  
E31  25991696.178   136587604.517       -3542.092          44.000    25991697.957   104658102.203       -2714.111          48.000  
G16  21106953.406   110917816.828        2113.051          44.000                                                                  
R13  20945388.649   111847134.187        2548.055          39.000    20945385.788    86992285.457        1981.835          39.000  
R07  22115651.802   118386851.079        2814.994          49.000    22115645.372    92078634.572        2189.470          45.000  
R21  20718486.518   110869253.779       -3240.966          50.000    20718480.544    86231465.325       -2520.781          47.000  
E24  22628690.278   118914580.215       -1991.272          48.000    22628689.464    91116405.211       -1525.854          53.000  
S31  37547940.911   197315855.007        -678.605          44.000  
G29  22114895.398   116214883.069       -2697.677          41.000    22114891.511    90557188.573       -2101.746          33.000  
G31  21996430.839   115592018.007       -3091.510          42.000    21996427.368    90071733.438       -2409.060          40.000  
E36  25377992.203   133362279.865        1430.879          39.000    25377995.282   102186726.829        1096.258          44.000  
G18  19772277.084   103904246.277       -2498.340          49.000    19772271.479    80964499.261       -1946.844          48.000  
G10  21719561.834   114137124.122        3032.202          47.000    21719559.087    88938021.238        2362.585          42.000  
E11  21391780.499   112414787.181        -327.526          45.000    21391776.288    86136112.045        -250.868          48.000  
> 2024 04 09 06 41 00.4960000  0 26                     
S33  38507293.974   202357337.905        -678.068          44.000  
G23  19855318.119   104340565.377        1235.024          47.000    19855313.143    81304392.380         962.438          49.000  
E25  22930011.739   120497998.244         745.080          47.000    22930011.891    92329676.112         571.007          51.000  
G26  19119502.052   100473653.855        -175.424          50.000    19119499.202    78291163.962        -136.692          46.000  
G27  22605350.942   118791947.841        1684.833          42.000    22605348.558    92565138.373        1312.946          42.000  
R11  20168053.787   107772090.039       -4635.565          50.000    20168047.398    83822592.467       -3605.295          47.000  
R22  18727087.647    99966810.523       -1165.971          53.000    18727082.934    77751868.104        -906.884          50.000  
R23  20871151.310   111646590.595        1213.775          49.000                                                                  
R12  18450924.440    98561481.795        -637.861          52.000    18450920.616    76659000.863        -496.185          50.000  
R06  21378888.394   114081844.554         662.435          34.000                                                                  
G28  23470145.783   123336462.134       -3648.612          41.000    23470145.955    96106222.198       -2843.039          38.000  
E12  23750289.189   124808834.702       -2563.964          43.000    23750286.590    95632907.620       -1964.676          48.000  
E10  22515152.030   118318162.640       -1646.776          47.000    22515151.484    90659496.423       -1261.876          52.000  
E31  26011929.065   136693926.867       -3545.739          44.000    26011931.053   104739569.893       -2716.787          49.000  
G16  21094916.681   110854560.289        2104.429          45.000                                                                  
R13  20931119.843   111770933.540        2532.034          39.000    20931116.000    86933018.298        1969.767          40.000  
R07  22099885.040   118302449.686        2812.162          49.000    22099879.070    92012989.152        2187.055          45.000  
R21  20736654.379   110966479.229       -3240.470          49.000    20736650.081    86307085.087       -2520.228          47.000  
E24  22640092.119   118974495.418       -2002.593          48.000    22640091.047    91162314.258       -1534.507          53.000  
S31  37551815.953   197336218.637        -678.049          43.000  
G29  22130305.441   116295864.527       -2700.911          41.000    22130302.524    90620290.963       -2104.649          35.000  
G31  22014102.144   115684878.639       -3098.518          40.000    22014097.974    90144092.289       -2414.612          38.000  
E36  25369840.286   133319443.510        1425.254          39.000    25369843.228   102153904.260        1091.964          44.000  
G18  19786567.403   103979342.156       -2507.566          48.000    19786561.608    81023015.528       -1954.111          48.000  
G10  21702267.279   114046240.987        3027.056          46.000    21702264.598    88867203.282        2358.798          42.000  
E11  21393675.636   112424745.028        -336.031          45.000    21393671.377    86143742.104        -257.553          48.000  
> 2024 04 09 06 41 30.4960000  0 26                     
S33  38511166.238   202377686.253        -677.913          44.000  
G23  19848316.615   104303771.328        1217.854          47.000    19848312.099    81275721.700         949.056          49.000  
E25  22925786.926   120475794.000         735.223          47.000    22925786.581    92312662.479         563.292          51.000  
G26  19120558.076   100479204.399        -194.395          49.000    19120555.600    78295489.050        -151.399          46.000  
G27  22595729.908   118741388.607        1685.834          43.000    22595727.184    92525741.581        1313.489          41.000  
R11  20194111.421   107911330.750       -4647.153          50.000    20194105.054    83930890.761       -3614.447          47.000  
R22  18733665.261   100001923.274       -1174.784          52.000    18733660.814    77779178.026        -913.742          50.000  
R23  20864368.110   111610304.578        1205.469          48.000                                                                  
R12  18454584.667    98581033.095        -665.333          53.000    18454580.979    76674207.416        -517.531          51.000  
R06  21375223.884   114062279.981         641.939          35.000                                                                  
G28  23490965.427   123445866.199       -3644.990          41.000    23490965.794    96191471.846       -2840.299          40.000  
E12  23764936.593   124885807.267       -2567.165          43.000    23764934.193    95691886.589       -1967.212          48.000  
E10  22524572.968   118367668.550       -1653.505          47.000    22524571.971    90697429.513       -1267.002          52.000  
E31  26032180.980   136800353.406       -3549.353          43.000    26032183.507   104821117.420       -2719.591          49.000  
G16  21082928.639   110791563.436        2095.359          46.000                                                                  
R13  20916940.703   111695215.166        2515.982          39.000    20916936.758    86874126.282        1957.068          40.000  
R07  22084134.752   118218140.494        2808.554          49.000    22084129.721    91947415.400        2184.521          46.000  
R21  20754822.081   111063689.776       -3240.160          50.000    20754816.597    86382693.276       -2520.105          48.000  
E24  22651558.371   119034748.305       -2014.174          48.000    22651556.712    91208482.044       -1543.309          53.000  
S31  37555688.952   197356570.754        -678.533          44.000  
G29  22145734.771   116376944.043       -2704.321          42.000    22145732.452    90683469.698       -2106.977          35.000  
G31  22031814.504   115777953.407       -3106.000          40.000    22031808.333    90216618.046       -2419.957          37.000  
E36  25361722.301   133276782.616        1418.950          40.000    25361724.268   102121216.113        1087.296          43.000  
G18  19800910.750   104054717.159       -2517.208          48.000    19800905.283    81081749.289       -1961.470          47.000  
G10  21685001.313   113955510.297        3021.741          45.000    21684999.278    88796504.123        2354.523          43.000  
E11  21395618.141   112434956.073        -344.511          45.000    21395614.404    86151566.160        -264.093          48.000  
> 2024 04 09 06 42 00.4960000  0 26                     
S33  38515037.237   202398027.970        -677.812          44.000  
G23  19841412.180   104267489.804        1200.700          46.000    19841407.750    81247450.409         935.561          49.000  
E25  22921617.938   120453886.823         725.138          47.000    22921617.900    92295876.457         555.648          52.000  
G26  19121720.741   100485315.583        -213.049          49.000    19121718.727    78300250.994        -165.979          46.000  
G27  22586103.257   118690795.580        1686.890          43.000    22586099.918    92486318.415        1314.581          42.000  
R11  20220233.292   108050918.374       -4658.640          51.000    20220227.302    84039458.853       -3623.428          47.000  
R22  18740291.060   100037295.684       -1183.493          51.000    18740287.029    77806689.897        -920.454          50.000  
R23  20857629.632   111574263.361        1197.161          45.000                                                                  
R12  18458398.619    98601405.047        -692.789          53.000    18458394.872    76690052.258        -538.782          51.000  
R06  21371673.392   114043333.197         621.153          34.000                                                                  
G28  23511765.719   123555169.574       -3641.880          40.000    23511766.435    96276643.016       -2837.589          41.000  
E12  23779602.534   124962876.729       -2570.769          44.000    23779600.223    95750939.804       -1969.660          48.000  
E10  22534031.566   118417372.676       -1660.219          48.000    22534030.192    90735514.490       -1272.129          52.000  
E31  26052453.190   136906888.150       -3553.017          42.000    26052456.435   104902747.856       -2722.483          48.000  
G16  21070991.753   110728834.238        2086.455          46.000                                                                  
R13  20902853.215   111619988.378        2499.197          38.000    20902849.212    86815616.532        1944.298          40.000  
R07  22068402.299   118133933.389        2805.077          47.000    22068399.364    91881921.023        2181.886          46.000  
R21  20772986.535   111160889.596       -3239.863          50.000    20772979.083    86458293.145       -2519.993          47.000  
E24  22663089.647   119095343.767       -2025.694          49.000    22663087.658    91254912.330       -1552.137          53.000  
S31  37559560.370   197376916.347        -678.222          44.000  
G29  22161184.150   116458127.007       -2707.967          41.000    22161180.266    90746729.121       -2110.485          33.000  
G31  22049567.487   115871244.254       -3113.823          36.000    22049562.452    90289312.157       -2426.079          39.000  
E36  25353638.863   133234302.628        1412.865          41.000    25353640.538   102088666.580        1082.553          43.000  
G18  19815307.727   104130374.376       -2526.693          48.000    19815302.871    81140702.973       -1968.844          48.000  
G10  21667765.628   113864940.451        3016.202          46.000    21667764.952    88725930.323        2349.938          43.000  
E11  21397610.233   112445424.805        -353.317          45.000    21397606.343    86159587.667        -270.622          48.000  
> 2024 04 09 06 42 30.4960000  0 26                     
S33  38518906.901   202418364.087        -677.581          44.000  
G23  19834605.869   104231723.713        1183.496          47.000    19834601.335    81219580.742         922.244          49.000  
E25  22917505.527   120432278.723         715.141          47.000    22917505.999    92279319.602         548.082          52.000  
G26  19122990.718   100491989.015        -231.811          49.000    19122988.257    78305451.061        -180.696          46.000  
G27  22576468.733   118640169.526        1688.165          43.000    22576466.239    92446869.585        1315.576          42.000  
R11  20246419.019   108190849.221       -4670.155          51.000    20246413.768    84148293.913       -3632.253          47.000  
R22  18746965.722   100072926.600       -1192.065          52.000    18746961.559    77834402.819        -927.155          50.000  
R23  20850937.444   111538466.683        1189.004          46.000                                                                  
R12  18462365.602    98622598.125        -720.174          52.000    18462361.710    76706535.775        -560.089          50.000  
R06  21368237.861   114025007.717         601.135          31.000                                                                  
G28  23532546.123   123664370.072       -3638.429          40.000    23532546.605    96361734.029       -2835.015          40.000  
E12  23794286.890   125040042.226       -2573.755          44.000    23794284.178    95810066.610       -1972.130          47.000  
E10  22543527.118   118467274.255       -1666.675          48.000    22543526.231    90773750.775       -1277.101          52.000  
E31  26072746.137   137013530.440       -3556.586          42.000    26072749.537   104984460.687       -2725.225          48.000  
G16  21059105.933   110666375.780        2077.454          45.000                                                                  
R13  20888858.339   111545257.769        2482.477          37.000    20888854.041    86757492.768        1930.993          40.000  
R07  22052693.262   118049833.397        2801.579          48.000    22052688.609    91816509.963        2178.875          46.000  
R21  20791147.766   111258078.107       -3239.487          50.000    20791141.198    86533884.160       -2519.590          48.000  
E24  22674686.003   119156282.006       -2036.996          49.000    22674683.859    91301605.255       -1560.892          53.000  
S31  37563431.032   197397256.077        -677.844          44.000  
G29  22176652.648   116539414.339       -2711.434          41.000    22176648.072    90810069.859       -2112.553          34.000  
G31  22067359.576   115964748.620       -3120.121          34.000    22067355.867    90362172.579       -2431.662          39.000  
E36  25345590.348   133192004.408        1406.926          43.000    25345591.043   102056256.307        1078.044          44.000  
G18  19829758.166   104206312.198       -2536.072          47.000    19829752.878    81199875.315       -1976.038          47.000  
G10  21650562.563   113774535.318        3010.718          46.000    21650560.651    88655484.813        2346.016          43.000  
E11  21399651.914   112456150.938        -362.066          45.000    21399647.481    86167806.402        -277.437          48.000  
> 2024 04 09 06 43 00.4960000  0 26                     
S33  38522775.217   202438692.725        -677.359          44.000  
G23  19827898.805   104196474.757        1166.418          47.000    19827893.893    81192114.041         908.979          50.000  
E25  22913450.229   120410970.569         705.420          47.000    22913451.405    92262992.573         540.576          52.000  
G26  19124367.705   100499225.083        -250.522          49.000    19124364.611    78311089.557        -195.174          45.000  
G27  22566827.696   118589510.204        1689.410          43.000    22566826.219    92407394.851        1316.614          42.000  
R11  20272669.727   108331118.646       -4681.156          51.000    20272663.583    84257392.319       -3640.709          47.000  
R22  18753688.388   100108813.714       -1200.356          51.000    18753684.610    77862315.023        -933.551          50.000  
R23  20844291.398   111502913.422        1181.273          48.000                                                                  
R12  18466486.462    98644612.172        -747.302          52.000    18466482.176    76723657.815        -581.268          49.000  
R06  21364920.343   114007305.669         579.800          33.000                                                                  
G28  23553306.576   123773464.509       -3634.864          38.000    23553306.878    96446742.375       -2831.800          39.000  
E12  23808988.992   125117301.985       -2576.684          44.000    23808986.121    95869265.619       -1974.291          47.000  
E10  22553060.247   118517371.387       -1672.893          48.000    22553059.599    90812136.897       -1281.902          52.000  
E31  26093059.960   137120278.403       -3559.953          42.000    26093063.136   105066254.482       -2727.606          47.000  
G16  21047272.276   110604190.223        2068.235          46.000                                                                  
R13  20874957.081   111471026.220        2466.419          38.000    20874952.707    86699757.135        1918.185          39.000  
R07  22037003.206   117965844.576        2797.912          49.000    22036998.397    91751185.418        2176.172          46.000  
R21  20809304.502   111355253.762       -3238.771          48.000    20809300.919    86609465.198       -2519.044          48.000  
E24  22686347.251   119217562.064       -2048.088          49.000    22686345.199    91348560.097       -1569.381          53.000  
S31  37567300.477   197417589.679        -677.615          44.000  
G29  22192140.097   116620805.871       -2714.580          39.000    22192136.734    90873491.854       -2115.587          34.000  
G31  22085193.219   116058463.148       -3127.500          34.000    22085188.807    90435196.801       -2436.671          38.000  
E36  25337575.882   133149887.560        1400.914          43.000    25337576.369   102023985.005        1073.648          45.000  
G18  19844261.259   104282527.888       -2545.047          47.000    19844255.874    81259264.163       -1983.147          47.000  
G10  21633390.916   113684297.516        3005.315          46.000    21633389.521    88585169.714        2341.757          44.000  
E11  21401741.929   112467132.983        -369.901          45.000    21401737.342    86176221.211        -283.505          48.000  
> 2024 04 09 06 43 30.4960000  0 26                     
S33  38526643.141   202459018.293        -677.516          44.000  
G23  19821289.565   104161747.724        1148.734          47.000    19821285.602    81165054.041         895.092          50.000  
E25  22909453.450   120389966.352         695.005          47.000    22909454.596    92246898.434         532.550          52.000  
G26  19125852.733   100507027.307        -269.484          49.000    19125849.341    78317169.208        -209.981          45.000  
G27  22557181.841   118538820.441        1690.149          43.000    22557180.362    92367896.369        1317.139          41.000  
R11  20298981.649   108471725.035       -4692.485          51.000    20298976.365    84366752.805       -3649.572          48.000  
R22  18760460.151   100144957.821       -1209.046          52.000    18760455.998    77890427.119        -940.427          50.000  
R23  20837691.645   111467605.421        1172.879          49.000                                                                  
R12  18470761.431    98667449.652        -775.075          51.000    18470756.943    76741420.302        -602.807          49.000  
R06  21361719.617   113990232.401         558.351          32.000                                                                  
G28  23574046.123   123882452.730       -3630.887          38.000    23574047.123    96531667.995       -2829.502          39.000  
E12  23823709.595   125194657.103       -2580.146          44.000    23823706.438    95928537.715       -1977.047          47.000  
E10  22562630.761   118567665.312       -1679.718          47.000    22562630.224    90850673.793       -1287.039          52.000  
E31  26113393.840   137227133.323       -3563.541          42.000    26113396.940   105148130.258       -2730.577          47.000  
G16  21035491.932   110542282.708        2058.882          47.000                                                                  
R13  20861150.162   111397300.765        2449.041          37.000    20861145.514    86642415.135        1904.550          38.000  
R07  22021335.046   117881973.735        2793.707          49.000    22021329.738    91685952.638        2172.763          46.000  
R21  20827464.667   111452417.854       -3238.702          51.000    20827458.004    86685037.264       -2518.918          46.000  
E24  22698073.757   119279186.114       -2059.856          49.000    22698071.878    91395778.512       -1578.336          53.000  
S31  37571168.944   197437918.989        -677.528          44.000  
G29  22207648.637   116702304.608       -2718.150          40.000    22207643.792    90936997.327       -2118.275          34.000  
G31  22103070.757   116152387.168       -3133.823          36.000    22103061.748    90508384.316       -2442.151          38.000  
E36  25329595.706   133107954.812        1394.555          43.000    25329597.378   101991854.808        1068.579          47.000  
G18  19858817.620   104359021.850       -2554.408          48.000    19858812.368    81318869.836       -1990.486          47.000  
G10  21616252.445   113594232.886        2999.209          46.000    21616250.464    88514989.545        2336.938          43.000  
E11  21403880.922   112478372.835        -378.955          45.000    21403876.101    86184833.554        -290.297          48.000  
> 2024 04 09 06 44 00.4960000  0 26                     
S33  38530509.505   202479335.581        -676.845          44.000  
G23  19814780.097   104127540.020        1131.726          46.000    19814776.062    81138398.708         881.851          50.000  
E25  22905514.218   120369262.732         685.235          47.000    22905514.825    92231034.615         525.103          52.000  
G26  19127444.367   100515391.828        -288.001          50.000    19127440.692    78323687.026        -224.620          45.000  
G27  22547529.502   118488095.781        1691.724          44.000    22547527.434    92328370.695        1318.048          41.000  
R11  20325355.261   108612659.622       -4702.979          51.000    20325350.511    84476368.567       -3657.887          48.000  
R22  18767279.047   100181352.430       -1217.158          52.000    18767273.298    77918734.043        -946.599          50.000  
R23  20831135.377   111432537.248        1165.130          48.000                                                                  
R12  18475190.212    98691105.955        -802.048          52.000    18475185.337    76759819.621        -623.801          49.000  
R06  21358637.768                         537.297          31.000                                                                  
G28  23594764.640   123991327.393       -3626.811          38.000    23594765.383    96616505.074       -2826.342          39.000  
E12  23838446.768   125272101.476       -2582.783          44.000    23838443.620    95987878.198       -1979.033          47.000  
E10  22572237.152   118618149.859       -1685.826          47.000    22572237.147    90889356.772       -1291.752          52.000  
E31  26133746.874   137334089.173       -3566.734          42.000    26133749.970   105230083.381       -2733.134          46.000  
G16  21023763.904   110480651.151        2049.915          47.000                                                                  
R13  20847437.821   111324079.978        2432.127          35.000    20847432.715    86585465.676        1892.061          37.000  
R07  22005688.991   117798220.966        2790.000          48.000    22005683.990    91620811.708        2169.892          46.000  
R21  20845618.678   111549564.753       -3237.726          51.000    20845614.169    86760595.974       -2518.300          49.000  
E24  22709864.651   119341148.921       -2070.988          49.000    22709862.748    91443256.507       -1586.861          53.000  
S31  37575035.671   197458240.144        -676.899          44.000  
G29  22223177.780   116783905.647       -2721.725          39.000    22223170.928    91000582.539       -2120.988          34.000  
G31  22120979.364   116246512.522       -3140.704          33.000    22120974.663    90581728.660       -2447.272          38.000  
E36  25321649.910   133066201.617        1388.990          43.000    25321652.099   101959862.191        1064.215          48.000  
G18  19873426.245   104435787.138       -2563.227          48.000    19873420.402    81378686.936       -1997.265          47.000  
G10  21599146.414   113504339.795        2993.858          45.000    21599144.927    88444943.050        2332.840          43.000  
E11  21406067.626   112489864.787        -387.414          45.000    21406062.695    86193639.097        -296.786          48.000  
> 2024 04 09 06 44 30.4960000  0 26                     
S33  38534375.793   202499652.253        -677.061          44.000  
G23  19808370.456   104093862.710        1114.018          45.000    19808367.393    81112156.687         867.954          49.000  
E25  22901634.009   120348870.015         674.893          47.000    22901634.096    92215409.024         517.080          52.000  
G26  19129144.881   100524328.476        -307.264          50.000    19129141.310    78330650.626        -239.421          45.000  
G27  22537872.502   118437345.396        1692.419          44.000    22537870.066    92288824.942        1318.506          41.000  
R11  20351791.493   108753926.702       -4714.160          50.000    20351787.264    84586242.912       -3666.665          49.000  
R22  18774144.430   100218004.797       -1225.794          52.000    18774139.240    77947241.438        -953.404          50.000  
R23  20824625.994   111397717.231        1156.724          48.000                                                                  
R12  18479773.624    98715590.024        -829.703          52.000    18479769.323    76778862.777        -645.302          50.000  
R06  21355674.464                         516.138          31.000                                                                  
G28  23615462.424   124100094.669       -3623.370          37.000    23615462.898    96701258.530       -2823.686          38.000  
E12  23853201.902   125349642.628       -2586.094          45.000    23853198.945    96047292.850       -1981.561          46.000  
E10  22581881.325   118668832.648       -1692.494          47.000    22581882.042    90928191.638       -1296.806          52.000  
E31  26154120.860   137441153.588       -3570.390          42.000    26154123.350   105312119.654       -2735.712          46.000  
G16  21012090.738   110419306.988        2040.262          48.000                                                                  
R13  20833822.411   111251377.219        2415.489          35.000    20833818.400    86528919.184        1877.861          39.000  
R07  21990068.329   117714599.887        2785.361          49.000    21990062.217    91555773.162        2166.342          44.000  
R21  20863771.027   111646702.254       -3237.489          50.000    20863765.945    86836147.335       -2518.035          48.000  
E24  22721721.652   119403458.970       -2082.638          48.000    22721720.036    91491000.566       -1595.723          53.000  
S31  37578902.671   197478561.266        -676.949          43.000  
G29  22238727.829   116865618.337       -2725.683          39.000    22238720.483    91064254.742       -2123.148          35.000  
G31  22138932.704   116340845.034       -3147.380          36.000    22138925.266    90655234.476       -2452.559          36.000  
E36  25313739.586   133024637.084        1382.617          42.000    25313742.643   101928014.137        1059.412          49.000  
G18  19888086.756   104512830.410       -2572.507          48.000    19888080.921    81438720.676       -2004.552          47.000  
G10  21582074.953   113414630.422        2987.355          45.000    21582073.497    88375039.731        2327.928          43.000  
E11  21408303.954   112501616.833        -395.601          45.000    21408298.855    86202643.920        -303.276          47.000  
