     3.00           OBSERVATION DATA    M: Mixed            RINEX VERSION / TYPE
CONVBIN 2.4.3                           20240409 084442 UTC PGM / RUN BY / DATE 
format: u-blox UBX                                          COMMENT             
log: data/2024-04-09/20240409083000.ubx                     COMMENT             
AQUI00CHL                                                   MARKER NAME         
                                                            MARKER NUMBER       
                                                            MARKER TYPE         
                                                            OBSERVER / AGENCY   
UNKNOWN             UBLOX-ZED-F9P                           REC # / TYPE / VERS 
UNKNOWN             TWIVSP6037L                             ANT # / TYPE        
  1713381.0000 -5047934.0000 -3490983.0000                  APPROX POSITION XYZ 
        0.0000        0.0000        0.0000                  ANTENNA: DELTA H/E/N
G    8 C1C L1C D1C S1C C2L L2L D2L S2L                      SYS / # / OBS TYPES 
R    8 C1C L1C D1C S1C C2C L2C D2C S2C                      SYS / # / OBS TYPES 
E    8 C1C L1C D1C S1C C7Q L7Q D7Q S7Q                      SYS / # / OBS TYPES 
S    4 C1C L1C D1C S1C                                      SYS / # / OBS TYPES 
  2024    04    09    08    30   00.4990000     GPS         TIME OF FIRST OBS   
  2024    04    09    08    44   30.4990000     GPS         TIME OF LAST OBS    
                                                            END OF HEADER       
> 2024 04 09 08 30 00.4990000  0 26                     
S33  39331499.081   206688569.7421       -648.826          44.000  
G23  20950938.076   110098089.8241      -2879.741          49.000    20950931.483    85790776.0671      -2243.920          45.000  
E25  23673490.439   124405004.3081      -2039.672          47.000    23673491.649    95323355.3431      -1562.798          52.000  
G26  21786661.149   114489669.7601      -3720.207          44.000    21786659.745    89212733.1141      -2898.892          44.000  
G27  20606547.682   108288177.8861       1197.278          49.000    20606544.076    84380386.0501        932.971          46.000  
R22  20897563.472   111552957.7271      -2174.479          51.000    20897559.595    86763315.6141      -1691.223          48.000  
R23  20215329.869   108138406.8701         52.843          49.000                                                                  
R12  22261236.740   118915471.2401      -4660.871          44.000    22261234.138    92489876.7241      -3624.985          46.000  
R08  20535821.449   109968399.8811       2393.311          51.000    20535813.748    85530978.2881       1861.377          48.000  
E02  25018719.435   131474286.2131        636.938          46.000    25018717.886   100740074.1431        488.053          49.000  
E12  27051801.263   142158121.7771      -2558.529          29.000    27051794.553   108926700.2091      -1960.407          40.000  
E10  25079971.278   131796374.2471      -2220.419          45.000    25079970.198   100986956.6321      -1701.339          49.000  
G08  22837861.192   120013768.1991       2407.672          41.000    22837859.271    93517196.1771       1876.036          41.000  
G16  20450822.624   107469825.5041      -1492.340          46.000                                                                  
R13  20851811.218   111347427.0191      -2596.000          39.000    20851806.837    86603623.2681      -2018.874          41.000  
R07  20512172.451   109803317.3241      -1138.544          51.000    20512165.375    85402557.5871       -885.407          49.000  
R14  22517447.653                3       1245.682          25.000    22517404.575    93357023.2331        968.593          35.000  
E24  26396452.488   138714289.9021      -3684.865          43.000    26396450.318   106287609.2611      -2823.454          46.000  
S31  38376512.064   201670030.9051       -649.158          43.000  
G18  23588199.376   123956796.3151      -3225.732          35.000    23588195.780    96590058.9691      -2513.617          35.000  
E36  24389913.462   128169917.9691        245.606          46.000    24389914.221    98208170.0591        188.169          51.000  
E04  26291574.423   138163165.6831       1089.061          41.000    26291573.357   105865285.6681        834.669          48.000  
G10  19632432.753   103169210.2841       -306.997          52.000    19632428.762    80391600.3861       -239.235          47.000  
E11  22672195.562   119143417.3601      -1464.480          45.000    22672191.208    91291816.2581      -1121.990          48.000  
E09  27255585.707   143229083.4121       1965.819          41.000    27255585.467   109746944.8651       1506.236          48.000  
G32  23931111.867   125758842.0531       2399.154          45.000    23931109.029    97993905.8011       1869.625          42.000  
> 2024 04 09 08 30 30.4990000  0 26                     
S33  39335202.423   206708030.604        -648.739          43.000  
G23  20967418.957   110184696.127       -2893.988          49.000    20967411.766    85858261.521       -2255.132          45.000  
E25  23685170.314   124466379.051       -2052.074          47.000    23685170.793    95370382.747       -1572.368          52.000  
G26  21807925.703   114601410.200       -3728.910          45.000    21807922.665    89299803.589       -2905.586          44.000  
G27  20599734.863   108252376.268        1189.441          49.000    20599730.881    84352488.689         926.703          46.000  
R22  20909792.598   111618241.201       -2177.791          50.000    20909789.211    86814091.637       -1693.862          49.000  
R23  20215043.300   108136873.327          49.383          49.000                                                                  
R12  22287422.516   119055353.248       -4664.540          43.000    22287420.308    92598673.814       -3627.879          46.000  
R08  20522461.790   109896865.046        2375.720          50.000    20522454.750    85475340.097        1847.809          47.000  
E02  25015118.110   131455362.403         624.560          46.000    25015116.650   100725574.089         478.574          49.000  
E12  27066401.494                       -2556.740          30.000    27066395.509   108985491.750       -1959.162          39.000  
E10  25092647.685   131862985.474       -2220.340          46.000    25092646.305   101037996.402       -1701.310          50.000  
G08  22824120.116   119941558.101        2406.568          41.000    22824118.633    93460928.620        1875.033          41.000  
G16  20459397.727   107514889.318       -1511.920          45.000                                                                  
R13  20866454.317   111425618.165       -2616.671          40.000    20866449.971    86664438.643       -2035.494          41.000  
R07  20518627.623   109837878.622       -1165.497          51.000    20518620.896    85429438.589        -906.488          47.000  
R14  22510532.274                1       1224.008          26.000    22510461.368    93328214.419         951.763          34.000  
E24  26417495.253   138824868.752       -3687.008          43.000    26417492.754   106372338.533       -2825.094          46.000  
S31  38380218.767   201689509.957        -649.156          43.000  
G18  23606613.859   124053559.182       -3225.305          35.000    23606609.282    96665458.529       -2512.512          32.000  
E36  24388523.014   128162608.707         241.812          46.000    24388523.242    98202569.466         185.292          51.000  
E04  26285378.090   138130607.838        1081.342          40.000    26285378.185   105840338.800         828.421          48.000  
G10  19634245.192   103178732.657        -327.892          52.000    19634241.381    80399020.426        -255.604          48.000  
E11  22680561.483   119187380.914       -1466.462          45.000    22680557.043    91325502.640       -1123.684          48.000  
E09  27244357.150   143170076.094        1967.964          41.000    27244356.963   109701731.523        1508.000          48.000  
G32  23917415.561   125686868.559        2399.046          45.000    23917412.867    97937822.576        1869.462          43.000  
> 2024 04 09 08 31 00.4990000  0 26                     
S33  39338904.638   206727486.361        -648.349          44.000  
G23  20983979.909   110271725.514       -2908.052          49.000    20983973.520    85926076.647       -2266.106          46.000  
E25  23696920.050   124528123.469       -2064.400          47.000    23696920.224    95417693.420       -1581.862          52.000  
G26  21829237.798   114713403.793       -3737.455          46.000    21829234.786    89387071.347       -2912.393          44.000  
G27  20592967.091   108216812.433        1181.470          48.000    20592963.242    84324776.629         920.709          46.000  
R22  20922040.354   111683621.492       -2181.036          50.000    20922035.925    86864942.979       -1696.462          48.000  
R23  20214774.978   108135441.937          45.910          49.000                                                                  
R12  22313628.862   119195340.814       -4668.063          43.000    22313627.106    92707553.031       -3630.707          47.000  
R08  20509201.691   109825856.732        2357.996          51.000    20509193.734    85420111.440        1834.027          47.000  
E02  25011587.256   131436809.669         612.117          46.000    25011586.219   100711358.361         469.043          50.000  
E12  27080992.587                       -2555.062          29.000    27080985.936   109044242.551       -1957.730          39.000  
E10  25105321.010   131929590.214       -2220.101          45.000    25105320.542   101089031.197       -1701.175          50.000  
G08  22810385.509   119869382.091        2405.162          41.000    22810383.955    93404687.608        1874.144          41.000  
G16  20468084.989   107560537.566       -1531.335          46.000                                                                  
R13  20881213.214   111504432.815       -2637.703          39.000    20881209.690    86725738.832       -2051.408          41.000  
R07  20525233.733   109873247.245       -1192.468          50.000    20525227.091    85456947.506        -927.393          47.000  
R14  22503664.321   119957410.0351       1201.674          32.000    22503637.745    93299917.577         934.802          37.000  
E24  26438549.389   138935509.531       -3689.045          44.000    26438547.098   106457115.258       -2826.811          47.000  
S31  38383924.771   201708984.334        -649.337          43.000  
G18  23625022.756   124150299.347       -3224.200          37.000    23625017.647    96740840.532       -2512.048          34.000  
E36  24387152.322   128155406.111         238.178          46.000    24387152.740    98197050.602         182.444          51.000  
E04  26279226.814   138098287.772        1073.013          39.000    26279228.120   105815574.097         822.278          48.000  
G10  19636176.592   103188882.614        -348.892          52.000    19636173.052    80406929.498        -271.878          48.000  
E11  22688938.229   119231401.157       -1468.455          45.000    22688933.830    91359232.447       -1125.227          48.000  
E09  27233114.308   143110995.088        1970.465          41.000    27233114.247   109656461.710        1509.800          48.000  
G32  23903718.783   125614894.117        2399.247          44.000    23903716.802    97881738.609        1869.442          42.000  
> 2024 04 09 08 31 30.4990000  0 26                     
S33  39342606.746   206746940.591        -648.531          43.000  
G23  21000620.738   110359178.893       -2922.081          48.000    21000615.547    85994222.146       -2276.787          46.000  
E25  23708740.636   124590240.016       -2076.649          46.000    23708740.559    95465289.209       -1591.271          52.000  
G26  21850597.645   114825651.056       -3745.693          46.000    21850594.751    89474536.745       -2918.821          43.000  
G27  20586245.921   108181491.979        1173.370          49.000    20586241.462    84297254.224         914.270          45.000  
R22  20934307.416   111749102.398       -2184.262          49.000    20934303.199    86915872.550       -1698.804          48.000  
R23  20214527.015   108134116.340          42.578          49.000                                                                  
R12  22339856.746   119335433.182       -4671.363          44.000    22339853.071    92816513.774       -3633.349          47.000  
R08  20496042.087   109755383.130        2340.240          52.000    20496032.276    85365298.635        1820.270          47.000  
E02  25008127.791   131418632.634         599.719          46.000    25008127.442   100697430.502         459.463          50.000  
E12  27095569.098   142388149.497       -2553.294          29.000    27095567.174   109102955.270       -1956.482          40.000  
E10  25117994.107   131996191.623       -2219.890          44.000    25117994.487   101140063.460       -1700.952          49.000  
G08  22796657.819   119797245.298        2403.858          41.000    22796656.424    93348477.148        1873.454          40.000  
G16  20476882.973   107606772.676       -1550.812          47.000                                                                  
R13  20896089.617   111583871.222       -2658.235          39.000    20896086.132    86787524.240       -2067.468          41.000  
R07  20531992.955   109909426.131       -1219.446          50.000    20531986.469    85485086.678        -948.309          47.000  
R14  22496949.182                        1179.448          27.000    22496937.863    93272136.932         917.316          34.000  
E24  26459614.875   139046213.998       -3691.145          43.000    26459613.311   106541940.768       -2828.275          46.000  
S31  38387630.151   201728457.370        -649.184          43.000  
G18  23643429.207   124247019.846       -3223.682          36.000    23643423.973    96816207.081       -2512.128          34.000  
E36  24385801.996   128148313.049         234.798          45.000    24385803.310    98191615.679         179.782          51.000  
E04  26273125.015   138066210.762        1064.910          41.000    26273123.780   105790995.609         816.235          48.000  
G10  19638228.440   103199663.392        -369.839          52.000    19638224.435    80415330.115        -288.155          48.000  
E11  22697326.854   119275480.966       -1470.232          46.000    22697322.158    91393007.872       -1126.367          48.000  
E09  27221857.474   143051845.861        1972.688          40.000    27221858.814   109611139.591        1511.697          48.000  
G32  23890023.460   125542925.371        2399.104          43.000    23890021.354    97825659.073        1869.330          43.000  
> 2024 04 09 08 32 00.4990000  0 26                     
S33  39346308.564   206766393.608        -648.588          44.000  
G23  21017342.302   110447054.082       -2936.260          48.000    21017338.814    86062696.317       -2287.797          48.000  
E25  23720631.396   124652727.956       -2088.975          46.000    23720631.613    95513169.582       -1600.655          52.000  
G26  21872005.252   114938149.410       -3754.108          45.000    21872002.394    89562197.790       -2925.377          43.000  
G27  20579571.099   108146417.450        1165.198          48.000    20579567.052    84269923.429         908.069          45.000  
R22  20946594.372   111814684.703       -2187.671          49.000    20946588.378    86966881.029       -1701.556          48.000  
R23  20214299.181   108132896.961          38.811          49.000                                                                  
R12  22366101.412   119475626.626       -4674.580          44.000    22366097.025    92925553.106       -3635.858          47.000  
R08  20482982.604   109685449.085        2322.125          52.000    20482973.777    85310905.508        1806.091          48.000  
E02  25004740.204   131400832.791         587.140          46.000    25004740.382   100683791.665         449.804          51.000  
E12  27110143.572   142464725.314       -2551.215          31.000    27110138.313   109161630.253       -1955.017          39.000  
E10  25130668.773   132062789.890       -2219.807          45.000    25130667.697   101191093.287       -1700.869          49.000  
G08  22782937.436   119725149.934        2402.108          40.000    22782936.291    93292298.991        1872.129          40.000  
G16  20485793.230   107653594.584       -1570.490          47.000                                                                  
R13  20911082.577   111663930.019       -2678.839          41.000    20911078.238    86849792.204       -2083.801          40.000  
R07  20538902.672   109946415.514       -1246.454          51.000    20538896.112    85513856.236        -969.360          46.000  
R14  22490366.881   119886640.333        1157.472          34.000    22490360.698    93244874.584         899.989          35.000  
E24  26480692.969   139156980.754       -3693.099          44.000    26480691.323   106626814.017       -2829.813          46.000  
S31  38391335.607   201747929.333        -649.217          43.000  
G18  23661829.963   124343720.698       -3223.456          34.000    23661827.307    96891558.413       -2511.853          34.000  
E36  24384471.938   128141329.305         231.167          44.000    24384474.305    98186264.512         177.116          51.000  
E04  26267068.027   138034379.114        1057.087          41.000    26267066.884   105766605.154         809.923          49.000  
G10  19640399.409   103211075.140        -390.815          51.000    19640395.592    80424222.398        -304.461          48.000  
E11  22705726.341   119319620.170       -1472.090          46.000    22705721.450    91426828.844       -1128.053          48.000  
E09  27210588.205   142992630.715        1974.559          38.000    27210590.696   109565766.947        1513.339          48.000  
G32  23876330.567   125470965.725        2399.029          44.000    23876327.829    97769586.656        1868.908          43.000  
> 2024 04 09 08 32 30.4990000  0 26                     
S33  39350010.636   206785847.285        -648.629          44.000  
G23  21034144.767   110535350.155       -2950.182          48.000    21034141.361    86131498.443       -2298.807          48.000  
E25  23732592.321   124715587.944       -2101.625          45.000    23732593.451    95561335.028       -1610.313          52.000  
G26  21893460.432   115050897.478       -3762.241          45.000    21893457.358    89650053.426       -2931.557          42.000  
G27  20572943.762   108111592.601        1156.610          48.000    20572940.263    84242787.224         901.361          45.000  
R22  20958898.751   111880370.686       -2191.313          49.000    20958892.434    87017970.145       -1704.378          46.000  
R23  20214091.940   108131785.708          35.167          50.000                                                                  
R12  22392364.264   119615918.345       -4678.039          46.000    22392359.667    93034668.857       -3638.485          47.000  
R08  20470023.959   109616060.701        2303.827          51.000    20470017.034    85256936.785        1791.779          48.000  
E02  25001425.077   131383412.917         574.302          45.000    25001425.690   100670443.978         440.015          51.000  
E12  27124705.282   142541253.493       -2550.224          32.000    27124701.350   109220268.757       -1954.140          39.000  
E10  25143341.882   132129386.311       -2219.898          45.000    25143340.293   101242121.725       -1700.917          48.000  
G08  22769226.302   119653099.435        2400.464          39.000    22769225.645    93236155.777        1870.857          40.000  
G16  20494814.528   107701003.291       -1590.082          47.000                                                                  
R13  20926190.713   111744607.449       -2699.404          41.000    20926186.236    86912541.328       -2099.854          40.000  
R07  20545964.898   109984216.702       -1273.578          51.000    20545958.232    85543257.192        -990.582          46.000  
R14  22483915.597   119852259.332        1134.657          35.000    22483907.121    93218129.6921        882.781          35.000  
E24  26501783.280   139267809.755       -3695.342          44.000    26501781.261   106711734.965       -2831.412          46.000  
S31  38395041.038   201767402.014        -649.207          43.000  
G18  23680227.170   124440403.153       -3222.437          33.000    23680225.118    96966895.407       -2511.163          37.000  
E36  24383164.774   128134455.965         227.270          45.000    24383166.271    98180997.925         174.185          51.000  
E04  26261057.670   138002796.390        1048.614          42.000    26261056.104   105742405.448         803.394          48.000  
G10  19642690.755   103223119.281        -411.997          51.000    19642687.582    80433607.454        -321.012          48.000  
E11  22714136.927   119363819.841       -1474.469          45.000    22714132.490    91460696.133       -1129.770          48.000  
E09  27199308.462   142933353.174        1977.015          39.000    27199310.602   109520346.553        1514.812          49.000  
G32  23862640.133   125399020.020        2398.107          45.000    23862636.964    97713525.091        1868.575          42.000  
> 2024 04 09 08 33 00.4990000  0 26                     
S33  39353712.832   206805303.206        -648.906          44.000  
G23  21051027.143   110624065.145       -2964.236          49.000    21051023.582    86200626.993       -2309.607          48.000  
E25  23744624.726   124778819.538       -2113.993          45.000    23744625.952    95609785.198       -1619.761          52.000  
G26  21914962.781   115163892.988       -3770.672          46.000    21914959.334    89738101.876       -2938.326          42.000  
G27  20566364.798   108077020.296        1148.175          47.000    20566361.206    84215847.794         894.598          45.000  
R22  20971223.070   111946161.323       -2194.961          49.000    20971218.779    87069140.647       -1707.175          48.000  
R23  20213904.651   108130783.799          31.493          50.000                                                                  
R12  22418644.825   119756304.663       -4681.145          47.000    22418640.699    93143858.213       -3640.933          47.000  
R08  20457168.856   109547222.683        2285.345          52.000    20457161.742    85203396.155        1777.448          49.000  
E02  24998183.105   131366374.789         561.432          46.000    24998183.356   100657388.786         430.282          51.000  
E12  27139258.211   142617734.825       -2548.482          32.000    27139255.633   109278871.364       -1952.820          40.000  
E10  25156014.166   132195981.307       -2219.842          45.000    25156013.266   101293149.083       -1700.953          48.000  
G08  22755525.161   119581096.268        2399.187          39.000    22755523.765    93180049.403        1869.657          40.000  
G16  20503948.494   107748998.777       -1609.656          47.000                                                                  
R13  20941414.019   111825900.612       -2720.099          39.000    20941409.739    86975769.330       -2115.807          40.000  
R07  20553178.201   110022829.645       -1300.720          51.000    20553172.188    85573289.468       -1011.676          47.000  
R14  22477598.963   119818550.879        1112.269          34.000    22477584.489    93191912.020         865.194          38.000  
E24  26522884.545   139378699.838       -3697.308          44.000    26522882.724   106796702.740       -2833.032          45.000  
S31  38398747.080   201786876.049        -649.265          43.000  
G18  23698623.878   124537067.462       -3221.869          36.000    23698619.613    97042218.239       -2510.352          36.000  
E36  24381878.408   128127693.045         223.561          45.000    24381879.180    98175815.974         171.269          51.000  
E04  26255093.295   137971465.085        1039.874          40.000    26255093.895   105718398.372         796.926          48.000  
G10  19645102.854   103235796.135        -433.208          51.000    19645100.017    80443485.539        -337.628          48.000  
E11  22722559.315   119408080.107       -1476.227          45.000    22722554.952    91494609.859       -1131.304          48.000  
E09  27188018.362   142874015.980        1978.602          40.000    27188019.166   109474880.401        1516.276          49.000  
G32  23848952.778   125327092.006        2397.233          46.000    23848949.314    97657477.319        1867.880          42.000  
> 2024 04 09 08 33 30.4990000  0 26                     
S33  39357414.884   206824757.668        -648.250          44.000  
G23  21067988.216   110713194.587       -2977.734          48.000    21067983.574    86270078.519       -2320.433          47.000  
E25  23756728.124   124842419.675       -2125.975          46.000    23756728.393    95658517.781       -1628.992          52.000  
G26  21936510.639   115277131.018       -3778.741          46.000    21936507.684    89826339.343       -2944.362          41.000  
G27  20559834.323   108042700.748        1139.832          47.000    20559830.272    84189105.332         888.251          45.000  
R22  20983566.676   112012055.171       -2198.168          50.000    20983564.227    87120391.376       -1709.731          48.000  
R23  20213737.330   108129888.843          28.131          49.000                                                                  
R12  22444942.046   119896778.983       -4683.752          47.000    22444938.694    93253116.018       -3643.045          48.000  
R08  20444417.712   109478937.684        2266.949          52.000    20444409.600    85150285.638        1763.056          49.000  
E02  24995013.895   131349717.590         548.973          46.000    24995013.576   100644625.489         420.560          51.000  
E12  27153803.147   142694167.465       -2546.159          32.000    27153799.646   109337436.599       -1951.618          39.000  
E10  25168686.808   132262572.708       -2219.493          45.000    25168685.181   101344173.664       -1700.723          48.000  
G08  22741833.453   119509140.298        2397.603          40.000    22741830.885    93123979.853        1868.105          39.000  
G16  20513192.960   107797577.917       -1628.979          48.000                                                                  
R13  20956751.105   111907804.353       -2740.448          38.000    20956747.081    87039472.192       -2131.298          40.000  
R07  20560542.524   110062252.035       -1327.533          51.000    20560534.596    85603951.315       -1032.526          46.000  
R14  22471382.099                3       1092.132          19.000    22471390.011    93166217.798         848.033          39.000  
E24  26543996.263   139489647.388       -3698.897          43.000    26543995.545   106881714.524       -2834.335          46.000  
S31  38402452.653   201806349.970        -649.001          43.000  
G18  23717011.925   124633711.491       -3221.444          34.000    23717008.220    97117525.315       -2510.751          33.000  
E36  24380612.422   128121038.082         220.091          46.000    24380612.687    98170716.727         168.653          51.000  
E04  26249180.899   137940385.257        1031.908          41.000    26249179.568   105694583.973         790.733          49.000  
G10  19647635.617   103249103.435        -453.981          51.000    19647632.472    80453854.875        -353.738          48.000  
E11  22730992.357   119452398.494       -1477.960          45.000    22730988.287    91528568.106       -1132.491          48.000  
E09  27176715.592   142814619.086        1981.087          40.000    27176716.150   109429368.532        1517.843          49.000  
G32  23835268.336   125255182.927        2396.711          45.000    23835265.080    97601444.281        1867.636          41.000  
> 2024 04 09 08 34 00.4990000  0 26                     
S33  39361116.047   206844207.882        -648.209          44.000  
G23  21085026.781   110802731.382       -2991.309          49.000    21085021.179    86339847.443       -2330.938          47.000  
E25  23768899.044   124906382.800       -2138.102          46.000    23768900.388    95707528.492       -1638.348          52.000  
G26  21958103.855   115390604.070       -3786.382          46.000    21958101.028    89914759.901       -2950.153          42.000  
G27  20553351.139   108008631.608        1131.396          47.000    20553347.246    84162557.957         881.683          45.000  
R22  20995930.815   112078048.016       -2201.393          51.000    20995925.092    87171719.166       -1712.198          47.000  
R23  20213589.224   108129097.075          24.578          50.000                                                                  
R12  22471252.378   120037332.823       -4686.276          47.000    22471249.896    93362435.661       -3644.912          48.000  
R08  20431769.113   109411205.676        2248.480          52.000    20431760.209    85097605.200        1748.670          48.000  
E02  24991916.210   131333437.893         536.368          46.000    24991915.402   100632151.436         411.003          50.000  
E12  27168337.167                       -2546.095          31.000    27168335.264   109395960.995       -1950.233          40.000  
E10  25181356.252   132329155.756       -2219.318          44.000    25181355.520   101395191.850       -1700.514          48.000  
G08  22728149.139   119437228.837        2396.230          41.000    22728146.518    93067944.980        1867.023          40.000  
G16  20522547.127   107846735.877       -1648.212          47.000                                                                  
R13  20972202.086   111990310.046       -2760.173          39.000    20972197.562    87103643.306       -2146.899          40.000  
R07  20568056.531   110102479.033       -1354.291          52.000    20568049.094    85635239.026       -1053.418          45.000  
R14  22465329.377   119752839.7781       1067.580          37.000    22465319.949    93141044.920         830.101          41.000  
E24  26565119.400   139600646.174       -3700.847          43.000    26565118.151   106966765.538       -2835.655          46.000  
S31  38406157.298   201825818.300        -648.925          43.000  
G18  23735400.406   124730330.215       -3220.164          37.000    23735390.241                       -2509.504          32.000  
E36  24379364.933   128114485.927         216.627          46.000    24379365.845    98165696.258         166.104          50.000  
E04  26243311.734   137909554.204        1023.365          40.000    26243312.754   105670960.204         784.215          49.000  
G10  19650287.350   103263036.361        -474.899          51.000    19650283.953    80464711.710        -370.039          48.000  
E11  22739435.930   119496769.972       -1479.933          45.000    22739431.991    91562567.033       -1133.979          48.000  
E09  27165400.438   142755159.960        1983.038          40.000    27165401.198   109383808.972        1519.434          48.000  
G32  23821587.597   125183291.366        2396.096          45.000    23821584.608    97545424.910        1866.839          41.000  
> 2024 04 09 08 34 30.4990000  0 26                     
S33  39364817.763   206863660.611        -648.657          44.000  
G23  21102143.759   110892680.452       -3005.393          49.000    21102137.328    86409937.625       -2341.987          46.000  
E25  23781142.169   124970715.358       -2150.809          46.000    23781142.506    95756822.265       -1648.044          52.000  
G26  21979742.784   115504316.718       -3794.547          45.000    21979739.928    90003367.189       -2956.925          42.000  
G27  20546917.040   107974822.554        1122.327          47.000    20546913.362    84136213.270         874.567          45.000  
R22  21008313.150   112144148.141       -2205.355          51.000    21008308.870    87223130.370       -1715.266          48.000  
R23  20213462.745   108128416.286          20.536          50.000                                                                  
R12  22497580.384   120177969.164       -4689.439          47.000    22497577.243    93471819.518       -3647.291          47.000  
R08  20419225.573   109344038.274        2229.175          51.000    20419218.127    85045363.886        1733.838          49.000  
E02  24988891.776   131317544.317         523.156          46.000    24988890.802   100619973.259         400.794          50.000  
E12  27182859.169                       -2543.961          31.000    27182860.911   109454450.438       -1949.310          40.000  
E10  25194025.906   132395737.760       -2219.791          44.000    25194025.433   101446209.230       -1700.878          47.000  
G08  22714475.386   119365371.289        2394.019          41.000    22714472.600    93011952.110        1865.717          40.000  
G16  20532013.003   107896478.831       -1668.115          48.000                                                                  
R13  20987766.452   112073422.196       -2780.482          39.000    20987762.774    87168286.096       -2162.960          41.000  
R07  20575723.982   110143517.370       -1381.732          52.000    20575714.053    85667157.758       -1074.951          43.000  
R14  22459383.399   119721154.746        1044.231          34.000    22459376.065    93116400.917         812.391          40.000  
E24  26586252.923   139711702.005       -3703.078          44.000    26586251.485   107051860.278       -2837.438          46.000  
S31  38409862.546   201845289.809        -649.423          43.000  
G18  23753781.281   124826931.060       -3220.210          35.000    23753764.889    97268086.027       -2509.205          33.000  
E36  24378138.993   128108043.588         212.558          46.000    24378140.096    98160759.925         162.985          51.000  
E04  26237496.484   137878981.355        1014.501          42.000    26237495.333   105647534.275         777.385          49.000  
G10  19653058.840   103277602.071        -496.362          51.000    19653055.864    80476061.611        -386.709          49.000  
E11  22747891.103   119541201.520       -1482.517          45.000    22747887.145    91596611.987       -1135.939          48.000  
E09  27154075.622   142695648.153        1984.297          41.000    27154076.057   109338209.058        1520.353          48.000  
G32  23807912.420   125111428.092        2394.673          45.000    23807910.573    97489427.584        1865.861          43.000  
> 2024 04 09 08 35 00.4990000  0 27                     
S33  39368519.435   206883111.694        -648.412          44.000  
G23  21119337.182   110983035.430       -3018.935          48.000    21119330.974    86480344.074       -2352.254          46.000  
E25  23793452.745   125035412.421       -2162.901          46.000    23793453.991    95806395.348       -1657.304          52.000  
G26  22001425.423   115618262.214       -3802.316          45.000    22001423.395    90092155.891       -2962.916          43.000  
G27  20540533.065   107941272.082        1113.727          48.000    20540529.360    84110070.046         867.883          46.000  
R22  21020714.385   112210352.156       -2208.813          51.000    21020710.093    87274622.381       -1718.031          47.000  
R23  20213354.770   108127842.949          17.022          49.000                                                                  
R12  22523921.707   120318680.142       -4691.903          46.000    22523918.983    93581261.387       -3649.341          47.000  
R24  22986071.507                3       1677.969          17.000                                                                  
R08  20406789.064   109277436.052        2210.352          52.000    20406781.360    84993562.189        1719.110          50.000  
E02  24985940.337   131302034.189         510.260          47.000    24985939.229   100608088.889         391.018          50.000  
E12  27197375.237   142923164.877       -2541.864          32.000    27197376.668   109512902.202       -1948.045          39.000  
E10  25206694.661   132462314.748       -2219.362          43.000    25206694.866   101497222.774       -1700.652          48.000  
G08  22700811.134   119293565.745        2391.993          41.000    22700808.977    92955999.780        1863.954          40.000  
G16  20541588.812   107946801.287       -1687.390          47.000                                                                  
R13  21003443.319   112157132.739       -2800.538          40.000    21003438.845    87233394.286       -2178.336          41.000  
R07  20583541.326   110185362.690       -1408.557          52.000    20583531.030    85699704.123       -1095.569          44.000  
R14  22453563.849   119690147.906        1022.077          35.000    22453557.972    93092284.452         794.645          37.000  
E24  26607396.313   139822809.307       -3704.767          44.000    26607394.284   107136994.463       -2838.654          46.000  
S31  38413567.715   201864760.025        -649.299          43.000  
G18  23772161.279   124923509.740       -3219.789          35.000    23772146.411    97343342.204       -2509.101          33.000  
E36  24376933.491   128101706.702         209.199          46.000    24376934.468    98155904.405         160.183          51.000  
E04  26231727.786   137848664.853        1005.946          43.000    26231725.785   105624304.745         770.708          48.000  
G10  19655950.234   103292796.418        -517.242          52.000    19655946.813    80487901.391        -403.146          48.000  
E11  22756357.078   119585688.822       -1484.126          45.000    22756352.927    91630699.646       -1137.190          48.000  
E09  27142741.446   142636081.877        1985.948          41.000    27142740.985   109292567.358        1521.853          48.000  
G32  23794242.213   125039592.500        2393.666          45.000    23794240.120    97433451.810        1865.207          42.000  
> 2024 04 09 08 35 30.4990000  0 26                     
S33  39372220.649   206902563.806        -648.394          44.000  
G23  21136608.215   111073795.527       -3032.040          49.000    21136602.409    86551066.215       -2362.605          46.000  
E25  23805833.381   125100474.740       -2174.872          45.000    23805835.182    95856248.294       -1666.405          52.000  
G26  22023152.665   115732439.407       -3809.752          45.000    22023151.266    90181125.141       -2968.638          44.000  
G27  20534198.603   107907984.100        1105.194          48.000    20534195.256    84084131.370         861.292          46.000  
R22  21033138.799   112276662.309       -2212.114          52.000    21033132.057    87326196.962       -1720.500          47.000  
R23  20213267.892   108127379.038          13.808          48.000                                                                  
R12  22550277.226   120459463.181       -4693.946          46.000    22550273.257    93690759.335       -3650.729          45.000  
R08  20394457.486   109211405.605        2191.528          52.000    20394450.866    84942205.171        1704.535          49.000  
E02  24983062.517   131286910.385         497.656          47.000    24983061.282   100596500.538         381.352          50.000  
E12  27211879.294   142999401.866       -2540.359          31.000    27211884.471   109571317.543       -1946.303          39.000  
E10  25219362.948   132528888.296       -2219.162          43.000    25219363.194   101548233.661       -1700.337          47.000  
G08  22687157.924   119221815.869        2390.530          42.000    22687155.855    92900090.823        1862.848          41.000  
G16  20551274.898   107997704.163       -1706.354          47.000                                                                  
R13  21019231.407   112241440.467       -2820.133          40.000    21019227.619    87298966.919       -2193.688          41.000  
R07  20591508.356   110228015.895       -1435.144          51.000    20591501.312    85732878.858       -1116.284          45.000  
R14  22447871.943   119659823.099         999.413          35.000    22447865.607    93068698.480         777.450          36.000  
E24  26628549.364   139933968.208       -3706.123          44.000    26628547.257   107222168.211       -2839.828          46.000  
S31  38417272.961   201884231.339        -649.165          43.000  
G18  23790536.105   125020067.854       -3218.472          35.000    23790522.461    97418582.253       -2507.026          34.000  
E36  24375748.142   128095476.493         205.716          46.000    24375748.934    98151130.620         157.666          51.000  
E04  26226009.245   137818608.376         997.422          45.000    26226006.838   105601274.455         764.357          49.000  
G10  19658961.859   103308620.793        -537.951          52.000    19658957.741    80500232.073        -419.214          48.000  
E11  22764833.641   119630233.248       -1485.650          45.000    22764829.249    91664831.104       -1138.352          48.000  
E09  27131396.966   142576464.885        1987.931          42.000    27131396.257   109246886.842        1523.319          48.000  
G32  23780578.722   124967789.531        2392.862          44.000    23780576.292    97377501.433        1864.619          42.000  
> 2024 04 09 08 36 00.4990000  0 26                     
S33  39375921.753   206922010.485        -648.153          44.000  
G23  21153955.071   111164951.788       -3045.107          48.000    21153949.497    86622097.060       -2372.914          46.000  
E25  23818282.723   125165894.716       -2186.623          46.000    23818284.308    95906375.303       -1675.486          52.000  
G26  22044922.067   115846838.922       -3817.062          44.000    22044920.740    90270267.586       -2974.411          44.000  
G27  20527913.674   107874954.442        1096.686          49.000    20527909.490    84058393.985         854.584          46.000  
R22  21045579.035   112343072.783       -2215.421          52.000    21045573.029    87377849.567       -1723.242          48.000  
R23  20213200.381   108127018.343          10.253          49.000                                                                  
R12  22576643.467   120600307.544       -4695.910          44.000    22576639.028    93800304.946       -3652.228          44.000  
R08  20382233.125   109145944.326        2172.491          52.000    20382225.691    84891290.873        1689.610          49.000  
E02  24980257.123   131272167.594         484.931          47.000    24980255.921   100585204.120         371.630          50.000  
E12  27226379.720   143075585.093       -2538.750          32.000    27226381.262   109629691.730       -1945.156          39.000  
E10  25232030.468   132595451.796       -2218.739          43.000    25232029.705   101599236.850       -1699.974          47.000  
G08  22673514.093   119150117.100        2388.625          43.000    22673512.131    92844221.712        1861.426          41.000  
G16  20561070.382   108049180.079       -1725.616          46.000                                                                  
R13  21035128.814   112326334.995       -2839.748          40.000    21035125.676    87364995.920       -2208.298          41.000  
R07  20599625.627   110271470.366       -1461.908          51.000    20599619.449    85766676.769       -1136.975          46.000  
R14  22442311.378                         977.122          31.000    22442302.610    93045639.199         759.808          36.000  
E24  26649710.178   140045170.570       -3707.364          44.000    26649708.559   107307375.228       -2840.743          47.000  
S31  38420977.337   201903697.178        -648.718          43.000  
G18  23808903.873   125116598.734       -3217.417          31.000    23808897.808    97493801.181       -2507.210          36.000  
E36  24374581.599   128089345.984         202.632          46.000    24374582.242    98146433.238         155.255          51.000  
E04  26220337.413   137788807.322         989.169          44.000    26220335.929   105578439.920         757.805          49.000  
G10  19662090.714   103325068.336        -558.670          51.000    19662087.115    80513048.364        -435.432          47.000  
E11  22773320.134   119674827.873       -1487.444          45.000    22773315.169    91699001.028       -1139.783          48.000  
E09  27120041.584   142516792.746        1989.916          42.000    27120041.180   109201164.072        1524.797          48.000  
G32  23766920.877   124896015.994        2391.953          44.000    23766918.036    97321574.002        1863.890          43.000  
> 2024 04 09 08 36 30.4990000  0 26                     
S33  39379620.503   206941449.056        -647.853          44.000  
G23  21171376.324   111256499.097       -3058.167          49.000    21171370.954    86693432.627       -2382.981          47.000  
E25  23830798.975   125231668.860       -2198.424          45.000    23830800.608    95956773.677       -1684.536          52.000  
G26  22066733.189   115961455.365       -3824.101          45.000    22066731.415    90359579.116       -2979.841          44.000  
G27  20521677.467   107842182.874        1087.933          48.000    20521673.129    84032857.715         847.760          46.000  
R22  21058037.113   112409581.499       -2218.578          50.000    21058032.233    87429578.551       -1725.626          48.000  
R23  20213152.454   108126758.896           6.840          49.000                                                                  
R12  22603018.852   120741206.582       -4697.701          43.000    22603014.326    93909893.015       -3653.575          41.000  
R08  20370115.194   109081053.739        2153.293          52.000    20370107.997    84840820.455        1674.766          50.000  
E02  24977523.851   131257804.438         472.347          46.000    24977522.801   100574198.608         361.918          50.000  
E12  27240870.163   143151712.227       -2536.571          34.000    27240867.726   109688022.948       -1943.799          39.000  
E10  25244694.658   132662002.654       -2218.115          43.000    25244693.823   101650230.384       -1699.510          47.000  
G08  22659879.702   119078469.012        2386.862          42.000    22659877.583    92788392.044        1860.296          42.000  
G16  20570974.507   108101225.370       -1744.440          47.000                                                                  
R13  21051136.446   112411810.245       -2859.126          41.000    21051132.200    87431476.677       -2223.395          40.000  
R07  20607893.097   110315722.404       -1488.403          52.000    20607885.477    85801095.013       -1157.666          46.000  
R14  22436883.233                1        953.882          28.000    22436870.592    93023106.325         742.085          38.000  
E24  26670878.568   140156412.299       -3708.725          43.000    26670877.386   107392612.405       -2841.771          46.000  
S31  38424679.888   201923154.788        -648.538          43.000  
G18  23827269.964   125213099.550       -3216.374          32.000    23827261.293    97568996.653       -2506.068          36.000  
E36  24373432.873   128083312.207         199.535          46.000    24373433.906    98141809.973         152.911          51.000  
E04  26214714.609   137759261.265         980.335          44.000    26214713.484   105555800.745         751.243          48.000  
G10  19665338.672   103342136.176        -579.183          51.000    19665334.914    80526348.003        -451.338          47.000  
E11  22781814.593   119719469.784       -1488.957          45.000    22781810.072    91733207.179       -1140.972          47.000  
E09  27108675.435   142457065.139        1991.816          42.000    27108675.618   109155398.800        1526.163          48.000  
G32  23753268.662   124824272.598        2391.087          44.000    23753264.755    97265670.111        1862.994          41.000  
> 2024 04 09 08 37 00.4990000  0 26                     
S33  39383319.085   206960884.398        -647.647          44.000  
G23  21188871.454   111348438.677       -3071.201          49.000    21188866.056    86765073.866       -2393.131          46.000  
E25  23843384.087   125297799.816       -2210.458          46.000    23843384.657    96007445.437       -1693.684          52.000  
G26  22088585.191   116076289.541       -3831.303          45.000    22088583.892    90449060.294       -2985.465          44.000  
G27  20515490.855   107809675.324        1079.266          48.000    20515487.233    84007527.174         841.016          46.000  
R22  21070515.941   112476192.844       -2222.083          51.000    21070512.551    87481387.373       -1728.274          50.000  
R23  20213124.354   108126604.773           3.430          49.000                                                                  
R12  22629405.948   120882159.602       -4699.283          45.000    22629400.113    94019523.139       -3655.055          39.000  
R08  20358105.864   109016742.254        2134.038          52.000    20358098.103    84790800.431        1659.857          49.000  
E02  24974863.864   131243825.712         459.569          47.000    24974862.729   100563487.655         352.094          51.000  
E12  27255344.754   143227787.299       -2535.531          35.000    27255344.793   109746314.221       -1942.237          40.000  
E10  25257356.728   132728544.452       -2217.930          43.000    25257356.585   101701216.989       -1699.436          47.000  
G08  22646255.688   119006877.144        2385.779          43.000    22646254.173    92732606.219        1858.988          42.000  
G16  20580987.237   108153842.902       -1763.519          47.000                                                                  
R13  21067251.947   112497866.267       -2878.198          41.000    21067247.878    87498409.141       -2238.568          40.000  
R07  20616308.019   110360774.964       -1515.057          50.000    20616301.207    85836135.891       -1178.455          45.000  
R14  22431570.549   119572936.3011        931.753          38.000    22431562.584    93001104.311         724.355          34.000  
E24  26692055.369   140267695.419       -3710.198          43.000    26692053.834   107477881.295       -2842.935          46.000  
S31  38428381.846   201942608.918        -648.542          43.000  
G18  23845629.091                       -3215.391          26.000    23845621.755    97644171.482       -2505.328          38.000  
E36  24372303.906   128077378.354         196.106          46.000    24372304.638    98137263.272         150.171          51.000  
E04  26209141.518   137729975.711         971.916          43.000    26209139.993   105533361.206         744.679          48.000  
G10  19668705.477   103359827.628        -600.020          50.000    19668701.462    80540133.555        -467.609          47.000  
E11  22790318.954   119764162.262       -1490.378          44.000    22790314.653    91767452.087       -1141.975          47.000  
E09  27097299.229   142397287.823        1993.501          41.000    27097300.538   109109595.428        1527.381          48.000  
G32  23739622.721   124752566.431        2389.396          45.000    23739619.578    97209795.204        1861.843          42.000  
> 2024 04 09 08 37 30.4990000  0 26                     
S33  39387016.853   206980317.302        -648.143          44.000  
G23  21206441.480   111440770.091       -3084.368          49.000    21206435.550    86837020.416       -2403.375          46.000  
E25  23856036.065   125364288.529       -2222.363          46.000    23856037.083    96058391.342       -1702.838          52.000  
G26  22110479.035   116191340.662       -3838.869          45.000    22110477.543    90538710.522       -2991.250          44.000  
G27  20509355.942   107777436.240        1069.873          48.000    20509352.399    83982405.832         833.667          46.000  
R22  21083014.514   112542909.514       -2225.851          50.000    21083010.215    87533278.123       -1731.163          49.000  
R23  20213115.558   108126558.361          -0.390          49.000                                                                  
R12  22655802.228   121023164.836       -4701.223          45.000    22655798.105    94129193.812       -3656.500          41.000  
R08  20346205.121   108953016.245        2114.257          52.000    20346196.964    84741235.758        1644.341          49.000  
E02  24972277.344   131230234.654         446.524          47.000    24972276.450   100553073.750         342.006          51.000  
E12  27269813.667   143303812.453       -2533.546          36.000    27269811.767   109804567.259       -1941.190          40.000  
E10  25270017.772   132795079.205       -2217.828          43.000    25270017.967   101752198.171       -1699.444          48.000  
G08  22632643.587   118935345.765        2383.418          43.000    22632642.415    92676867.527        1856.912          41.000  
G16  20591108.902   108207033.338       -1782.641          46.000                                                                  
R13  21083475.529   112584501.598       -2897.714          41.000    21083471.426    87565792.169       -2253.800          39.000  
R07  20624874.147   110406629.929       -1542.029          50.000    20624867.536    85871800.884       -1199.371          46.000  
R14  22426390.377   119545334.613         908.287          37.000    22426385.507    92979636.299         706.877          34.000  
E24  26713239.658   140379020.350       -3711.734          42.000    26713238.189   107563182.231       -2843.934          45.000  
S31  38432083.451   201962061.171        -648.605          43.000  
G18  23863984.880                       -3214.844          27.000    23863975.950    97719327.183       -2505.243          39.000  
E36  24371193.591   128071546.058         192.586          46.000    24371194.907    98132794.373         147.636          51.000  
E04  26203617.621   137700954.787         962.853          42.000    26203617.072   105511124.429         737.733          47.000  
G10  19672190.926   103378144.344        -620.966          51.000    19672186.872    80554406.334        -483.929          47.000  
E11  22798832.973   119808907.045       -1492.470          44.000    22798829.423    91801737.052       -1143.552          48.000  
E09  27085915.038   142337464.953        1994.667          41.000    27085916.786   109063757.141        1528.328          48.000  
G32  23725985.206   124680902.835        2387.626          45.000    23725982.775    97153953.474        1860.481          42.000  
> 2024 04 09 08 38 00.4990000  0 26                     
S33  39390715.100   206999750.325        -648.033          44.000  
G23  21224086.332   111533493.294       -3097.432          49.000    21224080.109    86909272.284       -2413.622          46.000  
E25  23868757.308   125431136.449       -2234.376          46.000    23868757.917    96109612.461       -1712.149          52.000  
G26  22132414.074   116306608.288       -3845.988          45.000    22132411.676    90628529.458       -2996.753          44.000  
G27  20503272.945   107745470.344        1060.803          48.000    20503269.309    83957497.359         826.526          46.000  
R22  21095532.924   112609734.757       -2229.525          50.000    21095528.488    87585253.316       -1734.087          48.000  
R23  20213126.248   108126622.686          -4.121          48.000                                                                  
R12  22682208.176   121164220.660       -4702.891          46.000    22682204.942    94238903.875       -3657.783          40.000  
R08  20334415.034   108889882.515        2094.426          52.000    20334407.887    84692131.757        1628.948          50.000  
E02  24969765.164   131217034.850         433.206          47.000    24969764.502   100542959.631         331.870          51.000  
E12  27284273.520   143379790.428       -2531.925          38.000    27284269.284   109862784.161       -1940.050          40.000  
E10  25282678.684   132861609.261       -2217.948          44.000    25282678.431   101803175.756       -1699.397          49.000  
G08  22619043.383   118863879.246        2380.984          43.000    22619042.499    92621179.348        1855.181          41.000  
G16  20601339.314   108260797.687       -1801.959          45.000                                                                  
R13  21099807.544   112671715.036       -2916.670          40.000    21099803.883    87633624.870       -2269.041          40.000  
R07  20633589.411   110453288.675       -1568.848          49.000    20633585.251    85908091.015       -1220.343          47.000  
R14  22421341.568   119518423.513         885.359          40.000    22421335.660    92958705.429         688.635          36.000  
E24  26734432.377   140490387.940       -3713.232          42.000    26734430.469   107648515.854       -2845.023          45.000  
S31  38435785.313   201981514.100        -648.536          43.000  
G18  23882335.059   125502451.354       -3213.895          29.000    23882325.058    97794465.572       -2503.989          37.000  
E36  24370103.168   128065817.326         189.101          46.000    24370104.805    98128404.853         144.838          51.000  
E04  26198146.833   137672202.858         953.664          42.000    26198145.498   105489093.771         730.711          47.000  
G10  19675796.112   103397088.279        -642.071          51.000    19675792.142    80569167.889        -500.422          47.000  
E11  22807358.195   119853706.100       -1494.680          44.000    22807354.750    91836063.586       -1145.119          48.000  
E09  27074523.927   142277601.115        1995.872          41.000    27074524.918   109017887.461        1529.388          48.000  
G32  23712357.213   124609287.564        2386.065          45.000    23712353.626    97098149.422        1859.245          41.000  
> 2024 04 09 08 38 30.4990000  0 26                     
S33  39394413.326   207019185.542        -648.213          44.000  
G23  21241805.088   111626605.117       -3110.492          48.000    21241799.020    86981826.962       -2423.741          45.000  
E25  23881546.681   125498341.873       -2246.460          46.000    23881546.685    96161107.501       -1721.264          52.000  
G26  22154389.249   116422088.977       -3853.487          44.000    22154386.798    90718514.406       -3002.544          44.000  
G27  20497242.119   107713779.363        1051.459          48.000    20497238.824    83932803.092         819.501          46.000  
R22  21108072.240   112676668.629       -2233.268          50.000    21108066.587    87637312.985       -1736.893          48.000  
R23  20213158.664   108126797.684          -8.183          49.000                                                                  
R12  22708623.400   121305322.136       -4704.608          45.000    22708619.524    94348649.502       -3658.912          42.000  
R08  20322737.570   108827345.184        2074.234          52.000    20322730.186    84643491.634        1613.279          50.000  
E02  24967328.369   131204226.815         420.057          47.000    24967327.111   100533145.682         321.896          51.000  
E12  27298722.858   143455720.791       -2530.403          39.000    27298718.944   109920964.574       -1939.067          41.000  
E10  25295337.757   132928133.955       -2217.887          44.000    25295337.670   101854149.221       -1699.349          49.000  
G08  22605456.285   118792479.034        2378.658          43.000    22605455.386    92565542.842        1853.328          41.000  
G16  20611679.648   108315134.953       -1821.155          46.000                                                                  
R13  21116246.928   112759502.457       -2936.200          40.000    21116244.924    87701903.957       -2283.576          42.000  
R07  20642457.538   110500749.800       -1595.813          51.000    20642450.682    85945005.243       -1241.272          46.000  
R14  22416420.556   119492204.713         862.070          40.000    22416416.627    92938312.998         670.134          32.000  
E24  26755631.626   140601796.000       -3714.601          42.000    26755630.928   107733880.524       -2846.386          45.000  
S31  38439487.020   202000967.655        -649.060          43.000  
G18  23900679.498   125598855.894       -3212.919          29.000    23900669.203    97869585.974       -2504.071          38.000  
E36  24369032.908   128060191.084         185.556          46.000    24369034.034    98124093.846         142.131          51.000  
E04  26192726.652   137643721.265         944.468          42.000    26192725.300   105467270.258         723.574          46.000  
G10  19679520.754   103416658.415        -663.263          51.000    19679515.998    80584417.340        -516.739          47.000  
E11  22815894.518   119898558.547       -1496.223          45.000    22815890.113    91870431.071       -1146.621          49.000  
E09  27063125.740   142217697.860        1997.246          43.000    27063125.442   108971987.566        1530.252          48.000  
G32  23698739.607   124537723.403        2384.396          45.000    23698735.539    97042385.174        1857.720          40.000  
> 2024 04 09 08 39 00.4990000  0 26                     
S33  39398111.114   207038617.316        -647.784          44.000  
G23  21259596.084   111720100.456       -3123.091          49.000    21259590.247    87054680.485       -2433.751          46.000  
E25  23894402.499   125565901.108       -2258.043          47.000    23894402.581    96212873.674       -1730.237          52.000  
G26  22176404.431   116537777.238       -3859.830          45.000    22176400.427    90808661.106       -3007.764          43.000  
G27  20491264.214   107682363.024        1042.328          49.000    20491260.471    83908322.837         812.201          47.000  
R22  21120631.016   112743709.042       -2236.759          49.000    21120626.156    87689455.505       -1739.596          48.000  
R23  20213212.055   108127081.250         -11.537          49.000                                                                  
R12  22735045.378   121446462.795       -4705.595          45.000    22735042.883    94458425.557       -3659.987          44.000  
R08  20311170.607   108765405.519        2054.411          52.000    20311162.831    84595316.339        1597.918          51.000  
E02  24964965.178   131191809.055         407.221          47.000    24964963.978   100523630.776         311.939          51.000  
E12  27313162.164   143531601.348       -2528.798          38.000    27313158.827   109979106.790       -1937.743          42.000  
E10  25307995.127   132994650.629       -2217.184          43.000    25307995.472   101905116.547       -1698.980          49.000  
G08  22591881.693   118721144.622        2376.286          42.000    22591880.787    92509957.598        1851.767          41.000  
G16  20622127.442   108370040.958       -1839.923          46.000                                                                  
R13  21132792.916   112847857.384       -2954.807          40.000    21132791.167    87770624.471       -2298.126          42.000  
R07  20651473.025   110549009.561       -1622.217          50.000    20651465.630    85982540.622       -1261.749          46.000  
R14  22411632.428   119466677.133         839.228          44.000    22411628.557                         651.824          30.000  
E24  26776838.138   140713240.330       -3715.723          41.000    26776838.037   107819272.954       -2847.055          45.000  
S31  38443188.664   202020418.777        -648.598          43.000  
G18  23919017.956   125695234.663       -3212.787          32.000    23919008.486    97944686.268       -2503.029          35.000  
E36  24367981.582   128054664.290         182.399          47.000    24367982.132    98119859.031         139.774          51.000  
E04  26187359.361   137615509.415         935.483          43.000    26187357.457   105445653.367         717.016          47.000  
G10  19683362.690   103436851.624        -683.854          51.000    19683358.895    80600152.311        -532.711          47.000  
E11  22824439.165   119943461.484       -1497.609          45.000    22824435.123    91904837.210       -1147.502          49.000  
E09  27051718.905   142157754.725        1998.315          43.000    27051718.651   108926057.092        1531.412          47.000  
G32  23685130.934   124466211.043        2382.553          45.000    23685126.416    96986661.257        1856.660          39.000  
> 2024 04 09 08 39 30.4990000  0 26                     
S33  39401808.944   207058049.724        -648.167          44.000  
G23  21277460.587   111813978.662       -3136.001          48.000    21277454.719    87127832.296       -2443.561          46.000  
E25  23907325.855   125633814.895       -2269.978          47.000    23907326.234    96264911.526       -1739.404          52.000  
G26  22198458.197   116653672.077       -3866.862          44.000    22198454.361    90898968.783       -3013.142          43.000  
G27  20485339.263   107651225.442        1032.910          49.000    20485335.128    83884059.796         804.926          47.000  
R22  21133209.333   112810858.489       -2240.462          48.000    21133205.593    87741682.863       -1742.567          49.000  
R23  20213286.303   108127475.728         -15.308          49.000                                                                  
R12  22761474.085   121587640.240       -4706.852          43.000    22761472.152    94568230.266       -3660.979          44.000  
R08  20299715.969   108704069.619        2034.087          52.000    20299708.692    84547610.688        1582.030          49.000  
E02  24962676.304   131179784.486         394.052          46.000    24962675.732   100514417.161         301.864          51.000  
E12  27327592.512   143607433.973       -2527.366          38.000    27327589.155   110037212.299       -1936.500          41.000  
E10  25320652.989   133061161.094       -2217.179          44.000    25320651.868   101956079.089       -1698.929          49.000  
G08  22578320.393   118649879.865        2374.121          43.000    22578319.541    92454426.642        1850.085          41.000  
G16  20632684.924   108425516.299       -1858.868          47.000                                                                  
R13  21149445.674   112936778.111       -2973.728          41.000    21149443.252    87839785.008       -2312.758          43.000  
R07  20660637.730   110598069.391       -1648.950          49.000    20660629.162    86020698.272       -1282.489          44.000  
R14  22406973.989   119441844.664         815.893          42.000    22406973.959    92899144.004         634.470          34.000  
E24  26798052.061   140824721.099       -3716.743          41.000    26798051.801   107904693.311       -2847.962          44.000  
S31  38446890.226   202039870.865        -649.020          43.000  
G18  23937351.909   125791589.329       -3212.425          31.000    23937344.287    98019767.825       -2502.533          36.000  
E36  24366949.436   128049238.342         178.803          47.000    24366949.649    98115701.500         137.108          50.000  
E04  26182041.812   137587570.971         926.240          41.000    26182040.776   105424246.031         709.942          46.000  
G10  19687324.295   103457669.214        -704.687          51.000    19687320.556    80616373.813        -549.075          47.000  
E11  22832992.640   119988416.323       -1499.664          45.000    22832989.562    91939283.129       -1149.186          49.000  
E09  27040304.903   142097775.597        1999.498          43.000    27040304.802   108880099.079        1532.034          47.000  
G32  23671533.404   124394755.698        2380.524          45.000    23671529.761    96930981.758        1854.846          41.000  
> 2024 04 09 08 40 00.4990000  0 26                     
S33  39405506.461   207077480.054        -647.789          44.000  
G23  21295397.019   111908234.988       -3148.182          47.000    21295390.998    87201278.767       -2453.038          47.000  
E25  23920316.597   125702079.961       -2281.411          47.000    23920316.790    96317218.534       -1748.090          52.000  
G26  22220551.062   116769768.383       -3873.386          45.000    22220548.149    90989433.440       -3018.235          44.000  
G27  20479467.163   107620366.745        1023.926          49.000    20479462.967    83860014.079         797.821          47.000  
R22  21145808.765   112878115.522       -2243.661          48.000    21145804.932    87793993.902       -1745.131          48.000  
R23  20213380.764   108127979.384         -18.745          49.000                                                                  
R12  22787906.953   121728848.211       -4707.479          39.000    22787906.081    94678058.645       -3661.147          43.000  
R08  20288375.694   108643339.842        2014.165          52.000    20288367.435    84500376.428        1566.583          50.000  
E02  24960462.585   131168152.010         381.199          46.000    24960462.253   100505503.987         292.057          51.000  
E12  27342012.356   143683216.847       -2525.848          36.000    27342010.499   110095279.679       -1934.877          42.000  
E10  25333306.306   133127663.131       -2216.757          43.000    25333306.581   102007035.201       -1698.485          49.000  
G08  22564772.868   118578684.734        2371.880          42.000    22564771.454    92398949.939        1848.068          41.000  
G16  20643349.383   108481557.353       -1877.490          47.000                                                                  
R13  21166202.929   113026258.625       -2992.126          42.000    21166199.896    87909380.952       -2327.206          41.000  
R07  20669949.443   110647925.816       -1675.092          48.000    20669942.647    86059475.466       -1302.814          45.000  
R14  22402446.477   119417706.417         792.943          40.000    22402446.292                         616.415          31.000  
E24  26819272.367   140936234.582       -3717.972          40.000    26819271.851   107990138.733       -2848.757          43.000  
S31  38450591.507   202059320.233        -648.434          43.000  
G18  23955678.153   125887917.592       -3210.389          32.000    23955674.606    98094828.891       -2501.544          37.000  
E36  24365935.250   128043910.574         175.946          48.000    24365935.688    98111619.224         134.763          50.000  
E04  26176778.050   137559905.738         917.683          42.000    26176775.755   105403048.021         703.151          45.000  
G10  19691404.379   103479108.495        -725.070          51.000    19691400.691    80633079.745        -564.980          47.000  
E11  22841557.252   120033420.587       -1501.204          45.000    22841553.707    91973766.911       -1150.185          49.000  
E09  27028885.342   142037760.487        2000.946          43.000    27028884.146   108834113.488        1533.257          47.000  
G32  23657947.804   124323358.534        2378.894          45.000    23657943.269    96875347.607        1853.448          40.000  
> 2024 04 09 08 40 30.4990000  0 26                     
S33  39409203.114   207096905.179        -647.471          44.000  
G23  21313404.342   112002864.150       -3160.575          48.000    21313398.896    87275015.787       -2462.868          47.000  
E25  23933372.597   125770692.467       -2293.016          47.000    23933373.252    96369791.752       -1756.954          52.000  
G26  22242680.034   116886060.598       -3879.798          44.000    22242678.191    91080050.757       -3023.248          44.000  
G27  20473647.841   107589786.569        1014.545          48.000    20473643.925    83836185.375         790.637          47.000  
R22  21158428.968   112945478.101       -2247.412          50.000    21158423.997    87846387.009       -1747.928          48.000  
R23  20213494.057   108128589.884         -22.217          48.000                                                                  
R12  22814346.319   121870079.896       -4708.092          37.000    22814343.104    94787905.502       -3662.052          41.000  
R08  20277147.618   108583217.423        1993.810          51.000    20277139.841    84453614.583        1550.739          49.000  
E02  24958323.532   131156910.004         368.153          46.000    24958323.013   100496890.006         282.062          51.000  
E12  27356423.801   143758947.349       -2523.500          36.000    27356421.572   110153306.973       -1933.612          43.000  
E10  25345959.655   133194154.007       -2216.356          44.000    25345958.937   102057982.731       -1698.173          49.000  
G08  22551238.142   118507558.484        2369.689          43.000    22551236.261    92343526.905        1846.698          40.000  
G16  20654120.962   108538160.651       -1896.271          47.000                                                                  
R13  21183062.673   113116292.303       -3009.977          41.000    21183059.225    87979407.164       -2341.780          40.000  
R07  20679412.300   110698575.371       -1701.636          49.000    20679405.594    86098869.584       -1323.425          46.000  
R14  22398047.138   119394261.667         770.088          35.000    22398047.940                         598.622          30.000  
E24  26840497.118   141047776.371       -3718.441          39.000    26840497.420   108075605.871       -2849.344          42.000  
S31  38454291.394   202078764.834        -648.293          43.000  
G18  23974003.126   125984216.589       -3209.680          32.000    23974002.431    98169867.099       -2501.296          39.000  
E36  24364938.966   128038677.820         172.723          47.000    24364940.018    98107609.728         132.370          50.000  
E04  26171566.032   137532512.942         908.580          42.000    26171563.992   105382058.766         696.029          47.000  
G10  19695601.387   103501166.148        -745.667          51.000    19695597.483    80650267.564        -581.093          46.000  
E11  22850130.337   120078471.128       -1502.568          45.000    22850126.685    92008286.169       -1151.335          50.000  
E09  27017457.460   141977708.823        2002.024          43.000    27017456.650   108788099.909        1534.083          47.000  
G32  23644372.411   124252020.110        2376.855          45.000    23644368.115    96819759.239        1851.904          40.000  
> 2024 04 09 08 41 00.4990000  0 26                     
S33  39412898.270   207116323.884        -647.529          44.000  
G23  21331481.670   112097860.932       -3172.928          48.000    21331476.337    87349039.246       -2472.364          47.000  
E25  23946494.789   125839648.563       -2304.488          47.000    23946495.208    96422628.229       -1765.708          52.000  
G26  22264846.112   117002543.102       -3886.107          44.000    22264844.234    91170816.337       -3028.124          45.000  
G27  20467881.355   107559484.467        1005.255          49.000    20467878.141    83812573.360         783.313          47.000  
R22  21171068.971   113012944.003       -2250.865          50.000    21171061.923    87898860.528       -1750.642          46.000  
R23  20213626.738   108129305.063         -25.764          47.000                                                                  
R12  22840789.306   122011328.260       -4708.636          39.000    22840785.594    94897765.353       -3662.251          42.000  
R08  20266033.791   108523703.893        1973.337          52.000    20266026.446    84407326.292        1534.911          50.000  
E02  24956258.731   131146056.782         355.053          46.000    24956257.831   100488573.916         272.086          51.000  
E12  27370824.339   143834623.082       -2521.847          36.000    27370821.673   110211292.280       -1932.396          43.000  
E10  25358609.208   133260630.893       -2215.795          44.000    25358609.063   102108919.585       -1697.849          49.000  
G08  22537716.779   118436500.546        2367.112          43.000    22537714.071    92288157.093        1844.588          39.000  
G16  20664998.233   108595322.055       -1914.856          45.000                                                                  
R13  21200024.834   113206872.984       -3028.698          40.000    21200021.695    88049858.756       -2355.515          40.000  
R07  20689021.168   110750014.008       -1728.005          49.000    20689015.555    86138877.417       -1343.885          47.000  
R14  22393804.647                1        746.964          28.000    22393779.487    92844438.547         580.690          34.000  
E24  26861728.059   141159342.201       -3719.588          39.000    26861727.698   108161091.397       -2849.976          42.000  
S31  38457990.593   202098203.439        -647.965          43.000  
G18  23992321.670   126080483.664       -3208.678          35.000    23992320.241    98244880.379       -2499.932          36.000  
E36  24363960.607   128033536.922         169.589          47.000    24363961.919    98103670.614         129.935          50.000  
E04  26166403.748   137505391.741         899.224          40.000    26166403.250   105361277.621         689.004          47.000  
G10  19699916.327   103523838.832        -766.235          51.000    19699912.205    80667934.613        -597.033          46.000  
E11  22858711.122   120123565.010       -1503.934          45.000    22858707.937    92042838.627       -1152.306          50.000  
E09  27006022.423   141917619.999        2003.443          43.000    27006021.848   108742057.851        1535.125          46.000  
G32  23630808.929   124180741.139        2374.670          47.000    23630804.906    96764217.183        1850.311          41.000  
> 2024 04 09 08 41 30.4990000  0 26                     
S33  39416592.230   207135735.977        -646.944          44.000  
G23  21349628.572   112193222.921       -3184.933          48.000    21349623.453    87423347.289       -2481.799          47.000  
E25  23959682.856   125908947.282       -2315.717          47.000    23959682.117    96475727.235       -1774.413          52.000  
G26  22287047.499   117119213.211       -3892.230          44.000    22287045.915    91261728.094       -3032.747          44.000  
G27  20462168.449   107529462.955         995.862          48.000    20462164.970    83789179.992         776.050          47.000  
R22  21183725.917   113080514.273       -2254.211          49.000    21183719.754    87951415.186       -1753.350          45.000  
R23  20213780.883   108130125.511         -29.156          49.000                                                                  
R12  22867234.027   122152589.654       -4708.946          39.000    22867229.753    95007635.336       -3662.489          42.000  
R08  20255034.688   108464803.396        1952.989          51.000    20255027.366    84361514.808        1519.037          50.000  
E02  24954266.866   131135593.549         342.210          46.000    24954266.515   100480556.663         262.125          51.000  
E12  27385214.445   143910244.497       -2519.896          36.000    27385212.020   110269235.983       -1930.943          43.000  
E10  25371255.075   133327093.958       -2215.371          43.000    25371256.893   102159845.836       -1697.578          50.000  
G08  22524208.508   118365513.117        2364.801          44.000    22524205.311    92232842.233        1843.133          39.000  
G16  20675981.384   108653040.172       -1933.313          45.000                                                                  
R13  21217089.562   113297996.582       -3046.376          41.000    21217086.094    88120732.651       -2369.479          40.000  
R07  20698776.843   110802240.885       -1754.240          48.000    20698771.522    86179498.310       -1364.327          48.000  
R14  22389668.324   119349383.7671        722.776          33.000    22389639.839    92827281.958         562.586          33.000  
E24  26882962.369   141270930.551       -3719.913          38.000    26882962.246   108246594.198       -2850.318          42.000  
S31  38461688.037   202117634.375        -647.503          43.000  
G18  24010638.548   126176718.702       -3207.419          38.000    24010632.208    98319868.803       -2499.631          37.000  
E36  24363000.229   128028487.581         166.744          48.000    24363000.771    98099801.658         127.660          50.000  
E04  26161295.062   137478544.212         889.920          40.000    26161293.270   105340706.130         682.225          46.000  
G10  19704347.162   103547126.082        -786.481          51.000    19704343.673    80686080.536        -612.799          46.000  
E11  22867300.348   120168702.007       -1505.506          44.000    22867297.277    92077424.123       -1153.537          50.000  
E09  26994581.427   141857496.366        2004.394          44.000    26994580.206   108695989.089        1536.034          46.000  
G32  23617256.135   124109525.108        2372.852          45.000    23617253.294    96708724.172        1849.243          41.000  
> 2024 04 09 08 42 00.4990000  0 26                     
S33  39420284.852   207155141.139        -647.277          44.000  
G23  21367844.955   112288947.969       -3197.323          48.000    21367838.893    87497938.215       -2491.423          47.000  
E25  23972934.515   125978587.810       -2327.413          48.000    23972934.377    96529088.158       -1783.270          52.000  
G26  22309285.032   117236068.412       -3898.641          45.000    22309282.504    91352784.105       -3037.877          45.000  
G27  20456509.416   107499724.697         986.157          48.000    20456505.977    83766007.340         768.494          47.000  
R22  21196404.251   113148189.806       -2258.113          49.000    21196397.316    88004051.735       -1756.204          44.000  
R23  20213954.428   108131052.475         -33.115          49.000                                                                  
R12  22893679.941   122293860.260       -4709.832          42.000    22893675.683    95117512.464       -3662.908          40.000  
R08  20244151.110   108406520.362        1931.991          51.000    20244143.324    84316183.585        1502.646          50.000  
E02  24952349.661   131125521.762         328.792          46.000    24952349.922   100472839.345         252.025          51.000  
E12  27399593.338   143985812.291       -2518.717          35.000    27399592.070   110327138.596       -1929.584          43.000  
E10  25383901.159   133393543.569       -2214.947          44.000    25383901.862   102210761.766       -1697.250          50.000  
G08  22510714.281   118294598.766        2362.167          44.000    22510710.511    92177584.323        1840.837          39.000  
G16  20687069.965   108711314.340       -1952.256          45.000                                                                  
R13  21234255.906   113389659.982       -3064.726          42.000    21234251.903    88192026.387       -2383.483          40.000  
R07  20708680.702   110855255.030       -1780.538          49.000    20708675.765    86220731.559       -1384.887          49.000  
R14  22385658.911                         699.651          32.000    22385629.521    92810666.563         545.276          32.000  
E24  26904202.040   141382540.221       -3720.405          38.000    26904200.521   108332113.348       -2851.088          41.000  
S31  38465384.375   202137059.871        -647.900          43.000  
G18  24028944.905   126272922.020       -3207.033          39.000    24028938.868    98394832.493       -2498.916          38.000  
E36  24362056.981   128023529.781         163.410          48.000    24362057.231    98096002.832         125.280          50.000  
E04  26156237.823   137451972.547         880.870          39.000    26156236.713   105320346.049         674.919          46.000  
G10  19708895.156   103571027.661        -807.212          50.000    19708891.848    80704705.148        -629.079          46.000  
E11  22875897.699   120213882.193       -1507.232          44.000    22875894.650    92112042.713       -1154.896          50.000  
E09  26983133.650   141797340.395        2005.354          44.000    26983132.973   108649895.590        1536.475          46.000  
G32  23603715.931   124038375.784        2369.879          44.000    23603714.378    96653283.167        1846.771          42.000  
> 2024 04 09 08 42 30.4990000  0 26                     
S33  39423977.270   207174544.696        -646.859          44.000  
G23  21386129.978   112385037.116       -3209.229          48.000    21386123.600    87572812.855       -2500.713          46.000  
E25  23986251.801   126048572.632       -2338.823          47.000    23986252.091    96582712.899       -1792.008          52.000  
G26  22331557.413   117353109.459       -3904.788          45.000    22331554.511    91443984.921       -3042.626          45.000  
G27  20450905.389   107470275.633         976.587          49.000    20450902.244    83743060.041         760.931          47.000  
R22  21209100.362   113215975.113       -2261.632          47.000    21209096.021    88056773.655       -1759.166          45.000  
R23  20214148.128   108132089.939         -36.618          49.000                                                                  
R12  22920127.230   122435139.909       -4709.498          41.000    22920123.144    95227396.650       -3662.700          39.000  
R08  20233383.789   108348862.655        1911.313          51.000    20233375.689    84271338.714        1486.533          50.000  
E02  24950508.757   131115846.053         315.732          46.000    24950508.908   100465425.509         241.884          51.000  
E12  27413965.397   144061330.182       -2516.099          35.000    27413962.480   110385003.046       -1928.351          43.000  
E10  25396544.863   133459983.328       -2214.810          44.000    25396544.847   102261670.141       -1696.914          50.000  
G08  22497234.791   118223763.192        2359.574          44.000    22497231.144    92122387.797        1838.853          40.000  
G16  20698265.417   108770146.164       -1970.555          46.000                                                                  
R13  21251522.045   113481863.024       -3082.473          41.000    21251519.641    88263739.880       -2397.487          42.000  
R07  20718731.973   110909059.107       -1806.809          49.000    20718725.716    86262579.174       -1405.332          48.000  
R14  22381768.272   119307360.294         676.393          36.000    22381754.710    92794596.663         526.456          34.000  
E24  26925444.387   141494173.282       -3721.918          36.000    26925443.347   108417650.376       -2851.484          41.000  
S31  38469080.572   202156482.981        -647.480          43.000  
G18  24047245.421   126369097.203       -3205.511          39.000    24047241.697    98469774.200       -2497.996          39.000  
E36  24361131.896   128018666.645         160.309          48.000    24361131.899    98092276.534         122.821          50.000  
E04  26151236.167   137425682.333         871.344          41.000    26151234.338   105300201.633         667.667          46.000  
G10  19713561.307   103595546.485        -827.770          50.000    19713557.373    80723810.721        -644.946          45.000  
E11  22884504.071   120259108.837       -1508.364          44.000    22884500.675    92146696.896       -1155.794          49.000  
E09  26971681.020   141737157.915        2006.150          43.000    26971680.351   108603781.738        1537.355          46.000  
G32  23590191.074   123967300.120        2367.645          44.000    23590189.366    96597899.544        1844.830          42.000  
> 2024 04 09 08 43 00.4990000  0 27                     
S33  39427668.228   207193941.493        -646.688          45.000  
G23  21404482.651   112481483.760       -3220.988          48.000    21404477.029    87647966.078       -2509.691          46.000  
E25  23999633.665   126118896.527       -2349.951          47.000    23999634.422    96636597.448       -1800.620          52.000  
G26  22353863.023   117470329.397       -3910.479          45.000    22353860.862    91535325.147       -3047.069          44.000  
G27  20445356.085   107441114.102         967.084          49.000    20445353.391    83720336.771         753.577          48.000  
R22  21221819.480   113283866.667       -2265.061          47.000    21221817.013    88109578.178       -1761.646          45.000  
R23  20214361.925   108133234.249         -39.983          49.000                                                                  
R12  22946573.626   122576420.318       -4709.373          40.000    22946571.897    95337281.402       -3662.962          39.000  
R24  22835324.762                3       1683.476          25.000                                                                  
R08  20222732.710   108291830.527        1890.503          50.000    20222726.054    84226980.419        1470.411          50.000  
E02  24948743.822   131106563.384         302.751          47.000    24948742.535   100458312.827         231.884          51.000  
E12  27428324.706   144136794.613       -2514.824          35.000    27428322.733   110442826.424       -1926.820          43.000  
E10  25409186.546   133526409.171       -2214.032          45.000    25409185.258   102312567.873       -1696.511          50.000  
G08  22483769.585   118153004.498        2357.000          44.000    22483766.893    92067251.207        1836.519          40.000  
G16  20709565.870   108829531.137       -1988.645          46.000                                                                  
R13  21268888.451   113574597.797       -3099.901          41.000    21268886.386    88335866.959       -2411.521          42.000  
R07  20728930.225   110963648.098       -1832.814          50.000    20728923.020    86305037.317       -1425.667          47.000  
R14  22378018.007   119287397.848         653.391          40.000    22378011.799                         507.561          26.000  
E24  26946689.870   141605823.995       -3722.392          35.000    26946690.014   108503200.978       -2852.082          42.000  
S31  38472775.538   202175899.160        -647.314          43.000  
G18  24065540.782   126465240.128       -3204.149          40.000    24065537.242    98544690.763       -2496.793          41.000  
E36  24360222.989   128013893.706         157.487          48.000    24360223.501    98088619.362         120.678          50.000  
E04  26146284.276   137399671.454         862.483          39.000    26146284.309   105280271.225         660.649          46.000  
G10  19718343.810   103620677.769        -848.027          50.000    19718339.816    80743393.566        -661.042          45.000  
E11  22893118.666   120304377.659       -1509.760          45.000    22893114.701    92181383.414       -1156.766          49.000  
E09  26960223.537   141676946.998        2007.307          43.000    26960222.906   108557646.123        1538.256          46.000  
G32  23576679.294   123896297.492        2365.149          43.000    23576677.421    96542572.841        1843.231          42.000  
> 2024 04 09 08 43 30.4990000  0 27                     
S33  39431358.633   207213333.806        -646.478          45.000  
G23  21422903.862   112578286.746       -3232.782          48.000    21422898.137    87723396.983       -2519.001          46.000  
E25  24013080.667   126189559.660       -2361.192          47.000    24013081.092    96690741.930       -1809.208          52.000  
G26  22376202.804   117587726.782       -3916.370          44.000    22376201.133    91626803.594       -3051.448          44.000  
G27  20439862.155   107412243.728         957.416          49.000    20439859.672    83697840.397         746.136          47.000  
R22  21234557.266   113351866.684       -2268.654          46.000    21234554.442    88162467.128       -1764.518          45.000  
R23  20214596.277   108134487.665         -43.727          48.000                                                                  
R12  22973021.037   122717698.978       -4709.363          38.000    22973019.437    95447164.766       -3662.926          36.000  
R08  20212200.224   108235429.211        1869.254          51.000    20212193.006    84183112.753        1453.948          50.000  
E02  24947053.172   131097676.105         289.461          47.000    24947051.294   100451503.097         221.869          51.000  
E12  27442676.854   144212207.065       -2512.613          37.000    27442673.403   110500610.027       -1925.512          43.000  
E10  25421824.141   133592822.452       -2213.688          45.000    25421823.137   102363455.993       -1696.117          49.000  
G08  22470319.599   118082326.170        2354.390          43.000    22470317.366    92012177.218        1834.622          40.000  
G16  20720972.035   108889468.679       -2007.071          46.000                                                                  
R13  21286353.811   113667861.686       -3117.928          41.000    21286351.367    88408405.501       -2424.709          42.000  
R07  20739274.909   111019021.507       -1858.974          49.000    20739267.805    86348105.503       -1445.769          47.000  
R14  22374403.027   119268137.072         630.263          39.000    22374376.058                3        494.060          21.000  
E24  26967939.277   141717492.138       -3722.531          34.000    26967940.352   108588764.897       -2852.438          43.000  
S31  38476469.004   202195311.116        -647.114          43.000  
G18  24083830.370   126561352.054       -3203.523          40.000    24083826.838    98619583.147       -2496.144          42.000  
E36  24359331.787   128009211.866         154.436          47.000    24359332.602    98085031.994         118.317          51.000  
E04  26141389.860   137373943.062         852.763          41.000    26141388.739   105260557.295         653.453          47.000  
G10  19723242.996   103646422.132        -868.341          50.000    19723239.390    80763454.109        -676.694          46.000  
E11  22901741.596   120349689.585       -1511.309          45.000    22901737.082    92216102.977       -1158.106          49.000  
E09  26948760.661   141616711.180        2008.056          43.000    26948760.516   108511491.432        1538.589          46.000  
G32  23563183.108   123825372.603        2362.744          45.000    23563180.519    96487306.716        1841.223          42.000  
R24                                                                  22825999.022                3       1307.134          14.000  
> 2024 04 09 08 44 00.4990000  0 26                     
S33  39435047.737   207232720.449        -646.345          44.000  
G23  21441391.983   112675442.501       -3244.551          48.000    21441386.133    87799102.777       -2528.269          46.000  
E25  24026591.517   126260559.882       -2372.541          47.000    24026591.706    96745144.696       -1817.865          52.000  
G26  22398575.612   117705297.689       -3922.304          44.000    22398573.805    91718417.299       -3056.104          43.000  
G27  20434423.927   107383665.862         947.473          49.000    20434421.249    83675571.946         738.336          48.000  
R22  21247318.009   113419974.803       -2272.168          48.000    21247313.858    88215440.126       -1767.400          44.000  
R23  20214851.185   108135849.689         -47.399          49.000                                                                  
R12  22999467.505   122858970.809       -4709.208          39.000    22999464.759    95557042.945       -3662.834          37.000  
R08  20201785.603   108179661.965        1848.065          51.000    20201778.592    84139738.231        1437.458          50.000  
E02  24945435.959   131089184.199         276.206          46.000    24945435.158   100444996.330         211.610          51.000  
E12  27457016.882   144287566.874       -2510.965          36.000    27457013.894   110558353.263       -1924.343          43.000  
E10  25434458.560   133659222.201       -2213.405          44.000    25434458.449   102414333.724       -1695.902          49.000  
G08  22456884.711   118011729.352        2351.565          43.000    22456883.069    91957166.721        1832.310          40.000  
G16  20732481.741   108949956.503       -2025.487          45.000                                                                  
R13  21303917.406   113761649.685       -3134.970          40.000    21303914.472    88481351.719       -2438.601          42.000  
R07  20749764.650   111075177.415       -1885.097          49.000    20749756.927    86391782.295       -1466.042          47.000  
R14  22370917.563   119249578.318         606.356          35.000    22370926.875                         473.091          30.000  
E24  26989194.062   141829175.125       -3723.045          36.000    26989193.286   108674340.157       -2852.833          43.000  
S31  38480162.113   202214717.483        -646.894          43.000  
G18  24102114.367   126657431.892       -3202.345          41.000    24102110.772    98694450.531       -2495.229          43.000  
E36  24358458.064   128004619.734         151.449          47.000    24358458.818    98081513.371         115.937          51.000  
E04  26136550.052   137348498.042         843.136          43.000    26136546.924   105241060.483         646.100          48.000  
G10  19728258.011   103672777.857        -888.846          50.000    19728254.642    80783991.060        -692.658          46.000  
E11  22910371.820   120395043.407       -1512.669          45.000    22910367.871    92250854.628       -1159.068          49.000  
E09  26937294.124   141556451.583        2008.955          43.000    26937293.482   108465318.515        1539.186          46.000  
G32  23549702.510   123754527.905        2359.961          45.000    23549698.640    96432103.064        1838.861          41.000  
> 2024 04 09 08 44 30.4990000  0 26                     
S33  39438737.859   207252112.403        -646.451          44.000  
G23  21459948.416   112772959.177       -3256.678          48.000    21459942.589    87875089.799       -2537.644          45.000  
E25  24040168.127   126331906.685       -2384.037          46.000    24040168.847    96799813.011       -1826.717          52.000  
G26  22420982.065   117823049.931       -3928.198          44.000    22420980.807    91810172.331       -3061.118          43.000  
G27  20429043.578   107355393.520         937.299          49.000    20429041.504    83653541.557         730.249          47.000  
R22  21260099.923   113488202.655       -2276.449          48.000    21260094.961    88268506.228       -1770.487          44.000  
R23  20215128.214   108137331.919         -51.570          48.000                                                                  
R12  23025915.684   123000242.765       -4709.326          41.000    23025911.880    95666921.110       -3662.575          41.000  
R08  20191492.917   108124543.443        1826.341          51.000    20191485.681    84096868.260        1420.531          50.000  
E02  24943896.715   131081099.364         262.664          46.000    24943896.715   100438801.466         201.166          51.000  
E12  27471348.956   144362885.043       -2509.666          35.000    27471346.435   110616064.589       -1923.444          43.000  
E10  25447093.303   133725619.099       -2213.230          44.000    25447093.758   102465209.291       -1695.955          48.000  
G08  22443468.450   117941226.931        2348.255          43.000    22443467.208    91902229.809        1829.739          41.000  
G16  20744098.718   109011003.317       -2044.316          46.000                                                                  
R13  21321580.126   113855968.997       -3152.905          41.000    21321577.463    88554711.127       -2452.224          42.000  
R07  20760402.763   111132125.475       -1911.596          49.000    20760396.023    86436075.208       -1486.908          48.000  
R14  22367571.588   119231733.426         582.623          34.000    22367577.443    92735810.8771        453.485          32.000  
E24  27010452.149   141940882.012       -3723.927          37.000    27010450.346   108759933.771       -2853.400          43.000  
S31  38483855.844   202234128.712        -647.325          43.000  
G18  24120393.584   126753490.301       -3201.703          40.000    24120389.164    98769301.214       -2494.559          42.000  
E36  24357603.445   128000127.532         147.918          47.000    24357604.074    98078071.311         113.355          51.000  
E04  26131762.429   137323348.962         833.050          42.000    26131760.918   105221790.435         638.401          47.000  
G10  19733392.040   103699754.877        -909.673          50.000    19733388.184    80805012.134        -708.741          46.000  
E11  22919012.570   120440449.549       -1514.304          45.000    22919008.737    92285646.353       -1160.381          50.000  
E09  26925824.507   141496181.126        2009.085          42.000    26925824.326   108419137.276        1539.407          46.000  
G32  23536239.066   123683777.473        2356.622          46.000    23536235.638    96376972.881        1836.285          42.000  
