     3.00           OBSERVATION DATA    M: Mixed            RINEX VERSION / TYPE
CONVBIN 2.4.3                           20240409 051442 UTC PGM / RUN BY / DATE 
format: u-blox UBX                                          COMMENT             
log: data/2024-04-09/20240409050000.ubx                     COMMENT             
AQUI00CHL                                                   MARKER NAME         
                                                            MARKER NUMBER       
                                                            MARKER TYPE         
                                                            OBSERVER / AGENCY   
UNKNOWN             UBLOX-ZED-F9P                           REC # / TYPE / VERS 
UNKNOWN             TWIVSP6037L                             ANT # / TYPE        
  1713381.0000 -5047934.0000 -3490983.0000                  APPROX POSITION XYZ 
        0.0000        0.0000        0.0000                  ANTENNA: DELTA H/E/N
G    8 C1C L1C D1C S1C C2L L2L D2L S2L                      SYS / # / OBS TYPES 
R    8 C1C L1C D1C S1C C2C L2C D2C S2C                      SYS / # / OBS TYPES 
E    8 C1C L1C D1C S1C C7Q L7Q D7Q S7Q                      SYS / # / OBS TYPES 
S    4 C1C L1C D1C S1C                                      SYS / # / OBS TYPES 
  2024    04    09    05    00   00.4930000     GPS         TIME OF FIRST OBS   
  2024    04    09    05    14   30.4940000     GPS         TIME OF LAST OBS    
                                                            END OF HEADER       
> 2024 04 09 05 00 00.4930000  0 25                     
S33  37709787.576   198166404.8991       -702.780          44.000  
E25  24543045.168                        1716.977          28.000    24543036.843    98824641.2061       1315.743          42.000  
G26  20622046.341   108369578.5821       2272.915          43.000    20622044.197    84443831.0321       1770.997          40.000  
R11  17120033.092    91484407.8831       -290.346          51.000    17120027.660    71154398.8751       -225.828          51.000  
R22  18823070.879   100479167.6651       1589.722          51.000    18823067.457    78150364.5691       1236.499          49.000  
R12  20323493.882   108564391.3961       3184.655          46.000    20323488.851    84439039.8561       2477.049          43.000  
G28  19660361.999   103315987.7411      -2281.081          48.000    19660357.217    80505872.9451      -1777.467          47.000  
G20  22688611.314                3      -2857.702          25.000                                                                  
E12  21564130.660   113320489.1751       -905.628          41.000    21564127.515    86830149.3721       -693.950          50.000  
E10  21706141.894   114066777.9671        438.574          48.000    21706141.422    87401940.4961        336.140          53.000  
E31  22614284.068   118839208.1291      -2196.841          48.000    22614284.610    91058687.1501      -1683.222          49.000  
G12  22161034.249   116457339.1651      -3494.610          43.000    22161029.731    90746157.8651      -2723.013          40.000  
R20  20681518.340   110593704.0151      -4389.653          40.000    20681516.101    86017398.0761      -3413.984          38.000  
R10  19123294.678   101937918.9501      -4101.641          45.000                                                                  
R21  17514931.743    93726388.2841      -1890.526          52.000    17514925.752    72898126.1581      -1470.421          48.000  
E24  21624004.950   113634921.5531         95.302          48.000    21624002.639    87070953.0301         73.001          52.000  
S31  36754493.199   193146256.7291       -702.243          43.000  
G29  19390600.694   101898624.0131      -2027.672          48.000    19390595.348    79401663.4411      -1580.051          46.000  
G25  19324626.543   101551808.4971      -2567.489          49.000    19324624.086    79131380.1271      -2000.569          45.000  
G31  19995604.596   105077624.1871         14.286          47.000    19995599.254    81878704.7761         11.165          43.000  
G18  18511849.917    97280655.2881        605.817          48.000    18511844.914    75803258.2991        472.059          48.000  
G05  21473658.863   112844897.4801       -866.957          38.000    21473651.842    87931083.9391       -675.272          40.000  
E33  24226911.467   127313565.5471      -3242.595          41.000    24226911.904    97552144.8181      -2484.444          48.000  
E11  22132781.427   116308759.0331       1616.540          42.000    22132778.277    89119800.5321       1238.595          46.000  
G23                                                                  22512973.288                3       2079.518          25.000  
> 2024 04 09 05 00 30.4930000  0 24                     
S33  37713798.977   198187484.609        -702.516          44.000  
E25  24533223.571                        1717.167          27.000    24533234.212    98785171.386        1315.737          42.000  
G26  20609083.735   108301458.278        2268.823          43.000    20609081.578    84390750.270        1768.019          40.000  
R11  17121731.604    91493481.247        -314.279          52.000    17121725.358    71161455.954        -244.519          51.000  
R22  18814179.820   100431709.282        1574.353          51.000    18814177.143    78113452.521        1224.615          49.000  
R12  20305626.961   108468947.759        3178.474          46.000    20305620.861    84364805.950        2471.845          43.000  
G28  19673430.339   103384661.286       -2297.013          48.000    19673425.605    80559384.799       -1789.782          48.000  
E12  21569336.040   113347844.953        -917.674          41.000    21569333.471    86851110.300        -703.234          50.000  
E10  21703671.705   114053800.930         426.825          47.000    21703671.926    87391997.083         327.028          53.000  
E31  22626848.443   118905231.697       -2204.472          48.000    22626848.584    91109276.623       -1689.151          49.000  
G12  22181002.154   116562273.927       -3501.226          43.000    22180997.801    90827925.141       -2727.791          41.000  
R20  20706144.358   110725387.901       -4389.119          41.000    20706141.511    86119818.871       -3414.215          37.000  
R10  19146420.422   102061192.405       -4116.613          45.000                                                                  
R21  17525574.518    93783339.888       -1905.864          52.000    17525568.423    72942421.845       -1482.266          48.000  
E24  21623481.604   113632171.586          88.229          47.000    21623479.468    87068845.917          67.650          53.000  
S31  36758501.913   193167322.739        -701.822          43.000  
G29  19402188.730   101959517.807       -2031.565          48.000    19402183.261    79449113.136       -1583.092          46.000  
G25  19339319.874   101629021.174       -2579.669          49.000    19339317.162    79191545.847       -2010.165          45.000  
G31  19995577.446   105077478.033          -4.432          47.000    19995570.896    81878590.869          -3.470          42.000  
G18  18508443.946    97262752.195         587.987          48.000    18508438.570    75789307.842         458.171          48.000  
G05  21478654.518   112871160.540        -883.802          36.000    21478649.486    87951548.646        -688.587          40.000  
E33  24245435.678   127410905.734       -3246.371          41.000    24245434.767    97626730.158       -2487.551          47.000  
E11  22123579.577   116260395.676        1608.211          42.000    22123574.934    89082742.961        1232.163          46.000  
G23                                                                  22497727.446                3       2081.634          27.000  
> 2024 04 09 05 01 00.4930000  0 24                     
S33  37717808.323   198208555.173        -702.644          44.000  
G26  20596145.796   108233465.373        2263.994          43.000    20596142.878    84337768.812        1764.045          40.000  
R11  17123564.554    91503277.361        -338.901          51.000    17123558.816    71169075.142        -263.727          52.000  
R22  18805376.698   100384716.936        1558.362          52.000    18805373.803    78076902.945        1211.963          50.000  
R12  20287796.401   108373698.874        3171.370          47.000    20287789.573    84290723.524        2466.503          43.000  
G28  19686590.085   103453815.825       -2313.381          48.000    19686585.637    80613271.454       -1802.654          48.000  
E12  21574611.409   113375570.147        -930.760          41.000    21574609.604    86872354.283        -713.084          51.000  
E10  21701270.703   114041184.525         414.207          47.000    21701271.052    87382329.982         317.348          53.000  
E31  22639457.161   118971492.340       -2213.025          48.000    22639457.522    91160047.765       -1695.653          49.000  
G12  22201008.902   116667414.251       -3508.161          41.000    22201005.977    90909852.623       -2733.783          41.000  
R20  20730769.765   110857072.539       -4389.617          40.000    20730767.397    86222240.243       -3414.154          38.000  
R10  19169631.187   102184918.400       -4131.896          46.000                                                                  
R21  17536303.862    93840757.475       -1921.965          52.000    17536297.941    72987079.966       -1494.944          48.000  
E24  21622999.270   113629640.295          80.333          47.000    21622998.050    87066906.372          61.561          53.000  
S31  36762509.390   193188380.824        -702.028          43.000  
G29  19413799.981   102020536.190       -2036.395          48.000    19413795.436    79496659.895       -1586.863          47.000  
G25  19354084.102   101706607.380       -2592.646          49.000    19354081.794    79252002.623       -2020.457          45.000  
G31  19995657.816   105077900.871         -23.871          48.000    19995651.092    81878920.331         -18.591          42.000  
G18  18505138.988    97245386.095         569.673          48.000    18505133.753    75775775.828         443.712          48.000  
G05  21483750.820   112897935.827        -901.386          40.000    21483743.743    87972412.474        -702.200          38.000  
E33  24263982.996   127508372.630       -3251.262          41.000    24263983.009    97701412.543       -2491.274          48.000  
E11  22114423.574   116212284.716        1598.862          43.000    22114419.253    89045878.787        1225.097          45.000  
E25                                                                  24523431.988    98745702.971        1315.368          42.000  
G23                                                                  22482480.598                        2083.903          29.000  
> 2024 04 09 05 01 30.4930000  0 24                     
S33  37721818.499   198229628.523        -702.362          44.000  
G23  22467188.016   118065894.0031       2677.026          32.000    22467195.288                        2086.340          32.000  
E25  24513616.417                1       1716.525          27.000    24513632.054    98706244.622        1315.219          42.000  
G26  20583233.914   108165612.231        2259.260          43.000    20583230.805    84284896.253        1760.492          40.000  
R11  17125534.473    91513807.926        -363.290          51.000    17125529.594    71177265.578        -282.694          52.000  
R22  18796663.149   100338201.662        1542.554          51.000    18796659.730    78040724.430        1199.738          49.000  
R12  20270003.729   108278658.708        3164.638          46.000    20269997.706    84216803.457        2461.223          42.000  
G28  19699843.203   103523459.368       -2329.635          48.000    19699838.633    80667539.106       -1815.239          48.000  
E12  21579959.904   113403674.030        -943.122          41.000    21579957.689    86893888.434        -722.662          51.000  
E10  21698940.479   114028939.056         401.996          47.000    21698940.743    87372947.092         308.068          52.000  
E31  22652113.523   119038000.321       -2221.058          48.000    22652113.465    91211008.430       -1701.841          49.000  
G12  22221057.736   116772769.405       -3515.398          42.000    22221054.785    90991947.450       -2739.193          41.000  
R20  20755396.243   110988765.872       -4389.881          38.000    20755392.918    86324668.340       -3413.983          32.000  
R10  19192927.929   102309104.708       -4147.161          46.000                                                                  
R21  17547122.357    93898648.527       -1937.505          52.000    17547115.390    73032106.343       -1506.986          48.000  
E24  21622560.974   113627339.072          72.840          47.000    21622560.289    87065143.116          55.791          53.000  
S31  36766516.854   193209440.625        -701.925          43.000  
G29  19425437.058   102081688.600       -2040.553          48.000    19425432.097    79544311.105       -1590.222          47.000  
G25  19368921.589   101784577.014       -2605.377          49.000    19368918.775    79312758.159       -2030.199          44.000  
G31  19995848.531   105078902.472         -43.032          48.000    19995841.860    81879700.817         -33.630          42.000  
G18  18501938.238    97228567.746         551.513          48.000    18501933.218    75762670.639         429.674          48.000  
G05  21488945.019   112925232.897        -918.599          41.000    21488938.016    87993682.921        -716.032          37.000  
E33  24282555.831   127605974.657       -3255.747          41.000    24282555.244    97776198.492       -2494.573          47.000  
E11  22105318.634   116164437.386        1590.570          42.000    22105314.274    89009216.594        1218.927          45.000  
> 2024 04 09 05 02 00.4930000  0 24                     
S33  37725828.272   198250699.927        -702.148          44.000  
G23  22451895.684   117985537.574        2679.999          36.000    22451902.593    91936803.4101       2088.501          34.000  
E25  24503822.498                        1716.208          29.000    24503834.496    98666794.173        1314.863          42.000  
G26  20570348.191   108097897.107        2254.817          44.000    20570344.791    84232131.221        1757.082          40.000  
R11  17127642.763    91525070.847        -387.649          51.000    17127637.025    71186025.624        -301.553          51.000  
R22  18788038.327   100292160.006        1526.819          51.000    18788034.017    78004914.290        1187.457          49.000  
R12  20252250.258   108183827.256        3157.606          46.000    20252244.514    84143045.698        2455.788          42.000  
G28  19713188.081   103593585.734       -2345.597          47.000    19713183.188    80722183.004       -1827.723          48.000  
E12  21585379.313   113432151.871        -955.488          41.000    21585376.738    86915709.106        -732.123          51.000  
E10  21696680.001   114017060.731         389.864          47.000    21696680.341    87363845.530         298.654          52.000  
E31  22664815.535   119104751.845       -2229.114          48.000    22664815.546    91262155.676       -1707.979          48.000  
G12  22241146.844   116878335.379       -3522.354          43.000    22241142.407    91074206.586       -2745.046          40.000  
R20  20780024.191   111120461.351       -4389.937          40.000    20780019.629    86427098.209       -3413.917          36.000  
R10  19216310.113   102433743.932       -4162.167          46.000                                                                  
R21  17558028.009    93957006.064       -1953.020          52.000    17558020.486    73077495.549       -1518.940          48.000  
E24  21622167.092   113625265.241          65.201          47.000    21622165.631    87063554.077          50.001          53.000  
S31  36770523.917   193230498.756        -702.083          42.000  
G29  19437098.556   102142970.297       -2044.912          48.000    19437093.062    79592063.096       -1593.416          47.000  
G25  19383830.235   101862925.803       -2617.745          49.000    19383827.389    79373809.171       -2039.917          44.000  
G31  19996148.324   105080480.140         -62.279          47.000    19996142.558    81880930.184         -48.593          42.000  
G18  18498840.987    97212293.728         533.385          47.000    18498836.356    75749989.589         415.543          48.000  
G05  21494237.688   112953048.297        -936.039          40.000    21494231.464    88015357.303        -729.324          37.000  
E33  24301154.896   127703706.198       -3259.769          42.000    24301152.770    97851083.697       -2497.732          47.000  
E11  22096262.682   116116850.673        1582.046          43.000    22096258.778    88972754.116        1212.081          45.000  
> 2024 04 09 05 02 30.4930000  0 24                     
S33  37729837.773   198271769.285        -702.212          44.000  
G23  22436587.499   117905096.285        2682.931          37.000    22436593.339    91874122.688        2090.482          37.000  
E25  24494030.572   128717003.4731       1716.079          31.000    24494038.863    98627352.742        1314.399          42.000  
G26  20557489.268   108030322.614        2249.916          44.000    20557485.612    84179475.808        1753.171          40.000  
R11  17129888.072    91537067.824        -412.358          52.000    17129882.189    71195356.626        -320.724          52.000  
R22  18779502.238   100246592.928        1510.718          51.000    18779498.615    77969473.320        1175.067          50.000  
R12  20234536.602   108089208.610        3150.397          46.000    20234532.049    84069453.442        2450.011          43.000  
G28  19726623.995   103664193.131       -2361.583          48.000    19726619.503    80777201.724       -1840.226          48.000  
E12  21590869.046   113461003.194        -968.177          41.000    21590866.889    86937815.964        -741.823          50.000  
E10  21694489.843   114005550.120         377.458          47.000    21694489.910    87355025.715         289.187          52.000  
E31  22677564.670   119171747.365       -2237.438          48.000    22677564.167    91313489.898       -1714.370          48.000  
G12  22261275.879   116984111.319       -3529.398          45.000    22261271.431    91156629.296       -2750.237          40.000  
R20  20804652.649   111252156.537       -4390.064          41.000    20804648.854    86529527.811       -3414.656          36.000  
R10  19239776.516   102558833.946       -4177.220          45.000                                                                  
R21  17569020.784    94015827.873       -1968.478          53.000    17569012.907    73123245.867       -1531.235          48.000  
E24  21621815.859   113623420.415          57.509          47.000    21621814.673    87062140.503          44.086          53.000  
S31  36774531.154   193251555.946        -702.028          42.000  
G29  19448784.846   102204380.988       -2049.298          49.000    19448779.391    79639915.603       -1596.964          46.000  
G25  19398811.619   101941653.865       -2630.627          49.000    19398809.603    79435155.706       -2050.055          44.000  
G31  19996557.810   105082634.351         -81.566          46.000    19996553.178    81882608.782         -63.565          44.000  
G18  18495848.171    97196564.975         515.087          47.000    18495843.245    75737733.433         401.144          48.000  
G05  21499628.996   112981383.394        -953.544          42.000    21499623.695    88037436.635        -742.805          38.000  
E33  24319774.495   127801565.971       -3264.487          39.000    24319774.399    97926067.128       -2501.183          46.000  
E11  22087256.574   116069525.960        1572.840          42.000    22087253.099    88936492.362        1205.283          45.000  
> 2024 04 09 05 03 00.4930000  0 24                     
S33  37733846.659   198292837.184        -702.204          44.000  
G23  22421263.710   117824572.622        2685.450          40.000    22421268.343    91811377.803        2092.321          38.000  
E25  24484242.656   128665541.656        1715.521          33.000    24484245.966    98587920.987        1314.062          42.000  
G26  20544657.513   107962890.689        2245.368          43.000    20544653.798    84126931.478        1749.571          40.000  
R11  17132270.805    91549800.409        -436.754          52.000    17132265.376    71205259.735        -339.613          52.000  
R22  18771054.839   100201500.682        1495.166          51.000    18771051.691    77934401.613        1162.830          50.000  
R12  20216863.930   107994806.352        3143.003          47.000    20216859.588    83996029.480        2444.568          43.000  
G28  19740150.979   103735279.036       -2377.572          48.000    19740146.085    80832593.330       -1852.643          46.000  
E12  21596430.532   113490226.873        -980.297          41.000    21596427.863    86960208.130        -751.208          50.000  
E10  21692369.949   113994407.018         365.237          48.000    21692369.378    87346487.504         279.855          52.000  
E31  22690359.830   119238986.691       -2245.418          48.000    22690359.336    91365010.933       -1720.480          48.000  
G12  22281443.724   117090096.153       -3536.368          44.000    22281439.368    91239214.787       -2755.560          40.000  
R20  20829280.228   111383849.008       -4389.905          41.000    20829275.921    86631955.279       -3414.046          36.000  
R10  19263327.709   102684372.104       -4192.145          45.000                                                                  
R21  17580098.367    94075110.749       -1983.773          52.000    17580092.344    73169354.767       -1543.097          49.000  
E24  21621508.778   113621805.559          49.936          47.000    21621507.438    87060903.139          38.218          54.000  
S31  36778537.709   193272610.136        -701.966          42.000  
G29  19460494.977   102265919.738       -2053.546          48.000    19460489.782    79687867.862       -1600.123          46.000  
G25  19413864.934   102020760.587       -2643.131          48.000    19413863.159    79496797.278       -2059.508          45.000  
G31  19997077.583   105085365.610        -100.816          47.000    19997072.573    81884737.012         -78.386          43.000  
G18  18492959.266    97181381.681         496.947          48.000    18492953.887    75725902.299         387.255          48.000  
G05  21505120.009   113010237.718        -970.656          42.000    21505114.251    88059920.534        -756.775          37.000  
E33  24338422.436   127899551.915       -3268.334          41.000    24338420.444    98001147.316       -2504.384          45.000  
E11  22078301.267   116022463.856        1564.349          42.000    22078298.041    88900431.844        1198.840          46.000  
> 2024 04 09 05 03 30.4930000  0 24                     
S33  37737855.659   198313902.471        -702.476          44.000  
G23  22405925.292   117743968.918        2687.809          41.000    22405928.247    91748570.501        2094.688          37.000  
E25  24474453.618   128614093.139        1714.352          34.000    24474455.671    98548499.381        1313.610          42.000  
G26  20531853.341   107895603.071        2240.253          44.000    20531849.712    84074499.584        1745.562          41.000  
R11  17134791.246    91563269.529        -461.418          52.000    17134785.746    71215735.694        -358.691          52.000  
R22  18762696.487   100156883.304        1479.199          52.000    18762693.130    77899699.225        1150.482          50.000  
R12  20199232.572   107900623.926        3135.699          47.000    20199227.981    83922776.504        2438.711          44.000  
G28  19753768.534   103806840.757       -2393.500          48.000    19753763.187    80888355.696       -1864.855          46.000  
E12  21602062.150   113519821.579        -992.733          41.000    21602059.407    86982884.597        -760.707          50.000  
E10  21690319.480   113983631.053         352.855          48.000    21690318.607    87338230.598         270.417          52.000  
E31  22703201.813   119306469.378       -2253.575          49.000    22703200.986    91416718.456       -1726.800          48.000  
G12  22301651.687   117196288.467       -3543.482          44.000    22301645.968    91321961.963       -2761.023          38.000  
R20  20853906.175   111515535.336       -4389.478          41.000    20853902.692    86734378.034       -3414.236          37.000  
R10  19286961.051   102810354.794       -4207.109          44.000                                                                  
R21  17591262.712    94134851.103       -1998.955          53.000    17591255.998    73215819.495       -1554.804          49.000  
E24  21621245.325   113620421.402          42.089          47.000    21621244.020    87059842.554          32.271          53.000  
S31  36782543.649   193293662.544        -702.089          42.000  
G29  19472229.287   102327585.955       -2057.821          48.000    19472224.604    79735919.464       -1603.442          47.000  
G25  19428991.234   102100245.115       -2655.928          49.000    19428988.641    79558733.271       -2069.623          45.000  
G31  19997706.999   105088673.469        -119.994          47.000    19997702.512    81887314.571         -93.538          44.000  
G18  18490173.996    97166743.809         478.778          49.000    18490168.206    75714496.178         373.052          48.000  
G05  21510709.735   113039611.676        -987.978          43.000    21510704.268    88082809.348        -769.925          38.000  
E33  24357092.115   127997661.984       -3272.661          40.000    24357090.603    98076322.513       -2507.710          46.000  
E11  22069395.294   115975664.824        1555.367          42.000    22069392.461    88864572.914        1191.827          46.000  
> 2024 04 09 05 04 00.4930000  0 24                     
S33  37741862.876   198334961.772        -701.784          43.000  
G23  22390571.431   117663283.982        2690.929          40.000    22390573.323    91685699.968        2096.766          36.000  
E25  24464667.461   128562654.948        1714.760          35.000    24464666.876    98509085.749        1313.669          42.000  
G26  20519075.556   107828457.997        2235.749          43.000    20519072.685    84022178.764        1742.552          42.000  
R11  17137449.820    91577472.599        -485.547          52.000    17137443.783    71226782.527        -377.636          52.000  
R22  18754426.635   100112737.290        1463.818          52.000    18754423.274    77865363.492        1138.483          50.000  
R12  20181642.880   107806660.938        3128.504          47.000    20181638.055    83849694.199        2433.339          44.000  
G28  19767475.514   103878872.085       -2408.794          48.000    19767470.941    80944483.996       -1877.002          46.000  
E12  21607764.037   113549782.448       -1004.781          41.000    21607760.863    87005841.629        -769.850          50.000  
E10  21688337.737   113973218.391         341.145          48.000    21688337.281    87330252.077         261.401          52.000  
E31  22716088.607   119374191.582       -2261.325          48.000    22716087.859    91468609.510       -1732.673          48.000  
G12  22321897.584   117302683.620       -3549.929          43.000    22321892.366    91404867.203       -2766.399          38.000  
R20  20878529.537   111647208.974       -4388.826          41.000    20878526.597    86836790.772       -3413.353          37.000  
R10  19310677.436   102936775.581       -4221.180          44.000                                                                  
R21  17602511.309    94195042.265       -2013.686          53.000    17602504.705    73262634.823       -1566.208          50.000  
E24  21621025.418   113619265.269          34.745          46.000    21621024.036    87058956.676          26.641          53.000  
S31  36786548.714   193314708.987        -701.327          43.000  
G29  19483986.959   102389374.235       -2061.652          47.000    19483982.873    79784066.188       -1606.383          47.000  
G25  19444187.273   102180103.079       -2668.016          48.000    19444185.371    79620960.234       -2078.868          45.000  
G31  19998446.009   105092554.449        -138.846          48.000    19998440.852    81890338.699        -108.102          44.000  
G18  18487491.931    97152647.885         460.831          49.000    18487486.212    75703512.354         359.210          49.000  
G05  21516398.239   113069501.217       -1004.719          42.000    21516391.705    88106099.882        -783.016          38.000  
E33  24375784.889   128095890.416       -3276.096          40.000    24375783.200    98151588.464       -2510.337          47.000  
E11  22060539.158   115929125.798        1546.852          42.000    22060536.463    88828913.190        1185.221          46.000  
> 2024 04 09 05 04 30.4930000  0 24                     
S33  37745868.272   198356010.608        -701.863          44.000  
G23  22375201.608   117582516.720        2693.270          41.000    22375202.857    91622765.223        2098.715          36.000  
E25  24454879.300   128511224.389        1713.844          35.000    24454880.254    98469677.930        1313.363          43.000  
G26  20506325.178   107761453.788        2230.782          44.000    20506322.530    83969967.728        1738.269          42.000  
R11  17140244.716    91592407.164        -510.238          52.000    17140238.107    71238398.302        -396.854          51.000  
R22  18746243.676   100069059.075        1447.864          51.000    18746239.786    77831391.560        1126.087          49.000  
R12  20164093.701   107712917.383        3120.802          48.000    20164089.033    83776782.606        2427.352          45.000  
G28  19781270.850   103951366.769       -2424.383          48.000    19781266.486    81000973.334       -1889.101          46.000  
E12  21613534.148   113580104.668       -1017.005          42.000    21613530.974    87029075.547        -779.364          50.000  
E10  21686424.496   113963165.143         328.916          48.000    21686424.231    87322548.957         252.043          52.000  
E31  22729019.710   119442149.380       -2269.333          48.000    22729019.945    91520681.064       -1738.813          48.000  
G12  22342181.867   117409276.880       -3556.351          43.000    22342177.998    91487926.775       -2771.654          39.000  
R20  20903149.931   111778863.238       -4388.515          42.000    20903146.667    86939188.534       -3413.350          36.000  
R10  19334475.751   103063627.120       -4235.887          45.000                                                                  
R21  17613842.948    94255677.296       -2028.706          53.000    17613835.916    73309795.386       -1577.850          49.000  
E24  21620848.444   113618334.384          27.070          46.000    21620846.800    87058243.395          20.699          53.000  
S31  36790551.913   193335745.394        -701.054          43.000  
G29  19495767.266   102451280.090       -2065.676          47.000    19495762.900    79832304.501       -1609.726          46.000  
G25  19459454.131   102260330.242       -2680.571          48.000    19459451.277    79683474.888       -2088.873          43.000  
G31  19999292.979   105097005.220        -158.124          47.000    19999288.411    81893806.820        -123.179          44.000  
G18  18484911.744    97139090.303         442.692          49.000    18484906.236    75692948.050         345.037          49.000  
G05  21522182.988   113099902.532       -1022.264          44.000    21522178.410    88129789.218        -796.424          39.000  
E33  24394497.906   128194231.572       -3280.036          40.000    24394497.185    98226940.750       -2513.347          47.000  
E11  22051731.747   115882843.822        1538.239          41.000    22051728.921    88793450.411        1178.671          45.000  
> 2024 04 09 05 05 00.4930000  0 24                     
S33  37749873.532   198377059.610        -701.655          44.000  
G23  22359818.514   117501679.853        2695.818          42.000    22359818.397    91559776.272        2100.232          36.000  
E25  24445095.854   128459812.419        1713.536          35.000    24445097.097    98430284.372        1312.958          43.000  
G26  20493603.495   107694602.458        2225.990          44.000    20493601.954    83917875.820        1734.567          43.000  
R11  17143178.081    91608084.599        -535.014          52.000    17143171.994    71250591.861        -416.136          52.000  
R22  18738151.303   100025859.127        1432.110          51.000    18738146.886    77797791.661        1113.721          50.000  
R12  20146588.181   107619407.068        3113.097          48.000    20146584.203    83704052.395        2421.407          43.000  
G28  19795155.567   104024332.355       -2440.005          47.000    19795151.420    81057829.606       -1901.329          46.000  
E12  21619374.386   113610797.133       -1029.284          42.000    21619371.440    87052593.173        -788.648          50.000  
E10  21684581.852   113953481.241         316.705          48.000    21684581.318    87315128.834         242.604          52.000  
E31  22741998.155   119510352.675       -2277.640          47.000    22741998.812    91572940.712       -1745.098          48.000  
G12  22362505.695   117516076.875       -3563.422          43.000    22362500.608    91571147.456       -2776.898          39.000  
R20  20927768.032   111910506.758       -4387.896          40.000    20927765.135    87041577.921       -3412.795          35.000  
R10  19358355.454   103190916.420       -4250.369          46.000                                                                  
R21  17625257.855    94316763.280       -2043.612          52.000    17625251.682    73357306.708       -1589.625          49.000  
E24  21620715.661   113617639.855          19.206          46.000    21620714.671    87057711.236          14.720          53.000  
S31  36794554.956   193356781.495        -701.315          43.000  
G29  19507572.382   102513312.868       -2069.985          48.000    19507567.287    79880641.702       -1612.758          46.000  
G25  19474793.088   102340935.977       -2693.148          48.000    19474789.196    79746284.539       -2098.330          43.000  
G31  20000250.774   105102035.717        -177.306          48.000    20000245.677    81897726.696        -138.354          44.000  
G18  18482435.966    97126081.377         424.412          48.000    18482430.849    75682811.255         330.723          48.000  
G05  21528067.465   113130826.242       -1039.466          42.000    21528063.250    88153885.600        -809.844          39.000  
E33  24413233.640   128292693.606       -3284.207          40.000    24413233.715    98302385.696       -2516.445          47.000  
E11  22042975.622   115836829.586        1529.291          41.000    22042972.308    88758192.774        1171.894          45.000  
> 2024 04 09 05 05 30.4930000  0 24                     
S33  37753878.969   198398109.174        -701.514          44.000  
G23  22344422.359   117420777.433        2697.838          42.000    22344422.956    91496736.246        2101.678          37.000  
E25  24435317.969   128408421.425        1712.506          37.000    24435317.701    98390906.867        1312.313          44.000  
G26  20480911.791   107627907.560        2220.410          43.000    20480910.359    83865905.795        1730.206          43.000  
R11  17146251.259    91624507.755        -559.847          51.000    17146245.774    71263365.430        -435.487          51.000  
R22  18730148.488    99983139.251        1416.119          52.000    18730144.140    77764565.131        1101.245          50.000  
R12  20129127.099   107526135.212        3105.115          48.000    20129124.445    83631507.661        2414.992          44.000  
G28  19809129.663   104097767.792       -2455.676          48.000    19809125.963    81115052.006       -1913.482          46.000  
E12  21625286.104   113641860.194       -1041.494          42.000    21625282.557    87076394.757        -798.093          50.000  
E10  21682809.227   113944167.973         304.355          48.000    21682808.715    87307992.709         233.198          52.000  
E31  22755024.255   119578802.714       -2285.753          48.000    22755024.080    91625389.427       -1751.454          48.000  
G12  22382868.189   117623084.649       -3570.247          42.000    22382862.657    91654530.072       -2782.269          38.000  
R20  20952382.554   112042137.594       -4387.579          41.000    20952381.477    87143957.432       -3412.848          34.000  
R10  19382316.157   103318642.323       -4264.725          46.000                                                                  
R21  17636756.531    94378298.606       -2058.621          52.000    17636750.519    73405167.528       -1601.018          49.000  
E24  21620629.282   113617184.121          11.323          47.000    21620627.818    87057362.046           8.599          53.000  
S31  36798558.027   193377818.751        -701.090          43.000  
G29  19519400.947   102575473.019       -2073.954          48.000    19519396.014    79929078.200       -1616.053          45.000  
G25  19490203.766   102421921.152       -2705.800          48.000    19490200.871    79809389.857       -2108.653          43.000  
G31  20001318.108   105107647.612        -196.716          46.000    20001313.389    81902099.583        -153.299          44.000  
G18  18480065.391    97113622.676         406.146          48.000    18480060.125    75673103.189         316.405          49.000  
G05  21534051.070   113162274.114       -1056.730          42.000    21534048.244    88178390.424        -823.726          39.000  
E33  24431993.083   128391276.158       -3288.333          40.000    24431993.010    98377922.956       -2519.476          46.000  
E11  22034270.377   115791085.198        1520.348          41.000    22034267.528    88723141.935        1164.728          45.000  
> 2024 04 09 05 06 00.4930000  0 24                     
S33  37757883.925   198419154.442        -701.410          43.000  
G23  22329013.729   117339807.189        2700.117          43.000    22329015.288    91433643.302        2104.073          39.000  
E25  24425541.697   128357047.369        1712.201          38.000    24425541.730    98351542.374        1311.830          44.000  
G26  20468249.528   107561366.192        2215.502          44.000    20468248.024    83814055.383        1726.245          43.000  
R11  17149464.209    91641672.412        -584.500          51.000    17149457.314    71276715.721        -454.661          50.000  
R22  18722234.820    99940894.523        1400.232          52.000    18722230.828    77731708.152        1089.087          50.000  
R12  20111711.105   107433100.397        3097.183          49.000    20111708.033    83559147.252        2409.018          45.000  
G28  19823191.698   104171665.639       -2470.939          47.000    19823188.280    81172634.761       -1925.197          46.000  
E12  21631266.042   113673287.908       -1053.723          42.000    21631262.818    87100475.730        -807.340          50.000  
E10  21681106.438   113935220.305         292.077          48.000    21681106.076    87301136.718         223.840          52.000  
E31  22768095.858   119647494.473       -2293.865          47.000    22768095.656    91678023.349       -1757.450          48.000  
G12  22403269.079   117730293.780       -3577.054          42.000    22403265.330    91738069.505       -2787.085          40.000  
R20  20976994.541   112173748.093       -4386.593          42.000    20976994.719    87246321.103       -3411.657          34.000  
R10  19406356.694   103446796.391       -4278.982          46.000                                                                  
R21  17648337.680    94440275.173       -2073.211          52.000    17648331.689    73453371.545       -1612.529          48.000  
E24  21620587.828   113616963.319           3.441          47.000    21620585.747    87057192.856           2.697          53.000  
S31  36802560.716   193398851.231        -700.885          43.000  
G29  19531253.064   102637754.721       -2078.032          49.000    19531248.355    79977609.416       -1619.325          46.000  
G25  19505685.806   102503280.229       -2718.248          47.000    19505682.885    79872786.523       -2117.995          43.000  
G31  20002495.648   105113835.913        -215.764          45.000    20002490.515    81906921.606        -168.010          44.000  
G18  18477797.887    97101709.458         387.987          48.000    18477793.143    75663820.159         302.428          49.000  
G05  21540133.781   113194240.500       -1074.369          42.000    21540131.253    88203299.310        -837.093          40.000  
E33  24450774.539   128489972.374       -3291.804          40.000    24450774.254    98453547.334       -2522.301          46.000  
E11  22025616.767   115745606.572        1511.370          42.000    22025613.313    88688294.682        1158.151          45.000  
> 2024 04 09 05 06 30.4930000  0 24                     
S33  37761888.900   198440201.287        -701.268          44.000  
G23  22313593.825   117258777.718        2702.252          42.000    22313595.154    91370504.227        2105.287          39.000  
E25  24415769.737   128305697.170        1711.925          38.000    24415770.286    98312196.164        1311.412          45.000  
G26  20455617.587   107494986.365        2210.288          44.000    20455616.045    83762330.869        1722.269          44.000  
R11  17152815.486    91659586.048        -609.367          51.000    17152809.439    71290648.532        -473.885          51.000  
R22  18714410.472    99899131.159        1384.521          51.000    18714407.109    77699225.603        1076.788          50.000  
R12  20094341.382   107340312.380        3089.092          50.000    20094337.772    83486978.843        2402.755          44.000  
G28  19837342.718   104246029.274       -2486.240          48.000    19837339.154    81230580.439       -1937.140          46.000  
E12  21637317.044   113705084.916       -1065.752          41.000    21637313.601    87124839.687        -816.579          50.000  
E10  21679474.970   113926643.949         280.145          48.000    21679474.044    87294565.243         214.633          52.000  
E31  22781215.795   119716433.636       -2301.867          48.000    22781214.669    91730846.854       -1763.714          48.000  
G12  22423709.100   117837708.792       -3583.440          41.000    22423707.042    91821769.473       -2792.649          40.000  
R20  21001602.810   112305341.681       -4385.930          42.000    21001601.130                       -3411.268          30.000  
R10  19430479.240   103575381.618       -4292.993          47.000                                                                  
R21  17660003.129    94502695.854       -2087.775          52.000    17659996.465    73501920.945       -1623.690          48.000  
E24  21620591.661   113616984.360          -4.397          48.000    21620589.752    87057208.985          -3.313          53.000  
S31  36806563.347   193419886.467        -700.756          43.000  
G29  19543128.963   102700163.103       -2081.977          48.000    19543124.082    80026239.315       -1622.397          46.000  
G25  19521240.138   102585018.480       -2730.566          47.000    19521236.562    79936478.682       -2127.601          42.000  
G31  20003784.252   105120606.864        -234.951          46.000    20003779.059    81912197.682        -183.276          43.000  
G18  18475636.001    97090347.774         369.829          48.000    18475631.007    75654966.911         288.262          49.000  
G05  21546317.281   113226731.937       -1091.494          42.000    21546314.003    88228617.305        -850.206          39.000  
E33  24469578.578   128588786.253       -3295.451          40.000    24469577.658    98529261.883       -2525.160          46.000  
E11  22017014.199   115700400.142        1502.845          42.000    22017010.748    88653656.040        1151.550          46.000  
> 2024 04 09 05 07 00.4930000  0 24                     
S33  37765893.462   198461244.451        -701.399          43.000  
G23  22298162.197   117177686.376        2703.890          42.000    22298163.479    91307316.894        2106.776          40.000  
E25  24406001.778   128254366.504        1710.804          38.000    24406002.500    98272864.903        1310.890          45.000  
G26  20443016.550   107428764.821        2204.455          44.000    20443013.846    83710729.683        1717.569          43.000  
R11  17156307.318    91678244.165        -634.441          51.000    17156301.082    71305160.386        -493.277          51.000  
R22  18706677.245    99857844.008        1368.347          53.000    18706672.897    77667113.401        1064.227          50.000  
R12  20077017.634   107247769.440        3080.546          50.000    20077012.615    83415001.028        2396.089          44.000  
G28  19851580.884   104320850.813       -2501.672          48.000    19851576.827    81288882.915       -1949.239          46.000  
E12  21643436.191   113737244.898       -1077.731          41.000    21643433.640    87149481.757        -825.977          50.000  
E10  21677912.639   113918433.450         267.633          48.000    21677911.963    87288274.100         204.991          52.000  
E31  22794380.338   119785614.724       -2310.099          48.000    22794379.448    91783855.726       -1770.078          48.000  
G12  22444187.653   117945324.108       -3590.514          43.000    22444185.213    91905625.468       -2797.933          40.000  
R20  21026207.286   112436910.224       -4385.254          42.000    21026203.110                       -3410.536          29.000  
R10  19454680.937   103704389.039       -4307.317          46.000                                                                  
R21  17671749.475    94565552.096       -2102.419          52.000    17671743.189    73550809.121       -1635.195          49.000  
E24  21620640.643   113617242.962         -12.525          47.000    21620638.799    87057407.124          -9.597          53.000  
S31  36810565.377   193440917.024        -700.885          43.000  
G29  19555027.617   102762692.025       -2086.244          48.000    19555022.454    80074963.158       -1625.659          46.000  
G25  19536865.030   102667129.945       -2743.204          47.000    19536862.507    80000461.640       -2137.708          43.000  
G31  20005183.092   105127955.059        -254.563          46.000    20005177.200    81917923.528        -198.418          43.000  
G18  18473577.999    97079532.351         351.427          49.000    18473572.996    75646539.323         273.876          49.000  
G05  21552600.713   113259742.693       -1108.943          44.000    21552594.437    88254339.953        -863.786          39.000  
E33  24488403.943   128687710.635       -3298.988          41.000    24488402.604    98605061.090       -2528.055          46.000  
E11  22008463.013   115655461.373        1493.544          42.000    22008459.422    88619222.468        1144.375          46.000  
> 2024 04 09 05 07 30.4930000  0 24                     
S33  37769897.190   198482284.565        -701.247          43.000  
G23  22282718.619   117096536.163        2705.798          43.000    22282721.164    91244083.687        2108.294          40.000  
E25  24396237.065   128203056.608        1710.047          38.000    24396238.673    98233549.563        1310.304          46.000  
G26  20430445.421   107362703.854        2199.340          45.000    20430442.397    83659253.619        1713.787          43.000  
R11  17159939.192    91697648.268        -659.137          51.000    17159932.116    71320252.473        -512.708          51.000  
R22  18699030.766    99817033.450        1352.393          52.000    18699027.524    77635371.886        1051.874          50.000  
R12  20059740.174   107155475.666        3072.220          50.000    20059734.437    83343217.016        2389.500          44.000  
G28  19865905.623   104396127.975       -2516.923          47.000    19865901.763    81347540.414       -1961.104          46.000  
E12  21649625.234   113769766.958       -1090.220          41.000    21649622.531    87174401.260        -835.260          50.000  
E10  21676419.565   113910588.866         255.454          47.000    21676419.244    87282263.328         195.648          52.000  
E31  22807590.869   119855037.841       -2318.106          48.000    22807589.801    91837050.049       -1776.201          47.000  
G12  22464705.157   118053138.208       -3597.175          44.000    22464700.429    91989636.369       -2802.898          39.000  
R20  21050806.477   112568451.898       -4384.117          42.000    21050801.386    87553313.049       -3409.797          34.000  
R10  19478961.106   103833816.655       -4321.271          46.000                                                                  
R21  17683576.916    94628841.057       -2116.877          53.000    17683571.056    73600033.887       -1646.454          49.000  
E24  21620735.656   113617740.403         -20.603          48.000    21620733.422    87057788.277         -15.772          53.000  
S31  36814566.796   193461944.115        -701.167          43.000  
G29  19566949.153   102825341.036       -2090.233          47.000    19566944.126    80123780.543       -1628.845          46.000  
G25  19552561.360   102749614.238       -2755.632          47.000    19552559.338    80064735.104       -2147.345          43.000  
G31  20006691.168   105135880.761        -273.768          46.000    20006685.646    81924099.399        -213.295          44.000  
G18  18471624.178    97069263.630         333.171          48.000    18471619.303    75638537.738         259.562          49.000  
G05  21558980.882   113293272.924       -1126.437          43.000    21558974.722    88280467.462        -877.810          39.000  
E33  24507249.667   128786743.984       -3303.103          40.000    24507247.975    98680943.749       -2530.819          45.000  
E11  21999962.498   115610791.193        1484.417          43.000    21999958.963    88584994.709        1137.398          47.000  
> 2024 04 09 05 08 00.4930000  0 24                     
S33  37773899.362   198503316.760        -701.170          43.000  
G23  22267264.442   117015326.994        2707.815          43.000    22267267.046    91180804.479        2109.954          41.000  
E25  24386476.090   128151765.614        1709.412          38.000    24386478.253    98194248.715        1309.711          46.000  
G26  20417904.470   107296802.807        2194.001          45.000    20417901.879    83607902.188        1709.603          43.000  
R11  17163709.005    91717796.553        -684.116          51.000    17163702.288    71335923.340        -532.110          51.000  
R22  18691474.085    99776696.847        1336.572          52.000    18691470.433    77603998.962        1039.691          49.000  
R12  20042509.017   107063431.872        3063.888          49.000    20042503.171    83271627.412        2383.066          44.000  
G28  19880316.678   104471855.369       -2531.812          47.000    19880312.913    81406548.742       -1972.716          48.000  
E12  21655882.339   113802647.084       -1101.866          42.000    21655879.324    87199595.131        -844.346          50.000  
E10  21674995.872   113903107.205         243.334          47.000    21674995.490    87276530.634         186.486          52.000  
E31  22820847.463   119924700.001       -2325.951          48.000    22820845.831    91890427.551       -1782.259          47.000  
G12  22485258.245   118161147.046       -3603.531          42.000    22485253.906    92073799.023       -2807.985          39.000  
R20  21075399.991   112699960.526       -4383.228          42.000    21075396.446    87655597.515       -3408.763          32.000  
R10  19503319.349   103963657.986       -4334.944          47.000                                                                  
R21  17695484.202    94692556.830       -2131.026          53.000    17695476.981    73649590.630       -1657.400          48.000  
E24  21620875.228   113618474.919         -28.452          47.000    21620873.285    87058351.084         -21.776          52.000  
S31  36818566.869   193482964.902        -700.571          43.000  
G29  19578892.817   102888105.950       -2094.178          47.000    19578887.040    80172688.266       -1631.817          45.000  
G25  19568328.454   102832467.919       -2767.865          47.000    19568325.181    80129296.373       -2156.721          42.000  
G31  20008308.255   105144381.095        -292.964          47.000    20008303.025    81930723.022        -228.164          44.000  
G18  18469773.602    97059538.837         314.987          49.000    18469768.262    75630959.979         245.444          49.000  
G05  21565459.232   113327320.562       -1143.650          43.000    21565453.954    88306998.081        -891.048          38.000  
E33  24526116.537   128885881.587       -3306.378          42.000    24526113.915    98756906.325       -2533.408          46.000  
E11  21991512.576   115566387.373        1475.555          43.000    21991508.871    88550971.028        1130.874          47.000  
> 2024 04 09 05 08 30.4930000  0 24                     
S33  37777901.303   198524347.423        -700.552          43.000  
G23  22251800.636   116934066.738        2709.732          44.000    22251802.464    91117485.482        2111.198          42.000  
E25  24376718.939   128100499.766        1708.425          38.000    24376722.781    98154967.104        1309.157          47.000  
G26  20405395.754   107231068.999        2188.687          45.000    20405393.068    83556681.066        1705.403          43.000  
R11  17167618.983    91738694.889        -709.026          50.000    17167613.232    71352177.583        -551.523          51.000  
R22  18684008.353    99736839.532        1320.721          53.000    18684004.644    77572998.851        1027.264          50.000  
R12  20025326.046   106971647.091        3055.336          49.000    20025321.462    83200239.282        2376.457          44.000  
G28  19894812.968   104548035.567       -2546.763          47.000    19894809.762    81465909.926       -1984.443          48.000  
E12  21662208.343   113835889.455       -1114.055          42.000    21662204.997    87225066.555        -853.487          50.000  
E10  21673641.937   113895993.494         230.968          47.000    21673641.889    87271079.871         177.116          52.000  
E31  22834149.686   119994606.207       -2334.152          48.000    22834148.987    91943992.041       -1788.389          47.000  
G12  22505849.997   118269355.940       -3610.122          41.000    22505845.737    92158117.520       -2813.298          40.000  
R20  21099987.015   112831439.700       -4381.984          41.000    21099983.295    87757859.142       -3408.763          33.000  
R10  19527754.957   104093915.436       -4348.686          45.000                                                                  
R21  17707470.717    94756701.461       -2145.140          52.000    17707463.457    73699480.894       -1668.450          48.000  
E24  21621061.252   113619452.745         -36.542          47.000    21621059.398    87059100.325         -27.986          52.000  
S31  36822566.360   193503982.604        -700.484          43.000  
G29  19590859.376   102950991.590       -2098.013          46.000    19590854.008    80221690.079       -1634.789          45.000  
G25  19584166.599   102915695.494       -2780.480          48.000    19584161.944    80194149.021       -2166.546          41.000  
G31  20010036.130   105153461.511        -312.278          47.000    20010031.118    81937798.658        -243.130          44.000  
G18  18468027.460    97050363.228         296.781          49.000    18468022.065    75623810.142         231.303          49.000  
G05  21572036.580   113361890.019       -1160.756          42.000    21572030.939    88333935.339        -904.450          38.000  
E33  24545001.593   128985126.844       -3309.878          40.000    24544999.134    98832951.319       -2536.065          45.000  
E11  21983115.075   115522255.855        1466.773          43.000    21983111.391    88517156.021        1123.871          47.000  
> 2024 04 09 05 09 00.4930000  0 24                     
S33  37781902.079   198545371.504        -700.732          44.000  
G23  22236326.365   116852753.458        2711.230          43.000    22236327.728    91054125.131        2112.756          42.000  
E25  24366967.758   128049255.292        1707.944          38.000    24366971.344    98115701.875        1308.607          47.000  
G26  20392918.470   107165499.794        2182.861          45.000    20392915.708    83505588.197        1701.027          43.000  
R11  17171669.927    91760339.928        -733.984          51.000    17171663.535    71369012.601        -570.794          51.000  
R22  18676631.073    99697456.813        1304.877          52.000    18676626.830    77542367.904        1014.874          50.000  
R12  20008191.407   106880120.319        3046.648          49.000    20008187.705    83129051.818        2369.601          44.000  
G28  19909393.925   104624661.279       -2561.386          46.000    19909390.565    81525618.257       -1996.076          47.000  
E12  21668601.633   113869488.019       -1125.615          42.000    21668598.573    87250810.918        -862.607          50.000  
E10  21672357.994   113889242.811         219.051          48.000    21672357.168    87265907.282         167.866          52.000  
E31  22847497.603   120064751.550       -2342.055          48.000    22847497.378    91997739.752       -1794.560          47.000  
G12  22526478.517   118377757.909       -3616.444          42.000    22526474.523    92242586.437       -2818.085          40.000  
R20  21124566.904   112962881.352       -4380.567          41.000    21124564.876    87860091.600       -3407.319          35.000  
R10  19552267.663   104224581.005       -4362.264          46.000                                                                  
R21  17719536.006    94821267.185       -2159.100          52.000    17719530.092    73749698.662       -1679.316          49.000  
E24  21621292.915   113620670.182         -44.458          47.000    21621290.971    87060033.173         -34.093          52.000  
S31  36826564.849   193524995.209        -700.330          43.000  
G29  19602847.859   103013992.793       -2101.949          47.000    19602843.366    80270781.917       -1637.755          46.000  
G25  19600074.566   102999291.523       -2792.574          48.000    19600070.232    80259288.783       -2176.124          41.000  
G31  20011873.857   105163116.986        -331.247          46.000    20011868.756    81945322.411        -258.267          44.000  
G18  18466384.512    97041732.126         278.697          48.000    18466379.338    75617084.631         217.112          48.000  
G05  21578714.562   113396976.894       -1178.214          42.000    21578707.678    88361275.707        -917.927          39.000  
E33  24563906.773   129084473.058       -3313.123          42.000    24563903.816    98909073.804       -2538.679          45.000  
E11  21974767.358   115478392.630        1457.507          43.000    21974764.003    88483546.572        1117.007          47.000  
> 2024 04 09 05 09 30.4930000  0 25                     
S33  37785902.372   198566392.352        -700.723          44.000  
G23  22220843.778   116771393.615        2712.830          44.000    22220843.839    90990728.526        2113.666          40.000  
E25  24357222.209   127998037.001        1706.650          39.000    24357224.906    98076456.698        1307.857          47.000  
G26  20380473.462   107100101.101        2176.791          45.000    20380470.763    83454628.193        1696.552          43.000  
R11  17175861.288    91782735.644        -759.059          51.000    17175855.277    71386431.514        -590.468          51.000  
R22  18669342.422    99658552.636        1288.800          52.000    18669338.722    77512109.130        1002.429          50.000  
R12  19991106.723   106788858.991        3037.421          49.000    19991103.045    83058070.810        2362.528          45.000  
G28  19924060.347   104701733.650       -2576.443          46.000    19924056.428    81585674.608       -2007.622          47.000  
E12  21675064.210   113903445.559       -1137.909          43.000    21675060.360    87276830.329        -871.890          50.000  
E10  21671143.397   113882858.679         206.755          48.000    21671142.597    87261015.556         158.422          53.000  
E31  22860892.137   120135139.591       -2350.363          48.000    22860891.148    92051673.432       -1800.870          46.000  
G12  22547144.688   118486356.287       -3623.354          43.000    22547140.632    92327208.404       -2823.073          41.000  
R20  21149140.154   113094287.332       -4379.632          39.000    21149138.833    87962296.298       -3407.103          36.000  
R10  19576857.035   104355655.050       -4375.859          46.000                                                                  
R21  17731680.910    94886254.812       -2173.285          52.000    17731674.922    73800244.579       -1690.249          49.000  
E24  21621570.714   113622132.000         -52.922          46.000    21621569.069    87061153.281         -40.570          52.000  
S31  36830562.902   193546004.074        -700.280          43.000  
G29  19614859.201   103077112.064       -2105.961          46.000    19614854.540    80319965.758       -1640.961          46.000  
G25  19616052.900   103083259.130       -2805.244          48.000    19616049.463    80324718.052       -2185.891          42.000  
G31  20013820.683   105173351.227        -350.979          46.000    20013815.618    81953297.147        -273.480          42.000  
G18  18464845.799    97033649.316         260.171          47.000    18464840.834    75610786.358         202.787          48.000  
G05  21585489.224   113432584.564       -1195.764          41.000    21585484.498    88389021.992        -931.677          41.000  
E33  24582831.349   129183922.323       -3316.683          42.000    24582828.732    98985275.136       -2541.434          45.000  
E11  21966471.990   115434801.993        1448.246          43.000    21966469.233    88450145.996        1109.855          48.000  
R05                                                                  22697067.337                3        914.031          14.000  
> 2024 04 09 05 10 00.4930000  0 24                     
S33  37789902.002   198587410.658        -700.499          44.000  
G23  22205352.960   116689990.632        2714.540          44.000    22205352.128    90927298.256        2115.164          41.000  
E25  24347481.689   127946846.532        1706.348          40.000    24347483.534    98037232.868        1307.180          47.000  
G26  20368061.737   107034875.659        2171.515          45.000    20368058.958    83403803.200        1692.000          43.000  
R11  17180192.733    91805884.339        -784.049          50.000    17180187.269    71404436.065        -609.866          51.000  
R22  18662144.863    99620127.678        1273.053          52.000    18662139.879    77482223.094         990.131          50.000  
R12  19974073.084   106697867.690        3028.837          48.000    19974069.502    82987299.799        2355.653          46.000  
G28  19938811.071   104779250.715       -2591.171          45.000    19938807.717    81646077.463       -2019.089          47.000  
E12  21681593.912   113937761.371       -1149.618          43.000    21681590.461    87303124.274        -880.892          50.000  
E10  21669998.106   113876841.566         194.554          48.000    21669997.448    87256405.057         149.152          52.000  
E31  22874332.551   120205770.768       -2358.155          48.000    22874332.007    92105793.417       -1806.905          47.000  
G12  22567847.598   118595149.941       -3629.558          45.000    22567843.622    92411982.537       -2828.103          41.000  
R20  21173706.251   113225655.838       -4378.088          38.000    21173706.172    88064471.725       -3404.962          38.000  
R10  19601521.952   104487135.437       -4389.252          46.000                                                                  
R21  17743903.092    94951661.617       -2186.934          52.000    17743897.381    73851116.548       -1700.898          49.000  
E24  21621895.562   113623839.873         -60.725          46.000    21621894.002    87062461.915         -46.654          52.000  
S31  36834560.210   193567010.636        -699.898          43.000  
G29  19626893.192   103140349.497       -2109.631          46.000    19626888.241    80369241.674       -1643.911          46.000  
G25  19632102.053   103167598.218       -2817.393          48.000    19632098.414    80390436.821       -2195.213          42.000  
G31  20015877.928   105184164.795        -369.773          46.000    20015873.361    81961723.293        -288.237          43.000  
G18  18463412.562    97026115.396         242.174          48.000    18463407.164    75604915.782         188.714          48.000  
G05  21592364.435   113468713.932       -1212.775          42.000    21592361.366    88417174.765        -945.184          42.000  
E33  24601774.381   129283473.346       -3319.742          42.000    24601771.855    99061554.495       -2543.741          43.000  
E11  21958228.433   115391485.258        1439.644          42.000    21958226.030    88416955.305        1103.235          47.000  
> 2024 04 09 05 10 30.4930000  0 24                     
S33  37793901.001   198608425.844        -700.425          44.000  
G23  22189853.439   116608546.511        2715.328          43.000    22189853.682    90863835.922        2116.079          41.000  
E25  24337746.406   127895684.147        1704.953          40.000    24337747.836    97998030.528        1306.424          47.000  
G26  20355683.260   106969824.824        2165.381          45.000    20355680.277    83353114.255        1687.314          43.000  
R11  17184665.976    91829785.645        -809.278          51.000    17184660.626    71423025.956        -629.335          51.000  
R22  18655036.424    99582181.199        1256.952          52.000    18655031.704    77452709.174         977.625          50.000  
R12  19957089.932   106607149.266        3019.408          48.000    19957087.083    82916741.051        2348.296          46.000  
G28  19953646.447   104857209.013       -2606.073          45.000    19953642.199    81706824.145       -2030.634          46.000  
E12  21688192.020   113972433.546       -1161.542          43.000    21688188.478    87329691.275        -890.088          50.000  
E10  21668921.942   113871190.392         182.297          48.000    21668921.816    87252074.951         139.677          52.000  
E31  22887819.483   120276644.092       -2366.387          48.000    22887819.215    92160098.945       -1813.378          47.000  
G12  22588588.181   118704137.245       -3636.159          45.000    22588583.094    92496907.560       -2833.317          39.000  
R20  21198265.358   113356983.344       -4376.811          37.000    21198265.258    88166615.349       -3404.183          37.000  
R10  19626262.775   104619017.846       -4402.803          46.000                                                                  
R21  17756203.510    95017483.717       -2200.963          52.000    17756197.532    73902311.512       -1711.877          48.000  
E24  21622267.459   113625794.050         -69.193          46.000    21622265.853    87063959.281         -53.069          52.000  
S31  36838556.911   193588014.419        -700.140          43.000  
G29  19638948.787   103203703.258       -2113.631          46.000    19638944.567    80418608.240       -1647.025          46.000  
G25  19648221.899   103252307.290       -2829.908          48.000    19648217.842    80456443.886       -2205.233          41.000  
G31  20018046.340   105195557.027        -389.375          46.000    20018041.058    81970600.327        -303.337          43.000  
G18  18462082.828    97019129.594         223.642          47.000    18462078.176    75599472.288         174.363          48.000  
G05  21599339.595   113505363.996       -1230.298          42.000    21599336.348    88445733.259        -958.600          42.000  
E33  24620738.418   129383123.584       -3323.362          44.000    24620735.048    99137909.886       -2546.457          44.000  
E11  21950037.756   115348442.384        1430.070          42.000    21950035.065    88383974.440        1095.852          47.000  
> 2024 04 09 05 11 00.4930000  0 24                     
S33  37797898.557   198629433.930        -700.330          44.000  
G23  22174346.523   116527061.575        2716.688          42.000    22174346.614    90800341.778        2116.848          40.000  
E25  24328015.437   127844548.427        1703.927          41.000    24328016.655    97958848.643        1305.653          47.000  
G26  20343337.572   106904948.292        2159.760          46.000    20343334.717    83302561.129        1682.764          43.000  
R11  17189279.727    91854438.200        -834.515          51.000    17189273.605    71442200.167        -648.891          51.000  
R22  18648016.587    99544710.837        1240.930          51.000    18648011.878    77423565.609         965.241          50.000  
R12  19940158.811   106516705.152        3010.193          49.000    19940156.026    82846395.650        2341.270          47.000  
G28  19968564.018   104935603.429       -2620.579          46.000    19968559.675    81767910.711       -2041.948          45.000  
E12  21694856.310   114007458.573       -1173.409          43.000    21694853.563    87356528.626        -899.097          50.000  
E10  21667916.479   113865902.529         170.060          48.000    21667915.403    87248023.207         130.456          52.000  
E31  22901351.827   120347756.911       -2374.482          47.000    22901351.327    92214587.964       -1819.431          47.000  
G12  22609363.883   118813314.745       -3642.403          43.000    22609359.033    92581980.835       -2838.367          39.000  
R20  21222815.098   113488264.883       -4375.402          35.000    21222816.000    88268723.209       -3403.083          38.000  
R10  19651077.928   104751296.955       -4416.024          46.000                                                                  
R21  17768581.172    95083715.510       -2214.582          52.000    17768574.011    73953825.120       -1722.380          48.000  
E24  21622686.433   113627993.174         -77.326          47.000    21622684.226    87065644.321         -59.294          52.000  
S31  36842552.637   193609011.029        -699.774          44.000  
G29  19651026.057   103267170.520       -2117.548          47.000    19651021.850    80468063.245       -1650.078          46.000  
G25  19664410.962   103337383.185       -2842.280          48.000    19664407.589    80522736.758       -2214.592          42.000  
G31  20020323.915   105207525.147        -408.605          46.000    20020318.792    81979926.136        -318.509          44.000  
G18  18460857.247    97012689.409         205.443          46.000    18460853.013    75594453.975         160.218          49.000  
G05  21606412.194   113542532.209       -1247.736          42.000    21606408.726    88474695.483        -971.997          41.000  
E33  24639718.845   129482868.742       -3326.426          43.000    24639715.948    99214337.976       -2548.843          43.000  
E11  21941897.553   115305671.429        1420.908          42.000    21941896.222    88351201.933        1088.740          47.000  
> 2024 04 09 05 11 30.4940000  0 25                     
S33  37801897.066   198650445.439        -700.532          44.000  
G23  22158834.243   116445543.710        2717.767          42.000    22158833.340    90736821.960        2117.657          40.000  
E25  24318291.442   127793446.551        1702.659          42.000    24318292.170    97919692.689        1304.591          47.000  
G26  20331026.727   106840253.968        2153.247          45.000    20331023.795    83252149.978        1677.886          44.000  
R11  17194035.472    91879851.554        -859.732          52.000    17194029.605    71461966.085        -668.752          51.000  
R22  18641087.073    99507723.301        1224.772          51.000    18641082.544    77394797.574         952.537          51.000  
R12  19923280.921   106426544.225        3000.449          49.000    19923278.011    82776270.510        2333.475          47.000  
G28  19983566.305   105014441.786       -2635.376          46.000    19983562.730    81829343.181       -2053.501          45.000  
E12  21701589.451   114042844.094       -1185.510          42.000    21701587.233    87383642.208        -908.318          50.000  
E10  21666980.947   113860985.369         157.715          48.000    21666979.662    87244255.528         120.850          52.000  
E31  22914931.849   120419119.214       -2382.840          47.000    22914930.781    92269268.164       -1825.705          47.000  
G12  22630177.090   118922692.691       -3649.005          42.000    22630173.238    92667210.306       -2843.593          39.000  
R20  21247357.781   113619510.805       -4374.002          36.000    21247359.134    88370803.381       -3401.955          38.000  
R10  19675970.173   104883981.792       -4429.359          46.000                                                                  
R21  17781036.292    95150364.161       -2228.514          52.000    17781028.974    74005662.962       -1733.139          48.000  
E24  21623153.597   113630446.099         -86.003          47.000    21623150.947    87067523.838         -65.904          52.000  
S31  36846548.503   193630010.781        -700.053          43.000  
G29  19663127.202   103330760.277       -2121.562          48.000    19663121.860    80517613.710       -1653.357          45.000  
G25  19680671.890   103422835.790       -2854.546          48.000    19680669.137    80589323.211       -2224.203          41.000  
G31  20022712.491   105220077.003        -428.190          47.000    20022707.190    81989706.766        -333.396          43.000  
G18  18459737.182    97006802.407         186.995          47.000    18459732.606    75589866.727         145.706          49.000  
G05  21613585.770   113580227.142       -1265.415          42.000    21613580.411    88504068.163        -985.804          40.000  
E33  24658719.874   129582718.203       -3329.924          44.000    24658717.155    99290846.034       -2551.511          44.000  
E11  21933812.780   115263179.509        1411.711          42.000    21933810.258    88318643.231        1081.625          47.000  
R05                                                                  22673172.608                3        832.656          11.000  
> 2024 04 09 05 12 00.4940000  0 24                     
S33  37805893.835   198671449.004        -700.039          44.000  
G23  22143315.587   116363993.142        2718.884          42.000    22143314.706    90673276.627        2118.518          42.000  
E25  24308573.232   127742374.917        1701.874          42.000    24308573.443    97880559.911        1303.969          47.000  
G26  20318750.101   106775740.239        2147.548          45.000    20318747.368    83201879.557        1673.431          44.000  
R11  17198931.778    91906016.247        -884.775          51.000    17198925.583    71482316.379        -688.029          51.000  
R22  18634247.092    99471212.867        1209.031          52.000    18634242.351    77366400.586         940.423          50.000  
R12  19906456.395   106336667.924        2991.207          49.000    19906453.134    82706366.755        2326.420          48.000  
G28  19998650.816   105093708.116       -2649.319          47.000    19998646.444    81891109.124       -2064.331          45.000  
E12  21708389.372   114078578.704       -1196.898          42.000    21708387.248    87411023.272        -917.153          50.000  
E10  21666113.529   113856430.945         145.821          48.000    21666112.966    87240765.790         111.702          52.000  
E31  22928555.739   120490717.981       -2390.618          46.000    22928555.659    92324129.577       -1831.656          47.000  
G12  22651025.686   119032254.939       -3655.316          42.000    22651022.379    92752583.316       -2848.462          39.000  
R20  21271892.064   113750701.235       -4372.380          36.000    21271891.926    88472840.365       -3400.272          39.000  
R10  19700933.473   105017051.860       -4442.315          46.000                                                                  
R21  17793565.334    95217413.883       -2241.744          52.000    17793558.778    74057812.746       -1743.567          48.000  
E24  21623667.058   113633145.684         -94.114          47.000    21623664.718    87069592.356         -72.104          52.000  
S31  36850543.381   193651003.167        -699.586          43.000  
G29  19675248.659   103394459.342       -2125.165          48.000    19675242.892    80567249.367       -1655.957          45.000  
G25  19697002.399   103508650.686       -2866.621          48.000    19696998.625    80656191.947       -2233.733          41.000  
G31  20025211.230   105233203.744        -447.193          48.000    20025204.704    81999935.407        -348.702          43.000  
G18  18458721.426    97001460.868         168.860          48.000    18458715.820    75585704.487         131.737          49.000  
G05  21620856.401   113618437.952       -1282.333          43.000    21620851.625    88533842.848        -999.522          39.000  
E33  24677736.550   129682655.458       -3332.728          44.000    24677735.347    99367421.292       -2553.598          45.000  
E11  21925779.487   115220962.044        1402.900          43.000    21925776.439    88286294.823        1074.809          47.000  
> 2024 04 09 05 12 30.4940000  0 25                     
S33  37809889.534   198692446.515        -699.903          44.000  
G23  22127790.569   116282410.777        2720.019          42.000    22127790.360    90609706.516        2119.458          43.000  
E25  24298860.628   127691333.748        1700.896          42.000    24298860.326    97841450.480        1303.223          46.000  
G26  20306508.213   106711407.991        2141.355          45.000    20306505.610    83151750.547        1668.570          44.000  
R11  17203969.049    91932935.043        -909.801          51.000    17203963.235    71503253.212        -707.613          50.000  
R22  18627496.930    99435179.176        1193.248          51.000    18627492.108    77338374.420         928.168          50.000  
R12  19889684.463   106247077.958        2981.560          49.000    19889681.796    82636685.692        2319.053          48.000  
G28  20013816.253   105173403.197       -2663.624          47.000    20013811.553    81953209.188       -2075.535          46.000  
E12  21715256.646   114114663.120       -1208.670          42.000    21715253.836    87438672.357        -926.069          50.000  
E10  21665316.185   113852239.645         133.719          48.000    21665315.656    87237554.290         102.478          52.000  
E31  22942225.917   120562556.220       -2398.500          46.000    22942226.192    92379174.473       -1837.781          47.000  
G12  22671911.075   119142004.304       -3660.892          42.000    22671907.200    92838102.204       -2853.529          39.000  
R20  21296415.396   113881839.411       -4370.629          36.000    21296414.442    88574836.742       -3399.167          39.000  
R10  19725970.301   105150509.375       -4455.106          46.000                                                                  
R21  17806169.638    95284864.756       -2254.805          51.000    17806163.776    74110274.556       -1753.820          48.000  
E24  21624228.337   113636093.888        -102.374          47.000    21624225.799    87071851.372         -78.389          52.000  
S31  36854536.945   193671989.874        -699.508          43.000  
G29  19687391.745   103458269.657       -2128.851          48.000    19687386.114    80616971.701       -1658.810          45.000  
G25  19713402.184   103594830.724       -2878.698          48.000    19713397.857    80723345.230       -2243.158          41.000  
G31  20027818.935   105246906.501        -466.241          47.000    20027812.308    82010612.826        -363.196          43.000  
G18  18457809.240    96996665.275         150.890          48.000    18457803.297    75581967.677         117.540          49.000  
G05  21628226.293   113657166.856       -1299.562          42.000    21628221.087    88564021.301       -1012.538          39.000  
E33  24696771.308   129782682.867       -3335.699          44.000    24696769.183    99444065.687       -2556.054          43.000  
E11  21917797.092   115179019.071        1393.444          42.000    21917794.908    88254156.713        1067.815          47.000  
R05                                                                  23261923.688                3        802.180          15.000  
> 2024 04 09 05 13 00.4940000  0 24                     
S33  37813884.477   198713440.509        -699.666          44.000  
G23  22112260.128   116200801.111        2720.831          42.000    22112260.045    90546115.122        2120.050          43.000  
E25  24289153.980   127640325.814        1699.880          42.000    24289153.730    97802366.510        1302.247          46.000  
G26  20294301.657   106647261.063        2135.299          45.000    20294298.643    83101765.950        1663.822          44.000  
R11  17209148.556    91960610.016        -935.119          51.000    17209142.317    71524778.204        -727.215          50.000  
R22  18620835.696    99399623.917        1177.251          51.000    18620831.278    77310720.371         915.600          49.000  
R12  19872967.758   106157780.003        2971.737          49.000    19872964.900    82567231.755        2311.376          48.000  
G28  20029063.380   105253526.057       -2677.760          47.000    20029059.487    82015642.518       -2086.663          46.000  
E12  21722190.116   114151097.817       -1220.287          42.000    21722186.963    87466589.865        -935.060          50.000  
E10  21664587.879   113848412.940         121.488          48.000    21664587.534    87234622.170          93.044          52.000  
E31  22955942.333   120634635.410       -2406.615          46.000    22955942.543    92434403.978       -1844.015          47.000  
G12  22692830.419   119251941.764       -3667.692          42.000    22692827.806    92923767.606       -2858.118          39.000  
R20  21320928.111   114012924.469       -4368.875          34.000    21320927.326    88676791.771       -3397.978          37.000  
R10  19751078.984   105284353.163       -4467.993          46.000                                                                  
R21  17818849.575    95352715.216       -2268.244          52.000    17818843.757    74163047.131       -1764.210          49.000  
E24  21624836.313   113639293.445        -110.809          46.000    21624834.867    87074302.990         -84.963          52.000  
S31  36858529.749   193692972.138        -699.136          43.000  
G29  19699555.698   103522193.069       -2132.596          47.000    19699550.412    80666782.159       -1662.023          45.000  
G25  19729870.730   103681376.914       -2891.070          47.000    19729867.611    80790783.790       -2252.681          41.000  
G31  20030535.901   105261186.564        -485.853          46.000    20030529.643    82021740.170        -378.668          43.000  
G18  18457001.009    96992417.238         132.375          49.000    18456995.280    75578657.537         103.277          49.000  
G05  21635695.965   113696415.757       -1316.815          42.000    21635689.653    88594604.882       -1026.247          38.000  
E33  24715823.353   129882800.370       -3338.589          45.000    24715821.490    99520779.106       -2558.265          44.000  
E11  21909869.384   115137352.836        1384.318          43.000    21909866.334    88222230.662        1060.666          47.000  
> 2024 04 09 05 13 30.4940000  0 24                     
S33  37817879.643   198734433.929        -699.595          44.000  
G23  22096726.726   116119171.345        2721.472          42.000    22096725.842    90482508.018        2120.673          42.000  
E25  24279454.592   127589356.505        1698.429          42.000    24279454.509    97763312.125        1301.476          46.000  
G26  20282130.862   106583306.006        2128.828          44.000    20282128.402    83051930.862        1658.942          44.000  
R11  17214469.820    91989046.328        -960.418          51.000    17214464.318    71546895.308        -746.971          51.000  
R22  18614265.412    99364551.311        1161.174          51.000    18614260.771    77283441.675         903.136          49.000  
R12  19856307.519   106068782.090        2961.676          49.000    19856304.048    82498011.209        2303.560          48.000  
G28  20044392.328   105334078.241       -2692.121          47.000    20044386.571    82078410.423       -2097.454          45.000  
E12  21729190.183   114187885.932       -1232.073          43.000    21729187.579    87494778.166        -944.009          49.000  
E10  21663929.859   113844954.818         109.445          48.000    21663929.536    87231972.451          83.825          52.000  
E31  22969706.420   120706959.599       -2414.691          47.000    22969705.500    92489821.208       -1850.188          47.000  
G12  22713787.735   119362070.320       -3673.832          43.000    22713785.311    93009581.937       -2862.523          40.000  
R20  21345432.981   114143958.218       -4366.308          33.000    21345431.193    88778706.925       -3396.151          37.000  
R10  19776259.467   105418583.790       -4480.819          45.000                                                                  
R21  17831603.958    95420966.338       -2281.542          52.000    17831597.553    74216131.318       -1774.479          48.000  
E24  21625493.305   113642749.661        -119.374          45.000    21625492.599    87076951.259         -91.378          52.000  
S31  36862522.457   193713953.597        -699.085          43.000  
G29  19711741.579   103586232.869       -2136.494          46.000    19711736.541    80716683.294       -1664.594          45.000  
G25  19746409.436   103768292.704       -2903.033          47.000    19746406.752    80858510.370       -2261.923          41.000  
G31  20033363.891   105276048.072        -504.939          47.000    20033357.749    82033320.566        -393.487          43.000  
G18  18456297.757    96988720.923         114.095          49.000    18456291.712    75575777.309          89.000          49.000  
G05  21643264.673   113736188.392       -1334.106          40.000    21643258.719    88625596.568       -1039.568          38.000  
E33  24734892.856   129983010.478       -3341.733          45.000    24734890.270    99597563.462       -2560.601          44.000  
E11  21901994.057   115095968.227        1375.147          43.000    21901991.115    88190520.410        1053.608          47.000  
> 2024 04 09 05 14 00.4940000  0 24                     
S33  37821874.807   198755429.139        -699.911          44.000  
G23  22081190.348   116037527.175        2721.667          44.000    22081189.569    90418889.694        2120.728          43.000  
E25  24269762.215   127538429.767        1697.069          41.000    24269763.510    97724290.353        1300.242          46.000  
G26  20269997.862   106519547.910        2121.884          44.000    20269995.523    83002249.243        1653.514          44.000  
R11  17219934.307    92018247.561        -985.999          51.000    17219929.206    71569607.367        -766.928          51.000  
R22  18607785.507    99329964.312        1144.824          50.000    18607781.441    77256540.704         890.503          50.000  
R12  19839704.714   105980091.390        2951.249          49.000    19839700.739    82429029.583        2295.341          48.000  
G28  20059801.977   105415059.921       -2706.571          46.000    20059797.238    82141513.001       -2108.772          45.000  
E12  21736258.713   114225029.184       -1243.897          43.000    21736255.679    87523238.587        -953.222          49.000  
E10  21663342.218   113841867.883          96.734          48.000    21663341.994    87229607.145          74.147          52.000  
E31  22983515.477   120779531.443       -2423.249          47.000    22983515.809    92545428.182       -1856.710          47.000  
G12  22734780.870   119472391.260       -3680.701          43.000    22734778.705    93095546.112       -2867.814          40.000  
R20  21369927.335   114274942.218       -4365.808          34.000    21369926.571    88880583.333       -3395.128          38.000  
R10  19801514.484   105553201.146       -4493.513          46.000                                                                  
R21  17844432.985    95489618.118       -2295.007          51.000    17844426.295    74269527.132       -1785.029          48.000  
E24  21626200.398   113646466.465        -128.166          46.000    21626199.724    87079799.199         -98.249          52.000  
S31  36866515.748   193734938.580        -699.459          43.000  
G29  19723950.866   103650391.302       -2140.459          46.000    19723946.136    80766676.849       -1667.836          45.000  
G25  19763020.091   103855580.232       -2915.760          47.000    19763017.208    80926526.591       -2271.864          41.000  
G31  20036303.893   105291493.946        -524.659          48.000    20036298.843    82045356.275        -408.818          45.000  
G18  18455698.764    96985579.006          95.657          48.000    18455693.661    75573329.099          74.357          49.000  
G05  21650932.730   113776486.906       -1351.923          40.000    21650926.976    88656997.998       -1053.252          36.000  
E33  24753979.739   130083314.306       -3344.999          45.000    24753977.316    99674419.655       -2563.055          43.000  
E11  21894173.342   115054868.821        1365.259          43.000    21894170.253    88159028.678        1046.147          47.000  
> 2024 04 09 05 14 30.4940000  0 24                     
S33  37825870.352   198776424.433        -699.794          44.000  
G23  22065651.837   115955868.494        2722.144          45.000    22065649.804    90355260.060        2121.088          43.000  
E25  24260079.169   127487543.732        1695.606          41.000    24260080.013    97685299.776        1299.190          46.000  
G26  20257901.846   106455985.966        2115.365          44.000    20257899.745    82952720.471        1648.420          43.000  
R11  17225541.235    92048211.342       -1011.515          50.000    17225535.158    71592912.534        -786.733          50.000  
R22  18601397.393    99295859.820        1128.776          51.000    18601393.201    77230015.021         877.947          51.000  
R12  19823158.545   105891708.452        2940.968          48.000    19823155.400    82360287.329        2287.501          48.000  
G28  20075293.208   105496465.375       -2720.515          45.000    20075288.456    82204945.773       -2119.945          46.000  
E12  21743393.637   114262523.260       -1255.507          43.000    21743390.514    87551967.815        -961.988          49.000  
E10  21662824.264   113839148.835          84.511          47.000    21662824.613    87227523.717          64.746          52.000  
E31  22997371.335   120852347.712       -2431.188          46.000    22997372.171    92601222.452       -1863.024          47.000  
G12  22755810.835   119582901.444       -3686.766          44.000    22755808.388    93181657.827       -2872.582          40.000  
R20  21394412.015   114405870.528       -4363.367          34.000    21394411.264    88982416.491       -3393.794          39.000  
R10  19826839.188   105688199.627       -4506.297          45.000                                                                  
R21  17857335.724    95558664.475       -2308.149          50.000    17857329.622    74323229.842       -1795.126          48.000  
E24  21626956.832   113650441.894        -136.713          45.000    21626956.312    87082845.314        -104.792          52.000  
S31  36870508.560   193755923.495        -699.453          43.000  
G29  19736181.110   103714664.482       -2144.149          46.000    19736176.986    80816759.859       -1670.811          45.000  
G25  19779700.420   103943235.665       -2927.895          47.000    19779696.464    80994829.522       -2281.639          39.000  
G31  20039353.270   105307520.443        -543.822          48.000    20039349.008    82057844.455        -423.781          45.000  
G18  18455205.270    96982988.372          77.270          48.000    18455200.936    75571310.423          60.103          49.000  
G05  21658701.255   113817308.268       -1369.448          43.000    21658695.095    88688806.866       -1066.941          36.000  
E33  24773083.867   130183707.108       -3347.843          45.000    24773081.716    99751343.999       -2565.262          44.000  
E11  21886406.191   115014052.214        1355.736          43.000    21886402.893    88127753.648        1038.821          47.000  
