     3.00           OBSERVATION DATA    M: Mixed            RINEX VERSION / TYPE
CONVBIN 2.4.3                           20240409 095942 UTC PGM / RUN BY / DATE 
format: u-blox UBX                                          COMMENT             
log: data/2024-04-09/20240409094500.ubx                     COMMENT             
AQUI00CHL                                                   MARKER NAME         
                                                            MARKER NUMBER       
                                                            MARKER TYPE         
                                                            OBSERVER / AGENCY   
UNKNOWN             UBLOX-ZED-F9P                           REC # / TYPE / VERS 
UNKNOWN             TWIVSP6037L                             ANT # / TYPE        
  1713381.0000 -5047934.0000 -3490983.0000                  APPROX POSITION XYZ 
        0.0000        0.0000        0.0000                  ANTENNA: DELTA H/E/N
G    8 C1C L1C D1C S1C C2L L2L D2L S2L                      SYS / # / OBS TYPES 
R    8 C1C L1C D1C S1C C2C L2C D2C S2C                      SYS / # / OBS TYPES 
E    8 C1C L1C D1C S1C C7Q L7Q D7Q S7Q                      SYS / # / OBS TYPES 
S    4 C1C L1C D1C S1C                                      SYS / # / OBS TYPES 
  2024    04    09    09    45   00.0000000     GPS         TIME OF FIRST OBS   
  2024    04    09    09    59   30.0010000     GPS         TIME OF LAST OBS    
                                                            END OF HEADER       
> 2024 04 09 09 45 00.0000000  0 24                     
S33  39880573.654   209573984.3791       -634.283          44.000  
G23  24044466.338   126354692.8971      -4020.951          44.000    24044460.227    98458259.1771      -3133.456          38.000  
E25  26063037.201   136962149.9791      -3326.010          42.000    26063037.147   104945064.1951      -2548.440          48.000  
G27  20312573.447   106743339.8971       -748.346          50.000    20312568.995    83176617.5201       -583.317          46.000  
R01  20840421.982   111403924.1831       2829.163          48.000    20840418.595    86647569.7301       2200.537          44.000  
R22  22996257.871   122755932.7611      -2885.894          49.000    22996252.723    95476740.4851      -2244.508          44.000  
R23  20446730.796   109376254.5591       -721.888          50.000                                                                  
R24  21643810.960   115739211.2151       1706.130          49.000    21643806.137    90019442.3381       1327.013          46.000  
R08  19986259.485   107025524.3931      -1346.813          52.000    19986251.114    83242076.9361      -1047.489          51.000  
E02  25339491.234   133159965.4631      -1405.457          46.000    25339491.370   102031699.5051      -1077.042          49.000  
G21  22983050.969   120776781.3601       1962.260          45.000                                                                  
G02  24086093.823   126573271.6651       2067.587          44.000                                                                  
E10  26960010.836   141676047.8641      -2182.260          38.000    26960009.935   108557096.4741      -1671.997          41.000  
G08  21069330.722   110720097.8991       1432.580          48.000    21069327.409    86275379.1811       1116.268          46.000  
G16  22793958.374   119783083.7571      -3672.450          43.000                                                                  
R07  22981863.505   123023775.9711      -4368.535          47.000    22981857.534    95685136.7141      -3397.623          45.000  
R14  22942055.881   122293885.5391      -2179.623          50.000    22942053.921    95117628.9151      -1695.115          47.000  
S31  38926190.105   204558614.7551       -635.215          43.000  
E36  24352115.958   127971298.3071        -99.982          48.000    24352116.453    98055983.4551        -76.553          53.000  
E04  26035723.723   136818664.5621       -640.124          43.000    26035720.615   104835086.1341       -490.549          46.000  
G10  21120560.216   110989377.1251      -2933.274          49.000    21120556.488    86485237.8971      -2285.782          48.000  
E11  24009489.729   126170944.5561      -1636.562          46.000    24009483.455    96676546.2131      -1253.976          44.000  
E09  25628827.735   134680422.8021       1577.530          44.000    25628827.526   103196674.4371       1208.772          50.000  
G32  22215893.740   116745326.2681       1205.045          46.000    22215890.485    90970389.0001        939.039          44.000  
> 2024 04 09 09 45 30.0000000  0 25                     
S33  39884196.368   209593021.136        -634.794          44.000  
G23  24067427.264   126475349.717       -4022.698          44.000    24067421.204    98552277.471       -3134.634          39.000  
E25  26082037.277   137061990.721       -3329.970          42.000    26082036.482   105021565.529       -2551.631          49.000  
G27  20316895.747   106766055.284        -765.739          50.000    20316891.982    83194317.819        -596.641          46.000  
R01  20824590.659   111319297.805        2812.647          47.000    20824587.255    86581749.201        2187.805          43.000  
R22  23012495.561   122842608.761       -2892.369          49.000    23012490.502    95544155.099       -2249.696          44.000  
R23  20450802.496   109398037.517        -730.280          49.000                                                                  
R13  23955892.519                3      -4453.567          10.000                                                                  
R24  21634243.720   115688049.034        1704.754          50.000    21634238.433    89979649.563        1325.822          47.000  
R08  19993880.866   107066342.542       -1374.467          51.000    19993872.971    83273824.379       -1068.870          50.000  
E02  25347553.204   133202330.681       -1418.811          47.000    25347553.181   102064161.164       -1087.115          49.000  
G21  22971852.285   120717927.778        1961.301          46.000                                                                  
G02  24074291.335   126511253.868        2066.867          41.000                                                                  
E10  26972468.883   141741522.168       -2182.365          37.000    26972468.013   108607265.038       -1672.688          39.000  
G08  21061189.937   110677314.579        1419.750          48.000    21061186.218    86242041.535        1106.249          46.000  
G16  22814945.731   119893373.123       -3680.320          44.000                                                                  
R07  23006381.572   123155023.638       -4381.385          48.000    23006375.714    95787218.257       -3407.902          45.000  
R14  22954376.966   122359563.351       -2198.878          48.000    22954375.502    95168711.676       -1710.295          47.000  
S31  38929817.202   204577674.295        -635.500          43.000  
E36  24352691.465   127974322.249        -101.668          48.000    24352691.635    98058300.519         -77.793          53.000  
E04  26039417.956   136838081.280        -654.162          43.000    26039415.385   104849963.873        -501.266          46.000  
G10  21137340.429   111077561.399       -2945.695          49.000    21137337.099    86553952.934       -2295.288          47.000  
E11  24018836.131   126220064.882       -1637.827          45.000    24018831.024    96714183.888       -1255.004          45.000  
E09  25619844.858   134633216.109        1569.516          44.000    25619844.514   103160503.066        1202.635          50.000  
G32  22209059.648   116709418.124        1188.939          46.000    22209057.241    90942408.656         926.749          44.000  
> 2024 04 09 09 46 00.0000000  0 24                     
S33  39887818.222   209612056.123        -634.553          44.000  
G23  24090394.774   126596049.200       -4023.883          43.000    24090390.938    98646328.990       -3135.745          41.000  
E25  26101059.039   137161947.977       -3333.933          43.000    26101057.822   105098156.131       -2554.507          49.000  
G27  20321317.113   106789286.131        -783.185          51.000    20321312.397    83212419.782        -610.246          46.000  
R01  20808851.820   111235162.615        2796.332          48.000    20808847.791    86516310.759        2174.707          43.000  
R22  23028768.370   122929475.530       -2898.820          49.000    23028764.647    95611718.173       -2254.591          46.000  
R23  20454920.213   109420065.567        -738.441          49.000                                                                  
R24  21624683.345   115636925.228        1703.371          50.000    21624677.508    89939886.621        1324.947          46.000  
R08  20001656.579   107107984.818       -1401.830          50.000    20001649.451    83306212.827       -1090.330          51.000  
E02  25355690.036   133245089.326       -1431.944          47.000    25355690.034   102096924.290       -1097.217          49.000  
G21  22960657.738   120659100.343        1960.303          46.000                                                                  
G02  24062492.150   126449252.195        2066.430          41.000                                                                  
E10  26984932.170   141807005.331       -2183.136          39.000    26984928.429   108657440.396       -1672.759          39.000  
G08  21053121.074   110634912.414        1406.931          48.000    21053117.433    86209000.908        1096.289          46.000  
G16  22835976.013   120003887.089       -3687.461          43.000                                                                  
R07  23030971.900   123286652.510       -4393.979          48.000    23030964.635    95889596.225       -3417.464          45.000  
R14  22966804.702   122425812.171       -2217.757          46.000    22966803.918    95220238.534       -1724.991          47.000  
S31  38933443.665   204596731.950        -635.370          43.000  
E36  24353275.236   127977389.206        -102.969          48.000    24353275.260    98060650.541         -78.903          53.000  
E04  26043191.968   136857911.520        -667.886          43.000    26043188.812   104865158.465        -511.790          46.000  
G10  21154189.527   111166101.743       -2957.355          50.000    21154185.599    86622945.417       -2304.445          47.000  
E11  24028189.310   126269217.976       -1639.083          45.000    24028184.749    96751846.646       -1255.866          45.000  
E09  25610906.622   134586242.809        1561.824          45.000    25610906.296   103124510.553        1196.653          51.000  
G32  22202317.737   116673985.041        1173.165          46.000    22202315.369    90914798.467         914.072          44.000  
> 2024 04 09 09 46 30.5000000  0 24                     
S33  39891500.449   209631405.092        -634.037          44.000  
G23  24113753.574   126718800.343       -4024.984          41.000    24113750.088    98741979.188       -3136.334          42.000  
E25  26120418.836   137263686.854       -3337.457          42.000    26120418.026   105176111.890       -2557.288          49.000  
G27  20325911.633   106813431.898        -800.294          50.000    20325907.362    83231234.675        -623.486          46.000  
R01  20792944.855   111150130.964        2779.700          48.000    20792942.016    86450175.048        2161.975          44.000  
R22  23045349.151   123017984.312       -2905.000          47.000    23045345.319    95680558.346       -2259.458          46.000  
R23  20459153.343   109442712.319        -746.521          49.000                                                                  
R24  21614970.368   115584988.276        1702.260          50.000    21614965.486    89899491.243        1324.044          45.000  
R08  20009720.100   107151162.941       -1429.424          51.000    20009712.480    83339795.815       -1111.746          51.000  
E02  25364038.969   133288961.356       -1444.886          48.000    25364038.320   102130540.497       -1107.096          49.000  
G21  22949280.713   120599318.387        1959.836          46.000                                                                  
G02  24050501.071   126386232.532        2066.073          44.000                                                                  
E10  26997599.116   141873587.684       -2183.130          36.000    26997598.655   108708458.012       -1672.778          40.000  
G08  21044992.011   110592195.248        1394.181          48.000    21044988.832    86175714.812        1086.474          46.000  
G16  22857400.056   120116468.391       -3694.746          44.000                                                                  
R07  23056043.540   123420860.213       -4406.443          47.000    23056035.553    95993979.972       -3427.142          46.000  
R14  22979548.632   122493745.662       -2236.573          46.000    22979547.118    95273075.696       -1739.761          45.000  
S31  38937129.741   204616103.973        -634.987          43.000  
E36  24353876.025   127980549.604        -104.139          48.000    24353876.551    98063072.161         -79.764          53.000  
E04  26047107.335   136878494.715        -681.618          42.000    26047105.897   104880930.010        -522.304          47.000  
G10  21171388.140   111256478.274       -2968.894          50.000    21171383.617    86693368.668       -2313.357          47.000  
E11  24037704.710   126319222.445       -1639.787          45.000    24037700.655    96790161.756       -1256.431          46.000  
E09  25601864.597   134538726.261        1554.134          45.000    25601864.090   103088101.768        1190.770          51.000  
G32  22195556.160   116638449.516        1157.137          46.000    22195553.499    90887108.440         901.655          44.000  
> 2024 04 09 09 47 00.0010000  0 24                     
S33  39895061.079   209650117.106        -633.804          44.000  
G23  24136354.281   126837567.751       -4026.416          40.000    24136349.906    98834525.205       -3137.140          40.000  
E25  26139165.183   137362202.816       -3341.074          42.000    26139165.167   105251598.137       -2559.998          48.000  
G27  20330453.276   106837294.492        -817.095          51.000    20330448.257    83249828.895        -636.705          46.000  
R01  20777651.622   111068374.232        2763.359          50.000    20777647.783    86386586.456        2149.420          45.000  
R22  23061421.528   123103781.477       -2911.193          47.000    23061417.523    95747289.478       -2264.217          46.000  
R23  20463294.234   109464860.670        -754.613          49.000                                                                  
R24  21605583.032   115534791.803        1700.956          50.000    21605578.971    89860449.519        1322.993          45.000  
R08  20017670.545   107193733.754       -1456.203          51.000    20017662.521    83372906.450       -1132.640          51.000  
E02  25372187.673   133331780.389       -1457.682          48.000    25372186.110   102163349.874       -1116.907          49.000  
G21  22938282.090   120541520.445        1959.018          46.000                                                                  
G02  24038905.430   126325292.624        2065.936          43.000                                                                  
E10  27009859.616   141937997.643       -2183.226          38.000    27009857.003   108757811.072       -1672.834          43.000  
G08  21037201.604   110551255.944        1381.714          48.000    21037198.516    86143814.075        1076.562          46.000  
G16  22878161.855   120225576.272       -3701.989          43.000                                                                  
R07  23080361.695   123551037.940       -4418.477          45.000    23080354.232    96095229.278       -3436.495          47.000  
R14  22991978.307   122560008.339       -2254.968          47.000    22991975.596    95324613.265       -1754.104          42.000  
S31  38940695.143   204634839.177        -634.647          43.000  
E36  24354465.046   127983647.512        -105.370          48.000    24354466.180    98065445.899         -80.783          53.000  
E04  26050973.934   136898809.669        -695.034          42.000    26050972.159   104896496.006        -532.525          48.000  
G10  21188088.623   111344238.290       -2980.328          51.000    21188083.706    86761753.108       -2322.229          47.000  
E11  24046914.822   126367620.649       -1640.616          45.000    24046910.280    96827246.125       -1257.209          46.000  
E09  25593162.301   134492998.312        1546.463          44.000    25593162.294   103053063.496        1184.901          51.000  
G32  22189104.741   116604549.127        1141.560          46.000    22189102.305    90860692.568         889.439          43.000  
> 2024 04 09 09 47 30.0010000  0 24                     
S33  39898680.734   209669138.651        -634.107          44.000  
G23  24159343.637   126958374.445       -4027.802          39.000    24159338.651    98928660.290       -3138.403          41.000  
E25  26158249.081   137462488.747       -3344.482          42.000    26158248.638   105328440.598       -2562.754          48.000  
G27  20335166.924   106862068.845        -834.391          50.000    20335162.611    83269133.584        -650.086          46.000  
R01  20762190.637   110985727.588        2746.489          49.000    20762187.240    86322305.728        2136.137          45.000  
R22  23077801.958   123191214.432       -2917.658          49.000    23077796.481    95815292.886       -2269.187          47.000  
R23  20467549.586   109487625.227        -762.911          50.000                                                                  
R24  21596043.803   115483782.064        1699.650          50.000    21596039.467    89820775.307        1321.827          45.000  
R08  20025905.053   107237832.039       -1483.577          51.000    20025897.792    83407205.111       -1153.897          51.000  
E02  25380546.012   133375705.215       -1470.566          48.000    25380544.235   102197006.558       -1126.840          48.000  
G21  22927101.594   120482766.455        1957.933          46.000                                                                  
G02  24027114.694   126263332.830        2065.167          45.000                                                                  
E10  27022324.027   142003501.211       -2183.574          39.000    27022322.576   108808002.088       -1673.174          44.000  
G08  21029351.577   110510003.799        1368.555          48.000    21029348.786    86111669.558        1066.461          47.000  
G16  22899315.427   120336737.087       -3708.900          42.000                                                                  
R07  23105157.334   123683776.942       -4430.699          45.000    23105150.573    96198470.716       -3446.185          46.000  
R14  23004722.949   122627942.530       -2273.830          46.000    23004720.890    95377450.963       -1768.390          44.000  
S31  38944319.168   204653883.314        -634.582          43.000  
E36  24355072.066   127986834.331        -106.946          48.000    24355072.809    98067887.747         -81.981          53.000  
E04  26054982.159   136919873.053        -709.138          42.000    26054980.557   104912635.467        -543.352          48.000  
G10  21205135.430   111433821.899       -2991.925          50.000    21205131.326    86831558.528       -2331.378          47.000  
E11  24056285.035   126416864.906       -1641.869          44.000    24056281.039    96864978.742       -1258.026          45.000  
E09  25584358.017   134446728.271        1538.252          45.000    25584357.461   103017609.838        1178.740          51.000  
G32  22182635.384   116570548.432        1125.255          46.000    22182631.463    90834198.493         876.792          44.000  
> 2024 04 09 09 48 00.0010000  0 24                     
S33  39902299.737   209688155.571        -633.391          44.000  
G23  24182339.037   127079212.917       -4028.125          40.000    24182333.890    99022820.127       -3138.928          43.000  
E25  26177352.474   137562880.320       -3347.886          42.000    26177352.449   105405364.011       -2565.170          47.000  
G27  20339979.607   106887359.732        -851.406          50.000    20339975.156    83288840.757        -663.423          46.000  
R01  20746824.046   110903584.958        2729.919          49.000    20746820.379    86258417.055        2123.149          45.000  
R22  23094216.763   123278837.198       -2923.650          49.000    23094211.077    95883443.959       -2274.019          47.000  
R23  20471851.763   109510638.601        -770.983          50.000                                                                  
R24  21586512.303   115432812.919        1698.525          50.000    21586507.256    89781132.648        1320.889          45.000  
R08  20034292.305   107282746.224       -1510.479          50.000    20034285.403    83442138.346       -1174.771          52.000  
E02  25388978.568   133420017.006       -1483.219          48.000    25388976.466   102230959.756       -1136.625          48.000  
G21  22915926.167   120424038.304        1957.472          46.000                                                                  
G02  24015326.504   126201387.668        2064.844          44.000                                                                  
E10  27034787.483   142069012.557       -2183.768          36.000    27034788.763   108858199.066       -1673.188          43.000  
G08  21021575.686   110469140.127        1355.859          49.000    21021572.709    86079827.752        1056.598          46.000  
G16  22920508.613   120448106.999       -3715.670          44.000                                                                  
R07  23130021.046   123816878.263       -4442.360          45.000    23130015.417    96301993.982       -3455.221          47.000  
R14  23017571.105   122696432.215       -2292.200          45.000    23017569.722    95430720.700       -1782.601          45.000  
S31  38947942.353   204672923.731        -634.247          43.000  
E36  24355686.466   127990061.012        -108.042          48.000    24355686.759    98070360.145         -82.743          53.000  
E04  26059068.640   136941347.959        -722.352          42.000    26059066.910   104929090.273        -553.559          48.000  
G10  21222247.847   111523748.053       -3003.003          50.000    21222244.058    86901630.857       -2339.978          47.000  
E11  24065662.716   126466140.141       -1642.962          45.000    24065657.652    96902735.102       -1258.828          45.000  
E09  25575598.802   134400696.621        1530.709          45.000    25575597.805   102982338.863        1172.823          51.000  
G32  22176256.351   116537030.455        1109.474          46.000    22176253.083    90808080.607         864.608          44.000  
> 2024 04 09 09 48 30.0010000  0 24                     
S33  39905917.843   209707169.001        -633.620          44.000  
G23  24205338.329   127200080.948       -4028.802          38.000    24205333.856    99117003.026       -3139.832          43.000  
E25  26196475.522   137663375.312       -3351.513          42.000    26196475.782   105482366.682       -2567.989          47.000  
G27  20344890.463   106913167.782        -868.918          49.000    20344886.246    83308950.933        -677.185          45.000  
R01  20731552.917   110821950.061        2712.596          49.000    20731549.147    86194923.229        2109.899          46.000  
R22  23110666.478   123366650.137       -2930.250          49.000    23110661.610    95951742.855       -2279.047          48.000  
R23  20476201.351   109533901.942        -779.691          50.000                                                                  
R24  21576989.107   115381885.555        1696.841          49.000    21576983.498    89741522.507        1319.822          44.000  
R08  20042831.253   107328474.795       -1537.899          50.000    20042824.849    83477705.024       -1196.137          51.000  
E02  25397484.224   133464714.607       -1496.352          48.000    25397482.574   102265208.584       -1146.583          49.000  
G21  22904755.637   120365336.264        1956.215          47.000                                                                  
G02  24003541.095   126139457.474        2064.038          45.000                                                                  
E10  27047256.796   142134531.997       -2184.214          36.000    27047256.677   108908402.243       -1673.586          44.000  
G08  21013873.793   110428667.299        1342.554          49.000    21013870.663    86048290.495        1046.204          46.000  
G16  22941740.382   120559683.077       -3722.628          43.000                                                                  
R07  23154952.287   123950337.225       -4454.488          44.000    23154947.106    96405795.376       -3464.628          47.000  
R14  23030522.579   122765473.719       -2310.549          46.000    23030522.091    95484419.620       -1796.944          44.000  
S31  38951564.753   204691959.122        -634.517          43.000  
E36  24356307.674   127993327.320        -109.476          48.000    24356308.108    98072862.920         -83.930          53.000  
E04  26063233.571   136963234.425        -736.563          41.000    26063231.413   104945860.412        -564.332          48.000  
G10  21239424.151   111614013.876       -3014.447          49.000    21239421.096    86971967.870       -2348.859          47.000  
E11  24075045.273   126515446.498       -1644.076          45.000    24075040.365    96940515.307       -1259.847          45.000  
E09  25566884.323   134354905.164        1522.275          45.000    25566883.843   102947251.890        1166.471          51.000  
G32  22169970.488   116503997.690        1092.986          47.000    22169967.259    90782340.843         851.560          44.000  
> 2024 04 09 09 49 00.0010000  0 25                     
S33  39909536.284   209726185.310        -633.729          44.000  
G23  24228345.590   127320984.466       -4030.615          35.000    24228341.157    99211213.525       -3140.735          42.000  
E25  26215619.678   137763979.450       -3355.094          43.000    26215620.313   105559453.001       -2570.830          48.000  
G27  20349901.720   106939501.669        -886.395          50.000    20349897.962    83329470.836        -690.788          46.000  
R01  20716378.034   110740834.556        2695.349          49.000    20716375.279    86131833.415        2096.411          45.000  
R22  23127153.580   123454661.561       -2936.827          48.000    23127149.583    96020196.173       -2284.328          49.000  
R23  20480598.512   109557424.903        -788.338          50.000                                                                  
R13  24120186.836                3      -4557.008          12.000                                                                  
R24  21567474.086   115331009.184        1695.159          49.000    21567469.598    89701952.023        1318.386          46.000  
R08  20051525.316   107375023.788       -1565.151          51.000    20051517.701    83513909.806       -1217.389          51.000  
E02  25406065.137   133509804.803       -1509.492          48.000    25406063.192   102299758.227       -1156.497          49.000  
G21  22893591.785   120306668.833        1955.160          47.000                                                                  
G02  23991760.326   126077550.129        2063.293          43.000                                                                  
E10  27059726.610   142200067.576       -2184.789          35.000    27059727.794   108958617.831       -1673.707          44.000  
G08  21006248.142   110388595.522        1329.199          48.000    21006245.006    86017065.742        1035.742          46.000  
G16  22963012.524   120671469.877       -3729.538          44.000                                                                  
R07  23179951.925   124084157.337       -4466.449          45.000    23179945.968    96509877.656       -3474.047          48.000  
R14  23043580.454   122835071.488       -2328.942          48.000    23043578.787    95538551.199       -1811.573          45.000  
S31  38955188.196   204710998.924        -634.474          43.000  
E36  24356938.205   127996640.948        -111.104          48.000    24356938.508    98075401.947         -85.135          52.000  
E04  26067478.260   136985540.310        -750.462          42.000    26067476.020   104962951.939        -574.919          48.000  
G10  21256667.689   111704624.507       -3025.879          50.000    21256663.671    87042573.552       -2357.843          47.000  
E11  24084436.176   126564792.035       -1645.170          45.000    24084430.065    96978325.521       -1260.482          44.000  
E09  25558217.377   134309363.501        1514.042          45.000    25558217.813   102912356.340        1160.081          51.000  
G32  22163779.117   116471460.468        1076.359          47.000    22163775.572    90756987.131         838.811          44.000  
> 2024 04 09 09 49 30.0010000  0 25                     
S33  39913155.390   209745203.480        -633.895          44.000  
G23  24251357.267                       -4032.397          33.000    24251354.511    99305449.812       -3141.602          42.000  
E25  26234785.071   137864690.395       -3358.599          44.000    26234785.110   105636621.127       -2573.550          48.000  
G27  20355012.939   106966361.936        -904.038          49.000    20355008.928    83350400.928        -704.327          46.000  
R01  20701301.905   110660242.033        2677.863          50.000    20701298.233    86069150.353        2082.799          45.000  
R22  23143677.715   123542871.482       -2943.515          49.000    23143674.156    96088803.868       -2289.363          48.000  
R23  20485044.316   109581208.486        -797.023          50.000                                                                  
R24  21557970.295   115280184.800        1693.358          50.000    21557965.366    89662421.956        1317.148          46.000  
R08  20060370.616   107422391.622       -1592.391          49.000    20060362.675    83550751.455       -1238.549          51.000  
E02  25414719.465   133555286.261       -1522.415          47.000    25414718.518   102334607.670       -1166.550          49.000  
G21  22882434.436   120248036.167        1954.051          47.000                                                                  
G02  23979984.004   126015665.585        2062.233          43.000                                                                  
E10  27072199.160   142265619.570       -2185.472          33.000    27072200.917   109008845.967       -1674.538          43.000  
G08  20998699.416   110348926.982        1315.637          48.000    20998696.346    85986155.182        1025.159          46.000  
G16  22984324.764   120783463.571       -3736.485          44.000                                                                  
R07  23205017.813   124218334.581       -4478.284          47.000    23205010.783    96614237.715       -3483.151          48.000  
R14  23056740.543   122905222.068       -2347.467          49.000    23056739.554    95593112.749       -1825.686          45.000  
S31  38958811.412   204730040.726        -634.674          43.000  
E34  27353590.796                1        995.914          30.000                                                                  
E36  24357577.273   128000001.489        -112.610          47.000    24357578.001    98077976.913         -86.338          52.000  
E04  26071801.822   137008265.461        -764.410          41.000    26071800.646   104980364.714        -585.669          49.000  
G10  21273975.020   111795576.831       -3037.158          50.000    21273971.332    87113445.500       -2366.656          47.000  
E11  24093833.646   126614176.665       -1646.707          45.000    24093827.871    97016165.694       -1261.561          44.000  
E09  25549599.587   134264073.249        1505.578          45.000    25549599.486   102877653.425        1153.556          51.000  
G32  22157681.871   116439420.916        1059.716          47.000    22157677.944    90732021.254         826.102          44.000  
> 2024 04 09 09 50 00.0010000  0 25                     
S33  39916774.929   209764225.240        -634.116          44.000  
G23  24274375.897                       -4033.960          32.000    24274373.125    99399709.392       -3142.267          42.000  
E25  26253968.705   137965504.910       -3362.370          43.000    26253969.488   105713868.616       -2576.271          48.000  
G27  20360224.185   106993748.202        -921.828          50.000    20360220.904    83371740.894        -718.085          47.000  
R01  20686323.543   110580174.996        2660.033          49.000    20686320.252    86006875.980        2068.925          45.000  
R22  23160239.801   123631279.140       -2950.213          49.000    23160236.317    96157565.370       -2294.612          49.000  
R23  20489539.497   109605253.233        -805.953          50.000                                                                  
R24  21548476.216   115229412.608        1691.312          51.000    21548471.032    89622932.523        1315.604          47.000  
R08  20069366.147   107470575.428       -1619.765          47.000    20069361.429    83588227.771       -1259.893          51.000  
E02  25423448.339   133601156.829       -1535.620          47.000    25423447.439   102369755.233       -1176.721          49.000  
G21  22871282.810   120189437.918        1952.537          46.000                                                                  
G02  23968211.936   125953803.137        2061.521          43.000                                                                  
E10  27084679.172   142331186.973       -2185.688          33.000    27084678.021   109059086.007       -1674.872          44.000  
G08  20991227.744   110309662.974        1301.978          48.000    20991224.370    85955559.864        1014.557          45.000  
G16  23005675.110   120895659.810       -3743.227          45.000                                                                  
R07  23230148.935   124352863.284       -4490.170          47.000    23230141.482    96718871.132       -3492.277          46.000  
R14  23070003.312   122975921.138       -2365.852          49.000    23070002.534    95648100.937       -1839.979          45.000  
S31  38962435.307   204749084.601        -634.966          44.000  
E34  27347903.101   143714209.7441        995.460          33.000    27347903.570   110118674.2971        763.623          32.000  
E36  24358226.141   128003407.715        -114.383          47.000    24358225.868    98080586.880         -87.606          52.000  
E04  26076205.242   137031408.782        -778.406          41.000    26076204.794   104998097.922        -596.546          49.000  
G10  21291346.560   111886867.034       -3048.780          49.000    21291343.468    87184580.717       -2375.629          48.000  
E11  24103237.719   126663599.562       -1648.397          45.000    24103232.222    97054035.176       -1262.840          44.000  
E09  25541029.043   134219035.098        1496.882          46.000    25541029.000   102843143.681        1146.994          51.000  
G32  22151679.515   116407880.396        1043.020          47.000    22151675.900    90707444.253         812.578          43.000  
> 2024 04 09 09 50 30.0010000  0 25                     
S33  39920394.307   209783245.271        -633.791          44.000  
G23  24297402.166   127683880.336       -4033.685          37.000    24297397.370    99493989.427       -3142.767          43.000  
E25  26273171.634   138066419.335       -3365.487          43.000    26273172.568   105791192.648       -2578.753          49.000  
G27  20365535.563   107021659.635        -938.994          50.000    20365532.286    83393490.093        -731.728          47.000  
R01  20671444.298   110500635.661        2642.591          49.000    20671440.480    85945012.052        2055.195          45.000  
R22  23176837.832   123719883.424       -2956.703          48.000    23176835.224    96226479.798       -2299.609          49.000  
R23  20494083.401   109629558.936        -814.429          50.000                                                                  
R24  21538991.272   115178692.121        1689.895          49.000    21538986.084    89583483.290        1314.389          47.000  
R08  20078516.661   107519571.671       -1646.651          48.000    20078510.951    83626335.958       -1280.770          50.000  
E02  25432250.031   133647413.777       -1548.173          47.000    25432249.743   102405198.857       -1186.404          49.000  
G21  22860138.158   120130872.796        1951.735          46.000                                                                  
G02  23956444.171   125891961.188        2061.140          43.000                                                                  
E10  27097162.690   142396768.779       -2185.529          33.000    27097158.735   109109337.021       -1675.232          45.000  
G08  20983832.795   110270804.337        1288.549          48.000    20983829.896    85925280.419        1004.181          45.000  
G16  23027063.122   121008053.409       -3749.576          46.000                                                                  
R07  23255344.652   124487737.600       -4501.321          48.000    23255336.943    96823773.379       -3501.226          45.000  
R14  23083367.536   123047163.340       -2383.768          49.000    23083367.386    95703511.541       -1854.166          46.000  
S31  38966059.436   204768129.008        -634.789          44.000  
E34  27342217.289   143684338.030         995.729          34.000    27342218.834   110095785.645         763.361          35.000  
E36  24358882.435   128006857.867        -115.653          47.000    24358882.455    98083230.526         -88.641          52.000  
E04  26080690.259   137054968.746        -792.239          43.000    26080688.502   105016150.355        -607.152          50.000  
G10  21308782.030   111978490.804       -3059.714          49.000    21308778.837    87255975.840       -2384.228          48.000  
E11  24112649.114   126713059.294       -1649.121          44.000    24112644.306    97091932.929       -1263.763          44.000  
E09  25532507.412   134174249.283        1488.835          47.000    25532506.047   102808827.304        1140.629          50.000  
G32  22145773.664   116376839.867        1026.383          48.000    22145768.876    90683256.798         799.707          43.000  
> 2024 04 09 09 51 00.0010000  0 25                     
S33  39924014.057   209802266.003        -633.869          44.000  
G23  24320431.512   127804895.944       -4034.364          37.000    24320425.922    99588287.286       -3143.222          43.000  
E25  26292393.293   138167430.132       -3368.355          43.000    26292394.374   105868590.507       -2580.997          49.000  
G27  20370946.530   107050095.576        -956.432          49.000    20370943.748    83415647.989        -745.292          47.000  
R01  20656663.853   110421626.046        2624.967          49.000    20656659.805    85883560.155        2041.628          45.000  
R22  23193473.498   123808683.082       -2963.080          47.000    23193469.708    96295546.215       -2304.547          47.000  
R23  20498675.375   109654125.701        -823.193          50.000                                                                  
R24  21529515.098   115128023.304        1688.253          49.000    21529510.200    89544074.244        1313.150          47.000  
R08  20087818.395   107569377.535       -1673.556          48.000    20087811.206    83665073.838       -1301.567          50.000  
E02  25441125.644   133694054.615       -1561.075          47.000    25441124.820   102440936.630       -1196.039          49.000  
G21  22849000.127   120072339.708        1950.608          46.000                                                                  
G02  23944679.316   125830138.547        2060.619          44.000                                                                  
E10  27109642.932   142462364.059       -2186.805          34.000    27109640.511   109159598.241       -1675.447          44.000  
G08  20976515.525   110232352.053        1275.090          48.000    20976512.647    85895317.600         993.602          46.000  
G16  23048486.889   121120640.099       -3755.939          44.000                                                                  
R07  23280603.691   124622952.162       -4512.520          47.000    23280596.254    96928940.241       -3509.687          44.000  
R14  23096834.575   123118943.852       -2401.546          48.000    23096832.648    95759340.795       -1867.916          45.000  
S31  38969683.275   204787171.933        -634.572          44.000  
E34  27336533.664   143654466.031         996.128          36.000    27336534.341   110072896.718         763.142          39.000  
E36  24359546.558   128010350.427        -116.955          47.000    24359547.360    98085906.657         -89.590          52.000  
E04  26085252.909   137078943.958        -805.906          43.000    26085250.820   105034520.965        -617.584          50.000  
G10  21326280.607   112070443.896       -3070.473          50.000    21326276.902    87327627.594       -2392.515          48.000  
E11  24122068.340   126762554.722       -1650.014          45.000    24122063.328    97129857.997       -1264.359          45.000  
E09  25524033.242   134129716.263        1480.445          47.000    25524031.192   102774704.599        1134.274          50.000  
G32  22139961.913   116346300.209        1009.831          48.000    22139958.147    90659459.646         786.817          44.000  
> 2024 04 09 09 51 30.0010000  0 25                     
S33  39927632.377   209821281.302        -633.255          44.000  
G23  24343463.323   127925928.797       -4034.209          35.000    24343457.789    99682598.650       -3143.598          42.000  
E25  26311632.576   138268531.660       -3371.374          43.000    26311632.862   105946057.886       -2583.130          48.000  
G27  20376457.012   107079053.175        -973.752          49.000    20376454.148    83438212.363        -758.744          47.000  
R01  20641982.708   110343146.627        2607.390          49.000    20641978.784    85822520.604        2027.928          45.000  
R22  23210144.553   123897674.950       -2969.470          46.000    23210139.866    96364762.100       -2309.499          45.000  
R23  20503316.431   109678951.249        -831.630          49.000                                                                  
R24  21520048.511   115077403.885        1686.691          48.000    21520044.242    89504703.615        1311.855          47.000  
R08  20097269.724   107619987.463       -1700.131          49.000    20097262.250    83704437.101       -1322.317          50.000  
E02  25450073.160   133741074.694       -1573.434          47.000    25450072.195   102476965.009       -1205.594          49.000  
G21  22837867.081   120013835.996        1949.835          46.000                                                                  
G02  23932918.265   125768332.329        2060.106          44.000                                                                  
E10  27122126.591   142527969.361       -2186.450          34.000    27122125.310   109209867.215       -1675.621          45.000  
G08  20969275.514   110194304.987        1261.699          48.000    20969272.662    85865670.555         983.184          46.000  
G16  23069946.405   121233413.311       -3761.917          43.000                                                                  
R07  23305925.369   124758498.777       -4523.389          45.000    23305917.889    97034365.360       -3518.040          42.000  
R14  23110399.530   123191255.634       -2418.891          48.000    23110398.131    95815583.230       -1881.366          46.000  
S31  38973306.020   204806210.091        -634.344          43.000  
E34  27330847.632   143624589.731         996.207          38.000    27330849.249   110050004.561         763.302          40.000  
E36  24360218.790   128013881.750        -118.204          47.000    24360219.514    98088612.487         -90.547          52.000  
E04  26089890.988   137103330.837        -819.310          41.000    26089891.570   105053207.034        -628.034          50.000  
G10  21343839.796   112162720.072       -3080.845          49.000    21343836.182    87399531.114       -2400.813          47.000  
E11  24131493.649   126812082.478       -1651.354          45.000    24131488.252    97167807.841       -1265.324          45.000  
E09  25515605.798   134085434.291        1472.011          46.000    25515604.400   102740774.242        1127.928          49.000  
G32  22134246.534   116316260.349         993.325          49.000    22134242.161    90636051.973         773.966          44.000  
> 2024 04 09 09 52 00.0010000  0 25                     
S33  39931250.468   209840295.048        -633.710          44.000  
E25  26330888.777   138369726.030       -3374.604          42.000    26330889.054   106023596.439       -2585.761          48.000  
G27  20382068.047   107108537.349        -991.519          50.000    20382064.231    83461187.063        -772.735          47.000  
R01  20627402.510   110265205.113        2589.015          49.000    20627398.849    85761899.436        2013.835          45.000  
R22  23226852.227   123986863.705       -2976.258          46.000    23226847.494    96434131.091       -2314.874          45.000  
R23  20508006.088   109704041.432        -840.768          49.000                                                                  
R24  21510593.348   115026839.948        1684.627          48.000    21510588.530    89465376.113        1310.290          47.000  
R08  20106871.396   107671403.836       -1727.284          49.000    20106864.809    83744427.638       -1343.463          51.000  
E02  25459093.746   133788477.098       -1586.343          48.000    25459092.700   102513286.356       -1215.551          49.000  
G21  22826741.077   119955366.716        1948.394          47.000                                                                  
G02  23921160.747   125706546.934        2059.055          43.000                                                                  
E10  27134604.359                       -2187.324          30.000    27134613.164   109260147.468       -1676.194          46.000  
G08  20962114.079   110156669.767        1247.562          48.000    20962110.628    85836344.428         972.012          46.000  
G16  23091442.328   121346373.443       -3768.426          43.000                                                                  
R07  23331309.118   124894377.567       -4534.853          44.000    23331301.110    97140048.849       -3526.953          40.000  
R14  23124064.654   123264099.356       -2436.969          47.000    23124063.065    95872239.492       -1895.221          45.000  
S31  38976928.692   204825247.276        -634.678          43.000  
E34  27325162.323   143594713.019         995.910          39.000    27325163.802   110027112.032         763.006          44.000  
E36  24360899.803   128017455.943        -119.741          48.000    24360899.797    98091351.184         -91.780          53.000  
E04  26094613.267   137128133.709        -833.562          43.000    26094611.239   105072211.815        -638.797          51.000  
G10  21361461.083   112255320.828       -3092.133          49.000    21361457.276    87471687.551       -2409.413          47.000  
E11  24140925.006   126861647.082       -1652.844          45.000    24140920.138    97205785.923       -1266.438          45.000  
E09  25507226.795   134041409.388        1463.339          45.000    25507226.931   102707040.889        1121.189          50.000  
G32  22128625.852   116286726.894         975.874          48.000    22128622.205    90613038.918         760.503          44.000  
G23                                                                  24366493.238    99776925.231       -3144.317          42.000  
> 2024 04 09 09 52 30.0010000  0 27                     
S33  39934869.396   209859311.356        -633.796          44.000  
E25  26350163.376   138471013.039       -3377.590          43.000    26350163.288   106101205.956       -2588.134          48.000  
G27  20387779.895   107138550.626       -1009.147          50.000    20387774.949    83484574.019        -786.449          46.000  
R01  20612924.057   110187807.085        2570.949          50.000    20612919.688    85701700.993        1999.519          45.000  
R22  23243598.394   124076251.454       -2982.679          47.000    23243592.761    96503654.870       -2319.975          45.000  
R23  20512746.615   109729399.822        -849.662          49.000                                                                  
R13  24282076.484                3      -3807.213          12.000                                                                  
R24  21501149.008   114976334.136        1682.675          49.000    21501144.118    89426093.830        1308.755          47.000  
R08  20116624.441   107723626.587       -1753.978          48.000    20116616.824    83785045.333       -1364.245          50.000  
E02  25468187.096   133836262.581       -1599.066          47.000    25468185.992   102549901.212       -1225.243          49.000  
G21  22815621.623   119896933.941        1947.247          46.000                                                                  
G02  23909407.495   125644784.400        2058.538          44.000                                                                  
E10  27147099.226   142659226.511       -2188.011          29.000    27147102.768   109310440.739       -1676.472          45.000  
G08  20955031.628   110119450.657        1233.885          48.000    20955028.150    85807342.534         961.277          46.000  
G16  23112973.393   121459519.436       -3774.658          43.000                                                                  
R07  23356754.947   125030586.712       -4545.648          42.000    23356745.845    97245989.269       -3535.506          37.000  
R14  23137828.306   123337473.313       -2454.573          45.000    23137826.870    95929308.109       -1909.011          42.000  
S31  38980551.627   204844286.255        -634.486          43.000  
E30  27833814.303                3        753.264          26.000                                                                  
E34  27319477.038   143564837.156         996.225          40.000    27319478.675   110004220.202         763.125          44.000  
E36  24361588.478   128021074.772        -121.263          48.000    24361588.533    98094124.075         -92.856          53.000  
E04  26099411.504   137153354.321        -847.384          43.000    26099410.354   105091536.691        -649.357          50.000  
G10  21379144.571   112348245.237       -3102.685          50.000    21379140.701    87544096.168       -2417.640          47.000  
E11  24150365.387   126911250.622       -1653.785          45.000    24150359.570    97243793.826       -1267.248          45.000  
E09  25498898.109   133997645.193        1454.708          45.000    25498898.752   102673507.337        1114.558          49.000  
G32  22123103.109   116257704.005         959.105          48.000    22123098.513    90590423.679         747.505          44.000  
G23                                                                  24389532.473    99871266.949       -3144.874          43.000  
> 2024 04 09 09 53 00.0010000  0 26                     
S33  39938487.010   209878323.181        -633.466          44.000  
G23  24412580.097                3      -4036.371          32.000    24412574.958    99965619.088       -3144.879          43.000  
E25  26369453.672   138572386.510       -3380.283          42.000    26369453.927   106178881.713       -2590.062          48.000  
G27  20393590.938   107169089.618       -1026.402          50.000    20393585.957    83508370.619        -799.954          46.000  
R01  20598545.417   110110952.271        2552.916          49.000    20598542.008    85641925.021        1985.545          45.000  
R22  23260380.896   124165834.483       -2989.186          48.000    23260374.929    96573330.530       -2324.966          44.000  
R23  20517536.418   109755023.587        -858.406          48.000                                                                  
R24  21491715.644   114925883.652        1681.020          50.000    21491709.334    89386854.612        1307.493          47.000  
R08  20126525.548   107776649.834       -1780.419          49.000    20126518.149    83826285.650       -1384.904          50.000  
E02  25477352.274   133884425.927       -1611.494          47.000    25477351.249   102586805.600       -1234.826          49.000  
G21  22804508.253   119838534.474        1946.444          45.000                                                                  
G02  23897658.351   125583041.057        2057.978          43.000                                                                  
E10  27159594.450                       -2188.627          31.000    27159595.187   109360744.248       -1676.812          45.000  
G08  20948028.116   110082645.974        1220.110          48.000    20948024.439    85778663.534         950.929          46.000  
G16  23134538.160   121572843.813       -3780.111          43.000                                                                  
R07  23382260.456   125167117.491       -4556.275          41.000    23382251.579    97352179.833       -3543.829          35.000  
R14  23151691.965   123411370.001       -2471.729          49.000    23151690.691    95986783.327       -1922.564          44.000  
S31  38984173.795   204863321.253        -634.244          43.000  
E30  27829578.695                         740.333          28.000                                                                  
E34  27313791.605   143534957.757         996.358          40.000    27313792.708   109981325.663         763.202          43.000  
E36  24362284.187   128024734.094        -122.343          47.000    24362284.802    98096927.985         -93.772          53.000  
E04  26104290.524   137178988.652        -861.209          43.000    26104288.413   105111178.578        -659.858          50.000  
G10  21396887.924   112441486.525       -3113.061          50.000    21396883.932    87616751.721       -2425.756          47.000  
E11  24159811.082   126960889.255       -1655.002          45.000    24159805.490    97281828.623       -1268.138          45.000  
E09  25490621.515   133954139.528        1446.158          46.000    25490619.805   102640171.840        1107.973          49.000  
G32  22117677.128   116229190.074         941.977          48.000    22117672.498    90568205.034         734.045          43.000  
> 2024 04 09 09 53 30.0010000  0 26                     
S33  39942105.266   209897337.290        -633.498          44.000  
E25  26388761.496   138673848.715       -3383.049          43.000    26388761.688   106256625.467       -2592.266          48.000  
G27  20399503.219   107200159.292       -1044.352          49.000    20399498.594    83532580.750        -813.710          46.000  
R01  20584271.718   110034648.438        2534.551          50.000    20584267.965    85582577.606        1971.139          45.000  
R22  23277200.270   124255617.440       -2995.714          48.000    23277194.847    96643161.685       -2329.910          45.000  
R23  20522377.355   109780918.629        -867.389          48.000                                                                  
R24  21482291.736   114875494.835        1678.933          49.000    21482285.837    89347663.328        1305.844          47.000  
R08  20136577.461   107830475.775       -1807.302          48.000    20136570.486    83868150.257       -1405.604          50.000  
E02  25486589.893   133932970.348       -1624.290          47.000    25486589.104   102624001.964       -1244.540          49.000  
G21  22793402.625   119780173.282        1945.247          46.000                                                                  
G02  23885913.564   125521321.617        2057.190          44.000                                                                  
E10  27172089.439   142790545.109       -2188.870          32.000    27172091.315   109411061.532       -1677.069          44.000  
G08  20941105.081   110046262.477        1205.925          49.000    20941100.914    85750312.758         939.771          46.000  
G16  23156137.799   121686347.588       -3786.051          43.000                                                                  
R07  23407825.783   125303970.153       -4566.878          41.000    23407819.496    97458620.789       -3552.352          34.000  
R14  23165654.043   123485790.419       -2489.121          49.000    23165651.807    96044665.833       -1935.763          44.000  
S31  38987796.420   204882358.455        -634.448          43.000  
E30  27825378.798                         728.201          27.000    27825366.866                3        558.360          22.000  
E34  27308104.851   143505078.730         996.051          39.000    27308106.703   109958431.351         763.333          44.000  
E36  24362988.315   128028438.182        -123.853          46.000    24362989.669    98099766.183         -94.943          53.000  
E04  26109249.285   137205041.015        -875.014          44.000    26109246.189   105131140.774        -670.536          50.000  
G10  21414691.641   112535046.300       -3123.515          50.000    21414687.052    87689655.470       -2434.067          47.000  
E11  24169263.359   127010567.618       -1656.506          44.000    24169259.062    97319893.868       -1269.105          45.000  
E09  25482393.569   133910898.509        1437.207          46.000    25482391.566   102607039.118        1101.255          49.000  
G32  22112349.711   116201191.718         924.722          49.000    22112344.691    90546388.136         720.573          43.000  
G23                                                                  24435619.921   100059983.518       -3145.344          44.000  
> 2024 04 09 09 54 00.0010000  0 25                     
S33  39945721.486   209916340.683        -633.282          44.000  
E25  26408084.520   138775386.455       -3385.807          44.000    26408084.128   106334427.104       -2594.337          48.000  
G27  20405514.626   107231749.140       -1061.586          50.000    20405510.251    83557196.224        -827.293          47.000  
R01  20570098.828   109958888.076        2516.200          50.000    20570095.167    85523652.869        1957.027          45.000  
R22  23294053.808   124345589.468       -3002.275          47.000    23294049.170    96713139.848       -2335.055          45.000  
R23  20527267.024   109807075.404        -876.279          49.000                                                                  
R24  21472877.432   114825157.468        1676.933          49.000    21472872.729    89308512.100        1304.224          46.000  
R08  20146776.293   107885091.558       -1833.681          49.000    20146768.826    83910629.208       -1426.196          49.000  
E02  25495898.478   133981883.562       -1636.476          47.000    25495897.452   102661480.921       -1253.972          50.000  
G21  22782302.548   119721839.536        1943.895          46.000                                                                  
G02  23874171.112   125459615.173        2056.553          43.000                                                                  
E10  27184590.030   142856220.774       -2189.536          35.000    27184588.954   109461384.431       -1677.486          44.000  
G08  20934259.902   110010291.375        1192.156          49.000    20934255.899    85722283.332         929.090          45.000  
G16  23177767.797   121800016.700       -3791.614          43.000                                                                  
R07  23433448.150   125441129.218       -4577.151          37.000    23433444.119    97565300.005       -3559.424          32.000  
R14  23179709.540   123560719.415       -2506.240          47.000    23179709.200    96102943.979       -1949.173          46.000  
S31  38991417.194   204901385.683        -634.039          43.000  
E34  27302416.468   143475188.462         996.517          39.000    27302418.764   109935528.449         763.533          44.000  
E36  24363699.508   128032175.824        -125.052          46.000    24363700.944    98102630.094         -95.908          53.000  
E04  26114283.285   137231500.232        -888.622          43.000    26114281.241   105151414.715        -680.993          51.000  
G10  21432552.859   112628910.762       -3133.888          49.000    21432549.378    87762796.605       -2441.879          48.000  
E11  24178722.955   127060274.879       -1657.432          44.000    24178717.534    97357981.254       -1269.999          45.000  
E09  25474213.086   133867912.879        1428.585          46.000    25474211.517   102574102.067        1094.708          49.000  
G32  22107117.943   116173700.135         908.045          49.000    22107112.569    90524966.147         707.738          43.000  
G23                                                                  24458665.003   100154350.065       -3145.449          44.000  
> 2024 04 09 09 54 30.0010000  0 25                     
S33  39949336.146   209935337.582        -632.740          44.000  
E25  26427421.048   138876999.148       -3388.127          43.000    26427420.819   106412286.182       -2596.125          49.000  
G27  20411624.902   107263861.314       -1078.975          49.000    20411621.238    83582218.707        -840.654          47.000  
R01  20556028.868   109883676.388        2498.153          50.000    20556025.419    85465154.900        1943.100          45.000  
R22  23310945.296   124435752.364       -3008.422          48.000    23310940.612    96783266.533       -2339.831          46.000  
R23  20532206.292   109833496.772        -884.948          48.000                                                                  
R24  21463474.590   114774874.355        1675.391          49.000    21463469.732    89269403.059        1303.160          46.000  
R08  20157122.529   107940496.240       -1859.837          49.000    20157114.644    83953721.751       -1446.504          49.000  
E02  25505277.032   134031165.912       -1648.745          47.000    25505275.233   102699242.716       -1263.274          50.000  
G21  22771207.382   119663535.532        1942.934          46.000                                                                  
G02  23862431.458   125397923.607        2056.336          43.000                                                                  
E10  27197089.220   142921905.662       -2189.283          36.000    27197088.922   109511714.428       -1677.662          45.000  
G08  20927493.997   109974736.608        1178.406          49.000    20927490.059    85694578.333         918.293          45.000  
G16  23199429.570   121913849.278       -3796.720          43.000                                                                  
R07  23459127.225   125578592.147       -4586.982          37.000    23459120.129                3      -3567.402          25.000  
R14  23193861.432   123636155.154       -2522.768          49.000    23193859.907    96161616.163       -1961.871          43.000  
S31  38995036.353   204920404.286        -633.708          43.000  
E34  27296727.204   143445288.052         997.108          40.000    27296729.216   109912617.779         763.881          45.000  
E36  24364417.872   128035948.513        -126.137          47.000    24364418.679    98105520.848         -96.672          52.000  
E04  26119395.105   137258367.774        -902.220          42.000    26119393.704   105172001.521        -691.254          51.000  
G10  21450472.654   112723078.636       -3143.774          49.000    21450468.790    87836174.183       -2449.886          48.000  
E11  24188187.043   127110012.778       -1658.101          44.000    24188182.652    97396092.099       -1270.448          45.000  
E09  25466082.465   133825185.917        1419.952          46.000    25466080.805   102541363.207        1088.118          49.000  
G32  22101983.188   116146719.218         891.139          48.000    22101977.957    90503942.076         694.264          42.000  
G23                                                                  24481710.371   100248718.374       -3145.469          43.000  
> 2024 04 09 09 55 00.0010000  0 25                     
S33  39952949.879   209954327.080        -632.652          44.000  
G23  24504759.573   128773405.8401      -4036.455          33.000    24504755.550   100343088.416       -3145.388          43.000  
E25  26446770.300   138978686.633       -3390.666          42.000    26446771.355   106490202.544       -2598.026          49.000  
G27  20417835.727   107296498.224       -1096.513          49.000    20417832.388    83607650.068        -854.338          48.000  
R01  20542062.268   109809018.735        2479.457          49.000    20542059.258    85407087.842        1928.331          45.000  
R22  23327871.810   124526108.376       -3015.085          47.000    23327867.608    96853543.399       -2344.977          46.000  
R23  20537196.575   109860186.064        -894.037          50.000                                                                  
R24  21454082.118   114724649.051        1673.214          48.000    21454076.972    89230338.963        1301.535          46.000  
R08  20167615.892   107996689.784       -1886.141          49.000    20167608.837    83997427.874       -1466.931          49.000  
E02  25514724.280   134080818.082       -1661.246          46.000    25514723.516   102737287.899       -1272.748          50.000  
G21  22760118.507   119605263.971        1941.884          46.000                                                                  
G02  23850695.078   125336249.034        2055.579          44.000                                                                  
E10  27209594.057   142987602.104       -2190.056          39.000    27209590.917   109562053.220       -1678.086          45.000  
G08  20920808.012   109939602.398        1164.197          49.000    20920804.450    85667201.035         907.135          46.000  
G16  23221122.349   122027843.645       -3802.354          44.000                                                                  
R07  23484863.390   125716356.644       -4596.741          35.000    23484858.661                1      -3575.624          27.000  
R14  23208107.856   123712095.525       -2539.661          48.000    23208106.161    96220680.915       -1975.345          44.000  
S31  38998654.443   204939417.005        -633.658          43.000  
E34  27291035.798   143415379.004         997.223          40.000    27291037.785   109889700.483         764.098          45.000  
E36  24365143.356   128039758.004        -127.568          47.000    24365143.727    98108439.823         -97.808          52.000  
E04  26124585.527   137285645.399        -916.114          41.000    26124584.493   105192902.569        -701.891          50.000  
G10  21468450.491   112817549.109       -3154.128          51.000    21468445.962    87909787.517       -2457.643          48.000  
E11  24197658.340   127159783.569       -1659.649          44.000    24197653.560    97434228.169       -1271.673          45.000  
E09  25458001.384   133782721.234        1411.149          46.000    25457999.759   102508825.347        1081.272          49.000  
G32  22096947.124   116120253.069         873.635          49.000    22096942.063    90483319.160         680.592          42.000  
> 2024 04 09 09 55 30.0010000  0 26                     
S33  39956563.134   209973313.611        -632.578          44.000  
G23  24527808.709   128894518.221       -4036.864          37.000    24527802.091   100437461.674       -3145.729          42.000  
E25  26466135.818   139080450.573       -3393.287          42.000    26466136.648   106568177.499       -2599.940          49.000  
G27  20424146.752   107329664.201       -1114.111          49.000    20424143.368    83633493.703        -868.127          48.000  
R01  20528201.127   109734922.407        2460.780          49.000    20528198.076    85349457.375        1913.966          45.000  
R22  23344835.400   124616661.608       -3021.577          46.000    23344832.134    96923973.693       -2350.210          46.000  
R23  20542237.244   109887148.739        -903.014          49.000                                                                  
R24  21444702.047   114674487.032        1671.164          50.000    21444695.990    89191324.077        1299.743          46.000  
R08  20178257.592   108053674.220       -1912.365          50.000    20178250.085    84041749.093       -1487.359          50.000  
E02  25524243.250   134130842.636       -1673.304          46.000    25524243.035   102775618.419       -1282.229          50.000  
G21  22749036.330   119547029.139        1940.717          46.000                                                                  
G02  23838963.007   125274595.785        2054.987          45.000                                                                  
E10  27222097.189   143053314.245       -2190.349          38.000    27222095.550   109612404.057       -1678.281          45.000  
G08  20914203.253   109904894.904        1150.073          49.000    20914199.617    85640156.238         896.271          45.000  
G16  23242845.653   122142000.599       -3807.577          44.000                                                                  
R07  23510655.182   125854422.229       -4606.701          33.000    23510703.310                3      -3585.480          23.000  
R14  23222449.489   123788541.330       -2556.347          48.000    23222446.289    96280138.731       -1988.256          43.000  
S31  39002271.694   204958426.471        -633.265          43.000  
E34  27285343.885   143385464.721         997.240          42.000    27285344.957   109866779.122         764.375          44.000  
E36  24365876.469   128043608.049        -128.834          48.000    24365876.159    98111389.871         -98.685          52.000  
E04  26129855.843   137313336.816        -929.796          43.000    26129854.103   105214120.677        -712.382          51.000  
G10  21486485.324   112912323.175       -3163.827          51.000    21486481.735    87983637.437       -2465.272          48.000  
E11  24207136.703   127209591.204       -1660.773          44.000    24207131.521    97472392.466       -1272.602          45.000  
E09  25449971.569   133740524.419        1402.378          46.000    25449970.313   102476492.726        1074.493          49.000  
G32  22092009.803   116094307.713         856.363          48.000    22092004.642    90463101.985         667.390          42.000  
E30                                                                  27809300.384                3        521.188          25.000  
> 2024 04 09 09 56 00.0010000  0 27                     
S33  39960176.207   209992300.077        -632.805          44.000  
G23  24550855.059   129015636.076       -4037.446          37.000    24550850.071   100531839.193       -3145.790          43.000  
E25  26485515.861   139182292.181       -3395.703          42.000    26485516.688   106646211.962       -2601.920          49.000  
G27  20430559.672   107363363.143       -1131.961          50.000    20430556.121    83659752.631        -881.939          47.000  
R01  20514446.484   109661394.336        2441.653          50.000    20514442.958    85292268.902        1898.857          45.000  
R22  23361836.341   124707415.796       -3028.424          47.000    23361833.177    96994560.207       -2355.407          46.000  
R23  20547329.677   109914389.882        -912.441          49.000                                                                  
R24  21435335.029   114624392.990        1668.846          51.000    21435328.059    89152362.068        1297.845          46.000  
R08  20189047.052   108111450.283       -1938.886          49.000    20189040.196    84086686.042       -1507.945          50.000  
E02  25533833.622   134181241.731       -1685.854          45.000    25533833.458   102814235.897       -1291.899          50.000  
G21  22737962.210   119488835.212        1939.440          45.000                                                                  
G02  23827235.503   125212967.577        2054.039          46.000                                                                  
E10  27234607.731   143119045.806       -2191.069          39.000    27234603.456   109662769.799       -1678.957          44.000  
G08  20907680.423   109870619.760        1135.614          48.000    20907677.623    85613448.375         884.770          46.000  
G16  23264600.143   122256320.086       -3813.016          44.000                                                                  
R07  23536502.693                       -4617.904          30.000                                                                  
R14  23236883.834   123865491.612       -2572.990          46.000    23236882.602    96339988.894       -2001.565          42.000  
S31  39005889.326   204977436.998        -633.468          43.000  
E34  27279651.694   143355548.011         997.646          42.000    27279652.182   109843855.969         764.273          46.000  
E36  24366617.467   128047501.877        -130.254          48.000    24366616.956    98114373.473         -99.787          52.000  
E04  26135204.744   137341445.260        -943.740          43.000    26135202.806   105235658.314        -723.055          50.000  
G10  21504577.796   113007401.478       -3174.112          50.000    21504574.473    88057724.427       -2473.266          48.000  
E11  24216622.184   127259439.268       -1662.020          44.000    24216617.432    97510587.735       -1273.556          45.000  
E09  25441994.032   133698600.529        1393.168          47.000    25441992.975   102444369.241        1067.412          50.000  
G32  22087172.279   116068888.733         838.692          48.000    22087167.751    90443294.974         653.582          43.000  
E05                                                                  26410788.596                1       1787.646          25.000  
E30                                                                  27805445.912                         512.025          29.000  
> 2024 04 09 09 56 30.0010000  0 27                     
S33  39963788.566   210011283.738        -632.776          44.000  
G23  24573903.229   129136753.217       -4036.923          38.000    24573898.264   100626216.154       -3145.840          43.000  
E25  26504908.100   139284205.024       -3398.224          41.000    26504910.089   106724300.995       -2603.818          49.000  
G27  20437072.641   107397591.158       -1149.732          50.000    20437069.399    83686423.822        -895.879          47.000  
R01  20500798.615   109588433.806        2422.434          50.000    20500794.272    85235521.812        1884.136          45.000  
R22  23378875.570   124798366.617       -3035.132          47.000    23378871.174    97065299.687       -2360.548          46.000  
R23  20552473.425   109941906.071        -921.763          49.000                                                                  
R24  21425979.940   114574364.130        1666.528          51.000    21425973.235    89113450.771        1296.067          46.000  
R08  20199982.597   108170011.490       -1965.112          49.000    20199975.654    84132233.684       -1528.460          50.000  
E02  25543494.838   134232009.735       -1698.398          45.000    25543494.913   102853136.028       -1301.325          50.000  
G21  22726895.215   119430678.272        1937.934          45.000                                                                  
G02  23815511.697   125151360.132        2053.256          46.000                                                                  
E10  27247117.290   143184792.755       -2191.727          38.000    27247115.248   109713147.344       -1679.381          44.000  
G08  20901239.726   109836774.973        1121.024          48.000    20901237.286    85587075.833         873.539          46.000  
G16  23286383.980   122370794.590       -3818.583          43.000                                                                  
R07  23562402.579                       -4626.377          30.000                                                                  
R14  23251412.817   123942938.734       -2589.946          45.000    23251412.740    96400225.517       -2014.318          42.000  
S31  39009506.025   204996443.084        -633.494          43.000  
E34  27273956.633   143325624.143         997.679          42.000    27273957.956   109820927.304         764.298          45.000  
E36  24367365.482   128051435.122        -131.698          48.000    24367365.426    98117387.279        -100.929          52.000  
E04  26140631.009   137369966.189        -957.705          42.000    26140630.461   105257512.012        -733.750          50.000  
G10  21522726.633   113102776.925       -3184.065          50.000    21522723.643    88132043.006       -2481.175          48.000  
E11  24226114.872   127309323.759       -1663.314          44.000    24226110.148    97548810.920       -1274.448          45.000  
E09  25434068.222   133656946.987        1383.976          48.000    25434066.337   102412452.921        1060.370          50.000  
G32  22082434.118   116043993.946         820.790          47.000    22082430.611    90423896.450         639.805          43.000  
E05                                                                  26397460.823                3       1789.996          25.000  
E30                                                                  27801661.189                         502.495          30.000  
> 2024 04 09 09 57 00.0010000  0 26                     
S33  39967399.183   210030257.845        -632.345          44.000  
G23  24596949.701   129257863.288       -4036.904          38.000    24596945.075   100720587.594       -3145.669          42.000  
E25  26524313.378   139386182.570       -3400.334          42.000    26524315.578   106802439.608       -2605.465          48.000  
G27  20443686.033   107432344.339       -1167.264          49.000    20443682.403    83713504.221        -909.597          47.000  
R01  20487255.309   109516039.764        2403.592          49.000    20487251.145    85179215.367        1869.443          44.000  
R22  23395950.056   124889509.902       -3041.458          48.000    23395944.711    97136188.887       -2365.671          46.000  
R23  20557667.868   109969694.420        -930.916          48.000                                                                  
R24  21416634.865   114524396.988        1664.403          50.000    21416629.309    89074587.446        1294.535          46.000  
R08  20211064.164   108229351.246       -1990.997          49.000    20211056.380    84178386.831       -1548.639          50.000  
E02  25553225.147   134283140.954       -1710.488          46.000    25553224.405   102892314.498       -1310.637          50.000  
G21  22715835.312   119372554.454        1936.812          45.000                                                                  
G02  23803791.389   125089769.496        2052.672          46.000                                                                  
E10  27259631.185   143250551.124       -2192.176          38.000    27259628.821   109763533.597       -1679.691          45.000  
G08  20894881.013   109803358.455        1106.670          48.000    20894877.978    85561036.996         862.395          45.000  
G16  23308196.111   122485416.517       -3823.177          44.000                                                                  
R07  23588359.658                       -4636.726          31.000                                                                  
R14  23266034.907   124020874.339       -2606.000          41.000    23266033.634    96460842.106       -2027.143          39.000  
S31  39013121.153   205015441.305        -633.254          43.000  
E34  27268260.311   143295688.252         998.117          41.000    27268261.415   109797989.452         764.628          46.000  
E36  24368119.273   128055403.285        -132.868          46.000    24368120.374    98120427.820        -101.837          51.000  
E04  26146137.603   137398895.068        -971.110          43.000    26146135.436   105279678.293        -744.153          50.000  
G10  21540931.244   113198442.374       -3193.736          50.000    21540927.990    88206587.509       -2488.548          47.000  
E11  24235613.064   127359240.503       -1664.588          44.000    24235608.776    97587058.817       -1275.627          44.000  
E09  25426192.111   133615561.134        1375.054          48.000    25426190.377   102380741.684        1053.554          49.000  
G32  22077796.640   116019621.136         803.670          48.000    22077792.937    90404904.669         626.141          43.000  
E30                                                                  27797941.856                         493.688          28.000  
> 2024 04 09 09 57 30.0010000  0 27                     
S33  39971009.471   210049229.743        -632.198          44.000  
G23  24619996.172   129378969.390       -4037.098          38.000    24619991.063   100814955.930       -3145.363          42.000  
E25  26543733.070   139488227.715       -3402.495          43.000    26543733.874   106880630.031       -2607.041          48.000  
G27  20450400.959   107467628.094       -1184.962          50.000    20450397.200    83740998.032        -923.171          47.000  
R01  20473820.485   109444220.660        2384.606          50.000    20473815.556    85123356.067        1854.848          44.000  
R22  23413060.963   124980851.011       -3047.791          47.000    23413056.252    97207231.940       -2370.533          47.000  
R23  20562914.356   109997761.804        -940.116          48.000                                                                  
R24  21407302.655   114474498.322        1662.350          49.000    21407297.947    89035777.376        1293.043          46.000  
R08  20222291.718   108289472.524       -2016.874          49.000    20222283.408    84225147.835       -1568.654          50.000  
E02  25563024.383   134334639.102       -1722.486          45.000    25563024.067   102931774.128       -1319.808          50.000  
G21  22704782.202   119314469.779        1935.531          46.000                                                                  
G02  23792075.681   125028200.774        2052.229          46.000                                                                  
E10  27272145.617   143316326.240       -2192.270          36.000    27272145.072   109813932.737       -1680.089          43.000  
G08  20888604.875   109770377.464        1092.192          48.000    20888601.617    85535337.532         851.171          45.000  
G16  23330036.236   122600187.318       -3828.013          44.000                                                                  
R07  23614372.937   126409612.214       -4645.098          30.000                                                                  
R14  23280747.091   124099299.582       -2622.427          38.000    23280746.674    96521839.544       -2039.739          37.000  
S31  39016735.696   205034436.004        -632.834          43.000  
E34  27262562.406   143265744.918         998.435          42.000    27262563.577   109775045.917         765.029          46.000  
E36  24368881.633   128059411.300        -134.011          45.000    24368882.953    98123498.896        -102.667          51.000  
E04  26151721.450   137428236.730        -984.707          42.000    26151718.712   105302160.840        -754.535          50.000  
G10  21559191.558   113294400.046       -3203.098          50.000    21559188.064    88281359.717       -2495.924          48.000  
E11  24245119.280   127409194.756       -1665.664          44.000    24245114.448    97625335.452       -1276.276          44.000  
E09  25418368.714   133574449.681        1366.045          48.000    25418366.871   102349240.691        1046.652          49.000  
G32  22073259.130   115995777.431         786.105          48.000    22073256.264    90386325.173         612.485          44.000  
E05                                                                  26370758.003                3       1794.768          23.000  
E30                                                                  27794293.826                         484.223          28.000  
> 2024 04 09 09 58 00.0010000  0 26                     
S33  39974618.428   210068195.430        -632.183          44.000  
G23  24643040.419   129500067.432       -4036.630          39.000    24643035.256   100909318.039       -3145.226          42.000  
E25  26563163.091   139590336.137       -3404.545          43.000    26563164.535   106958868.962       -2608.731          48.000  
G27  20457216.731   107503440.670       -1202.539          51.000    20457211.874    83768903.960        -937.069          47.000  
R01  20460493.077   109372977.660        2365.098          50.000    20460487.795    85067944.821        1839.488          43.000  
R22  23430208.829   125072388.008       -3054.542          48.000    23430203.837    97278427.322       -2375.608          46.000  
R23  20568213.540   110026107.459        -949.575          48.000                                                                  
R24  21397984.335   114424667.714        1659.940          50.000    21397979.418    88997020.271        1290.978          47.000  
R08  20233664.380   108350370.318       -2042.844          50.000    20233655.892    84272512.788       -1588.844          50.000  
E02  25572893.353   134386500.797       -1734.926          45.000    25572892.725   102971512.289       -1329.176          49.000  
G21  22693736.662   119256422.557        1934.180          46.000                                                                  
G02  23780363.083   124966652.491        2051.331          45.000                                                                  
E10  27284664.368   143382116.392       -2193.499          36.000    27284664.403   109864343.374       -1680.729          42.000  
G08  20882412.018   109737832.115        1077.587          48.000    20882408.664    85509977.536         839.524          45.000  
G16  23351903.100   122715101.662       -3832.787          43.000                                                                  
R07  23640435.513                3      -4654.238          23.000                                                                  
R14  23295548.878   124178208.980       -2638.691          32.000    23295550.350    96583213.444       -2052.094          35.000  
S31  39020348.943   205053424.499        -632.920          43.000  
E34  27256862.096   143235791.497         998.632          43.000    27256863.327   109752094.628         765.163          47.000  
E36  24369651.260   128063456.942        -135.416          45.000    24369652.764    98126598.821        -103.906          51.000  
E04  26157383.284   137457988.798        -998.620          43.000    26157380.476   105324957.880        -765.150          50.000  
G10  21577506.153   113390645.027       -3212.933          49.000    21577502.934    88356355.833       -2503.620          48.000  
E11  24254632.023   127459184.643       -1666.831          44.000    24254627.499    97663639.381       -1277.121          44.000  
E09  25410597.603   133533612.184        1356.601          47.000    25410596.073   102317949.614        1039.453          49.000  
G32  22068822.413   115972462.813         768.237          47.000    22068820.215    90368157.938         598.687          45.000  
E30                                                                  27790717.765                         475.321          28.000  
> 2024 04 09 09 58 30.0010000  0 27                     
S33  39978226.717   210087155.389        -632.116          44.000  
G23  24666082.203   129621155.226       -4036.301          38.000    24666078.402   101003672.110       -3144.819          42.000  
E25  26582605.307   139692505.443       -3406.677          43.000    26582607.046   107037154.498       -2610.508          49.000  
G27  20464131.447   107539782.123       -1220.582          50.000    20464127.624    83797221.974        -951.042          47.000  
R01  20447273.869   109302313.735        2345.498          50.000    20447268.872    85012984.012        1824.289          43.000  
R22  23447393.173   125164120.672       -3061.306          48.000    23447388.463    97349774.888       -2381.051          45.000  
R23  20573563.936   110054732.382        -959.123          48.000                                                                  
R24  21388679.163   114374906.104        1657.317          50.000    21388673.360    88958316.823        1288.936          47.000  
R08  20245180.901   108412041.980       -2068.817          49.000    20245172.562    84320479.656       -1609.157          50.000  
E02  25582831.630   134438724.298       -1747.053          47.000    25582830.651   103011527.722       -1338.604          49.000  
G21  22682697.421   119198412.808        1932.683          46.000                                                                  
G02  23768654.777   124905124.531        2050.322          46.000                                                                  
E10  27297188.587   143447921.576       -2194.289          38.000    27297187.447   109914765.497       -1681.221          42.000  
G08  20876301.947   109705724.357        1062.768          48.000    20876298.814    85484958.500         828.087          45.000  
G16  23373797.176   122830155.795       -3837.707          43.000                                                                  
R07  23666536.241                3      -4665.825          25.000                                                                  
R14  23310443.116   124257597.981       -2653.979          33.000    23310443.324    96644960.486       -2064.761          34.000  
E05  26344008.123                1       2344.782          29.000    26344006.240                3       1795.795          26.000  
S31  39023961.304   205072408.056        -632.981          43.000  
E30  27787206.128                3        607.401          25.000    27787211.733                         465.505          29.000  
E34  27251161.018   143205827.297         998.711          43.000    27251161.123   109729135.081         765.184          46.000  
E36  24370428.522   128067539.815        -136.881          46.000    24370429.813    98129727.272        -104.975          51.000  
E04  26163121.865   137488150.735       -1012.578          42.000    26163120.170   105348068.959        -775.738          49.000  
G10  21595874.446   113487174.237       -3222.577          49.000    21595871.762    88431573.397       -2511.187          47.000  
E11  24264151.464   127509210.045       -1668.388          43.000    24264147.100    97701970.528       -1278.407          44.000  
E09  25402877.799   133493049.969        1347.332          46.000    25402877.658   102286869.488        1032.323          49.000  
G32  22064487.061   115949679.051         750.360          47.000    22064483.861    90350404.339         584.819          44.000  
> 2024 04 09 09 59 00.0010000  0 27                     
S33  39981836.061   210106123.340        -632.570          44.000  
G23  24689124.851   129742246.149       -4036.273          38.000    24689120.959   101098028.649       -3145.253          41.000  
E25  26602062.384   139794748.724       -3409.413          43.000    26602063.033   107115496.728       -2612.425          48.000  
G27  20471149.944   107576668.076       -1238.613          49.000    20471146.701    83825964.280        -965.238          47.000  
R01  20434165.573   109232248.079        2325.609          49.000    20434161.640    84958488.507        1808.663          43.000  
R22  23464617.558   125256064.704       -3068.478          48.000    23464612.587    97421286.836       -2386.612          47.000  
R23  20578969.881   110083653.393        -968.952          48.000                                                                  
R24  21379389.534   114325230.378        1654.380          49.000    21379384.390    88919680.191        1286.736          47.000  
R08  20256844.497   108474500.877       -2095.086          49.000    20256836.771    84369058.803       -1629.534          50.000  
E02  25592841.175   134491323.618       -1759.627          47.000    25592840.155   103051831.094       -1348.322          50.000  
G21  22671668.532   119140456.961        1930.930          45.000                                                                  
G02  23756953.148   124843632.716        2049.127          45.000                                                                  
E10  27309715.914   143513757.467       -2195.166          39.000    27309715.211   109965211.154       -1681.933          42.000  
G08  20870278.628   109674071.684        1047.385          47.000    20870275.633    85460294.106         815.970          45.000  
G16  23395720.351   122945362.030       -3842.720          43.000                                                                  
R07  23692710.407                3      -4672.475          25.000                                                                  
R14  23325429.471                       -2670.289          31.000    23325429.337    96707089.688       -2076.701          34.000  
E05  26330622.474   138368313.7021       2346.190          32.000    26330618.165                        1797.623          28.000  
S31  39027575.377   205091399.510        -633.154          43.000  
E34  27245458.982   143175867.068         998.546          43.000    27245459.817   109706178.534         765.118          46.000  
E36  24371216.296   128071675.117        -138.750          47.000    24371217.037    98132895.901        -106.427          52.000  
E04  26168942.598   137518737.521       -1026.652          43.000    26168940.578   105371505.611        -786.698          49.000  
G10  21614299.868   113584000.222       -3232.637          49.000    21614297.224    88507022.180       -2518.909          48.000  
E11  24273681.103   127559286.547       -1670.204          43.000    24273676.398    97740340.832       -1279.894          44.000  
E09  25395214.510   133452780.023        1337.472          46.000    25395214.347   102256013.317        1024.800          49.000  
G32  22060256.613   115927443.422         731.933          49.000    22060252.471    90333077.871         570.311          44.000  
E30                                                                  27783775.096                         456.560          28.000  
> 2024 04 09 09 59 30.0010000  0 27                     
S33  39985447.479   210125102.581        -632.938          44.000  
G23  24712167.465   129863339.235       -4036.670          37.000    24712164.064   101192386.864       -3145.297          39.000  
E25  26621532.191   139897064.750       -3411.887          43.000    26621533.071   107193894.715       -2614.230          48.000  
G27  20478273.056   107614099.776       -1256.917          49.000    20478270.009    83855131.837        -979.507          48.000  
R01  20421171.206   109162784.788        2305.214          49.000    20421166.915    84904461.499        1792.908          43.000  
R22  23481880.771   125348221.195       -3075.641          47.000    23481876.736    97492964.031       -2392.173          46.000  
R23  20584432.118   110112873.206        -979.104          48.000                                                                  
R24  21370116.191   114275643.067        1651.292          50.000    21370110.807    88881112.311        1284.512          48.000  
R08  20268654.924   108537745.399       -2121.195          49.000    20268647.196    84418249.002       -1649.889          50.000  
E02  25602922.292   134544298.288       -1772.109          47.000    25602920.919   103092422.064       -1357.752          50.000  
G21  22660649.998   119082556.248        1929.146          46.000                                                                  
G02  23745258.250   124782177.975        2047.820          45.000                                                                  
E10  27322249.681   143579625.318       -2196.038          39.000    27322249.500   110015681.292       -1682.730          42.000  
G08  20864342.586   109642877.248        1032.066          48.000    20864339.521    85435986.757         804.124          46.000  
G16  23417671.765   123060717.540       -3847.800          43.000                                                                  
R07  23718880.028                3      -4683.591          20.000                                                                  
R14  23340506.487                       -2687.149          29.000    23340505.431    96769598.870       -2089.830          32.000  
E05  26317222.914   138297904.507        2348.021          34.000    26317220.602   105968535.2321       1798.836          31.000  
S31  39031191.539   205110401.596        -633.922          43.000  
E34  27239757.887   143145911.320         998.386          42.000    27239759.680   109683225.446         764.975          47.000  
E36  24372013.687   128075863.683        -140.471          47.000    24372014.445    98136105.327        -107.635          52.000  
E04  26174842.083   137549749.798       -1040.701          42.000    26174842.076   105395268.299        -797.490          49.000  
G10  21632781.482   113681121.068       -3242.397          49.000    21632778.496    88582700.788       -2526.569          47.000  
E11  24283219.633   127609415.236       -1671.831          43.000    24283215.460    97778751.115       -1281.055          44.000  
E09  25387607.937   133412804.943        1327.550          46.000    25387606.931   102225383.049        1017.312          48.000  
G32  22056130.333   115905758.881         713.628          48.000    22056126.029    90316180.841         556.047          44.000  
E30                                                                  27780409.945                         446.713          24.000  
