     3.00           OBSERVATION DATA    M: Mixed            RINEX VERSION / TYPE
CONVBIN 2.4.3                           20240409 034442 UTC PGM / RUN BY / DATE 
format: u-blox UBX                                          COMMENT             
log: data/2024-04-09/20240409033000.ubx                     COMMENT             
AQUI00CHL                                                   MARKER NAME         
                                                            MARKER NUMBER       
                                                            MARKER TYPE         
                                                            OBSERVER / AGENCY   
UNKNOWN             UBLOX-ZED-F9P                           REC # / TYPE / VERS 
UNKNOWN             TWIVSP6037L                             ANT # / TYPE        
  1713381.0000 -5047934.0000 -3490983.0000                  APPROX POSITION XYZ 
        0.0000        0.0000        0.0000                  ANTENNA: DELTA H/E/N
G    8 C1C L1C D1C S1C C2L L2L D2L S2L                      SYS / # / OBS TYPES 
R    8 C1C L1C D1C S1C C2C L2C D2C S2C                      SYS / # / OBS TYPES 
E    8 C1C L1C D1C S1C C7Q L7Q D7Q S7Q                      SYS / # / OBS TYPES 
S    4 C1C L1C D1C S1C                                      SYS / # / OBS TYPES 
  2024    04    09    03    30   00.4910000     GPS         TIME OF FIRST OBS   
  2024    04    09    03    44   30.4910000     GPS         TIME OF LAST OBS    
                                                            END OF HEADER       
> 2024 04 09 03 30 00.4910000  0 26                     
S33  36971180.544   194284996.6171       -736.387          44.000  
G24  21626894.065   113650018.8431      -4478.554          41.000    21626900.799    88558493.6581      -3489.716          37.000  
E09  24880767.352                       -3174.236          31.000    24880776.220   100184592.1051      -2431.826          37.000  
R11  18515816.606    98943043.8281       2454.413          50.000    18515809.846    76955559.2641       1908.938          48.000  
R09  18670835.558    99701530.1101      -3449.296          49.000    18670832.840    77545721.5861      -2682.900          50.000  
G28  19023351.949    99968490.0311       1042.260          47.000    19023347.755    77897434.7511        812.209          46.000  
G32  21984674.932   115530129.9951      -3127.400          39.000    21984678.606    90023466.5091      -2437.632          33.000  
E12  21832726.723   114731957.9911       1368.755          45.000    21832724.005    87911661.4331       1048.665          49.000  
E10  23151991.938   121664739.3181       2170.348          47.000    23151993.210    93223746.7331       1662.986          50.000  
E31  21028561.081   110506179.9381       -994.538          47.000    21028561.484    84673640.5141       -762.007          52.000  
G12  19287241.802   101355478.1971      -2099.645          46.000    19287236.448    78978479.2861      -1636.131          45.000  
R20  16861117.816    90164307.4741      -2519.805          43.000    16861114.331    70127868.2071      -1959.829          44.000  
R10  16671412.726    88868017.7021       -650.812          48.000                                                                  
R21  17398090.315    93101131.6391       1804.107          52.000    17398083.119    72411812.5831       1403.124          47.000  
E24  22181009.395   116561993.6901        794.103          47.000    22181007.183    89313773.5521        608.376          51.000  
S31  36016569.619   189268440.1181       -735.528          43.000  
G29  17893593.514    94031797.5051       -668.533          49.000    17893589.422    73271668.4721       -520.913          47.000  
G25  17795814.928    93517856.6411       -543.721          48.000    17795812.826    72871159.1131       -423.850          46.000  
G20  21256570.560   111704063.9681         83.350          37.000                                                                  
G18  20527987.677   107875468.4181       2931.118          44.000    20527986.008    84058942.9281       2283.831          44.000  
G05  21909063.037   115132945.7621       1329.719          44.000    21909057.221    89713972.6941       1035.375          35.000  
E33  21621714.439   113623149.4761      -1539.470          50.000    21621712.147    87062086.0721      -1179.647          49.000  
G11  21021048.405   110466586.7671      -3517.749          42.000    21021043.016    86078089.3951      -2740.979          42.000  
E26                                                                  25014888.962                3      -2580.515          25.000  
E05                                                                  23154877.334                3      -1527.524          22.000  
G31                                                                  21499452.818                        1970.056          26.000  
> 2024 04 09 03 30 30.4910000  0 26                     
S33  36975383.892   194307085.430        -736.494          44.000  
G24  21652468.308   113784409.330       -4480.965          38.000    21652474.673    88663213.110       -3491.895          34.000  
E09  24898883.730                       -3173.612          29.000    24898890.293   100257535.787       -2431.503          32.000  
R11  18502050.566    98869485.826        2449.130          48.000    18502045.193    76898347.521        1904.779          49.000  
R09  18690252.641    99805210.438       -3462.997          49.000    18690249.128    77626361.795       -2693.474          50.000  
G28  19017448.674    99937466.045        1025.814          47.000    19017443.802    77873260.234         799.281          47.000  
G32  22002538.011   115624000.224       -3131.319          36.000    22002542.012    90096611.859       -2440.516          33.000  
E12  21824943.189   114691057.822        1357.810          45.000    21824940.970    87880322.380        1040.298          49.000  
E10  23139617.159   121599712.182        2164.550          46.000    23139618.567    93173920.880        1658.634          49.000  
E31  21034251.726   110536084.897        -999.387          48.000    21034252.465    84696554.707        -765.740          52.000  
G12  19299247.909   101418569.732       -2106.920          46.000    19299242.372    79027641.491       -1641.754          45.000  
R20  16875314.140    90240221.596       -2541.467          43.000    16875311.097    70186912.527       -1976.567          44.000  
R10  16675126.768    88887814.092        -669.219          49.000                                                                  
R21  17388031.134    93047308.218        1783.755          51.000    17388024.869    72369949.948        1387.338          48.000  
E24  22176478.037   116538182.825         792.912          47.000    22176476.256    89295528.875         607.597          51.000  
S31  36020768.192   189290503.356        -735.460          44.000  
G29  17897442.360    94052020.842        -680.025          49.000    17897436.746    73287426.931        -529.872          46.000  
G25  17798942.540    93534294.535        -552.406          48.000    17798940.945    72883967.839        -430.378          46.000  
G20  21256138.853   111701783.913          68.573          37.000                                                                  
G18  20511269.591   107787617.509        2925.222          44.000    20511267.981    83990487.988        2279.478          43.000  
G05  21901484.854   115093127.910        1324.670          41.000    21901480.426    89682945.917        1031.994          37.000  
E33  21630542.169   113669540.675       -1553.472          50.000    21630540.292    87097632.589       -1190.318          50.000  
G11  21041164.726   110572297.152       -3529.730          41.000    21041159.146    86160461.077       -2750.323          41.000  
E26                                                                  25034129.670                3      -2585.029          25.000  
E05                                                                  23166309.908                       -1538.203          26.000  
G31                                                                  21485042.283                        1964.353          28.000  
> 2024 04 09 03 31 00.4910000  0 27                     
S33  36979586.721   194329170.114        -736.536          45.000  
G24  21678053.186   113918854.589       -4482.821          35.000    21678058.544                       -3492.592          31.000  
E09  24916999.268                       -3172.097          29.000    24917002.030                       -2430.606          29.000  
R11  18488314.465    98796088.408        2443.627          48.000    18488310.115    76841260.645        1900.618          50.000  
R09  18709746.047    99909296.473       -3476.443          51.000    18709741.621    77707317.558       -2703.948          50.000  
G28  19011638.578    99906936.635        1009.110          46.000    19011634.081    77849471.086         786.327          47.000  
G32  22020420.905   115717971.431       -3133.880          35.000    22020423.736                       -2441.201          31.000  
E12  21817221.534   114650476.671        1347.250          45.000    21817218.341    87849227.764        1032.255          49.000  
E10  23127274.727   121534853.563        2159.020          46.000    23127276.401    93124224.158        1654.227          49.000  
E31  21039970.075   110566133.569       -1004.022          48.000    21039970.404    84719579.021        -769.401          52.000  
G12  19311294.548   101481877.416       -2114.025          46.000    19311288.973    79076972.184       -1647.573          45.000  
R20  16889629.999    90316778.627       -2562.814          43.000    16889627.513    70246456.853       -1993.220          44.000  
R10  16678943.749    88908160.186        -687.557          49.000                                                                  
R21  17378087.367    92994095.404        1763.359          52.000    17378082.036    72328562.272        1371.384          48.000  
E24  22171953.214   116514405.805         791.823          47.000    22171951.534    89277310.136         606.681          51.000  
S31  36024965.802   189312563.028        -735.626          44.000  
G29  17901355.419    94072584.758        -691.267          50.000    17901349.792    73303450.776        -538.802          46.000  
G25  17802118.808    93550986.453        -560.923          47.000    17802117.569    72896974.513        -437.087          46.000  
G20  21255787.123   111699944.473          54.065          35.000                                                                  
G18  20494582.502   107699938.491        2919.521          42.000    20494583.132    83922167.033        2274.998          44.000  
G05  21893935.753   115053458.378        1319.387          41.000    21893932.560    89652034.669        1028.152          39.000  
E33  21639449.232   113716345.268       -1567.223          50.000    21639446.893    87133495.857       -1200.829          50.000  
G11  21061347.610   110678360.976       -3541.638          43.000    21061341.857    86243108.243       -2759.412          41.000  
E26                                                                  25053403.168                3      -2588.110          26.000  
E05                                                                  23177792.924                3      -1538.104          22.000  
R22                                                                  21548901.381                3       2807.484          13.000  
G31                                                                  21470666.981                        1959.187          26.000  
> 2024 04 09 03 31 30.4910000  0 27                     
S33  36983789.022   194351255.110        -736.127          44.000  
G24  21703647.851   114053354.968       -4484.917          32.000    21703653.169                       -3494.524          28.000  
E09  24935107.765                       -3171.160          27.000    24935110.990                       -2429.476          28.000  
R11  18474609.607    98722857.260        2438.400          47.000    18474606.184    76784303.131        1896.431          50.000  
R22  21533066.157                3       3008.002          11.000                                                                  
R09  18729314.742   100013790.608       -3489.950          51.000    18729310.761    77788590.721       -2714.484          50.000  
G28  19005924.039    99876906.653         992.517          46.000    19005919.837    77826071.110         773.424          47.000  
G32  22038322.981   115812043.654       -3136.827          34.000    22038323.765                       -2444.380          30.000  
E12  21809559.834   114610218.732        1336.462          44.000    21809557.111    87818380.806        1024.083          48.000  
E10  23114965.553   121470168.127        2153.338          46.000    23114966.738    93074660.144        1649.885          48.000  
E31  21045715.537   110596329.575       -1009.008          48.000    21045716.243    84742716.227        -773.085          52.000  
G12  19323382.736   101545404.703       -2121.377          46.000    19323377.271    79126473.932       -1652.979          44.000  
R20  16904066.076    90393977.886       -2584.156          41.000    16904064.304    70306500.752       -2009.681          44.000  
R10  16682864.591    88929060.776        -706.042          49.000                                                                  
R21  17368258.645    92941498.134        1742.925          52.000    17368252.618    72287653.325        1355.633          48.000  
E24  22167434.692   116490666.203         790.744          46.000    22167434.067    89259120.064         605.857          52.000  
S31  36029163.912   189334622.711        -735.318          44.000  
G29  17905333.616    94093490.903        -702.539          50.000    17905328.159    73319741.294        -547.388          45.000  
G25  17805345.163    93567936.556        -569.459          48.000    17805342.952    72910182.353        -443.516          47.000  
G31  21456343.302                1       2506.948          30.000    21456308.221                3       1954.019          25.000  
G20  21255521.326   111698550.474          38.531          35.000                                                                  
G18  20477931.014   107612437.203        2913.555          43.000    20477931.865    83853984.538        2270.375          44.000  
G05  21886416.019   115013943.691        1314.812          41.000    21886413.893    89621244.092        1024.513          41.000  
E33  21648434.498   113763565.214       -1580.912          50.000    21648432.553    87169677.387       -1211.276          50.000  
G11  21081598.113   110784778.661       -3553.290          44.000    21081592.328    86326031.123       -2768.738          40.000  
E26                                                                  25072706.437                       -2593.328          26.000  
E05                                                                  23189335.018                3      -1549.770          21.000  
> 2024 04 09 03 32 00.4910000  0 26                     
S33  36987991.352   194373338.982        -736.244          44.000  
G24  21729252.054                       -4486.231          29.000    21729258.803                3      -3495.719          26.000  
E09  24953214.205                       -3170.236          26.000    24953212.405                       -2429.111          25.000  
R11  18460937.797    98649795.163        2432.538          48.000    18460933.858    76727477.053        1891.972          50.000  
R09  18748958.132   100118691.248       -3503.361          51.000    18748954.230    77870180.022       -2724.864          49.000  
G28  19000305.074    99847377.586         975.927          47.000    19000300.775    77803061.440         760.579          48.000  
G32  22056243.416   115906213.199       -3139.602          31.000    22056244.154                       -2447.261          28.000  
E12  21801960.681   114570284.981        1325.789          44.000    21801958.005    87787782.258        1015.803          48.000  
E10  23102689.055   121405657.152        2147.545          46.000    23102690.736    93025229.798        1645.402          49.000  
E31  21051489.932   110626673.187       -1013.860          47.000    21051490.371    84765966.526        -776.872          52.000  
G12  19335513.945   101609151.985       -2128.529          46.000    19335508.026    79176147.113       -1658.638          44.000  
R20  16918622.570    90471815.742       -2605.052          42.000    16918620.316    70367041.313       -2026.348          44.000  
R10  16686889.233    88950517.177        -724.588          49.000                                                                  
R21  17358544.541    92889517.474        1722.390          52.000    17358538.500    72247223.956        1339.687          47.000  
E24  22162924.451   116466964.198         789.632          46.000    22162923.769    89240958.804         604.880          52.000  
S31  36033361.178   189356680.581        -735.196          44.000  
G29  17909377.041    94114737.682        -713.856          49.000    17909371.472    73336297.233        -556.312          46.000  
G25  17808620.070    93585145.515        -577.943          48.000    17808617.505    72923591.944        -450.417          46.000  
G31  21442052.678                        2499.664          30.000    21442038.420                        1947.557          28.000  
G20  21255341.781   111697603.209          23.590          36.000                                                                  
G18  20461314.466   107525115.929        2907.675          43.000    20461314.298    83785942.264        2265.825          44.000  
G05  21878926.337   114974586.235        1309.453          42.000    21878924.230    89590576.006        1020.426          40.000  
E33  21657499.209   113811199.098       -1594.718          50.000    21657496.586    87206176.090       -1221.984          50.000  
G11  21101915.314   110891547.081       -3564.868          45.000    21101909.777    86409227.279       -2777.979          41.000  
E26                                                                  25092041.815                3      -2597.246          25.000  
E05                                                                  23200930.789                3      -1560.582          21.000  
> 2024 04 09 03 32 30.4910000  0 26                     
S33  36992192.394   194395414.754        -736.171          44.000  
G24  21754864.320   114322503.059       -4487.389          28.000    21754869.236                3      -3497.004          23.000  
R11  18447296.785    98576898.812        2426.885          49.000    18447292.540    76670779.912        1887.700          50.000  
R09  18768677.018   100223990.985       -3516.844          50.000    18768672.689    77952079.772       -2735.275          49.000  
G28  18994781.220    99818344.940         959.308          47.000    18994775.969    77780438.602         747.467          47.000  
G32  22074178.953                       -3143.047          31.000    22074181.122                       -2449.340          28.000  
E12  21794421.878   114530670.333        1314.897          44.000    21794419.755    87757428.201        1007.769          48.000  
E10  23090445.432   121341315.976        2141.745          46.000    23090447.080    92975929.559        1641.072          49.000  
E31  21057290.976   110657158.751       -1018.833          47.000    21057291.573    84789325.598        -780.543          52.000  
G12  19347684.580   101673113.212       -2135.859          45.000    19347679.130    79225987.034       -1664.156          44.000  
R20  16933296.596    90550282.261       -2626.023          42.000    16933293.532    70428070.809       -2042.775          44.000  
R10  16691017.925    88972524.457        -742.905          48.000                                                                  
R21  17348945.707    92838148.890        1701.922          53.000    17348938.821    72207270.643        1323.792          47.000  
E24  22158420.215   116443294.061         788.305          46.000    22158419.630    89222821.947         604.062          52.000  
S31  36037557.262   189378730.979        -735.234          44.000  
G29  17913483.757    94136317.404        -725.138          49.000    17913477.944    73353112.577        -564.758          46.000  
G25  17811943.442    93602608.203        -586.513          48.000    17811940.260    72937199.229        -456.971          46.000  
G20  21255243.572   111697098.227           8.691          34.000                                                                  
G18  20444731.346   107437971.084        2901.656          44.000    20444731.093    83718037.481        2261.026          45.000  
G05  21871466.936   114935382.355        1303.883          43.000    21871463.565    89560027.591        1015.988          40.000  
E33  21666641.048   113859239.559       -1608.196          50.000    21666638.129    87242986.317       -1232.300          50.000  
G11  21122297.958   110998657.138       -3576.031          46.000    21122292.612    86492689.684       -2786.670          40.000  
E09                                                                  24971308.572                       -2428.197          25.000  
E26                                                                  25111406.748                3      -2600.502          24.000  
E05                                                                  23212580.232                3      -1559.112          17.000  
G31                                                                  21427795.332                        1942.481          28.000  
> 2024 04 09 03 33 00.4910000  0 26                     
S33  36996392.457   194417486.516        -735.956          44.000  
R11  18433687.462    98504174.465        2421.179          50.000    18433683.059    76614216.562        1883.175          50.000  
R09  18788471.719   100329691.663       -3530.095          50.000    18788467.544    78034291.346       -2745.740          49.000  
G28  18989351.881    99789813.983         942.479          47.000    18989346.777    77758206.702         734.457          47.000  
G32  22092132.324                       -3146.487          27.000    22092135.504                       -2451.211          26.000  
E12  21786945.970   114491379.544        1304.289          44.000    21786942.741    87727322.329         999.309          48.000  
E10  23078235.197   121277149.694        2135.740          46.000    23078236.242    92926763.318        1636.512          48.000  
E31  21063119.830   110687790.340       -1023.580          47.000    21063120.642    84812796.561        -784.232          52.000  
G12  19359897.511   101737292.381       -2143.096          45.000    19359892.611    79275996.757       -1669.913          45.000  
R20  16948087.496    90629377.167       -2646.984          42.000    16948084.986    70489589.051       -2058.707          44.000  
R10  16695250.954    88995088.093        -761.605          48.000                                                                  
R21  17339461.886    92787397.746        1681.365          52.000    17339455.125    72167797.583        1307.662          48.000  
E24  22153922.752   116419659.760         787.146          46.000    22153922.199    89204712.570         603.058          52.000  
S31  36041752.724   189400777.802        -734.733          44.000  
G29  17917653.823    94158232.342        -736.096          49.000    17917647.735    73370189.169        -573.720          45.000  
G25  17815315.611    93620329.194        -594.976          48.000    17815311.955    72951007.798        -463.765          45.000  
G31  21413593.850   112529182.9231       2485.334          29.000    21413584.565                        1936.656          27.000  
G20  21255232.773   111697040.726          -5.139          34.000                                                                  
G18  20428184.031   107351008.900        2895.511          45.000    20428182.716    83650275.020        2256.116          45.000  
G05  21864036.775   114896338.615        1298.838          42.000    21864032.965    89529603.979        1012.264          40.000  
E33  21675860.662   113907688.970       -1621.776          50.000    21675857.595    87280109.903       -1242.790          50.000  
G11  21142745.382   111106109.655       -3587.384          46.000    21142740.554    86576418.872       -2795.337          40.000  
E09                                                                  24989401.368                1      -2427.798          29.000  
E26                                                                  25130803.723                3      -2603.552          22.000  
E05                                                                  23224279.515                3      -1574.178          19.000  
G24                                                                  21780487.869                3      -3494.569          20.000  
> 2024 04 09 03 33 30.4910000  0 26                     
S33  37000591.951   194439556.482        -735.714          44.000  
R11  18420111.777    98431627.632        2415.150          50.000    18420106.651    76557791.280        1878.410          50.000  
R09  18808341.558   100435794.599       -3543.617          50.000    18808337.834    78116815.788       -2756.235          50.000  
G28  18984018.635    99761788.610         925.452          48.000    18984013.985    77736368.762         721.209          47.000  
E12  21779531.119   114452415.986        1293.026          43.000    21779528.051    87697467.149         990.791          48.000  
E10  23066058.382   121213162.037        2129.760          46.000    23066059.590    92877733.925        1631.969          48.000  
E31  21068977.030   110718570.735       -1028.739          47.000    21068977.709    84836381.532        -788.140          52.000  
G12  19372152.188   101801691.759       -2150.478          44.000    19372147.270    79326178.062       -1675.792          45.000  
R20  16962996.323    90709099.695       -2667.896          43.000    16962994.092    70551595.492       -2075.209          45.000  
R10  16699588.874    89018211.857        -780.354          49.000                                                                  
R21  17330093.781    92737267.890        1660.483          52.000    17330087.114    72128807.726        1291.445          48.000  
E24  22149432.726   116396064.031         785.616          46.000    22149431.854    89186632.734         602.046          52.000  
S31  36045947.223   189422821.730        -734.489          44.000  
G29  17921887.632    94180483.159        -747.425          49.000    17921881.602    73387527.503        -582.502          45.000  
G25  17818738.016    93638311.716        -603.913          49.000    17818733.718    72965020.136        -470.582          45.000  
G31  21399426.867   112454739.149        2477.498          31.000    21399413.855                        1930.854          27.000  
G20  21255307.689   111697434.377         -20.764          32.000                                                                  
G18  20411671.335   107264234.157        2889.321          45.000    20411669.090    83582658.633        2251.293          45.000  
G05  21856638.817   114857459.689        1293.307          43.000    21856635.635    89499308.818        1007.297          40.000  
E33  21685157.840   113956548.347       -1635.631          50.000    21685155.346    87317547.616       -1253.374          50.000  
G11  21163257.908   111213903.995       -3599.011          46.000    21163253.118    86660414.418       -2804.224          39.000  
E09                                                                  25007490.534                       -2427.087          28.000  
E26                                                                  25150233.445                3      -2618.747          21.000  
E05                                                                  23236031.444                3      -1573.780          15.000  
G24                                                                  21806117.011                3      -3488.945          18.000  
G32                                                                  22110105.794                       -2453.930          27.000  
> 2024 04 09 03 34 00.4910000  0 27                     
S33  37004791.080   194461622.570        -735.517          44.000  
R11  18406569.371    98359260.246        2409.077          50.000    18406563.466    76501505.558        1873.719          49.000  
R09  18828285.771   100542297.490       -3556.780          49.000    18828283.181    78199651.353       -2766.475          50.000  
G28  18978781.947    99734269.722         908.876          47.000    18978777.372    77714925.482         708.149          48.000  
E12  21772176.533   114413779.951        1282.189          42.000    21772175.685    87667862.966         982.433          47.000  
E10  23053916.501   121149353.764        2123.743          46.000    23053917.415    92828842.010        1627.404          48.000  
E31  21074862.562   110749499.723       -1033.625          47.000    21074863.308    84860080.373        -791.977          52.000  
G12  19384449.147   101866310.445       -2157.648          46.000    19384444.156    79376530.286       -1681.423          45.000  
R20  16978022.205    90789445.262       -2688.572          43.000    16978018.847    70614086.486       -2091.039          44.000  
R10  16704032.069    89041896.404        -798.924          48.000                                                                  
R21  17320840.513    92687760.080        1639.794          51.000    17320835.568    72090301.692        1275.434          48.000  
E24  22144949.926   116372506.520         784.429          46.000    22144948.674    89168582.202         601.094          51.000  
S31  36050141.675   189444862.801        -734.572          44.000  
G29  17926185.186    94203067.579        -758.392          49.000    17926178.721    73405125.755        -590.905          44.000  
G25  17822209.488    93656555.992        -612.506          48.000    17822205.349    72979236.461        -477.226          45.000  
G31  21385301.274   112380520.742        2470.180          32.000    21385290.722                        1924.820          29.000  
G20  21255468.243   111698279.975         -35.724          35.000                                                                  
G18  20395194.296   107177648.700        2883.016          44.000    20395191.978    83515189.738        2246.524          45.000  
G05  21849272.456   114818746.775        1287.744          43.000    21849269.765    89469142.989        1003.286          39.000  
E33  21694532.448   114005815.730       -1649.104          49.000    21694530.909    87355297.950       -1263.746          51.000  
G11  21183834.972   111322036.522       -3609.948          46.000    21183830.264    86744673.610       -2813.092          40.000  
E09                                                                  25025565.933                       -2426.829          29.000  
E26                                                                  25169691.961                3      -2613.145          20.000  
E11                                                                  24234182.228    97581008.7651       1854.010          32.000  
G24                                                                  21831752.047                3      -3494.753          19.000  
R22                                                                  21431174.229                3       2737.017          11.000  
G32                                                                  22128092.871                       -2456.436          28.000  
> 2024 04 09 03 34 30.4910000  0 26                     
S33  37008989.720   194483685.967        -735.464          44.000  
R11  18393061.272    98287076.194        2403.033          50.000    18393055.126    76445362.446        1868.995          50.000  
R09  18848305.303   100649200.247       -3570.122          50.000    18848302.146    78282797.863       -2776.759          49.000  
G28  18973642.396    99707259.886         891.689          48.000    18973637.829    77693878.866         694.790          48.000  
E12  21764888.151   114375473.503        1271.226          43.000    21764886.462    87638511.301         973.976          48.000  
E10  23041808.892   121085727.299        2117.817          46.000    23041809.754    92780089.396        1622.749          49.000  
E31  21080777.140   110780578.688       -1038.533          48.000    21080777.433    84883894.135        -795.781          52.000  
G12  19396788.447   101931150.756       -2165.181          46.000    19396783.157    79427055.179       -1686.978          45.000  
R20  16993162.356    90870410.503       -2709.353          42.000    16993159.795    70677059.451       -2107.380          44.000  
R10  16708581.027    89066144.162        -817.851          49.000                                                                  
R21  17311705.856    92638876.719        1618.905          51.000    17311700.455    72052281.343        1259.083          48.000  
E24  22140474.954   116348988.651         783.273          46.000    22140473.058    89150562.038         600.146          51.000  
S31  36054335.665   189466902.034        -734.547          44.000  
G29  17930546.136    94225985.021        -769.531          49.000    17930540.304    73422983.521        -599.554          45.000  
G25  17825731.204    93675063.991        -621.498          48.000    17825727.106    72993658.279        -484.328          45.000  
G31  21371218.884                        2462.303          30.000    21371214.440    87511491.1151       1918.797          32.000  
G20  21255717.162   111699579.873         -50.964          34.000                                                                  
G18  20378754.103   107091256.023        2876.577          43.000    20378751.255    83447871.051        2241.282          45.000  
G05  21841937.479   114780203.807        1281.942          43.000    21841934.212    89439109.640         999.108          37.000  
E33  21703985.819   114055490.777       -1662.692          49.000    21703984.157    87393360.635       -1273.966          51.000  
E11  24220355.659                1       2419.944          31.000    24220364.075    97525372.546        1854.740          35.000  
G11  21204475.573   111430505.289       -3621.338          47.000    21204472.087    86829194.717       -2821.832          40.000  
E09                                                                  25043639.291                       -2425.792          30.000  
E26                                                                  25189182.920                3      -2618.776          19.000  
G24                                                                  21857402.419                3      -3502.386          18.000  
G32                                                                  22146094.012                3      -2458.859          25.000  
> 2024 04 09 03 35 00.4910000  0 26                     
S33  37013188.183   194505748.432        -735.241          44.000  
R11  18379587.870    98215079.497        2396.907          50.000    18379582.176    76389365.002        1864.209          50.000  
R09  18868400.435   100756502.395       -3583.268          51.000    18868395.951    78366255.066       -2786.990          49.000  
G28  18968600.395    99680761.872         874.921          48.000    18968595.339    77673231.067         681.739          48.000  
E12  21757662.336   114337498.930        1260.447          43.000    21757660.186    87609413.896         965.785          48.000  
E10  23029736.436   121022285.269        2111.783          46.000    23029736.231    92731478.102        1618.193          48.000  
E31  21086720.207   110811809.314       -1043.541          48.000    21086720.489    84907824.088        -799.454          52.000  
G12  19409169.256   101996213.574       -2172.360          46.000    19409164.283    79477753.481       -1692.860          45.000  
R20  17008418.454    90951993.906       -2729.551          42.000    17008415.654    70740513.202       -2123.194          44.000  
R10  16713235.812    89090957.978        -836.501          48.000                                                                  
R21  17302688.289    92590620.436        1598.166          51.000    17302682.834    72014748.741        1242.928          47.000  
E24  22136008.127   116325511.973         781.993          46.000    22136005.524    89132573.432         599.226          51.000  
S31  36058529.349   189488939.247        -734.188          44.000  
G29  17934970.872    94249235.137        -780.315          49.000    17934964.778    73441100.513        -608.112          45.000  
G25  17829303.520    93693837.799        -630.108          48.000    17829299.719    73008287.224        -490.966          45.000  
G31  21357184.288                        2454.766          29.000    21357181.544    87454017.922        1913.062          33.000  
G20  21256050.214   111701336.439         -66.229          29.000                                                                  
G18  20362351.681   107005059.946        2869.730          45.000    20362348.726    83380705.520        2236.212          45.000  
G05  21834636.203   114741835.787        1276.234          43.000    21834632.304    89409212.610         994.946          35.000  
E33  21713516.231   114105573.397       -1676.069          49.000    21713514.677    87431735.629       -1284.249          52.000  
E11  24206537.753   127206216.1671       2419.667          33.000    24206548.329    97469745.651        1853.893          37.000  
G11  21225180.091   111539308.625       -3632.239          46.000    21225175.910    86913976.549       -2830.377          39.000  
E09                                                                  25061704.244                       -2423.903          31.000  
E26                                                                  25208701.451                3      -2628.956          20.000  
G24                                                                  21883057.734                3      -3508.387          14.000  
G32                                                                  22164109.920                3      -2460.877          25.000  
> 2024 04 09 03 35 30.4910000  0 26                     
S33  37017385.759   194527807.860        -735.665          44.000  
R11  18366149.942    98143272.298        2390.166          51.000    18366144.844    76333514.979        1858.923          50.000  
R09  18888568.290   100864201.546       -3596.822          50.000    18888564.459    78450021.024       -2797.667          49.000  
G28  18963655.543    99654776.492         857.399          47.000    18963650.028    77652982.724         668.092          48.000  
E12  21750498.631   114299856.448        1249.022          43.000    21750497.407    87580570.991         957.040          49.000  
E10  23017698.975   120959028.413        2105.233          47.000    23017698.986    92683008.680        1613.089          48.000  
E31  21092692.378   110843191.314       -1048.787          48.000    21092692.181    84931870.052        -803.608          52.000  
G12  19421592.514   102061498.733       -2180.076          47.000    19421587.842    79528625.011       -1698.698          45.000  
R20  17023789.833    91034189.734       -2750.386          42.000    17023787.299    70804443.267       -2139.066          44.000  
R10  16717997.171    89116338.089        -855.770          49.000                                                                  
R21  17293788.192    92542991.861        1576.882          52.000    17293782.107    71977704.302        1226.358          47.000  
E24  22131548.588   116302076.207         780.436          47.000    22131546.101    89114616.180         597.927          51.000  
S31  36062722.321   189510973.682        -734.631          43.000  
G29  17939458.457    94272815.773        -791.689          49.000    17939452.616    73459475.023        -616.877          46.000  
G25  17832926.638    93712877.629        -639.371          48.000    17832922.965    73023123.456        -498.096          46.000  
G31  21343191.120   112159250.619        2445.653          31.000    21343191.826    87396727.027        1906.865          33.000  
G20  21256464.018   111703472.5821        -81.958          30.000                                                                  
G18  20345987.019   106919062.300        2862.988          46.000    20345983.890    83313694.608        2231.061          46.000  
G05  21827368.908   114703643.783        1269.683          43.000    21827364.951    89379452.699         989.615          35.000  
E33  21723124.046   114156061.524       -1689.914          49.000    21723122.149    87470421.333       -1294.865          52.000  
E11  24192724.497   127133630.427        2418.969          36.000    24192735.211    97414128.502        1853.302          40.000  
G11  21245948.097   111648442.824       -3643.542          46.000    21245942.730    86999016.176       -2839.160          38.000  
E09                                                                  25079760.318                       -2423.192          27.000  
E26                                                                  25228248.567                3      -2626.123          19.000  
G24                                                                  21908709.958                3      -3508.915          15.000  
G32                                                                  22182141.830                3      -2462.495          24.000  
> 2024 04 09 03 36 00.4910000  0 26                     
S33  37021583.562   194549866.576        -735.315          44.000  
E09  25097805.639                3      -3161.494          25.000    25097809.157                3      -2421.632          23.000  
R11  18352748.977    98071659.157        2383.870          51.000    18352743.451    76277815.868        1854.015          50.000  
R09  18908811.167   100972298.280       -3609.989          50.000    18908807.412    78534096.216       -2807.697          49.000  
G28  18958808.884    99629306.906         840.295          48.000    18958803.406    77633136.296         654.686          48.000  
E12  21743399.048   114262548.727        1237.956          43.000    21743398.076    87551984.587         948.644          49.000  
E10  23005696.834   120895959.784        2099.109          46.000    23005697.534    92634683.483        1608.434          49.000  
E31  21098693.504   110874726.839       -1053.838          48.000    21098693.316    84956033.640        -807.511          52.000  
G12  19434058.595   102127007.589       -2187.474          47.000    19434053.198    79579670.848       -1704.454          45.000  
R20  17039275.503    91116997.359       -2770.426          43.000    17039272.174    70868849.204       -2154.579          43.000  
R10  16722864.736    89142287.813        -874.637          48.000                                                                  
R21  17285005.229    92495994.180        1555.883          51.000    17284999.903    71941150.551        1210.289          47.000  
E24  22127096.985   116278683.410         778.825          47.000    22127094.788    89096691.851         596.740          51.000  
S31  36066915.263   189533007.440        -734.612          44.000  
G29  17944007.645    94296726.853        -802.626          49.000    17944003.053    73478107.045        -625.546          46.000  
G25  17836600.522    93732186.097        -648.349          48.000    17836597.554    73038169.020        -505.116          46.000  
G31  21329244.443   112085964.990        2438.724          32.000    21329245.625                        1901.048          31.000  
G20  21256980.057   111706147.867         -97.595          36.000                                                                  
G18  20329659.901   106833267.052        2856.349          45.000    20329657.895    83246841.449        2225.637          46.000  
G05  21820134.373   114665631.400        1263.719          42.000    21820131.008    89349832.765         984.921          37.000  
E33  21732808.693   114206955.484       -1703.288          49.000    21732807.050    87509418.019       -1305.200          52.000  
E11  24178914.456   127061060.374        2418.684          37.000    24178925.277    97358523.347        1853.240          42.000  
G11  21266778.685   111757906.604       -3654.480          46.000    21266772.711    87084312.630       -2847.583          39.000  
E26                                                                  25247829.994                3      -2627.165          19.000  
G24                                                                  21934369.853                3      -3508.194          12.000  
G32                                                                  22200185.026                3      -2462.013          24.000  
> 2024 04 09 03 36 30.4910000  0 25                     
S33  37025779.834   194571918.093        -735.158          44.000  
R11  18339383.792    98000237.584        2377.658          51.000    18339377.640    76222265.778        1849.259          50.000  
R09  18929127.737   101080785.125       -3622.742          51.000    18929124.441    78618474.779       -2817.578          50.000  
G28  18954058.964    99604349.211         823.401          46.000    18954053.881    77613688.739         641.626          47.000  
E12  21736363.376   114225571.407        1227.179          43.000    21736361.149    87523651.355         940.213          49.000  
E10  22993729.762   120833075.381        2093.156          45.000    22993730.890    92586499.461        1603.875          49.000  
E31  21104723.021   110906410.932       -1058.646          49.000    21104722.476    84980311.043        -811.105          52.000  
G12  19446566.220   102192734.734       -2194.523          48.000    19446560.502    79630886.793       -1710.086          44.000  
R20  17054873.155    91200406.493       -2790.311          42.000    17054870.313    70933722.988       -2169.965          44.000  
R10  16727839.513    89168802.890        -893.205          48.000                                                                  
R21  17276338.862    92449623.104        1535.428          51.000    17276333.806    71905084.182        1194.127          47.000  
E24  22122652.383   116255328.600         777.906          46.000    22122650.614    89078796.619         596.004          52.000  
S31  36071106.593   189555033.908        -734.000          43.000  
G29  17948619.774    94320961.951        -813.251          49.000    17948615.002    73496991.541        -633.593          46.000  
G25  17840325.431    93751758.705        -656.848          48.000    17840322.435    73053420.398        -511.866          46.000  
G31  21315345.620   112012914.199        2431.428          35.000    21315341.337                        1894.030          28.000  
G20  21257577.300   111709279.644        -112.091          34.000                                                                  
G18  20313371.147   106747671.406        2849.829          45.000    20313369.954    83180143.816        2220.586          47.000  
G05  21812934.417   114627796.381        1257.917          42.000    21812929.816    89320350.992         980.480          37.000  
E33  21742569.140   114258248.510       -1716.282          49.000    21742567.522    87548720.474       -1315.144          52.000  
E11  24165107.006   126988502.007        2418.485          38.000    24165117.339    97302927.173        1853.188          44.000  
G11  21287669.281   111867691.583       -3664.919          46.000    21287663.217    87169859.354       -2855.607          39.000  
E09                                                                  25115848.760                3      -2415.069          19.000  
E26                                                                  25267436.618                3      -2638.745          16.000  
G32                                                                  22218240.709                3      -2468.882          24.000  
> 2024 04 09 03 37 00.4910000  0 24                     
S33  37029974.416   194593962.509        -734.634          44.000  
R11  18326054.327    97929010.978        2370.847          51.000    18326048.164    76166867.304        1844.064          50.000  
R09  18949517.137   101189661.599       -3635.826          51.000    18949514.463    78703156.432       -2827.908          51.000  
G28  18949407.495    99579905.395         806.143          46.000    18949402.336    77594641.615         628.006          47.000  
E12  21729390.218   114188925.903        1216.186          43.000    21729387.891    87495572.368         931.651          49.000  
E10  22981799.096   120770377.125        2086.856          46.000    22981799.948    92538458.064        1598.965          49.000  
E31  21110780.472   110938244.501       -1063.718          49.000    21110780.114    85004702.997        -815.046          51.000  
G12  19459115.383   102258681.789       -2201.950          48.000    19459109.990    79682274.096       -1715.815          45.000  
R20  17070582.784    91284413.530       -2810.101          43.000    17070580.334    70999061.827       -2185.685          44.000  
R10  16732919.608    89195884.880        -912.331          49.000                                                                  
R21  17267790.291    92403880.153        1514.212          51.000    17267784.468    71869506.354        1177.757          46.000  
E24  22118214.863   116232012.691         776.452          46.000    22118213.852    89060931.196         594.938          52.000  
S31  36075296.566   189577053.334        -734.084          43.000  
G29  17953293.307    94345519.641        -823.987          50.000    17953288.046    73516127.407        -642.059          45.000  
G25  17844100.462    93771596.804        -665.834          48.000    17844097.995    73068878.657        -518.750          47.000  
G31  21301491.885   111940101.166        2422.554          37.000    21301480.727                        1887.478          25.000  
G20  21258257.211                        -127.338          30.000                                                                  
G18  20297121.283   106662278.469        2842.937          44.000    20297120.166    83113604.100        2215.320          46.000  
G05  21805769.662   114590141.921        1252.318          41.000    21805766.345    89291009.997         975.286          40.000  
E33  21752405.503   114309939.735       -1729.662          48.000    21752404.049    87588328.037       -1325.365          52.000  
E11  24151301.852   126915957.189        2417.736          37.000    24151311.875    97247341.399        1852.555          44.000  
G11  21308620.771   111977795.301       -3675.353          45.000    21308615.406    87255654.480       -2863.925          40.000  
E26                                                                  25287074.122                3      -2633.970          14.000  
G32                                                                  22236301.095                3      -2469.477          19.000  
> 2024 04 09 03 37 30.4910000  0 23                     
S33  37034168.126   194616000.827        -734.883          44.000  
R11  18312761.961    97857983.126        2363.992          51.000    18312755.416    76111623.461        1838.594          48.000  
R09  18969978.799   101298927.187       -3649.012          51.000    18969975.320    78788140.732       -2838.113          50.000  
G28  18944854.364    99555978.008         788.483          46.000    18944849.102    77575996.904         614.609          48.000  
E12  21722480.578   114152614.312        1204.493          44.000    21722477.938    87467749.226         922.893          49.000  
E10  22969903.836   120707867.568        2080.176          47.000    22969904.605    92490561.246        1593.984          49.000  
E31  21116866.967   110970229.116       -1068.970          49.000    21116866.588    85029210.696        -819.127          51.000  
G12  19471706.138   102324849.393       -2209.553          48.000    19471701.428    79733833.272       -1721.806          45.000  
R20  17086403.649    91369016.140       -2830.423          42.000    17086401.446    71064863.848       -2201.447          44.000  
R10  16738106.823    89223536.373        -931.606          48.000                                                                  
R21  17259360.243    92358768.219        1492.818          51.000    17259354.153    71834419.343        1161.202          46.000  
E24  22113785.732   116208737.221         774.868          46.000    22113784.758    89043096.759         593.731          52.000  
S31  36079485.885   189599067.183        -734.066          44.000  
G29  17958027.462    94370399.424        -834.950          49.000    17958021.986    73535514.236        -650.477          45.000  
G25  17847926.786    93791702.553        -675.071          48.000    17847923.700    73084545.481        -526.034          46.000  
G31  21287682.294   111867529.221        2414.419          37.000                                                                  
G20  21259025.118   111716920.498        -143.134          33.000                                                                  
G18  20280909.766   106577091.780        2835.822          44.000    20280909.216    83047225.110        2209.530          46.000  
G05  21798638.771   114552671.782        1245.724          42.000    21798636.383    89261812.545         970.735          39.000  
E33  21762317.604   114362028.932       -1743.224          48.000    21762316.299    87628240.536       -1335.676          52.000  
E11  24137499.667   126843428.203        2417.138          35.000    24137509.682    97191767.799        1852.075          42.000  
G11  21329633.274   112088215.965       -3686.092          46.000    21329628.361    87341696.551       -2872.441          42.000  
G32                                                                  22254387.223                3      -2461.572          16.000  
> 2024 04 09 03 38 00.4910000  0 23                     
S33  37038361.083   194638035.372        -734.569          44.000  
R11  18299507.668    97787159.352        2357.052          51.000    18299501.125    76056538.323        1833.406          48.000  
R09  18990514.328   101408582.468       -3661.895          52.000    18990507.989    78873428.129       -2848.233          48.000  
G28  18940399.539    99532570.548         771.327          46.000    18940394.892    77557757.344         601.044          48.000  
E12  21715635.161   114116639.658        1193.414          44.000    21715632.325    87440184.255         914.355          49.000  
E10  22958045.055   120645550.115        2073.916          47.000    22958045.587    92442811.610        1589.063          48.000  
E31  21122982.387   111002367.302       -1073.980          49.000    21122982.309    85053836.055        -822.967          51.000  
G12  19484340.137   102391240.039       -2217.030          48.000    19484334.812    79785566.225       -1727.554          44.000  
R20  17102335.223    91454212.398       -2849.839          41.000    17102333.649    71131127.587       -2216.488          44.000  
R10  16743401.879    89251760.628        -950.546          48.000                                                                  
R21  17251049.658    92314290.418        1471.772          52.000    17251041.334    71799825.537        1144.821          46.000  
E24  22109364.376   116185504.622         773.537          46.000    22109363.638    89025295.170         592.718          52.000  
S31  36083674.152   189621076.804        -733.962          44.000  
G29  17962822.421    94395601.957        -845.649          48.000    17962817.662    73555152.594        -658.819          44.000  
G25  17851804.100    93812078.799        -683.924          48.000    17851801.081    73100423.067        -532.800          47.000  
G31  21273918.623   111795202.902        2406.531          36.000    21273901.035                3       1883.900          21.000  
G20  21259891.163   111721435.631        -158.453          37.000                                                                  
G18  20264739.224   106492115.977        2828.744          45.000    20264738.558    82981010.380        2204.277          46.000  
G05  21791543.729   114515390.448        1239.425          40.000    21791540.995    89232762.214         965.977          40.000  
E33  21772305.551   114414516.729       -1756.414          47.000    21772304.212    87668458.449       -1345.825          51.000  
E11  24123700.979   126770918.625        2416.599          38.000    24123711.226    97136208.987        1851.441          41.000  
G11  21350706.035   112198952.626       -3696.507          45.000    21350701.793    87427984.860       -2880.719          43.000  
G32                                                                  22272485.071                3      -2465.545          19.000  
> 2024 04 09 03 38 30.4910000  0 22                     
S33  37042552.995   194660062.657        -734.594          44.000  
R11  18286292.087    97716539.872        2350.391          51.000    18286285.625    76001612.078        1827.954          48.000  
R09  19011121.648   101518623.157       -3674.600          52.000    19011116.292    78959015.267       -2858.057          49.000  
G28  18936044.091    99509681.983         754.075          45.000    18936039.237    77539922.105         587.729          48.000  
E12  21708852.724   114081000.458        1182.161          44.000    21708850.603    87412876.310         905.905          49.000  
E10  22946222.567   120583423.716        2067.560          46.000    22946223.205    92395208.353        1584.260          48.000  
E31  21129127.701   111034657.017       -1078.963          50.000    21129126.731    85078577.524        -826.728          51.000  
G12  19497015.626   102457851.332       -2224.295          47.000    19497010.967    79837471.139       -1733.045          45.000  
R20  17118377.073    91539996.394       -2869.289          42.000    17118375.097    71197848.491       -2231.868          42.000  
R10  16748803.895    89280556.459        -969.523          48.000                                                                  
R21  17242855.654    92270445.221        1450.851          51.000    17242848.572    71765723.765        1128.439          46.000  
E24  22104951.490   116162312.905         772.307          46.000    22104950.296    89007524.904         591.775          51.000  
S31  36087861.090   189643079.221        -733.813          44.000  
G29  17967678.805    94421122.908        -856.049          48.000    17967674.266    73575039.068        -667.184          44.000  
G25  17855733.348    93832724.035        -692.781          49.000    17855729.827    73116510.281        -539.876          46.000  
G31  21260200.646   111723121.856        2398.639          34.000    21260213.381                3       1869.148          26.000  
G20  21260840.383   111726413.911        -173.956          38.000                                                                  
G18  20248609.339   106407351.012        2821.943          44.000    20248608.190    82914959.972        2198.871          46.000  
G05  21784484.478   114478297.529        1233.156          41.000    21784482.055    89203858.725         961.099          39.000  
E33  21782369.331   114467399.234       -1769.456          48.000    21782367.206    87708978.815       -1355.798          51.000  
E11  24109905.346   126698427.444        2415.736          37.000    24109916.077    97080664.237        1851.227          42.000  
G11  21371838.099   112309999.891       -3706.757          45.000    21371833.342    87514515.214       -2888.545          43.000  
> 2024 04 09 03 39 00.4910000  0 23                     
S33  37046743.610   194682085.692        -734.259          44.000  
R11  18273115.570    97646130.936        2343.396          51.000    18273109.940    75946849.594        1822.534          49.000  
R09  19031801.005   101629050.941       -3687.494          51.000    19031797.750    79044903.454       -2868.085          51.000  
G28  18931788.289    99487316.961         736.572          46.000    18931783.279    77522494.843         574.053          48.000  
E12  21702134.741   114045700.838        1170.953          44.000    21702133.031    87385828.590         897.205          49.000  
E10  22934437.125   120521492.991        2060.971          45.000    22934438.185    92347755.040        1579.314          49.000  
E31  21135301.456   111067101.962       -1084.180          50.000    21135301.031    85103437.931        -830.667          52.000  
G12  19509733.843   102524686.386       -2231.660          47.000    19509728.496    79889550.415       -1739.179          43.000  
R20  17134529.836    91626367.494       -2888.993          44.000    17134526.827    71265026.009       -2246.836          43.000  
R10  16754315.025    89309928.501        -988.767          49.000                                                                  
R21  17234781.544    92227237.370        1429.567          52.000    17234775.194    71732117.737        1111.859          47.000  
E24  22100546.719   116139165.737         770.644          47.000    22100545.237    88989788.777         590.564          51.000  
S31  36092047.129   189665078.158        -733.228          44.000  
G29  17972596.639    94446964.183        -866.741          48.000    17972591.217    73595175.136        -675.464          44.000  
G25  17859713.643    93853642.419        -701.916          49.000    17859710.692    73132810.320        -547.015          46.000  
G31  21246534.619   111651292.087        2389.886          34.000    21246560.774                        1862.512          26.000  
G20  21261876.149   111731859.625        -189.307          37.000                                                                  
G18  20232520.701   106322802.718        2814.327          45.000    20232518.197    82849078.395        2193.083          45.000  
G05  21777463.280   114441399.522        1226.615          43.000    21777459.596    89175107.146         955.814          37.000  
E33  21792507.444   114520678.261       -1782.623          47.000    21792506.094    87749803.012       -1365.890          51.000  
E11  24096114.767   126625959.006        2415.164          38.000    24096125.198    97025137.010        1850.611          42.000  
G11  21393028.876   112421357.950       -3717.284          43.000    21393024.041    87601287.737       -2896.577          44.000  
E05                                                                  23368735.725                3      -1656.434          24.000  
> 2024 04 09 03 39 30.4910000  0 22                     
S33  37050934.081   194704105.919        -734.159          44.000  
R11  18259979.688    97575937.375        2335.992          51.000    18259974.740    75892254.610        1816.962          49.000  
R09  19052552.781   101739866.277       -3700.447          51.000    19052548.863    79131093.122       -2878.106          49.000  
G28  18927631.590    99465478.730         718.987          47.000    18927628.070    77505478.061         560.233          48.000  
E12  21695483.402   114010743.662        1159.344          44.000    21695480.933    87359043.247         888.293          49.000  
E10  22922689.770   120459761.187        2054.262          45.000    22922690.897    92300454.154        1573.953          49.000  
E31  21141506.044   111099704.476       -1089.626          50.000    21141505.133    85128419.068        -834.796          52.000  
G12  19522494.697   102591748.019       -2239.431          46.000    19522490.504    79941806.214       -1745.028          44.000  
R20  17150791.038    91713322.714       -2908.564          44.000    17150788.161    71332657.841       -2262.005          43.000  
R10  16759932.887    89339879.540       -1008.259          48.000                                                                  
R21  17226827.126    92184669.803        1408.055          52.000    17226820.460    71699009.637        1095.094          47.000  
E24  22096151.150   116116065.444         768.953          47.000    22096149.393    88972088.562         589.202          51.000  
S31  36096232.948   189687073.923        -733.132          44.000  
G29  17977575.078    94473126.054        -877.595          49.000    17977569.267    73615560.989        -683.690          44.000  
G25  17863746.956    93874836.735        -711.194          49.000    17863744.502    73149325.355        -554.181          47.000  
G31  21232916.050   111579717.271        2381.470          35.000    21232936.683                3       1855.025          25.000  
G20  21263001.201   111737776.051        -204.944          37.000                                                                  
G18  20216473.600   106238475.353        2807.051          45.000    20216469.920    82783368.954        2187.550          43.000  
G05  21770481.113   114404700.503        1219.875          45.000    21770475.615    89146510.524         950.522          38.000  
E33  21802721.709   114574354.336       -1795.973          47.000    21802720.119    87790931.432       -1376.224          51.000  
E11  24082328.713   126553516.721        2414.002          37.000    24082339.691    96969629.758        1849.821          42.000  
G11  21414278.820   112533025.776       -3727.740          39.000    21414273.197    87688301.660       -2904.465          44.000  
> 2024 04 09 03 40 00.4910000  0 22                     
S33  37055122.698   194726116.902        -733.637          44.000  
R11  18246883.699    97505955.075        2328.894          52.000    18246878.674    75837823.943        1811.383          49.000  
R09  19073376.715   101851060.529       -3712.865          51.000    19073371.998    79217577.501       -2887.830          49.000  
G28  18923575.587    99444161.654         701.723          47.000    18923571.613    77488867.356         546.728          48.000  
E12  21688895.939   113976122.732        1148.131          45.000    21688892.924    87332515.555         879.733          49.000  
E10  22910979.899   120398222.683        2047.710          45.000    22910980.878    92253301.376        1569.042          49.000  
E31  21147737.653   111132457.926       -1094.499          49.000    21147737.863    85153515.877        -838.621          52.000  
G12  19535298.314   102659028.984       -2246.538          47.000    19535292.416    79994232.958       -1750.453          43.000  
R20  17167159.859    91800851.653       -2927.338          44.000    17167157.112    71400735.903       -2276.781          44.000  
R10  16765659.222    89370403.839       -1027.348          48.000                                                                  
R21  17218990.630    92142736.523        1387.011          52.000    17218984.509    71666394.882        1078.773          47.000  
E24  22091762.893   116093005.434         767.743          47.000    22091761.113    88954419.205         588.363          51.000  
S31  36100416.801   189709060.507        -733.137          44.000  
G29  17982612.860    94499599.658        -887.875          48.000    17982607.047    73636189.788        -691.847          44.000  
G25  17867831.102    93896300.857        -720.328          49.000    17867828.581    73166050.655        -561.386          46.000  
G31  21219344.675   111508392.815        2373.120          39.000    21219372.580                3       1849.403          23.000  
G20  21264213.555   111744157.212        -220.770          34.000                                                                  
G18  20200468.036   106154364.472        2799.841          46.000    20200464.033    82717828.201        2181.701          44.000  
G05  21763534.941   114368196.427        1213.224          44.000    21763529.598    89118065.843         945.721          39.000  
E33  21813010.150   114628418.949       -1808.911          47.000    21813008.345    87832357.562       -1386.075          51.000  
E11  24068547.500   126481094.870        2413.518          38.000    24068557.844    96914138.189        1849.143          42.000  
G11  21435585.056   112644993.369       -3737.406          36.000    21435579.972    87775549.095       -2912.392          44.000  
> 2024 04 09 03 40 30.4910000  0 22                     
S33  37059309.077   194748116.559        -733.375          44.000  
R11  18233827.887    97436186.661        2321.912          52.000    18233822.044    75783559.617        1805.823          49.000  
R09  19094270.085   101962631.149       -3725.462          50.000    19094265.407    79304354.565       -2897.596          48.000  
G28  18919618.432    99423366.520         684.267          47.000    18919614.608    77472663.343         533.175          49.000  
E12  21682371.410   113941838.449        1137.019          45.000    21682368.495    87306245.824         871.142          49.000  
E10  22899306.018   120336878.238        2041.563          45.000    22899306.805    92206297.302        1564.245          48.000  
E31  21153999.633   111165362.215       -1099.485          49.000    21153999.428    85178728.243        -842.421          52.000  
G12  19548143.674   102726528.851       -2253.807          47.000    19548137.533    80046830.243       -1756.210          43.000  
R20  17183634.088    91888949.739       -2946.303          43.000    17183632.270    71469256.641       -2291.444          45.000  
R10  16771493.289    89401501.370       -1046.323          48.000                                                                  
R21  17211271.782    92101438.126        1365.903          52.000    17211266.153    71634273.928        1062.389          46.000  
E24  22087382.124   116069985.574         766.551          47.000    22087380.235    88936780.625         587.345          50.000  
S31  36104598.552   189731035.897        -732.249          44.000  
G29  17987709.455    94526383.408        -898.175          48.000    17987704.288    73657060.256        -699.896          44.000  
G25  17871966.814    93918035.092        -729.281          49.000    17871964.164    73182986.414        -568.276          46.000  
G31  21205819.425   111437320.617        2364.746          38.000    21205852.360                3       1846.374          17.000  
G20  21265518.095   111751004.005        -235.931          36.000                                                                  
G18  20184503.485   106070472.023        2792.462          45.000    20184500.607    82652457.646        2176.122          45.000  
G05  21756625.955   114331888.471        1206.801          44.000    21756621.139    89089773.993         940.442          39.000  
E33  21823372.543   114682870.037       -1821.624          48.000    21823370.095    87874079.813       -1395.763          52.000  
E11  24054769.687   126408694.196        2412.841          38.000    24054779.833    96858662.835        1849.007          42.000  
G11  21456948.982   112757257.107       -3747.267          35.000    21456942.664    87863027.329       -2919.901          44.000  
> 2024 04 09 03 41 00.4910000  0 23                     
S33  37063493.785   194770107.240        -732.899          44.000  
R11  18220812.641    97366636.714        2314.496          52.000    18220806.877    75729465.244        1800.098          49.000  
R22  21162304.108                3       3404.203          14.000                                                                  
R09  19115233.559   102074578.744       -3738.024          50.000    19115229.414    79391424.888       -2907.293          49.000  
G28  18915761.901    99403096.420         666.660          47.000    18915757.585    77456868.465         519.521          49.000  
E12  21675912.426   113907893.495        1125.613          46.000    21675908.862    87280236.072         862.407          48.000  
E10  22887669.369   120275731.070        2034.658          45.000    22887670.559    92159444.380        1559.086          48.000  
E31  21160290.007   111198419.586       -1104.623          49.000    21160289.993    85204057.923        -846.418          52.000  
G12  19561030.058   102794249.079       -2261.364          47.000    19561024.468    80099599.245       -1762.154          42.000  
R20  17200214.542    91977615.183       -2965.184          43.000    17200213.246    71538218.659       -2306.218          44.000  
R10  16777435.033    89433175.610       -1065.570          48.000                                                                  
R21  17203673.659    92060777.232        1344.414          52.000    17203668.279    71602648.823        1045.724          48.000  
E24  22083009.798   116047008.158         765.041          47.000    22083007.662    88919174.565         586.215          50.000  
S31  36108778.621   189753001.778        -732.188          44.000  
G29  17992865.325    94553477.002        -908.514          48.000    17992860.315    73678172.135        -707.971          44.000  
G25  17876154.870    93940042.205        -738.443          50.000    17876151.528    73200134.810        -575.387          46.000  
G31  21192343.311   111366504.818        2355.841          37.000    21192347.372                3       1834.876          24.000  
G20  21266910.425                        -252.051          32.000                                                                  
G18  20168581.210   105986802.256        2785.036          46.000    20168578.622    82587260.631        2170.276          45.000  
G05  21749754.945   114295782.002        1200.035          43.000    21749750.646    89061639.180         934.609          39.000  
E33  21833807.767   114737707.988       -1834.467          48.000    21833805.640    87916098.502       -1405.702          52.000  
E11  24040996.628   126336317.884        2412.200          38.000    24041006.860    96803206.178        1848.165          42.000  
G11                                                                  21478362.378    87950735.434       -2927.560          45.000  
> 2024 04 09 03 41 30.4910000  0 22                     
S33  37067676.558   194792089.065        -732.657          44.000  
R11  18207838.832    97297308.952        2307.037          52.000    18207833.059    75675543.632        1794.348          49.000  
R09  19136267.962   102186902.483       -3750.578          50.000    19136264.548    79478787.735       -2917.148          49.000  
G28  18912004.553    99383353.402         649.247          48.000    18912000.586    77441484.311         505.883          49.000  
E12  21669517.827   113874289.525        1114.202          45.000    21669514.325    87254487.581         853.716          49.000  
E10  22876071.622   120214783.284        2028.105          45.000    22876072.624    92112744.218        1553.915          48.000  
E31  21166609.848   111231631.238       -1109.732          49.000    21166609.903    85229505.819        -850.383          52.000  
G12  19573958.769   102862191.362       -2268.582          46.000    19573953.589    80152541.244       -1767.678          42.000  
R20  17216901.537    92066844.879       -2983.760          43.000    17216899.543    71607619.555       -2320.730          44.000  
R10  16783484.999    89465428.555       -1085.000          47.000                                                                  
R21  17196193.918    92020755.808        1323.212          51.000    17196187.943    71571521.088        1029.254          46.000  
E24  22078645.877   116024074.387         763.575          47.000    22078643.448    88901601.952         585.149          50.000  
S31  36112957.076   189774959.366        -731.967          44.000  
G29  17998080.019    94580879.546        -918.683          49.000    17998073.770    73699524.775        -715.887          43.000  
G25  17880394.919    93962323.809        -747.418          49.000    17880391.802    73217497.120        -582.466          46.000  
G31  21178916.268   111295948.743        2347.083          35.000    21178918.266                        1828.986          28.000  
G20  21268385.776                        -267.700          28.000                                                                  
G18  20152702.450   105903358.432        2777.506          47.000    20152699.503    82522239.659        2164.206          45.000  
G05  21742922.226   114259879.217        1193.158          42.000    21742918.453    89033663.096         929.633          39.000  
E33  21844316.942   114792932.105       -1847.309          48.000    21844314.666    87958413.068       -1415.616          52.000  
E11  24027228.543   126263968.141        2410.713          39.000    24027238.674    96747769.879        1847.369          43.000  
G11                                                                  21499836.935    88038671.671       -2934.934          45.000  
> 2024 04 09 03 42 00.4910000  0 22                     
S33  37071858.086   194814061.850        -732.374          45.000  
R11  18194907.144    97228206.431        2299.560          52.000    18194901.530    75621797.232        1788.501          49.000  
R09  19157373.362   102299599.877       -3762.878          51.000    19157369.528    79566441.187       -2926.725          49.000  
G28  18908348.277    99364138.583         631.464          48.000    18908343.979    77426511.721         492.110          49.000  
E12  21663187.738   113841027.074        1102.887          45.000    21663184.884    87229000.803         845.092          49.000  
E10  22864510.862   120154035.987        2021.401          45.000    22864512.785    92066197.686        1548.858          48.000  
E31  21172958.685   111264997.395       -1114.857          48.000    21172959.284    85255072.095        -854.306          52.000  
G12  19586929.232   102930355.504       -2276.020          46.000    19586925.001    80205656.158       -1773.509          43.000  
R20  17233692.925    92156633.137       -3002.451          43.000    17233690.133    71677454.847       -2335.107          43.000  
R10  16789644.370    89498261.059       -1104.255          48.000                                                                  
R21  17188834.963    91981374.645        1301.847          52.000    17188828.911    71540891.332        1012.586          46.000  
E24  22074290.465   116001184.464         762.101          47.000    22074287.909    88884062.940         583.940          50.000  
S31  36117133.446   189796907.434        -731.451          44.000  
G29  18003353.201    94608589.498        -928.888          49.000    18003347.295    73721116.956        -723.846          44.000  
G25  17884686.932    93984880.569        -756.598          50.000    17884683.932    73235073.818        -589.544          45.000  
G31  21165534.667                        2338.690          29.000    21165530.738                        1822.131          28.000  
G20  21269956.905                1       -283.069          31.000                                                                  
G18  20136866.550   105820142.797        2769.905          46.000    20136863.989    82457396.461        2158.483          46.000  
G05  21736128.369   114224183.825        1186.012          42.000    21736125.228    89005848.562         923.967          39.000  
E33  21854898.190   114848540.614       -1860.189          48.000    21854896.448    88001022.173       -1425.272          52.000  
E11  24013465.865   126191645.989        2410.275          39.000    24013475.659    96692354.742        1846.740          43.000  
G11                                                                  21521367.085    88126833.548       -2942.557          45.000  
> 2024 04 09 03 42 30.4910000  0 23                     
S33  37076037.424   194836025.795        -732.330          44.000  
R11  18182018.592    97159333.322        2291.791          52.000    18182012.643    75568229.283        1782.489          49.000  
R22  21105262.079                3       3385.155          21.000                                                                  
R09  19178549.270   102412671.016       -3775.445          52.000    19178544.304    79654385.322       -2936.494          49.000  
G28  18904792.300    99345454.620         613.813          47.000    18904788.217    77411952.799         478.274          49.000  
E12  21656923.185   113808108.487        1091.316          45.000    21656920.560    87203777.497         836.264          49.000  
E10  22852990.344   120093491.985        2014.606          46.000    22852991.759    92019806.906        1543.640          49.000  
E31  21179338.484   111298519.944       -1120.236          49.000    21179338.411    85280758.192        -858.332          52.000  
G12  19599943.892   102998743.028       -2283.450          47.000    19599939.050    80258945.094       -1779.362          43.000  
R20  17250587.469    92246978.788       -3020.884          43.000    17250584.578    71747723.690       -2349.729          43.000  
R10  16795913.558    89531675.136       -1123.861          48.000                                                                  
R21  17181596.568    91942635.998        1280.364          53.000    17181590.012    71510761.290         995.819          47.000  
E24  22069943.296   115978340.326         760.455          48.000    22069940.930    88866558.995         582.797          51.000  
S31  36121308.667   189818847.205        -731.448          44.000  
G29  18008684.678    94636606.712        -939.160          49.000    18008679.071    73742948.554        -731.683          44.000  
G25  17889032.163    94007714.819        -765.932          49.000    17889029.334    73252866.735        -596.902          46.000  
G31  21152212.353                        2330.157          31.000    21152210.817                        1815.375          30.000  
G20  21271620.806                        -298.340          30.000                                                                  
G18  20121075.091   105737159.259        2761.901          46.000    20121073.210    82392734.121        2152.198          46.000  
G05  21729375.812   114188698.505        1179.275          43.000    21729373.340    88978197.757         918.867          39.000  
E33  21865552.558   114904533.468       -1872.892          47.000    21865551.347    88043925.795       -1435.157          51.000  
E11  23999708.636   126119354.226        2408.950          39.000    23999718.495    96636962.911        1846.020          44.000  
G11                                                                  21542951.873    88215219.818       -2950.072          44.000  
> 2024 04 09 03 43 00.4910000  0 22                     
S33  37080215.938   194857983.557        -731.975          44.000  
R11  18169173.830    97090695.169        2283.966          53.000    18169167.739    75514844.046        1776.416          49.000  
R09  19199793.837   102526116.525       -3787.827          52.000    19199788.282    79742620.650       -2946.081          49.000  
G28  18901338.810    99327305.334         595.876          47.000    18901334.483    77397810.479         464.427          49.000  
E12  21650723.927   113775537.216        1079.903          44.000    21650722.626    87178820.326         827.333          49.000  
E10  22841508.179   120033155.136        2007.746          44.000    22841509.972    91973574.871        1538.306          49.000  
E31  21185747.426   111332201.825       -1125.446          49.000    21185747.736    85306566.398        -862.278          52.000  
G12  19613000.768   103067356.524       -2291.049          47.000    19612995.025    80312410.189       -1785.114          42.000  
R20  17267586.553    92337879.252       -3039.193          43.000    17267583.356    71818424.052       -2363.840          42.000  
R10  16802291.649    89565674.498       -1143.278          48.000                                                                  
R21  17174477.746    91904543.451        1258.919          53.000    17174471.727    71481133.777         979.178          48.000  
E24  22065605.254   115955544.979         758.822          47.000    22065603.211    88849092.443         581.506          51.000  
S31  36125482.521   189840781.235        -730.928          44.000  
G29  18014074.972    94664931.706        -949.249          49.000    18014068.879    73765019.996        -739.594          44.000  
G25  17893430.687    94030829.961        -775.190          49.000    17893427.970    73270878.524        -604.066          46.000  
G31  21138937.749   111085866.155        2320.703          35.000    21138931.400                        1808.264          29.000  
G20  21273371.822   111792327.9731       -315.082          34.000                                                                  
G18  20105328.446   105654412.795        2754.252          46.000    20105326.701    82328256.537        2146.140          46.000  
G05  21722664.835   114153428.837        1171.624          44.000    21722661.937    88950714.917         913.143          40.000  
E33  21876281.269   114960911.695       -1885.789          47.000    21876279.476    88087124.699       -1444.901          51.000  
E11  23985958.217   126047096.721        2408.002          39.000    23985967.666    96581597.385        1844.971          44.000  
G11  21564605.503   113322775.3981      -3795.444          34.000    21564591.820    88303830.140       -2957.501          44.000  
> 2024 04 09 03 43 30.4910000  0 22                     
S33  37084394.443   194879940.780        -731.861          44.000  
R11  18156375.107    97022301.027        2275.677          52.000    18156368.608    75461648.607        1769.965          49.000  
R09  19221108.000   102639940.674       -3800.330          50.000    19221103.584    79831150.470       -2955.772          49.000  
G28  18897988.484    99309697.384         578.006          47.000    18897984.125    77384089.994         450.332          49.000  
E12  21644593.814   113743319.463        1068.183          45.000    21644591.681    87154134.004         818.411          49.000  
E10  22830067.635   119973032.316        2000.490          45.000    22830068.588    91927506.798        1532.936          49.000  
E31  21192188.591   111366048.960       -1130.934          49.000    21192188.890    85332501.225        -866.559          52.000  
G12  19626101.164   103136201.498       -2298.677          47.000    19626095.880    80366055.602       -1791.158          42.000  
R20  17284690.078    92429337.099       -3057.818          43.000    17284685.836    71889557.949       -2378.400          42.000  
R10  16808781.226    89600265.911       -1162.928          49.000                                                                  
R21  17167481.216    91867103.366        1237.151          53.000    17167475.255    71452013.726         962.403          48.000  
E24  22061278.049   115932804.381         757.142          47.000    22061275.920    88831667.840         580.204          51.000  
S31  36129656.296   189862714.242        -731.088          44.000  
G29  18019524.253    94693568.769        -959.674          48.000    18019517.991    73787334.621        -747.906          44.000  
G25  17897884.797    94054232.410        -784.797          49.000    17897881.286    73289114.184        -611.383          46.000  
G31  21125716.782   111016385.103        2311.841          34.000    21125707.955    86506309.9631       1801.324          31.000  
G20  21275220.210   111802019.757        -331.024          36.000                                                                  
G18  20089629.085   105571911.439        2745.963          46.000    20089627.049    82263969.905        2139.800          46.000  
G05  21715995.833   114118382.930        1164.471          42.000    21715992.433    88923406.469         907.338          39.000  
E33  21887083.832   115017679.262       -1898.654          47.000    21887082.022    88130621.934       -1454.732          50.000  
E11  23972215.865   125974880.429        2406.368          40.000    23972224.576    96526263.419        1843.849          44.000  
G11  21586295.087                       -3805.410          32.000    21586286.349    88392666.405       -2964.829          44.000  
> 2024 04 09 03 44 00.4910000  0 22                     
S33  37088572.030   194901895.922        -731.797          44.000  
R11  18143622.612    96954152.793        2267.493          53.000    18143616.063    75408644.458        1763.519          50.000  
R09  19242493.897   102754140.666       -3812.911          51.000    19242490.228    79919972.594       -2965.597          49.000  
G28  18894740.725    99292631.353         559.644          47.000    18894736.382    77370791.781         436.157          49.000  
E12  21638531.324   113711455.504        1056.324          45.000    21638528.062    87129718.773         809.284          49.000  
E10  22818666.539   119913124.065        1993.439          44.000    22818668.746    91881603.184        1527.375          49.000  
E31  21198660.533   111400061.115       -1136.424          49.000    21198661.438    85358562.491        -870.735          53.000  
G12  19639245.981   103205277.207       -2306.352          47.000    19639240.674    80419880.820       -1797.372          42.000  
R20  17301896.310    92521347.083       -3076.161          44.000    17301892.437    71961121.264       -2392.509          42.000  
R10  16815382.245    89635449.510       -1182.754          48.000                                                                  
R21  17160606.734    91830315.944        1215.351          52.000    17160599.816    71423401.317         945.245          48.000  
E24  22056960.991   115910118.365         755.340          47.000    22056959.038    88814285.055         578.837          51.000  
S31  36133829.666   189884645.398        -731.164          44.000  
G29  18025032.683    94722515.579        -970.117          49.000    18025026.638    73809890.574        -755.823          44.000  
G25  17902393.194    94077922.344        -794.558          50.000    17902389.298    73307573.869        -619.019          46.000  
G31  21112547.461   110947183.871        2302.264          33.000    21112539.295    86452386.937        1793.799          33.000  
G20  21277157.646   111812196.046        -347.528          37.000                                                                  
G18  20073976.221   105489656.888        2737.702          46.000    20073974.428    82199875.606        2133.412          46.000  
G05  21709369.435   114083562.228        1156.794          42.000    21709366.297    88896273.509         901.473          41.000  
E33  21897960.249   115074833.939       -1911.481          47.000    21897958.119    88174415.787       -1464.673          50.000  
E11  23958480.847   125902705.841        2405.284          40.000    23958489.683    96470961.477        1842.867          44.000  
G11                                                                  21608036.024    88481725.768       -2972.694          44.000  
> 2024 04 09 03 44 30.4910000  0 23                     
S33  37092748.890   194923844.286        -731.474          44.000  
R11  18130915.298    96886248.977        2259.393          52.000    18130909.172    75355830.414        1757.098          50.000  
R22  21029370.465                3       3359.831          25.000                                                                  
R09  19263949.315   102868710.135       -3825.085          50.000    19263945.580    80009082.119       -2975.173          49.000  
G28  18891596.005    99276103.698         541.916          48.000    18891590.638    77357913.088         422.334          48.000  
E12  21632534.150   113679941.311        1044.604          45.000    21632531.080    87105571.561         800.430          50.000  
E10  22807308.214   119853427.103        1986.426          46.000    22807308.395    91835861.471        1522.059          49.000  
E31  21205163.524   111434234.071       -1141.768          49.000    21205164.363    85384746.966        -874.860          53.000  
G12  19652433.435   103274579.703       -2313.820          45.000    19652428.420    80473882.732       -1803.075          43.000  
R20  17319203.443    92613899.611       -3094.061          43.000    17319200.635    72033106.570       -2406.620          42.000  
R10  16822092.439    89671221.791       -1202.281          48.000                                                                  
R21  17153852.868    91794177.287        1193.740          52.000    17153846.740    71395293.514         928.528          48.000  
E24  22052653.648   115887482.704         753.671          47.000    22052651.762    88796940.861         577.466          51.000  
S31  36138001.765   189906569.724        -730.438          44.000  
G29  18030598.278    94751765.605        -980.042          48.000    18030592.900    73832682.841        -763.678          45.000  
G25  17906954.724    94101895.941        -803.821          50.000    17906951.319    73326254.600        -626.442          46.000  
G31  21099429.153   110878260.156        2292.859          35.000    21099423.622    86398680.137        1786.169          34.000  
G20  21279182.965   111822853.059        -363.544          36.000                                                                  
G18  20058370.888   105407646.982        2729.537          47.000    20058367.589    82135971.925        2126.986          46.000  
G05  21702786.779   114048964.755        1149.458          45.000    21702782.200    88869314.552         895.542          41.000  
E33  21908909.038   115132369.535       -1924.072          47.000    21908906.838    88218501.501       -1474.399          50.000  
E11  23944753.227   125830569.735        2404.043          40.000    23944761.773    96415689.049        1842.063          44.000  
G11  21629838.521   113665552.0951      -3823.800          36.000    21629837.745    88571002.249       -2979.406          42.000  
