     3.00           OBSERVATION DATA    M: Mixed            RINEX VERSION / TYPE
CONVBIN 2.4.3                           20240409 011442 UTC PGM / RUN BY / DATE 
format: u-blox UBX                                          COMMENT             
log: data/2024-04-09/20240409010000.ubx                     COMMENT             
AQUI00CHL                                                   MARKER NAME         
                                                            MARKER NUMBER       
                                                            MARKER TYPE         
                                                            OBSERVER / AGENCY   
UNKNOWN             UBLOX-ZED-F9P                           REC # / TYPE / VERS 
UNKNOWN             TWIVSP6037L                             ANT # / TYPE        
  1713381.0000 -5047934.0000 -3490983.0000                  APPROX POSITION XYZ 
        0.0000        0.0000        0.0000                  ANTENNA: DELTA H/E/N
G    8 C1C L1C D1C S1C C2L L2L D2L S2L                      SYS / # / OBS TYPES 
R    8 C1C L1C D1C S1C C2C L2C D2C S2C                      SYS / # / OBS TYPES 
E    8 C1C L1C D1C S1C C7Q L7Q D7Q S7Q                      SYS / # / OBS TYPES 
S    4 C1C L1C D1C S1C                                      SYS / # / OBS TYPES 
  2024    04    09    01    00   00.0070000     GPS         TIME OF FIRST OBS   
  2024    04    09    01    14   30.0080000     GPS         TIME OF LAST OBS    
                                                            END OF HEADER       
> 2024 04 09 01 00 00.0070000  0 26                     
S33  41985300.613   220634338.1511       -766.388          45.000  
E26  28279329.439   148608961.3071        200.768          41.000    28279328.078   113869255.7971        153.834          44.000  
G24  22680014.931   119184394.8101       -926.568          50.000    22680012.040    92871041.0221       -721.898          48.000  
E09  27260436.488   143254510.6431       -608.678          48.000    27260436.691   109766555.6271       -466.393          51.000  
G15  25658150.356   134834269.8911      -3933.919          45.000    25658159.278   105065676.4521      -3065.149          42.000  
R06  25933920.853                3      -4692.065          19.000                                                                  
R07  23982670.272   128381132.6801      -3218.812          51.000    23982666.311    99851974.1661      -2503.536          49.000  
R08  24695335.228   132242463.3931       -136.365          41.000    24695330.354   102855161.4281       -106.280          45.000  
R16  24043626.269   128437235.2241      -2461.486          46.000    24043623.624    99895821.2991      -1914.372          45.000  
R09  22414522.931   119692614.1831        -86.414          51.000    22414518.328    93094345.1761        -67.231          51.000  
R19  22580522.998   120790911.2271        183.800          41.000    22580516.295    93948640.8021        143.005          45.000  
G19  26118400.588   137253540.0631      -4147.110          44.000                                                                  
G32  26005233.002   136658369.3681       1172.491          37.000    26005231.686   106487045.1301        913.330          33.000  
E31  26397528.169   138720287.7351       -199.189          48.000    26397529.005   106292241.2611       -152.712          52.000  
G12  23418915.182   123067571.9441       -537.843          50.000    23418909.988    95896993.9001       -418.948          46.000  
R20  24893398.382   133116328.3711       3574.380          39.000    24893405.172   103534948.3381       2780.119          40.000  
R10  24541919.262   130822232.4701       1508.469          40.000                                                                  
R18  24010396.477   128169393.6421      -3104.793          49.000    24010393.627    99687276.8501      -2414.934          48.000  
S31  41032328.049   215626397.9791       -765.706          44.000  
G29  26294649.713   138179399.7041       2816.133          39.000    26294658.787   107672337.0601       2194.248          35.000  
G25  24522657.466   128867635.1821        791.144          46.000    24522655.211   100416437.8081        616.678          44.000  
G06  25468441.430   133837658.7141       -301.202          43.000    25468441.194   104289112.7711       -234.818          42.000  
E33  28693677.968   150786508.5311       1867.815          42.000    28693682.720   115537887.0211       1431.119          48.000  
E04  27190362.542   142886333.1071      -3015.542          48.000    27190364.008   109484433.8011      -2310.693          51.000  
G11  25571090.177   134377191.4801       1387.201          45.000    25571085.240   104709722.8001       1080.889          43.000  
E21                                                                  30735452.317                3      -2029.525          26.000  
> 2024 04 09 01 00 30.0070000  0 26                     
S33  41989678.486   220657343.302        -767.023          45.000  
E26  28278220.683   148603139.319         187.628          41.000    28278219.380   113864794.803         143.758          43.000  
G24  22685350.857   119212431.109        -942.133          51.000    22685347.479    92892887.486        -734.223          48.000  
E09  27263953.579   143272994.411        -623.264          48.000    27263954.260   109780718.499        -477.604          51.000  
G15  25680616.309   134952326.242       -3936.476          46.000    25680625.715   105157667.876       -3067.311          42.000  
R06  25960319.647                3      -4698.478          17.000                                                                  
R07  24000760.524   128477971.380       -3236.781          51.000    24000755.452    99927293.035       -2517.553          48.000  
R08  24696174.801   132246947.600        -162.177          43.000    24696167.682   102858649.182        -125.991          44.000  
R16  24057467.171   128511162.993       -2466.869          49.000    24057463.579    99953320.655       -1918.706          45.000  
R09  22415026.475   119695297.785         -92.294          52.000    22415021.099    93096432.425         -71.761          51.000  
R19  22579568.614   120785809.800         156.474          41.000    22579562.093    93944673.087         121.715          46.000  
G19  26142091.395   137378034.622       -4152.322          44.000                                                                  
G32  25998585.971   136623450.098        1155.701          35.000    25998585.343   106459835.329         900.110          34.000  
E31  26398676.237   138726319.536        -202.607          48.000    26398676.732   106296863.053        -155.212          52.000  
G12  23422002.952   123083797.879        -543.768          49.000    23421997.700    95909637.502        -423.794          46.000  
R20  24873358.639   133009171.466        3569.517          39.000    24873364.992   103451604.879        2776.473          40.000  
R10  24533432.676   130776993.200        1507.768          40.000    24533427.563                3       1246.922          10.000  
R18  24027911.294   128262883.496       -3127.608          50.000    24027908.388    99759991.174       -2432.536          49.000  
S31  41036700.336   215649374.987        -765.880          44.000  
G29  26278587.803   138095000.927        2810.286          39.000    26278596.648   107606572.621        2189.740          36.000  
G25  24518153.768   128843966.796         787.088          46.000    24518150.840   100397994.935         613.151          44.000  
G06  25470213.824   133846971.437        -319.190          41.000    25470213.003   104296369.472        -248.743          41.000  
E33  28683027.920   150730533.341        1864.093          43.000    28683030.652   115494997.183        1428.358          48.000  
E04  27207604.672   142976941.678       -3024.688          47.000    27207606.359   109553861.056       -2317.662          51.000  
G11  25563201.339   134335739.035        1376.536          42.000    25563196.450   104677422.260        1072.575          42.000  
E21                                                                  30750564.776                3      -2033.291          13.000  
> 2024 04 09 01 01 00.0080000  0 25                     
S33  41994056.478   220680350.669        -766.446          45.000  
E26  28277186.786   148597698.601         175.317          43.000    28277184.317   113860625.990         134.365          43.000  
G24  22690772.913   119240928.929        -957.297          50.000    22690770.847    92915093.564        -745.962          48.000  
E09  27267553.564   143291908.393        -637.302          49.000    27267553.794   109795211.012        -488.296          51.000  
G15  25703095.958   135070456.315       -3938.294          46.000    25703105.929   105249716.745       -3069.026          42.000  
R07  24018950.179   128575344.791       -3254.169          50.000    24018946.651   100003027.796       -2531.123          48.000  
R08  24697152.866   132252188.090        -187.026          43.000    24697145.686   102862725.081        -145.286          42.000  
R16  24071337.088   128585250.914       -2471.858          49.000    24071332.793   100010944.596       -1922.620          44.000  
R09  22415560.483   119698149.033         -97.574          51.000    22415554.773    93098650.104         -75.774          50.000  
R19  22578766.955   120781520.216         129.684          41.000    22578761.260    93941336.757         100.889          47.000  
G19  26165811.718   137502686.744       -4157.019          42.000                                                                  
G32  25992034.723   136589021.893        1139.740          37.000    25992035.037   106433008.169         888.012          36.000  
E31  26399840.704   138732439.758        -205.119          48.000    26399841.290   106301552.584        -157.120          52.000  
G12  23425123.083   123100195.374        -549.243          49.000    23425117.637    95922414.769        -427.891          45.000  
R20  24853344.044   132902150.330        3565.101          37.000    24853350.763   103368367.012        2773.043          39.000  
R10  24524944.841   130731751.609        1508.356          39.000                                                                  
R18  24045552.127   128357047.523       -3149.636          50.000    24045547.885    99833229.905       -2449.718          49.000  
S31  41041073.503   215672355.323        -765.800          44.000  
G29  26262559.103   138010772.665        2804.675          39.000    26262568.450   107540941.115        2185.193          36.000  
G25  24513670.263   128820407.830         783.725          46.000    24513668.213   100379637.322         610.573          44.000  
G06  25472087.021   133856818.940        -336.976          43.000    25472086.051   104304042.877        -262.791          40.000  
E33  28672395.942   150674661.671        1860.790          44.000    28672398.707   115452186.668        1425.898          48.000  
E04  27224897.504   143067812.995       -3032.939          47.000    27224898.529   109623489.623       -2323.927          51.000  
G11  25555369.105   134294595.989        1366.539          41.000    25555368.587   104645362.860        1064.650          43.000  
E21                                                                  30765674.109                3      -2021.114          23.000  
> 2024 04 09 01 01 30.0080000  0 25                     
S33  41998433.370   220703351.828        -766.685          44.000  
E26  28276223.593   148592633.562         162.787          43.000    28276220.140   113856745.002         124.646          42.000  
G24  22696282.854   119269880.117        -972.490          50.000    22696279.975    92937652.915        -757.811          48.000  
E09  27271233.318   143311244.113        -651.323          49.000    27271233.202   109810026.675        -499.085          51.000  
G15  25725586.815   135188642.377       -3940.279          46.000    25725596.700   105341809.238       -3070.419          43.000  
R06  26013110.199                3      -4688.189          15.000                                                                  
R07  24037237.246   128673235.341       -3271.448          52.000    24037233.200   100079164.758       -2544.499          48.000  
R08  24698270.662   132258176.895        -212.085          44.000    24698263.685   102867383.053        -164.860          42.000  
R16  24085233.222   128659487.158       -2476.869          47.000    24085230.920   100068683.850       -1926.542          43.000  
R09  22416124.353   119701161.216        -102.941          51.000    22416118.786    93100992.932         -80.007          51.000  
R19  22578115.779   120778037.650         102.922          41.000    22578110.400    93938628.119          79.871          47.000  
G19  26189558.748   137627478.185       -4161.987          41.000                                                                  
G32  25985576.081   136555081.608        1123.430          38.000    25985576.499   106406561.191         875.344          36.000  
E31  26401020.555   138738640.284        -207.719          48.000    26401021.049   106306303.647        -159.221          52.000  
G12  23428274.264   123116755.460        -554.526          50.000    23428268.260    95935318.775        -432.135          44.000  
R20  24833355.996   132795268.931        3560.866          37.000    24833363.334   103285237.853        2769.359          40.000  
R10  24516455.586   130686503.792        1508.468          39.000                                                                  
R18  24063315.834   128451868.925       -3171.573          51.000    24063312.485    99906979.873       -2466.753          50.000  
S31  41045444.856   215695329.179        -765.632          44.000  
G29  26246563.688   137926715.534        2799.414          39.000    26246572.000   107475442.891        2181.494          35.000  
G25  24509207.206   128796952.208         780.339          46.000    24509204.736   100361360.277         607.973          44.000  
G06  25474062.003   133867194.616        -354.543          43.000    25474060.229   104312127.800        -276.104          40.000  
E33  28661782.524   150618892.178        1857.695          44.000    28661785.942   115409454.460        1423.293          48.000  
E04  27242236.790   143158931.973       -3041.288          47.000    27242237.866   109693307.984       -2330.307          50.000  
G11  25547599.818   134253760.948        1356.227          42.000    25547598.561   104613543.411        1056.904          43.000  
> 2024 04 09 01 02 00.0080000  0 24                     
S33  42002808.108   220726342.017        -766.453          44.000  
E26  28275328.984   148587939.011         150.147          43.000    28275327.066   113853147.935         114.966          42.000  
G24  22701877.431   119299280.576        -987.758          50.000    22701874.600    92960562.358        -769.742          48.000  
E09  27274992.756   143330996.172        -665.510          50.000    27274991.978   109825161.365        -510.040          51.000  
G15  25748086.931   135306879.421       -3942.293          46.000    25748096.921   105433941.449       -3071.914          42.000  
R07  24055619.866   128771635.634       -3288.710          51.000    24055614.654   100155698.216       -2557.948          48.000  
R08  24699528.501   132264908.415        -237.213          43.000    24699520.236   102872618.664        -184.274          42.000  
R16  24099157.563   128733868.721       -2482.045          47.000    24099153.463   100126536.219       -1930.569          43.000  
R09  22416717.218   119704329.558        -108.506          50.000    22416712.500    93103457.211         -84.335          51.000  
R19  22577613.142   120775356.849          75.642          40.000    22577609.910    93936543.068          58.783          47.000  
G19  26213330.986   137752404.227       -4166.589          38.000                                                                  
G32  25979210.746   136521623.728        1106.981          40.000    25979209.623   106380490.101         862.986          36.000  
E31  26402214.683   138744914.832        -210.693          48.000    26402214.959   106311111.419        -161.417          52.000  
G12  23431455.948   123133471.974        -560.003          50.000    23431449.536    95948344.666        -436.538          45.000  
R20  24813392.934   132688521.749        3555.974          37.000    24813400.749   103202213.045        2765.489          40.000  
R10  24507965.010   130641242.067        1508.770          41.000                                                                  
R18  24081201.360   128547341.768       -3193.491          51.000    24081197.756    99981236.522       -2483.830          50.000  
S31  41049814.296   215718290.877        -765.503          44.000  
G29  26230598.469   137842822.620        2793.341          39.000    26230606.863   107410072.652        2176.642          34.000  
G25  24504762.218   128773592.793         777.002          47.000    24504759.701   100343158.176         605.295          44.000  
G06  25476137.141   133878093.960        -372.309          44.000    25476134.032   104320620.842        -290.197          40.000  
E33  28651186.788   150563219.125        1854.038          42.000    28651191.614   115366796.180        1420.546          49.000  
E04  27259622.710   143250293.817       -3049.649          47.000    27259623.809   109763312.425       -2336.728          51.000  
G11  25539887.603   134213229.399        1345.762          45.000    25539885.566   104581960.501        1048.576          43.000  
> 2024 04 09 01 02 30.0080000  0 25                     
S33  42007182.028   220749327.209        -766.327          44.000  
E26  28274507.450   148583623.637         137.345          43.000    28274506.031   113849841.411         105.336          42.000  
G24  22707559.280   119329138.573       -1002.969          50.000    22707556.886    92983828.327        -781.477          48.000  
E09  27278831.740   143351171.949        -679.705          49.000    27278831.408   109840620.720        -520.743          51.000  
G15  25770597.673   135425171.953       -3944.163          46.000    25770607.212   105526116.905       -3073.230          40.000  
R07  24074096.940   128870548.885       -3305.677          51.000    24074094.044   100232630.621       -2571.074          49.000  
R08  24700923.714   132272390.312        -261.993          41.000    24700917.229   102878437.905        -203.865          44.000  
R16  24113110.539   128808403.805       -2487.284          47.000    24113107.407   100184507.845       -1934.333          43.000  
R09  22417341.109   119707662.155        -113.957          50.000    22417336.912    93106049.237         -88.672          51.000  
R19  22577264.173   120773486.929          48.815          40.000    22577260.179    93935088.717          37.906          48.000  
G19  26237129.524   137877469.910       -4171.466          35.000                                                                  
G32  25972937.669   136488657.330        1090.618          40.000    25972935.519   106354802.018         850.069          36.000  
E31  26403423.747   138751270.202        -213.319          48.000    26403424.435   106315981.127        -163.286          52.000  
G12  23434667.673   123150351.600        -565.559          50.000    23434661.845    95961497.619        -440.700          45.000  
R20  24793457.633   132581920.707        3550.854          38.000    24793465.279   103119301.853        2761.779          40.000  
R10  24499473.103   130595974.365        1508.905          42.000                                                                  
R18  24099209.228   128643470.188       -3215.268          51.000    24099205.895   100056003.044       -2500.685          49.000  
S31  41054183.298   215741248.819        -765.261          44.000  
G29  26214665.892   137759103.554        2787.500          37.000    26214675.086   107344837.847        2172.278          35.000  
G25  24500336.312   128750336.616         773.219          47.000    24500334.543   100325036.504         602.935          44.000  
G06  25478313.416   133889525.552        -390.159          44.000    25478309.063   104329528.524        -303.868          40.000  
E33  28640613.350   150507652.105        1850.438          44.000    28640617.220   115324219.119        1417.838          48.000  
E04  27277055.782   143341904.098       -3057.925          47.000    27277056.828   109833507.221       -2343.023          51.000  
G11  25532235.344   134173011.671        1335.227          45.000    25532230.480   104550622.117        1040.410          42.000  
E21                                                                  30810928.613                3      -2022.292          26.000  
> 2024 04 09 01 03 00.0080000  0 23                     
S33  42011555.552   220772309.023        -765.875          45.000  
E26  28273759.227   148579688.406         124.893          43.000    28273757.661   113846826.179          95.725          43.000  
G24  22713327.474   119359455.047       -1018.090          50.000    22713325.770    93007451.563        -793.409          48.000  
E09  27282751.011   143371771.371        -693.713          48.000    27282751.496   109856404.704        -531.522          51.000  
G15  25793117.939   135543517.223       -3945.611          45.000    25793127.860   105618333.487       -3074.604          40.000  
R07  24092669.879   128969971.410       -3322.488          51.000    24092667.426   100309959.143       -2584.157          49.000  
R08  24702462.393   132280622.542        -287.010          43.000    24702455.932   102884840.709        -223.024          44.000  
R16  24127092.921   128883093.278       -2492.278          47.000    24127088.831   100242599.649       -1938.503          42.000  
R09  22417996.137   119711160.100        -119.324          51.000    22417991.605    93108769.856         -92.865          51.000  
R19  22577066.558   120772429.184          21.594          40.000    22577061.593    93934266.064          16.792          47.000  
G32  25966758.153   136456184.090        1074.354          38.000    25966756.347   106329498.178         837.099          37.000  
E31  26404648.319   138757705.857        -215.746          48.000    26404649.347   106320912.362        -165.356          52.000  
G12  23437910.359   123167393.601        -570.835          49.000    23437904.580    95974777.125        -444.815          45.000  
R20  24773550.836   132475470.313        3545.936          38.000    24773557.685   103036507.854        2757.669          41.000  
R10  24490981.038   130550700.888        1509.103          44.000                                                                  
R18  24117339.208   128740250.995       -3236.872          50.000    24117335.680   100131277.037       -2517.504          49.000  
S31  41058551.010   215764202.629        -764.947          44.000  
G29  26198767.280   137675560.421        2782.220          36.000    26198775.779   107279740.194        2167.023          33.000  
G25  24495929.684   128727183.183         770.100          46.000    24495928.658   100306994.920         600.284          44.000  
G06  25480589.046   133901490.429        -407.774          44.000    25480588.738   104338851.851        -317.780          42.000  
E33  28630060.399   150452193.221        1846.877          44.000    28630062.988   115281724.889        1415.094          47.000  
E04  27294535.805   143433760.904       -3066.028          48.000    27294536.940   109903890.918       -2349.185          51.000  
G11  25524642.786   134133110.604        1324.737          45.000    25524637.796   104519530.463        1032.229          43.000  
> 2024 04 09 01 03 30.0080000  0 23                     
S33  42015927.654   220795285.569        -765.841          45.000  
E26  28273082.837   148576134.288         112.250          43.000    28273081.544   113844102.929          86.094          44.000  
G24  22719183.729   119390230.639       -1033.350          50.000    22719181.775    93031432.525        -805.244          48.000  
E09  27286750.936   143392794.216        -707.751          48.000    27286751.883   109872513.121        -542.252          52.000  
G15  25815648.092   135661911.901       -3947.347          44.000    25815657.570   105710588.520       -3075.912          38.000  
R07  24111337.511   129069898.207       -3339.250          50.000    24111334.681   100387679.864       -2597.084          49.000  
R08  24704139.010   132289604.994        -311.826          43.000    24704132.459   102891827.084        -242.697          42.000  
R16  24141102.420   128957937.612       -2497.418          45.000    24141100.782   100300811.878       -1942.268          43.000  
R09  22418682.053   119714824.212        -124.883          51.000    22418677.249    93111619.727         -97.141          51.000  
R19  22577020.262   120772185.085          -5.438          40.000    22577016.968    93934076.264          -4.135          48.000  
G32  25960672.535   136424205.418        1057.845          38.000    25960671.932   106304579.746         824.273          38.000  
E31  26405888.540   138764221.091        -218.322          48.000    26405889.166   106325904.581        -167.343          52.000  
G12  23441183.899   123184597.359        -576.060          49.000    23441178.190    95988182.631        -448.862          45.000  
R20  24753672.753   132369174.409        3540.545          38.000    24753678.989   102953833.956        2753.615          40.000  
R10  24482486.508   130505421.887        1509.322          43.000                                                                  
R18  24135590.138   128837680.685       -3258.385          50.000    24135587.273   100207055.661       -2534.181          49.000  
S31  41062918.348   215787151.692        -764.822          44.000  
G29  26182901.775   137592194.964        2776.123          37.000    26182911.128   107214781.014        2162.201          33.000  
G25  24491543.041   128704131.934         766.784          47.000    24491541.390   100289032.961         597.464          44.000  
G06  25482967.891   133913989.590        -425.385          44.000    25482966.683   104348591.506        -331.511          41.000  
E33  28619527.051   150396844.400        1843.242          44.000    28619529.912   115239314.968        1412.354          47.000  
E04  27312061.681   143525862.164       -3074.001          48.000    27312063.312   109974461.925       -2355.439          51.000  
G11  25517108.812   134093528.857        1314.135          44.000    25517106.154   104488687.694        1024.097          42.000  
> 2024 04 09 01 04 00.0080000  0 23                     
S33  42020297.383   220818250.002        -765.321          45.000  
E26  28272477.113   148572954.460          99.631          43.000    28272475.885   113841666.502          76.429          43.000  
G24  22725126.107   119421458.408       -1048.662          50.000    22725124.319    93055765.836        -816.999          48.000  
E09  27290830.518   143414232.611        -721.673          47.000    27290831.510   109888939.938        -552.919          52.000  
G15  25838185.607   135780345.372       -3948.505          44.000    25838194.657   105802873.806       -3076.986          37.000  
R07  24130096.424   129170316.994       -3355.555          50.000    24130093.904   100465783.214       -2609.876          49.000  
R08  24705955.582   132299329.522        -336.621          46.000    24705949.745   102899390.607        -261.724          44.000  
R16  24155142.677   129032929.303       -2502.386          47.000    24155138.881   100359138.756       -1946.372          42.000  
R09  22419397.960   119718647.283        -130.195          51.000    22419392.999    93114593.208        -101.266          51.000  
R19  22577125.577   120772748.266         -32.808          41.000    22577121.501    93934514.335         -25.173          47.000  
G32  25954681.078   136392715.163        1041.226          40.000    25954679.339   106280041.894         811.584          39.000  
E31  26407141.117   138770807.591        -220.809          48.000    26407142.477   106330951.411        -169.189          52.000  
G12  23444487.509   123201954.047        -581.241          49.000    23444480.973    96001707.351        -452.773          45.000  
R20  24733823.011   132263030.136        3535.223          38.000    24733828.243   102871277.989        2749.631          40.000  
R10  24473989.035   130460129.333        1509.820          43.000                                                                  
R18  24153960.754   128935748.046       -3279.698          49.000    24153959.321   100283330.254       -2550.810          50.000  
S31  41067282.758   215810088.140        -764.442          44.000  
G29  26167071.692   137509001.832        2770.068          39.000    26167077.990                        2158.832          31.000  
G25  24487174.701   128681174.648         763.706          46.000    24487172.076   100271144.190         594.954          44.000  
G06  25485446.096   133927016.295        -443.329          42.000    25485443.229   104358742.167        -345.444          40.000  
E33  28609014.053   150341599.953        1839.666          43.000    28609017.673   115196985.054        1409.554          48.000  
E04  27329632.890   143618198.272       -3082.032          48.000    27329634.259   110045212.869       -2361.460          51.000  
G11  25509636.084   134054261.605        1303.394          44.000    25509634.061   104458089.974        1015.726          43.000  
> 2024 04 09 01 04 30.0080000  0 23                     
S33  42024665.104   220841202.334        -765.111          45.000  
E26  28271943.222   148570150.493          86.937          42.000    28271942.308   113839518.051          66.764          44.000  
G24  22731154.877   119453139.609       -1063.681          50.000    22731152.897    93080452.471        -828.847          48.000  
E09  27294989.105   143436086.835        -735.476          47.000    27294990.111   109905685.383        -563.600          52.000  
G15  25860730.992   135898815.203       -3949.715          45.000    25860738.884   105895187.420       -3077.619          37.000  
R07  24148945.931   129271223.979       -3371.883          50.000    24148943.317   100544266.358       -2622.666          47.000  
R08  24707910.896   132309796.647        -361.477          47.000    24707904.017   102907531.675        -280.901          43.000  
R16  24169207.923   129108069.695       -2507.204          46.000    24169204.437   100417581.200       -1950.087          42.000  
R09  22420144.214   119722630.541        -135.596          51.000    22420138.474    93117691.327        -105.397          50.000  
R19  22577382.947   120774120.213         -59.466          41.000    22577377.708    93935581.432         -46.196          47.000  
G32  25948781.959   136361715.233        1025.060          39.000    25948779.261   106255886.116         798.840          39.000  
E31  26408407.959   138777465.165        -223.086          47.000    26408409.294   106336052.688        -171.064          52.000  
G12  23447819.486   123219463.537        -586.420          49.000    23447812.855    96015351.120        -456.835          45.000  
R20  24714001.334   132157041.462        3530.382          37.000    24714006.578   102788843.092        2745.315          40.000  
R10  24465490.428   130414824.322        1510.254          42.000                                                                  
R18  24172451.407   129034450.152       -3300.645          49.000    24172449.405   100360098.557       -2567.204          50.000  
S31  41071645.364   215833012.895        -764.061          44.000  
G29  26151272.861   137425983.282        2764.068          40.000    26151279.347   107085267.060        2153.992          32.000  
G25  24482823.657   128658311.315         760.383          47.000    24482821.626   100253328.644         592.716          44.000  
G06  25488025.783   133940571.994        -460.963          42.000    25488023.282   104369305.062        -359.083          39.000  
E33  28598520.959   150286462.443        1835.978          43.000    28598525.444   115154737.068        1406.819          49.000  
E04  27347248.325   143710767.696       -3089.480          48.000    27347249.596   110116142.602       -2367.321          51.000  
G11  25502225.561   134015312.115        1292.910          46.000    25502220.950   104427739.813        1007.479          42.000  
> 2024 04 09 01 05 00.0080000  0 24                     
S33  42029032.025   220864149.858        -764.975          45.000  
E26  28271481.232   148567731.203          74.175          41.000    28271482.264   113837664.357          56.860          45.000  
G24  22737272.077   119485282.888       -1079.296          50.000    22737269.354    93105499.179        -841.031          48.000  
E09  27299228.238   143458364.575        -749.749          48.000    27299229.162   109922755.328        -574.534          51.000  
G15  25883282.397   136017326.302       -3951.039          43.000    25883292.364   105987533.195       -3078.520          39.000  
R07  24167889.725   129372623.164       -3388.166          50.000    24167885.151   100623132.262       -2635.237          47.000  
R08  24710005.761   132321013.525        -386.433          48.000    24709997.758   102916255.913        -300.690          43.000  
R16  24183303.736   129183367.312       -2512.678          46.000    24183301.647   100476145.996       -1954.326          44.000  
R09  22420921.588   119726783.055        -141.243          52.000    22420916.585    93120921.046        -109.921          50.000  
R19  22577793.328   120776310.509         -86.744          42.000    22577786.737    93937285.031         -67.522          47.000  
G32  25942977.628   136331215.087        1008.355          38.000    25942975.109   106232119.793         785.545          40.000  
E31  26409689.954   138784201.134        -225.903          48.000    26409691.150   106341214.026        -173.116          52.000  
G12  23451181.426   123237132.894        -591.640          48.000    23451175.408    96029119.466        -461.136          45.000  
R20  24694211.993   132051220.824        3524.451          38.000    24694217.127   102706538.824        2741.221          39.000  
R10  24456990.144   130369514.870        1510.273          43.000                                                                  
R18  24191061.000   129133791.647       -3322.179          48.000    24191060.316   100437364.124       -2583.870          49.000  
S31  41076006.311   215855933.038        -763.946          43.000  
G29  26135509.176   137343149.054        2757.916          41.000    26135516.558                        2148.792          31.000  
G25  24478492.553   128635549.370         757.073          47.000    24478490.070   100235592.096         589.883          44.000  
G06  25490708.172   133954665.462        -478.817          44.000    25490706.652   104380287.012        -372.873          41.000  
E33  28588051.517   150231441.753        1832.046          43.000    28588055.519   115112578.618        1403.743          50.000  
E04  27364910.003   143803576.375       -3097.651          48.000    27364910.499   110187255.656       -2373.475          50.000  
G11  25494876.128   133976691.006        1281.790          46.000    25494871.364   104397645.549         998.697          43.000  
E24                                                                  29871233.276                3        708.066          26.000  
> 2024 04 09 01 05 30.0080000  0 25                     
S33  42033398.446   220887095.889        -764.433          45.000  
E26  28271096.026   148565700.064          61.386          41.000    28271095.798   113836108.076          46.859          45.000  
G24  22743477.256   119517891.560       -1094.559          50.000    22743474.895    93130908.523        -852.922          48.000  
E09  27303549.261   143481068.165        -763.795          48.000    27303549.437   109940151.568        -585.298          51.000  
G15  25905841.538   136135877.999       -3952.195          43.000    25905853.354   106079910.613       -3079.675          40.000  
R07  24186923.392   129474512.109       -3404.240          51.000    24186919.822   100702379.092       -2647.939          47.000  
R08  24712239.543   132332982.942        -411.162          47.000    24712233.493   102925565.414        -319.882          44.000  
R16  24197429.428   129258825.424       -2517.765          45.000    24197428.047   100534835.576       -1958.331          44.000  
R09  22421732.058   119731108.270        -147.026          52.000    22421727.100    93124285.135        -114.354          50.000  
R19  22578355.741   120779322.430        -113.961          41.000    22578349.927    93939627.687         -88.565          46.000  
G19  26380455.427   138630237.5711      -4197.009          35.000                                                                  
G32  25937270.936   136301218.711         991.319          40.000    25937267.705   106208745.979         772.706          41.000  
E31  26410987.946   138791017.445        -228.408          49.000    26410988.004   106346436.909        -174.968          52.000  
G12  23454574.531   123254963.927        -597.019          48.000    23454568.818    96043013.773        -465.262          46.000  
R20  24674454.537   131945575.167        3518.804          38.000    24674459.795   102624370.707        2736.597          39.000  
R10  24448490.449   130324203.663        1510.746          43.000                                                                  
R18  24209791.816   129233771.550       -3343.277          48.000    24209789.538   100515126.296       -2600.227          48.000  
S31  41080367.935   215878850.836        -763.822          44.000  
G29  26119782.136   137260504.027        2751.910          40.000    26119788.403                        2144.373          31.000  
G25  24474180.866   128612890.888         753.685          47.000    24474177.954   100217936.172         587.141          44.000  
G06  25493493.905   133969300.241        -496.801          42.000    25493490.984   104391690.754        -387.208          40.000  
E33  28577605.190   150176542.513        1827.988          44.000    28577608.084   115070513.209        1400.598          49.000  
E04  27382616.217   143896624.853       -3105.581          48.000    27382617.006   110258552.450       -2379.584          50.000  
G11  25487590.458   133938403.645        1270.641          47.000    25487587.234   104367811.324         990.320          43.000  
E24                                                                  29865971.057                3        706.555          26.000  
> 2024 04 09 01 06 00.0080000  0 25                     
S33  42037764.276   220910038.658        -764.899          45.000  
E26  28270783.730   148564056.789          48.002          41.000    28270781.808   113834848.973          36.925          44.000  
G24  22749770.913   119550964.999       -1110.307          50.000    22749768.182    93156680.005        -865.183          48.000  
E09  27307950.780   143504196.114        -778.126          48.000    27307950.591   109957872.968        -596.280          51.000  
G15  25928409.389   136254465.870       -3953.665          43.000    25928420.554   106172316.246       -3080.863          40.000  
R07  24206048.739   129576885.487       -3420.536          52.000    24206044.373   100782002.693       -2660.547          48.000  
R08  24714615.552   132345703.340        -436.634          47.000    24714608.859   102935459.014        -339.602          45.000  
R16  24211586.157   129334443.186       -2523.470          46.000    24211583.481   100593649.385       -1962.676          45.000  
R09  22422574.268   119735606.184        -152.960          51.000    22422569.396    93127783.498        -118.893          49.000  
R19  22579072.290   120783156.192        -141.538          41.000    22579066.216    93942609.540        -110.155          46.000  
G19  26404421.482   138756195.178       -4200.701          36.000                                                                  
G32  25931659.382   136271726.214         974.404          39.000    25931655.704   106185764.868         758.948          41.000  
E31  26412299.686   138797912.214        -231.229          49.000    26412300.102   106351719.924        -177.117          52.000  
G12  23457998.201   123272954.533        -602.437          49.000    23457992.473    96057032.448        -469.547          45.000  
R20  24654732.163   131840108.017        3512.433          38.000    24654736.747   102542341.347        2732.014          40.000  
R10  24439989.344   130278889.729        1510.369          42.000                                                                  
R18  24228639.564   129334385.285       -3364.443          49.000    24228638.184   100593381.359       -2616.746          49.000  
S31  41084728.312   215901765.650        -763.737          44.000  
G29  26104090.121   137178048.327        2745.490          37.000    26104096.746                        2139.093          31.000  
G25  24469888.381   128590334.070         750.108          47.000    24469885.091   100200359.465         584.425          43.000  
G06  25496380.888   133984475.887        -514.952          41.000    25496378.201   104403515.973        -401.393          39.000  
E33  28567181.398   150121765.511        1823.809          44.000    28567184.263   115028541.437        1397.434          49.000  
E04  27400367.507   143989909.935       -3113.483          47.000    27400368.805   110330030.540       -2385.582          50.000  
G11  25480368.011   133900451.445        1259.421          46.000    25480364.842   104338238.287         981.212          43.000  
E24                                                                  29860719.142                3        705.012          24.000  
> 2024 04 09 01 06 30.0080000  0 25                     
S33  42042128.749   220932974.168        -764.431          45.000  
E26  28270544.988   148562799.433          35.567          41.000    28270542.563   113833885.558          27.057          45.000  
G24  22756152.645   119584501.059       -1125.562          50.000    22756149.422    93182811.992        -877.101          48.000  
E09  27312431.701   143527745.304        -792.014          48.000    27312431.887   109975917.136        -606.771          51.000  
G15  25950981.576   136373084.514       -3954.406          43.000    25950993.467   106264745.851       -3081.532          40.000  
R07  24225260.715   129679735.573       -3436.202          51.000    24225257.770   100861997.105       -2672.624          48.000  
R08  24717130.492   132359171.302        -461.311          48.000    24717123.695   102945934.094        -358.948          46.000  
R16  24225771.387   129410218.050       -2528.456          46.000    24225767.263   100652585.369       -1966.436          43.000  
R09  22423448.169   119740273.844        -158.511          51.000    22423443.381    93131413.899        -123.254          50.000  
R19  22579942.485   120787809.634        -168.714          42.000    22579936.432    93946228.911        -131.263          47.000  
G19  26428409.176   138882270.148       -4204.504          32.000                                                                  
G32  25926141.563   136242736.281         958.163          37.000    25926139.000   106163175.259         746.725          41.000  
E31  26413625.217   138804882.002        -233.579          48.000    26413626.435   106357060.421        -178.964          52.000  
G12  23461451.525   123291101.513        -607.545          48.000    23461445.426    96071172.953        -473.313          45.000  
R20  24635042.142   131734819.587        3506.396          38.000    24635047.134   102460451.010        2727.552          40.000  
R10  24431487.184   130233570.616        1510.740          42.000    24430581.422                3       1015.000          12.000  
R18  24247604.772   129435626.283       -3385.169          46.000    24247602.518   100672124.393       -2632.920          48.000  
S31  41089087.407   215924673.559        -763.610          44.000  
G29  26088433.098   137095781.685        2739.075          37.000    26088441.255   106827970.601        2134.198          32.000  
G25  24465614.760   128567875.545         747.013          48.000    24465611.607   100182859.359         582.100          44.000  
G06  25499371.223   134000190.491        -532.833          41.000    25499369.016   104415761.145        -415.256          39.000  
E33  28556780.258   150067109.868        1819.870          44.000    28556783.400   114986662.685        1394.350          49.000  
E04  27418162.599   144083426.754       -3121.054          47.000    27418164.412   110401686.171       -2391.432          50.000  
G11  25473208.783   133862834.359        1248.309          46.000    25473205.345   104308926.402         972.832          43.000  
E24                                                                  29855473.782                3        703.177          25.000  
> 2024 04 09 01 07 00.0080000  0 25                     
S33  42046492.483   220955906.163        -764.291          45.000  
E26  28270381.119   148561931.343          22.519          41.000    28270377.576   113833220.388          17.341          46.000  
G24  22762622.836   119618502.817       -1140.997          49.000    22762620.357    93209306.839        -889.043          48.000  
E09  27316993.159   143551717.886        -805.982          48.000    27316993.714   109994285.742        -617.644          52.000  
G15  25973561.117   136491733.411       -3955.217          44.000    25973572.114   106357199.015       -3082.002          39.000  
R07  24244562.376   129783060.519       -3451.856          50.000    24244559.492   100942360.802       -2684.793          48.000  
R08  24719786.014   132373388.320        -486.112          47.000    24719779.309   102956991.762        -378.111          46.000  
R16  24239987.909   129486153.579       -2533.652          47.000    24239982.408   100711646.299       -1970.818          44.000  
R09  22424354.561   119745115.199        -164.055          52.000    22424349.835    93135179.406        -127.555          50.000  
R19  22580966.141   120793286.353        -196.120          42.000    22580960.480    93950488.604        -152.409          46.000  
G19  26452422.017   139008461.901       -4208.146          32.000                                                                  
G32  25920720.880   136214252.567         941.199          38.000    25920718.034   106140980.234         733.592          41.000  
E31  26414966.184   138811928.615        -236.003          48.000    26414967.563   106362459.790        -180.849          53.000  
G12  23464934.966   123309406.161        -612.653          48.000    23464928.601    96085436.350        -477.293          45.000  
R20  24615386.894   131629717.823        3500.773          37.000    24615391.826   102378705.839        2722.669          40.000  
R10  24422985.148   130188249.058        1510.700          41.000                                                                  
R18  24266689.689   129537493.496       -3405.751          49.000    24266686.497   100751354.394       -2648.871          48.000  
S31  41093446.034   215947577.871        -763.000          44.000  
G29  26072815.626   137013708.089        2733.000          37.000    26072822.062   106764017.958        2129.476          33.000  
G25  24461359.940   128545517.289         743.757          47.000    24461358.054   100165437.397         579.698          44.000  
G06  25502465.906   134016447.252        -550.731          41.000    25502462.729   104428428.777        -429.151          40.000  
E33  28546404.532   150012580.044        1815.752          46.000    28546406.342   114944880.319        1391.156          49.000  
E04  27436002.168   144177175.674       -3128.525          46.000    27436004.303   110473519.667       -2397.274          50.000  
G11  25466116.002   133825557.517        1236.974          47.000    25466112.904   104279879.611         963.949          44.000  
E24                                                                  29850236.603                3        703.497          25.000  
> 2024 04 09 01 07 30.0080000  0 25                     
S33  42050855.259   220978832.890        -764.039          45.000  
E26  28270290.661   148561452.839           9.334          41.000    28270286.901   113832853.759           7.292          47.000  
G24  22769182.260   119652970.394       -1156.668          50.000    22769179.417    93236164.664        -901.360          48.000  
E09  27321635.550   143576113.053        -820.125          47.000    27321636.303   110012978.121        -628.469          52.000  
G15  25996144.411   136610408.750       -3956.184          43.000    25996155.150   106449672.820       -3082.851          39.000  
R07  24263952.455   129886855.412       -3467.529          51.000    24263949.209   101023089.992       -2697.104          48.000  
R08  24722580.395   132388354.143        -511.280          48.000    24722573.352   102968631.806        -397.702          46.000  
R16  24254233.384   129562249.598       -2539.051          47.000    24254227.083   100770832.093       -1975.062          44.000  
R09  22425293.325   119750130.316        -170.011          51.000    22425288.379    93139080.013        -132.287          49.000  
R19  22582144.174   120799586.918        -223.896          42.000    22582137.770    93955389.080        -174.121          47.000  
G19  26476455.002   139134767.485       -4211.755          37.000                                                                  
G32  25915397.479   136186276.090         924.286          41.000    25915394.257   106119180.404         719.740          40.000  
E31  26416321.982   138819050.892        -238.610          48.000    26416323.055   106367917.128        -182.860          53.000  
G12  23468447.421   123327867.064        -617.856          47.000    23468441.518    96099821.495        -481.308          45.000  
R20  24595766.254   131524805.195        3493.754          37.000    24595772.281   102297107.752        2717.464          41.000  
R10  24414481.015   130142924.412        1510.910          40.000                                                                  
R18  24285887.893   129639982.995       -3426.670          47.000    24285885.533   100831068.426       -2665.135          50.000  
S31  41097803.317   215970476.858        -763.226          44.000  
G29  26057235.371   136931828.689        2726.381          37.000    26057239.865   106700216.683        2123.948          34.000  
G25  24457124.099   128523258.327         740.159          47.000    24457122.462   100148092.755         576.912          45.000  
G06  25505662.669   134033246.459        -568.935          42.000    25505659.223   104441519.099        -443.345          40.000  
E33  28536051.553   149958177.581        1811.310          46.000    28536053.610   114903195.506        1387.930          49.000  
E04  27453886.396   144271154.240       -3136.448          45.000    27453888.509   110545529.092       -2403.189          51.000  
G11  25459087.563   133788623.068        1225.354          47.000    25459083.956   104251099.591         954.937          43.000  
E24                                                                  29845011.208                         701.007          27.000  
> 2024 04 09 01 08 00.0080000  0 25                     
S33  42055215.999   221001749.408        -763.729          45.000  
E26  28270272.168   148561359.111          -3.360          41.000    28270269.178   113832781.967          -2.582          47.000  
G24  22775828.524   119687898.767       -1171.908          49.000    22775826.229    93263381.578        -913.192          48.000  
E09  27326357.271   143600924.868        -833.912          47.000    27326357.646   110031989.744        -638.970          52.000  
G15  26018731.502   136729101.995       -3956.715          44.000    26018741.531   106542160.546       -3083.360          38.000  
R07  24283429.118   129991109.889       -3482.705          52.000    24283425.492   101104176.678       -2708.756          47.000  
R08  24725512.570   132404062.297        -535.794          46.000    24725506.390   102980849.256        -416.792          46.000  
R16  24268504.868   129638500.690       -2544.301          42.000    24268502.018   100830138.434       -1978.983          43.000  
R09  22426265.339   119755314.375        -175.628          52.000    22426258.921    93143112.067        -136.494          50.000  
R19  22583475.244   120806706.478        -250.759          42.000    22583469.225    93960926.575        -195.200          47.000  
G19  26500510.552   139261178.522       -4215.405          39.000                                                                  
G32  25910170.547   136158802.495         907.432          40.000    25910166.041   106097772.410         707.338          40.000  
E31  26417690.843   138826242.559        -240.844          49.000    26417691.504   106373427.638        -184.513          53.000  
G12  23471988.738   123346478.091        -622.773          47.000    23471982.458    96114323.626        -485.492          45.000  
R20  24576182.129   131420081.140        3487.586          37.000    24576187.858   102215656.340        2712.732          40.000  
R10  24405976.761   130097591.347        1511.206          41.000                                                                  
R18  24305202.457   129743085.264       -3446.832          46.000    24305199.419   100911259.056       -2681.012          49.000  
S31  41102158.928   215993365.295        -762.777          44.000  
G29  26041690.406   136850140.320        2719.550          33.000    26041694.587   106636564.174        2119.260          35.000  
G25  24452905.895   128501092.452         737.309          48.000    24452904.511   100130820.678         574.613          45.000  
G06  25508961.958   134050583.248        -586.786          40.000    25508958.405   104455028.352        -457.448          39.000  
E33  28525722.961   149903898.812        1807.233          46.000    28525724.615   114861605.486        1384.703          49.000  
E04  27471810.853   144365354.709       -3143.649          44.000    27471814.430   110617708.571       -2408.826          51.000  
G11  25452123.750   133752028.137        1214.142          47.000    25452120.338   104222584.145         945.994          44.000  
E24                                                                  29839789.939                         700.423          27.000  
> 2024 04 09 01 08 30.0080000  0 25                     
S33  42059574.334   221024651.768        -763.363          45.000  
E26  28270325.600   148561647.960         -16.025          40.000    28270324.116   113833003.308         -12.336          48.000  
G24  22782562.629   119723285.518       -1187.300          50.000    22782560.234    93290955.664        -925.123          48.000  
E09  27331157.473   143626149.911        -847.806          48.000    27331157.801   110051318.011        -649.624          52.000  
G15  26041320.603   136847807.165       -3957.111          43.000    26041331.060   106634657.583       -3083.713          39.000  
R07  24302988.721   130095815.934       -3497.880          50.000    24302986.704   101185614.579       -2720.514          46.000  
R08  24728583.607   132420508.783        -560.557          47.000    24728578.099   102993640.926        -436.004          46.000  
R16  24282810.980   129714904.542       -2549.433          44.000    24282804.338   100889563.755       -1983.069          43.000  
R09  22427266.807   119760665.341        -181.207          51.000    22427261.260    93147273.910        -140.861          50.000  
R19  22584958.346   120814642.567        -278.407          41.000    22584953.046    93967099.119        -216.446          47.000  
G19  26524584.506   139387688.966       -4218.941          41.000                                                                  
G32  25905037.986   136131829.993         890.685          41.000    25905033.142   106076754.873         694.172          40.000  
E31  26419071.879   138833499.962        -242.988          49.000    26419072.300   106378988.521        -186.198          53.000  
G12  23475557.931   123365235.258        -627.754          47.000    23475552.001    96128939.611        -489.093          45.000  
R20  24556633.695   131315547.130        3481.025          38.000    24556638.879   102134352.696        2707.889          41.000  
R10  24397472.854   130052247.066        1511.612          42.000                                                                  
R18  24324632.334   129846793.506       -3467.199          44.000    24324628.477   100991921.019       -2696.605          50.000  
S31  41106511.486   216016239.555        -762.348          44.000  
G29  26026178.991   136768641.561        2713.565          33.000    26026185.983   106573059.447        2114.090          37.000  
G25  24448704.857   128479016.120         734.392          48.000    24448703.544   100113618.376         572.196          45.000  
G06  25512361.974   134068455.278        -604.642          37.000    25512359.470   104468954.658        -471.012          40.000  
E33  28515417.337   149849742.698        1803.095          46.000    28515418.793   114820109.446        1381.549          48.000  
E04  27489777.603   144459772.022       -3151.042          43.000    27489781.595   110690054.176       -2414.388          51.000  
G11  25445224.557   133715772.359        1202.713          47.000    25445220.400   104194332.958         937.083          43.000  
E24                                                                  29834574.430                         699.411          25.000  
> 2024 04 09 01 09 00.0080000  0 25                     
S33  42063930.614   221047544.669        -763.479          45.000  
E26  28270455.795   148562324.877         -29.299          41.000    28270452.984   113833522.000         -22.609          48.000  
G24  22789384.652   119759135.806       -1203.110          50.000    22789381.971    93318890.954        -937.472          48.000  
E09  27336036.678   143651792.502        -862.083          47.000    27336037.429   110070966.211        -660.559          51.000  
G15  26063912.526   136966525.998       -3957.790          44.000    26063923.568   106727165.249       -3084.104          39.000  
R07  24322632.581   130200974.411       -3513.282          50.000    24322629.961   101267404.364       -2732.477          45.000  
R08  24731795.053   132437698.347        -585.850          48.000    24731788.829   103007010.542        -455.626          47.000  
R16  24297139.933   129791466.621       -2555.085          43.000    24297138.526   100949111.954       -1987.325          45.000  
R09  22428300.987   119766189.028        -187.391          51.000    22428296.047    93151570.097        -145.760          50.000  
R19  22586595.952   120823400.881        -306.224          42.000    22586589.816    93973911.157        -238.063          47.000  
G19  26548678.262   139514301.018       -4222.770          40.000                                                                  
G32  25900001.138   136105364.531         873.237          42.000    25899997.782   106056132.467         680.570          41.000  
E31  26420466.012   138840827.153        -245.688          49.000    26420466.555   106384602.879        -188.302          53.000  
G12  23479155.721   123384142.589        -633.147          47.000    23479150.788    96143672.609        -493.422          46.000  
R20  24537121.245   131211211.216        3473.910          37.000    24537127.384   102053203.155        2702.341          42.000  
R10  24388962.977   130006896.558        1511.304          39.000                                                                  
R18  24344173.774   129951108.908       -3487.648          46.000    24344169.515   101073055.199       -2712.588          49.000  
E24  29829366.261                1        911.593          28.000    29829367.400                         698.167          28.000  
S31  41110862.853   216039104.405        -762.347          44.000  
G29  26010709.388   136687339.353        2706.703          32.000    26010715.088   106509707.813        2108.749          38.000  
G25  24444521.530   128457033.542         730.793          48.000    24444519.977   100096489.122         569.506          44.000  
G06  25515863.510   134086867.979        -623.487          36.000    25515862.583   104483302.183        -485.747          41.000  
E33  28505136.148   149795715.857        1798.312          45.000    28505136.970   114778712.456        1377.919          48.000  
E04  27507786.790   144554408.721       -3158.431          43.000    27507790.556   110762567.906       -2420.092          51.000  
G11  25438390.778   133679863.008        1190.692          45.000    25438387.288   104166351.711         927.880          44.000  
> 2024 04 09 01 09 30.0080000  0 25                     
S33  42068285.786   221070431.950        -762.941          45.000  
E26  28270659.586   148563394.764         -42.356          41.000    28270656.795   113834341.758         -32.363          48.000  
G24  22796296.066   119795454.321       -1218.396          50.000    22796293.034    93347191.078        -949.420          48.000  
E09  27340997.403   143677856.313        -875.779          48.000    27340997.302   110090937.168        -671.070          51.000  
G15  26086507.364   137085259.472       -3958.069          44.000    26086517.770   106819684.332       -3084.009          38.000  
R07  24342360.990   130306584.376       -3527.691          48.000    24342359.170   101349545.352       -2743.816          47.000  
R08  24735145.799   132455634.208        -610.215          48.000    24735138.096   103020960.665        -474.573          47.000  
R16  24311506.604   129868191.117       -2560.103          45.000    24311501.329   101008786.565       -1991.180          45.000  
R09  22429369.015   119771889.966        -192.973          51.000    22429363.696    93156004.140        -150.027          50.000  
R19  22588386.547   120832986.276        -333.259          41.000    22588381.961    93981366.510        -259.287          48.000  
G19  26572791.053   139641016.077       -4225.428          40.000                                                                  
G32  25895060.828   136079411.497         856.659          41.000    25895058.854   106035909.350         667.578          40.000  
E31  26421873.981   138848227.561        -247.867          49.000    26421874.644   106390273.336        -189.933          52.000  
G12  23482782.694   123403203.390        -637.961          47.000    23482778.424    96158525.188        -497.087          46.000  
R20  24517648.448   131107082.196        3467.957          38.000    24517653.532   101972214.532        2697.221          41.000  
R10  24380454.117   129961543.736        1511.878          41.000                                                                  
R18  24363827.943   130056031.931       -3507.414          46.000    24363826.147   101154661.937       -2728.045          50.000  
S31  41115212.585   216061963.288        -761.808          44.000  
G29  25995276.265                        2700.174          32.000    25995281.048   106446513.665        2103.729          39.000  
G25  24440356.635   128435148.229         727.940          47.000    24440354.567   100079435.656         567.339          44.000  
G06  25519471.433   134105825.962        -640.679          35.000    25519470.681   104498074.703        -499.475          41.000  
E33  28494880.627   149741824.375        1794.086          45.000    28494881.701   114737419.167        1374.692          48.000  
E04  27525838.070   144649266.896       -3165.549          44.000    27525841.402   110835251.324       -2425.634          51.000  
G11  25431623.540   133644306.756        1179.274          44.000    25431621.595   104138645.637         918.909          45.000  
E24                                                                  29824168.922                         697.685          31.000  
> 2024 04 09 01 10 00.0080000  0 25                     
S33  42072639.553   221093311.320        -762.559          45.000  
E26  28270935.213   148564856.939         -55.377          39.000    28270934.873   113835462.155         -42.386          47.000  
G24  22803295.975   119832240.181       -1234.097          50.000    22803293.230    93375855.386        -961.666          48.000  
E09  27346037.095   143704339.588        -889.744          48.000    27346036.876   110111229.536        -681.880          51.000  
G15  26109103.615   137204003.117       -3958.392          44.000    26109114.838   106912211.418       -3084.283          39.000  
R07  24362172.769   130412639.960       -3542.520          48.000    24362171.554   101432032.886       -2755.284          47.000  
R08  24738632.307   132474313.951        -635.047          47.000    24738626.335   103035489.332        -494.000          46.000  
R16  24325898.464   129945077.764       -2565.777          44.000    24325894.430   101068587.270       -1995.400          44.000  
R09  22430469.339   119777767.820        -198.992          50.000    22430464.523    93160575.806        -154.714          50.000  
R19  22590332.434   120843397.896        -360.642          40.000    22590328.708    93989464.480        -280.530          47.000  
G19  26596922.545   139767830.091       -4228.675          42.000                                                                  
G32  25890219.247   136053970.824         839.298          40.000    25890217.362   106016085.411         654.106          39.000  
E31  26423296.212   138855699.141        -250.213          49.000    26423296.467   106395998.318        -191.782          52.000  
G12  23486439.371   123422415.504        -642.824          48.000    23486434.184    96173495.677        -500.855          46.000  
R20  24498214.301   131003162.379        3460.436          38.000    24498219.270   101891388.586        2691.403          41.000  
R10  24371947.245   129916188.385        1511.818          43.000                                                                  
R18  24383594.770   130161557.347       -3527.575          43.000    24383594.183   101236737.280       -2743.688          50.000  
E24  29818975.720                         909.119          28.000    29818978.214   120068669.5531        696.298          33.000  
S31  41119561.162   216084815.406        -761.538          44.000  
G29  25979879.644                        2693.133          31.000    25979885.570   106383477.134        2098.317          39.000  
G25  24436210.304   128413358.298         724.814          47.000    24436207.948   100062456.525         564.658          43.000  
G06  25523183.136   134125328.574        -659.419          36.000    25523181.026   104513271.575        -513.665          40.000  
E33  28484650.866   149688068.868        1789.619          45.000    28484652.362   114696230.068        1371.141          49.000  
E04  27543930.925   144744343.055       -3172.838          44.000    27543933.904   110908101.761       -2431.174          51.000  
G11  25424925.328   133609104.945        1167.564          46.000    25424922.372   104111215.719         909.863          44.000  
> 2024 04 09 01 10 30.0080000  0 26                     
S33  42076993.241   221116189.785        -762.889          45.000  
E26  28271289.475   148566717.688         -68.732          39.000    28271288.671   113836887.930         -52.901          47.000  
G24  22810385.898   119869499.305       -1250.081          49.000    22810384.453    93404888.459        -974.209          48.000  
E09  27351157.066   143731247.371        -904.523          47.000    27351156.972   110131847.150        -692.940          51.000  
G15  26131702.722   137322759.560       -3959.100          43.000    26131714.359   107004748.465       -3084.595          39.000  
R07  24382068.498   130519141.961       -3557.752          48.000    24382066.496   101514867.614       -2767.156          46.000  
R08  24742260.163   132493742.258        -660.447          48.000    24742253.836   103050600.237        -513.634          46.000  
R16  24340323.801   130022131.812       -2571.580          45.000    24340318.292   101128518.233       -2000.065          43.000  
R09  22431604.565   119783829.038        -205.626          51.000    22431599.149    93165290.114        -159.869          50.000  
R19  22592434.439   120854641.991        -389.130          41.000    22592430.746    93998209.899        -302.679          48.000  
G19  26621073.140   139894745.771       -4232.626          44.000                                                                  
G32  25885477.811   136029049.048         821.738          41.000    25885473.767   105996665.833         640.009          38.000  
E31  26424732.423   138863246.768        -253.200          49.000    26424732.757   106401781.564        -194.004          52.000  
G12  23490125.495   123441783.636        -648.665          48.000    23490119.118    96188587.743        -505.494          46.000  
R20  24478822.274   130899462.184        3452.502          39.000    24478826.208   101810733.445        2685.504          42.000  
R10  24363439.313   129870835.527        1511.194          43.000                                                                  
R18  24403477.460   130267686.942       -3548.083          46.000    24403476.187   101319282.496       -2759.627          49.000  
E24  29813788.203                         906.363          31.000    29813795.844   120047799.596         694.828          37.000  
S31  41123909.368   216107665.258        -762.145          44.000  
G29  25964523.310   136444653.558        2685.477          36.000    25964530.645   106320604.261        2092.659          40.000  
G25  24432082.964   128391668.724         720.883          48.000    24432080.756   100045555.575         561.691          44.000  
G06  25526999.102   134145381.946        -678.050          35.000    25526997.344   104528897.570        -528.298          40.000  
E33  28474448.191   149634456.776        1784.237          45.000    28474450.640   114655150.853        1367.261          50.000  
E04  27562065.003   144839640.533       -3180.524          44.000    27562068.460   110981121.808       -2437.090          51.000  
G11  25418296.889   133574265.639        1154.862          45.000    25418293.094   104084068.251         899.966          45.000  
R06                                                                  27382363.421                3      -3253.871          10.000  
> 2024 04 09 01 11 00.0080000  0 25                     
S33  42081347.915   221139073.910        -762.916          45.000  
E26  28271719.131   148568986.270         -82.361          38.000    28271720.626   113838626.251         -63.114          48.000  
G24  22817568.128   119907240.837       -1266.274          49.000    22817566.614    93434297.400        -986.653          49.000  
E09  27356359.572   143758587.794        -918.754          47.000    27356359.723   110152796.289        -703.875          50.000  
G15  26154304.950   137441534.489       -3959.399          41.000    26154316.727   107097299.917       -3085.462          38.000  
R07  24402049.809   130626094.909       -3572.724          50.000    24402046.417   101598053.032       -2778.858          46.000  
R08  24746029.915   132513927.575        -685.577          48.000    24746023.478   103066299.887        -533.405          47.000  
R16  24354783.283   130099363.145       -2577.383          46.000    24354776.524   101188587.040       -2004.590          43.000  
R09  22432775.562   119790083.524        -211.787          50.000    22432771.175    93170154.716        -164.705          51.000  
R19  22594694.351   120866727.941        -416.915          42.000    22594689.755    94007610.106        -324.244          48.000  
G19  26645244.909   140021769.277       -4235.949          45.000                                                                  
G32  25880835.663   136004655.930         804.136          40.000    25880832.125   105977658.229         626.824          38.000  
E31  26426184.768   138870878.435        -255.774          49.000    26426184.904   106407629.222        -196.063          52.000  
G12  23493841.840   123461315.489        -653.831          47.000    23493835.827    96203807.357        -509.536          45.000  
R20  24459472.683   130795994.929        3445.069          39.000    24459477.543   101730259.502        2679.208          43.000  
R10  24354933.638   129825494.663        1510.854          43.000                                                                  
R18  24423474.694   130374425.908       -3568.208          49.000    24423471.702   101402301.702       -2775.313          49.000  
E24  29808617.736   156645330.4851        905.301          34.000    29808622.881   120026969.625         693.730          39.000  
S31  41128258.747   216130521.384        -762.307          44.000  
G29  25949212.391   136364186.461        2678.676          40.000    25949216.779   106257903.301        2087.125          39.000  
G25  24427976.224   128370087.587         717.351          48.000    24427974.101   100028739.128         559.021          44.000  
G06  25530923.241   134165995.125        -696.646          36.000    25530920.174   104544959.795        -542.824          41.000  
E33  28464274.551   149580998.608        1779.364          44.000    28464277.485   114614189.618        1363.343          49.000  
E04  27580243.546   144935165.908       -3188.027          45.000    27580246.381   111054316.443       -2442.835          51.000  
G11  25411738.881   133539800.023        1142.494          46.000    25411735.239   104057211.958         890.263          46.000  
> 2024 04 09 01 11 30.0080000  0 25                     
S33  42085701.254   221161950.675        -762.647          45.000  
E26  28272228.801   148571650.334         -95.352          38.000    28272227.433   113840667.519         -73.203          48.000  
G24  22824839.927   119945451.915       -1281.680          50.000    22824837.761    93464072.264        -998.708          48.000  
E09  27361643.067   143786347.127        -932.346          48.000    27361642.116   110174066.424        -714.430          50.000  
G15  26176908.800   137560311.501       -3959.118          42.000    26176919.851   107189852.968       -3085.242          38.000  
R07  24422111.891   130733480.291       -3586.777          50.000    24422107.550   101681574.821       -2789.717          46.000  
R08  24749938.491   132534855.067        -710.009          49.000    24749932.579   103082576.812        -552.226          46.000  
R16  24369272.488   130176758.399       -2582.553          47.000    24369265.032   101248783.347       -2008.754          43.000  
R09  22433980.355   119796518.273        -217.517          51.000    22433976.642    93175159.513        -169.152          51.000  
R19  22597108.485   120879642.893        -444.742          42.000    22597104.090    94017655.087        -345.595          47.000  
G19  26669434.274   140148884.590       -4238.900          46.000                                                                  
G32  25876291.026   135980779.514         787.027          40.000    25876289.394   105959053.237         613.501          39.000  
E31  26427650.092   138878580.174        -257.956          49.000    26427650.366   106413530.579        -197.634          52.000  
G12  23497586.581   123480997.121        -658.637          47.000    23497581.444    96219143.709        -513.074          45.000  
R20  24440164.398   130692750.603        3437.463          38.000    24440169.616   101649958.899        2673.663          43.000  
R10  24346426.622   129780152.692        1511.514          43.000                                                                  
R18  24443581.439   130481756.808       -3587.667          49.000    24443578.875   101485781.260       -2790.365          48.000  
E24  29803455.036   156618183.719         904.215          37.000    29803456.841   120006168.952         692.788          41.000  
S31  41132606.689   216153370.178        -761.636          44.000  
G29  25933940.286   136283928.209        2671.690          41.000    25933943.612   106195365.099        2081.750          40.000  
G25  24423887.860   128348601.084         714.780          47.000    24423885.114   100011996.422         556.942          43.000  
G06  25534948.437   134187155.419        -714.753          35.000    25534947.003   104561448.338        -556.497          41.000  
E33  28454129.731   149527683.099        1774.672          45.000    28454131.501   114573337.679        1359.792          49.000  
E04  27598462.185   145030903.720       -3194.833          45.000    27598464.945   111127673.839       -2447.925          51.000  
G11  25405248.393   133505697.396        1130.587          46.000    25405246.042   104030638.584         880.997          45.000  
> 2024 04 09 01 12 00.0080000  0 25                     
S33  42090053.672   221184822.433        -762.612          44.000  
E26  28272812.356   148574711.861        -108.981          40.000    28272809.928   113843013.348         -83.474          48.000  
G24  22832201.174   119984134.497       -1297.561          50.000    22832198.882    93494214.539       -1010.895          49.000  
E09  27367004.889   143814526.391        -946.543          47.000    27367004.622   110195658.319        -725.254          51.000  
G15  26199512.492   137679089.013       -3959.589          42.000    26199522.629   107282406.387       -3085.089          37.000  
R07  24442252.340   130841294.903       -3601.164          49.000    24442248.299   101765430.436       -2800.990          45.000  
R08  24753986.898   132556525.782        -734.845          48.000    24753978.829   103099431.756        -571.465          46.000  
R16  24383790.364   130254320.095       -2588.403          45.000    24383785.236   101309109.029       -2013.073          44.000  
R09  22435219.932   119803135.929        -223.900          49.000    22435215.713    93180306.592        -174.131          50.000  
R19  22599678.224   120893388.827        -472.425          42.000    22599673.797    94028346.417        -367.318          47.000  
G19  26693640.947   140276090.341       -4241.920          46.000                                                                  
G32  25871846.342   135957422.271         769.244          41.000    25871845.357   105940852.836         599.638          40.000  
E31  26429128.960   138886352.865        -260.527          48.000    26429129.489   106419486.299        -199.557          52.000  
G12  23501361.068   123500828.989        -663.855          48.000    23501355.147    96234597.129        -517.421          45.000  
R20  24420899.150   130589735.192        3429.778          38.000    24420905.133   101569836.355        2667.593          43.000  
R10  24337920.153   129734810.959        1510.992          43.000                                                                  
R18  24463798.620   130589677.464       -3607.449          50.000    24463796.012   101569719.501       -2805.701          48.000  
E24  29798299.209   156591076.074         902.630          38.000    29798297.498   119985398.222         691.695          42.000  
S31  41136953.608   216176212.983        -761.765          44.000  
G29  25918707.263   136203882.130        2664.403          43.000    25918710.611   106132992.260        2076.011          40.000  
G25  24419817.461   128327210.215         711.088          47.000    24419814.243    99995328.263         553.932          43.000  
G06  25539079.328   134208864.865        -732.676          37.000    25539077.584   104578364.853        -571.189          41.000  
E33  28444011.988   149474513.684        1769.628          45.000    28444013.309   114532597.670        1355.998          49.000  
E04  27616721.347   145126853.395       -3202.107          45.000    27616723.017   111201193.594       -2453.579          51.000  
G11  25398829.118   133471961.825        1118.090          47.000    25398825.426   104004351.187         871.259          44.000  
> 2024 04 09 01 12 30.0080000  0 25                     
S33  42094404.853   221207689.696        -762.158          44.000  
E26  28273471.412   148578173.687        -122.002          40.000    28273469.008   113845665.945         -93.586          48.000  
G24  22839651.831   120023291.084       -1313.043          50.000    22839649.952    93524726.163       -1023.225          48.000  
E09  27372447.254   143843127.199        -960.385          46.000    27372447.280   110217573.215        -735.878          51.000  
G15  26222115.419   137797865.955       -3959.045          42.000    26222125.217   107374959.411       -3084.882          36.000  
R07  24462472.327   130949536.298       -3615.061          49.000    24462468.657   101849618.036       -2811.587          46.000  
R08  24758171.395   132578940.493        -759.435          46.000    24758164.530   103116865.414        -590.811          46.000  
R16  24398341.452   130332050.415       -2593.792          45.000    24398336.384   101369565.957       -2017.512          43.000  
R09  22436493.785   119809939.541        -229.907          49.000    22436489.632    93185598.304        -178.841          50.000  
R19  22602404.055   120907967.975        -499.793          43.000    22602398.827    94039685.801        -388.795          47.000  
G19  26717864.494   140403385.939       -4244.713          45.000                                                                  
G32  25867500.796   135934587.468         753.014          41.000    25867499.531   105923059.494         586.488          40.000  
E31  26430621.902   138894197.954        -262.619          48.000    26430622.523   106425497.498        -201.238          53.000  
G12  23505163.913   123520812.703        -668.667          48.000    23505158.075    96250168.893        -521.072          45.000  
R20  24401678.309   130486955.470        3422.112          39.000    24401683.653   101489897.125        2661.291          42.000  
R10  24329415.286   129689472.274        1510.911          42.000                                                                  
R18  24484125.507   130698186.147       -3626.797          50.000    24484123.236   101654115.122       -2820.668          48.000  
E24  29793147.409   156564008.943         901.562          40.000    29793146.710   119964658.558         690.772          44.000  
S31  41141299.968   216199052.452        -761.060          44.000  
G29  25903514.748   136124052.159        2657.417          42.000    25903518.698   106070787.799        2070.598          40.000  
G25  24415765.338   128305916.535         708.117          47.000    24415761.665    99978735.799         551.856          43.000  
G06  25543314.345   134231126.134        -751.146          36.000    25543313.501   104595711.312        -585.714          40.000  
E33  28433922.189   149421494.379        1764.807          45.000    28433923.817   114491972.720        1352.165          49.000  
E04  27635019.705   145223014.901       -3208.905          45.000    27635022.116   111274875.663       -2458.753          51.000  
G11  25392479.702   133438597.947        1105.846          47.000    25392475.897   103978353.433         861.931          44.000  
> 2024 04 09 01 13 00.0080000  0 25                     
S33  42098755.524   221230553.004        -762.171          44.000  
E26  28274206.365   148582036.736        -135.200          41.000    28274203.615   113848625.983        -103.727          47.000  
G24  22847193.604   120062922.326       -1328.894          50.000    22847191.080    93555607.648       -1035.560          48.000  
E09  27377969.692   143872149.271        -974.396          47.000    27377970.284   110239810.888        -746.540          51.000  
G15  26244718.024   137916639.948       -3958.990          42.000    26244727.700   107467510.156       -3084.503          37.000  
R07  24482771.128   131058200.108       -3628.950          48.000    24482767.686   101934134.187       -2822.475          46.000  
R08  24762494.877   132602098.245        -784.309          47.000    24762488.725   103134877.001        -609.941          45.000  
R16  24412924.073   130409950.544       -2599.487          46.000    24412920.418   101430154.926       -2021.931          43.000  
R09  22437802.522   119816930.186        -236.120          50.000    22437798.452    93191035.488        -183.630          50.000  
R19  22605285.902   120923381.260        -527.664          43.000    22605280.325    94051673.920        -410.358          47.000  
G19  26742104.950   140530769.511       -4247.515          45.000                                                                  
G32  25863255.577   135912276.522         734.979          42.000    25863253.093   105905674.322         572.519          39.000  
E31  26432128.348   138902115.079        -264.968          48.000    26432129.232   106431563.875        -203.059          53.000  
G12  23508994.994   123540947.611        -673.708          48.000    23508989.882    96265858.431        -524.743          46.000  
R20  24382502.670   130384415.490        3414.325          40.000    24382507.173   101410144.337        2655.243          42.000  
R10  24320910.255   129644137.024        1511.467          43.000                                                                  
R18  24504562.297   130807278.967       -3646.057          51.000    24504558.887   101738965.147       -2835.745          44.000  
E24  29788003.177   156536981.892         900.549          41.000    29788003.640   119943949.618         689.891          45.000  
S31  41145644.761   216221887.089        -761.121          44.000  
G29  25888364.535   136044440.738        2650.196          43.000    25888368.143   106008753.639        2065.131          40.000  
G25  24411731.237   128284719.796         705.096          47.000    24411728.188    99962218.893         549.354          43.000  
G06  25547656.103   134253939.918        -769.930          37.000    25547654.913   104613488.261        -599.509          41.000  
E33  28423862.347   149368627.481        1759.873          46.000    28423863.546   114451464.506        1348.355          49.000  
E04  27653359.251   145319386.362       -3215.861          46.000    27653361.212   111348718.592       -2464.058          51.000  
G11  25386201.893   133405608.579        1093.468          47.000    25386198.388   103952647.509         852.027          44.000  
> 2024 04 09 01 13 30.0080000  0 25                     
S33  42103105.502   221253411.398        -762.385          44.000  
E26  28275017.888   148586300.960        -149.329          41.000    28275015.056   113851893.366        -114.406          47.000  
G24  22854824.986   120103027.850       -1345.297          49.000    22854823.108    93586858.693       -1048.275          48.000  
E09  27383572.429   143901591.316        -988.919          47.000    27383572.854   110262370.345        -757.661          52.000  
G15  26267318.595   138035407.279       -3959.180          42.000    26267330.270   107560055.724       -3084.979          37.000  
R07  24503147.192   131167280.827       -3643.404          48.000    24503145.077   102018974.548       -2833.803          47.000  
R08  24766958.786   132625997.979        -809.500          48.000    24766951.805   103153465.649        -629.476          45.000  
R16  24427540.194   130488019.719       -2605.647          47.000    24427535.479   101490875.338       -2026.630          42.000  
R09  22439147.751   119824107.964        -242.789          49.000    22439142.924    93196618.194        -188.890          51.000  
R19  22608322.115   120939628.179        -556.131          43.000    22608316.730    94064310.399        -432.389          47.000  
G19  26766361.544   140658237.174       -4250.729          45.000                                                                  
G32  25859109.567   135890489.610         717.051          42.000    25859107.209   105888697.538         558.676          39.000  
E31  26433648.106   138910102.822        -267.940          47.000    26433649.295   106437684.362        -205.299          53.000  
G12  23512854.734   123561232.393        -679.182          47.000    23512849.545    96281664.746        -529.046          45.000  
R20  24363372.404   130282118.946        3405.435          40.000    24363376.319   101330580.869        2648.760          41.000  
R10  24312405.600   129598804.955        1510.551          43.000                                                                  
R18  24525108.064   130916951.653       -3665.916          51.000    24525105.274   101824266.071       -2851.308          44.000  
E24  29782866.853   156509993.550         898.580          41.000    29782867.937   119923270.307         688.445          46.000  
S31  41149989.320   216244717.291        -761.303          44.000  
G29  25873256.441   135965048.665        2642.241          43.000    25873259.778   105946890.398        2058.848          41.000  
G25  24407715.523   128263618.725         701.174          47.000    24407713.083    99945776.530         546.533          43.000  
G06  25552102.504   134277305.827        -788.844          37.000    25552100.996   104631695.452        -614.216          41.000  
E33  28413831.287   149315914.073        1754.073          47.000    28413832.876   114411073.933        1344.077          50.000  
E04  27671737.778   145415964.877       -3223.254          46.000    27671740.006   111422720.174       -2469.741          51.000  
G11  25379995.962   133372995.455        1080.315          46.000    25379991.138   103927234.724         841.710          44.000  
> 2024 04 09 01 14 00.0080000  0 25                     
S33  42107456.195   221276275.673        -762.397          45.000  
E26  28275906.562   148590978.259        -163.024          39.000    28275904.978   113855477.274        -124.877          47.000  
G24  22862549.302   120143619.328       -1361.313          49.000    22862546.906    93618488.399       -1060.732          48.000  
E09  27389258.016   143931464.130       -1002.973          47.000    27389257.506   110285259.882        -768.608          51.000  
G15  26289919.202   138154176.024       -3959.131          42.000    26289932.159   107652602.469       -3085.022          37.000  
R07  24523603.812   131276785.253       -3657.104          49.000    24523600.948   102104144.438       -2844.486          46.000  
R08  24771563.498   132650649.693        -834.384          49.000    24771554.634   103172639.169        -649.072          45.000  
R16  24442188.035   130566270.237       -2611.500          46.000    24442183.980   101551736.833       -2031.382          42.000  
R09  22440529.357   119831485.555        -249.353          50.000    22440524.851    93202356.337        -193.881          52.000  
R19  22611517.654   120956720.559        -583.980          43.000    22611511.832    94077604.513        -454.131          47.000  
G19  26790635.398   140785797.669       -4253.579          45.000                                                                  
G32  25855066.018   135869239.202         699.394          43.000    25855063.715   105872138.825         544.606          38.000  
E31  26435183.552   138918171.944        -270.533          47.000    26435184.708   106443867.209        -207.195          53.000  
G12  23516745.008   123581677.460        -684.304          46.000    23516740.193    96297595.989        -533.201          46.000  
R20  24344289.967   130180081.857        3396.751          39.000    24344293.939   101251219.240        2641.704          41.000  
R10  24303905.616   129553487.445        1510.114          45.000                                                                  
R18  24545763.467   131027211.689       -3685.112          51.000    24545759.481   101910023.932       -2865.957          44.000  
E24  29777741.039   156483054.537         897.063          42.000    29777741.561   119902628.835         687.437          47.000  
S31  41154334.345   216267553.132        -761.481          44.000  
G29  25858191.017   135885889.084        2634.538          43.000    25858195.699   105885208.348        2052.989          40.000  
G25  24403720.980   128242624.145         697.957          47.000    24403718.775    99929417.151         543.553          43.000  
G06  25556657.604   134301235.638        -807.269          38.000    25556654.338   104650342.097        -629.239          39.000  
E33  28403832.228   149263367.474        1748.547          47.000    28403833.326   114370811.169        1339.855          50.000  
E04  27690157.160   145512759.604       -3230.243          46.000    27690159.618   111496887.421       -2475.100          51.000  
G11  25373863.393   133340772.439        1067.392          46.000    25373860.020   103902125.969         831.788          44.000  
> 2024 04 09 01 14 30.0080000  0 25                     
S33  42111807.551   221299141.048        -762.240          45.000  
E26  28276873.181   148596064.384        -176.149          39.000    28276873.140   113859374.447        -135.134          47.000  
G24  22870364.995   120184692.152       -1377.107          49.000    22870362.992    93650493.196       -1073.189          48.000  
E09  27395023.043   143961762.227       -1017.074          47.000    27395022.825   110308475.292        -779.271          51.000  
G15  26312519.232   138272938.409       -3958.411          43.000    26312530.722   107745144.205       -3084.552          37.000  
R07  24544138.324   131386703.545       -3670.729          49.000    24544134.668   102189636.252       -2855.070          46.000  
R08  24776306.028   132676047.237        -858.920          48.000    24776298.934   103192392.784        -668.176          46.000  
R16  24456868.364   130644697.509       -2617.130          45.000    24456866.910   101612735.767       -2035.459          43.000  
R09  22441947.656   119839058.310        -255.608          51.000    22441943.764    93208246.261        -198.922          51.000  
R19  22614870.915   120974653.558        -611.799          44.000    22614865.043    94091552.423        -475.838          48.000  
G19  26814925.255   140913443.428       -4256.382          44.000                                                                  
G32  25851123.349   135848521.379         681.708          43.000    25851120.294   105855995.032         530.978          38.000  
E31  26436733.561   138926316.843        -272.665          48.000    26436734.404   106450108.125        -208.963          52.000  
G12  23520665.276   123602277.267        -689.240          47.000    23520660.337    96313647.784        -536.924          45.000  
R20  24325256.659   130078303.001        3388.447          40.000    24325260.851   101172058.454        2635.317          42.000  
R10  24295407.343   129508180.593        1510.202          44.000                                                                  
R18  24566527.077   131138049.999       -3704.129          51.000    24566524.547   101996231.507       -2881.045          44.000  
E24  29772622.704   156456159.330         895.967          41.000    29772623.424   119882020.914         686.366          47.000  
S31  41158680.476   216290390.525        -761.281          44.000  
G29  25843169.975   135806958.873        2626.994          44.000    25843174.527   105823705.016        2047.088          40.000  
G25  24399745.662   128221730.639         694.871          48.000    24399742.595    99913136.502         541.192          43.000  
G06  25561318.294   134325724.746        -825.676          38.000    25561314.499   104669424.531        -643.491          39.000  
E33  28393862.303   149210984.652        1743.414          46.000    28393865.064   114330673.918        1335.812          49.000  
E04  27708616.651   145609763.530       -3236.904          46.000    27708618.739   111571214.976       -2480.243          51.000  
G11  25367805.192   133308937.171        1054.787          45.000    25367802.767   103877319.308         821.938          45.000  
