     3.00           OBSERVATION DATA    M: Mixed            RINEX VERSION / TYPE
CONVBIN 2.4.3                           20240409 045942 UTC PGM / RUN BY / DATE 
format: u-blox UBX                                          COMMENT             
log: data/2024-04-09/20240409044500.ubx                     COMMENT             
AQUI00CHL                                                   MARKER NAME         
                                                            MARKER NUMBER       
                                                            MARKER TYPE         
                                                            OBSERVER / AGENCY   
UNKNOWN             UBLOX-ZED-F9P                           REC # / TYPE / VERS 
UNKNOWN             TWIVSP6037L                             ANT # / TYPE        
  1713381.0000 -5047934.0000 -3490983.0000                  APPROX POSITION XYZ 
        0.0000        0.0000        0.0000                  ANTENNA: DELTA H/E/N
G    8 C1C L1C D1C S1C C2L L2L D2L S2L                      SYS / # / OBS TYPES 
R    8 C1C L1C D1C S1C C2C L2C D2C S2C                      SYS / # / OBS TYPES 
E    8 C1C L1C D1C S1C C7Q L7Q D7Q S7Q                      SYS / # / OBS TYPES 
S    4 C1C L1C D1C S1C                                      SYS / # / OBS TYPES 
  2024    04    09    04    45   00.4930000     GPS         TIME OF FIRST OBS   
  2024    04    09    04    59   30.4930000     GPS         TIME OF LAST OBS    
                                                            END OF HEADER       
> 2024 04 09 04 45 00.4930000  0 24                     
S33  37588822.099   197530727.8361       -709.651          44.000  
G26  21020328.530   110462550.0911       2368.406          42.000    21020324.846    86074717.1441       1845.411          39.000  
R11  17130270.725    91539105.2091        401.277          53.000    17130262.476    71196941.3331        312.140          51.000  
R22  19129789.697   102116441.4711       2044.415          51.000    19129785.235    79423798.2081       1590.175          47.000  
R12  20873145.620   111500801.5921       3322.623          38.000    20873143.904    86722781.2431       2584.195          37.000  
G28  19312890.153   101490015.7741      -1767.026          48.000    19312885.686    79083038.1951      -1376.765          47.000  
E12  21441454.816   112675826.0431       -523.128          43.000    21441452.598    86336186.4221       -400.950          49.000  
E10  21812010.980   114623122.2121        796.439          48.000    21812010.924    87828229.7321        610.321          53.000  
E31  22258318.413   116968595.2631      -1960.675          48.000    22258318.736    89625360.5681      -1502.287          50.000  
G12  21580984.319   113409159.3991      -3275.697          46.000    21580975.696    88370954.4361      -2552.886          38.000  
R20  19945469.979   106657720.8911      -4342.226          44.000    19945467.676    82956077.9821      -3377.588          40.000  
R10  18471528.097    98463642.8471      -3606.552          46.000                                                                  
R21  17238805.464    92248779.3821      -1379.344          52.000    17238799.390    71748874.6001      -1072.725          48.000  
E24  21657994.213   113813535.3841        295.897          48.000    21657992.164    87207812.9031        226.705          53.000  
S31  36633611.748   192511019.1901       -708.872          43.000  
G29  19054865.265   100134319.5681      -1888.362          48.000    19054859.807    78026880.8311      -1471.410          45.000  
G25  18917176.590    99410642.7231      -2189.828          48.000    18917173.323    77462939.4841      -1706.196          46.000  
G31  20046185.599   105343429.8541        572.177          46.000    20046180.686    82085826.0681        446.001          44.000  
G20  22236911.905   116855797.2761      -2407.917          37.000                                                                  
G18  18660995.933    98064415.7651       1131.818          48.000    18660990.602    76413980.2081        881.976          48.000  
G05  21368484.076   112292208.7751       -364.844          45.000    21368479.366    87500416.7791       -284.536          38.000  
E33  23684182.807   124461491.0531      -3086.156          41.000    23684181.546    95366788.8871      -2364.734          49.000  
E11  22430363.551   117872555.0381       1853.792          43.000    22430360.848    90318032.2011       1420.262          45.000  
E25                                                                  24836406.693   100005921.7111       1306.133          36.000  
> 2024 04 09 04 45 30.4930000  0 24                     
S33  37592872.456   197552009.617        -709.209          44.000  
G26  21006813.573   110391530.839        2366.044          42.000    21006810.810    86019377.522        1843.753          39.000  
E25  24826667.145                3       1695.152          21.000    24826673.739    99966734.402        1306.848          35.000  
R11  17128079.059    91527395.027         379.446          53.000    17128071.323    71187833.403         295.014          51.000  
R22  19118341.845   102055330.683        2029.738          51.000    19118336.674    79376267.685        1578.569          46.000  
R12  20854493.162   111401167.783        3319.520          38.000    20854492.131    86645288.304        2582.028          38.000  
G28  19323029.226   101543296.859       -1785.132          47.000    19323024.094    79124555.911       -1391.040          47.000  
E12  21444479.586   112691720.724        -536.260          43.000    21444477.325    86348365.480        -411.013          49.000  
E10  21807498.323   114599407.619         784.552          48.000    21807498.173    87810058.843         601.181          53.000  
E31  22269534.613   117027534.446       -1968.633          48.000    22269534.440    89670521.750       -1508.380          50.000  
G12  21599706.725   113507546.087       -3283.331          46.000    21599699.701    88447619.309       -2558.240          39.000  
R20  19969840.467   106788040.982       -4345.489          44.000    19969838.431    83057438.092       -3379.578          40.000  
R10  18491874.740    98572101.614       -3624.165          47.000                                                                  
R21  17246588.328    92290434.403       -1397.654          51.000    17246582.590    71781272.964       -1087.015          47.000  
E24  21656323.171   113804754.052         289.724          48.000    21656320.962    87201084.363         221.907          52.000  
S31  36637658.715   192532285.825        -708.756          43.000  
G29  19065659.227   100191045.992       -1893.440          48.000    19065654.034    78071083.254       -1475.432          45.000  
G25  18929713.728    99476528.629       -2202.407          48.000    18929710.590    77514279.143       -1716.067          46.000  
G31  20042971.360   105326537.796         554.155          46.000    20042965.987    82072663.429         431.827          44.000  
G20  22250705.484   116928278.033       -2423.469          34.000                                                                  
G18  18654583.479    98030718.586        1114.838          48.000    18654577.497    76387722.698         868.677          47.000  
G05  21370614.958   112303403.822        -381.349          44.000    21370607.466    87509140.185        -297.101          38.000  
E33  23701818.030   124554169.960       -3092.412          40.000    23701816.336    95437802.578       -2369.527          48.000  
E11  22419801.736   117817054.486        1846.255          43.000    22419798.716    90275505.881        1414.637          44.000  
> 2024 04 09 04 46 00.4930000  0 24                     
S33  37596920.798   197573285.091        -709.091          44.000  
G26  20993311.045   110320579.557        2364.107          41.000    20993309.432    85964090.852        1841.927          39.000  
E25  24816954.202                3       1704.916          23.000    24816936.165    99927527.442        1307.266          34.000  
R11  17126009.967    91516344.184         357.481          51.000    17126004.004    71179238.287         278.086          51.000  
R22  19106974.307   101994660.544        2015.198          49.000    19106972.033    79329079.868        1567.431          48.000  
R12  20835858.179   111301623.005        3317.013          38.000    20835857.896    86567864.630        2579.935          38.000  
G28  19333271.103   101597116.925       -1802.722          48.000    19333266.177    79166493.618       -1404.856          47.000  
E12  21447578.820   112708006.479        -549.282          43.000    21447576.137    86360844.178        -420.852          49.000  
E10  21803052.483   114576045.562         773.019          48.000    21803052.508    87792158.069         592.284          53.000  
E31  22280795.075   117086706.776       -1976.173          48.000    22280794.630    89715861.582       -1514.212          50.000  
G12  21618471.065   113606160.294       -3290.796          45.000    21618465.775    88524461.492       -2564.172          40.000  
R20  19994227.849   106918449.478       -4348.336          43.000    19994225.617    83158866.945       -3382.254          40.000  
R10  18512321.195    98681088.877       -3641.479          47.000                                                                  
R21  17254475.746    92332637.379       -1415.729          52.000    17254469.204    71814097.509       -1100.990          48.000  
E24  21654686.933   113796156.068         283.587          48.000    21654684.815    87194496.297         217.333          52.000  
S31  36641704.182   192553545.331        -708.400          43.000  
G29  19076482.169   100247924.138       -1898.024          47.000    19076477.351    78115403.903       -1479.148          45.000  
G25  18942324.001    99542792.726       -2214.954          49.000    18942320.771    77565913.474       -1725.841          46.000  
G31  20039860.809   105310189.556         535.989          46.000    20039855.085    82059924.531         417.753          44.000  
G20  22264588.914   117001231.368       -2439.319          33.000                                                                  
G18  18648268.530    97997533.733        1097.681          48.000    18648262.978    76361864.384         855.450          48.000  
G05  21372838.599   112315088.530        -397.461          44.000    21372832.440    87518245.161        -309.976          40.000  
E33  23719488.623   124647030.206       -3098.149          40.000    23719488.257    95508955.273       -2374.009          49.000  
E11  22409282.799   117761776.022        1839.092          43.000    22409279.293    90233149.721        1409.219          44.000  
> 2024 04 09 04 46 30.4930000  0 24                     
S33  37600968.043   197594553.860        -709.018          44.000  
G26  20979821.868   110249697.915        2361.433          40.000    20979821.112    85908858.415        1840.116          39.000  
R11  17124065.720    91505955.020         335.083          51.000    17124059.924    71171157.814         260.585          51.000  
R22  19095691.161   101934432.108        2000.148          49.000    19095688.787    79282235.568        1555.544          47.000  
R12  20817240.391   111202170.210        3313.411          37.000    20817240.555    86490512.492        2577.128          39.000  
G28  19343614.533   101651474.199       -1820.984          47.000    19343610.387    79208849.914       -1419.120          47.000  
E12  21450752.866   112724682.707        -562.482          44.000    21450749.173    86373622.066        -430.957          48.000  
E10  21798673.564   114553036.299         760.995          47.000    21798674.049    87774527.618         583.130          53.000  
E31  22292098.952   117146112.292       -1984.171          48.000    22292099.343    89761380.077       -1520.310          50.000  
G12  21637280.724   113705001.139       -3298.541          47.000    21637275.313    88601480.262       -2570.166          40.000  
R20  20018630.980   107048943.120       -4351.390          42.000    20018628.261    83260361.999       -3384.407          41.000  
R10  18532866.155    98790602.327       -3659.420          47.000                                                                  
R21  17262464.375    92375385.688       -1434.144          53.000    17262458.348    71847346.188       -1115.479          48.000  
E24  21653085.232   113787742.483         277.244          48.000    21653083.846    87188049.541         212.400          52.000  
S31  36645748.511   192574798.476        -708.623          43.000  
G29  19087334.606   100304953.503       -1903.567          47.000    19087329.407    78159842.349       -1483.425          45.000  
G25  18955005.230    99609434.937       -2227.773          49.000    18955002.118    77617842.468       -1736.062          46.000  
G31  20036853.838   105294386.283         517.534          47.000    20036847.936    82047610.289         403.554          43.000  
G20  22278561.642                       -2455.428          33.000                                                                  
G18  18642051.174    97964862.162        1080.341          48.000    18642046.130    76336406.042         841.833          48.000  
G05  21375155.104   112327263.628        -414.064          44.000    21375149.136    87527732.308        -322.756          39.000  
E33  23737193.052   124740069.855       -3104.137          41.000    23737192.126    95580245.395       -2378.633          48.000  
E11  22398805.904   117706720.549        1831.537          43.000    22398802.513    90190964.432        1403.397          44.000  
E25                                                                  24807194.209    99888301.213        1307.833          34.000  
> 2024 04 09 04 47 00.4930000  0 24                     
S33  37605014.774   197615820.979        -708.931          44.000  
G26  20966348.004   110178892.124        2358.931          41.000    20966346.970    85853685.101        1837.917          39.000  
R11  17122246.332    91496234.516         312.871          51.000    17122240.992    71163597.423         243.287          51.000  
R22  19084491.613   101874650.880        1985.357          49.000    19084488.750    79235739.051        1544.079          46.000  
R12  20798642.126   111102817.407        3309.697          39.000    20798640.783    86413238.082        2574.589          39.000  
G28  19354061.447   101706371.398       -1838.794          47.000    19354056.177    79251626.936       -1432.927          47.000  
E12  21454001.342   112741753.066        -575.516          44.000    21453997.492    86386701.969        -441.073          48.000  
E10  21794363.441   114530384.647         748.969          47.000    21794363.507    87757171.185         573.979          53.000  
E31  22303449.434   117205755.625       -1992.071          49.000    22303448.954    89807080.804       -1526.339          50.000  
G12  21656133.601   113804072.974       -3306.342          46.000    21656127.730    88678679.073       -2576.196          41.000  
R20  20043049.895   107179522.409       -4353.915          43.000    20043047.070    83361923.701       -3386.334          40.000  
R10  18553508.640    98900643.947       -3676.904          46.000                                                                  
R21  17270555.815    92418681.097       -1452.179          53.000    17270549.091    71881020.431       -1129.612          48.000  
E24  21651520.404   113779518.824         270.954          48.000    21651518.924    87181748.301         207.564          52.000  
S31  36649792.509   192596049.948        -708.247          43.000  
G29  19098216.662   100362137.082       -1908.623          48.000    19098211.257    78204400.959       -1487.216          45.000  
G25  18967759.893    99676459.586       -2240.405          49.000    18967756.150    77670069.469       -1745.829          45.000  
G31  20033950.665   105279133.439         499.163          47.000    20033945.864    82035724.986         388.928          45.000  
G20  22292621.432                       -2472.126          30.000                                                                  
G18  18635932.380    97932709.320        1063.092          48.000    18635927.363    76311351.903         828.577          47.000  
G05  21377565.821   112339933.826        -430.460          43.000    21377560.141    87537605.170        -335.491          39.000  
E33  23754931.046   124833291.371       -3110.651          40.000    23754932.080    95651674.867       -2383.257          49.000  
E11  22388372.604   117651893.584        1823.615          43.000    22388369.487    90148954.229        1397.202          44.000  
E25                                                                  24797449.067    99849059.791        1308.256          34.000  
> 2024 04 09 04 47 30.4930000  0 24                     
S33  37609061.979   197637087.646        -708.666          44.000  
G26  20952889.495   110108165.992        2356.059          41.000    20952888.465    85798573.838        1836.213          39.000  
R11  17120553.282    91487187.129         290.362          52.000    17120547.835    71156560.566         225.851          51.000  
R22  19073377.363   101815319.801        1970.044          49.000    19073375.670    79189592.713        1532.281          48.000  
R12  20780062.466   111003569.711        3306.486          40.000    20780061.728    86336045.458        2571.650          39.000  
G28  19364610.534   101761808.757       -1856.777          47.000    19364605.271    79294824.848       -1446.900          46.000  
E12  21457324.496   112759218.900        -588.651          43.000    21457321.128    86400084.889        -451.101          48.000  
E10  21790120.919   114508092.868         737.129          47.000    21790121.400    87740090.505         564.812          52.000  
E31  22314845.091   117265638.834       -2000.056          49.000    22314844.177    89852965.347       -1532.462          50.000  
G12  21675030.146   113903376.161       -3313.898          46.000    21675025.403    88756058.129       -2582.166          42.000  
R20  20067485.155   107310188.051       -4356.780          42.000    20067481.684    83463552.542       -3388.768          41.000  
R10  18574251.333    99011213.442       -3694.472          47.000                                                                  
R21  17278748.437    92462523.148       -1470.554          52.000    17278742.343    71915119.795       -1143.722          48.000  
E24  21649992.047   113771488.157         264.492          47.000    21649990.792    87175594.929         202.686          52.000  
S31  36653836.186   192617299.666        -708.406          43.000  
G29  19109128.626   100419476.165       -1913.832          49.000    19109122.855    78249080.753       -1491.225          45.000  
G25  18980587.138    99743868.591       -2253.279          49.000    18980584.291    77722595.944       -1755.947          46.000  
G31  20031154.071   105264434.003         480.797          47.000    20031148.467    82024270.858         374.769          44.000  
G20  22306770.834                       -2486.608          31.000                                                                  
G18  18629912.706    97901078.218        1045.782          47.000    18629908.234    76286704.318         814.722          47.000  
G05  21380071.639   112353102.932        -447.150          44.000    21380067.377    87547866.846        -348.375          39.000  
E33  23772705.900   124926694.760       -3116.581          41.000    23772705.565    95723243.715       -2387.930          49.000  
E11  22377983.224   117597298.083        1816.209          43.000    22377980.133    90107121.366        1391.532          44.000  
E25                                                                  24787700.214    99809805.173        1309.000          34.000  
> 2024 04 09 04 48 00.4930000  0 24                     
S33  37613107.978   197658349.107        -708.733          44.000  
G26  20939445.678   110037518.675        2353.642          40.000    20939444.511    85743524.015        1834.027          39.000  
R11  17118985.937    91478812.410         268.124          51.000    17118980.308    71150046.915         208.388          51.000  
R22  19062346.274   101756437.308        1955.319          49.000    19062345.101    79143795.293        1520.761          49.000  
R12  20761502.263   110904427.805        3302.682          39.000    20761502.990    86258935.156        2568.767          38.000  
G28  19375262.071   101817781.885       -1874.661          47.000    19375257.120    79338440.254       -1460.801          47.000  
E12  21460722.617   112777076.945        -601.868          43.000    21460719.468    86413768.354        -461.168          48.000  
E10  21785947.648   114486158.743         725.199          47.000    21785947.150    87723283.859         555.731          52.000  
E31  22326284.962   117325759.479       -2008.091          49.000    22326284.567    89899031.828       -1538.599          50.000  
G12  21693970.229   114002907.602       -3321.576          45.000    21693966.163    88833615.088       -2588.123          42.000  
R20  20091934.547   107440932.599       -4359.403          40.000    20091930.980    83565242.743       -3390.775          41.000  
R10  18595092.589    99122305.807       -3711.810          47.000                                                                  
R21  17287042.516    92506906.298       -1488.521          52.000    17287036.225    71949640.035       -1157.670          48.000  
E24  21648500.510   113763649.004         257.974          48.000    21648499.067    87169588.301         197.763          52.000  
S31  36657879.512   192638547.172        -708.160          43.000  
G29  19120068.740   100476966.874       -1918.866          49.000    19120062.796    78293878.736       -1495.307          45.000  
G25  18993487.509    99811659.296       -2266.050          49.000    18993484.268    77775419.848       -1765.681          46.000  
G31  20028461.337   105250286.320         462.273          47.000    20028455.902    82013246.701         360.069          44.000  
G20  22321016.634   117297766.052       -2502.720          32.000                                                                  
G18  18623992.979    97869967.244        1028.217          47.000    18623988.929    76262461.992         801.324          48.000  
G05  21382672.047   112366768.842        -463.881          42.000    21382668.624    87558515.625        -361.389          40.000  
E33  23790515.055   125020275.619       -3122.318          42.000    23790513.850    95794948.513       -2392.406          49.000  
E11  22367638.188   117542932.485        1808.325          43.000    22367634.726    90065464.660        1385.589          45.000  
E25                                                                  24777948.260    99770536.037        1309.027          34.000  
> 2024 04 09 04 48 30.4930000  0 24                     
S33  37617152.958   197679606.691        -708.484          44.000  
G26  20926017.457   109966950.158        2350.769          40.000    20926015.328    85688535.586        1831.698          38.000  
R11  17117544.956    91471111.440         245.209          51.000    17117538.868    71144057.253         190.779          51.000  
R22  19051401.105   101698002.487        1940.214          50.000    19051398.916    79098346.035        1509.083          50.000  
R12  20742962.349   110805393.278        3298.789          40.000    20742964.031    86181908.365        2565.913          38.000  
G28  19386015.115   101874287.174       -1892.448          48.000    19386009.978    79382470.326       -1474.581          47.000  
E12  21464195.265   112795324.683        -614.835          43.000    21464192.183    86427750.424        -471.164          49.000  
E10  21781841.312   114464580.724         713.265          48.000    21781840.855    87706750.075         546.425          52.000  
E31  22337769.514   117386115.854       -2016.014          48.000    22337769.980    89945278.916       -1544.631          50.000  
G12  21712953.740   114102665.356       -3329.041          44.000    21712949.758    88911348.350       -2594.067          43.000  
R20  20116398.110   107571751.527       -4361.806          41.000    20116394.966    83666990.789       -3392.614          41.000  
R10  18616030.275    99233916.805       -3729.150          48.000                                                                  
R21  17295436.787    92551826.160       -1506.388          52.000    17295431.458    71984577.691       -1171.620          49.000  
E24  21647045.186   113756000.590         251.636          48.000    21647043.598    87163727.838         192.816          52.000  
S31  36661921.729   192659789.131        -708.094          43.000  
G29  19131036.807   100534606.053       -1923.938          48.000    19131031.092    78338792.393       -1499.017          44.000  
G25  19006459.927    99879829.735       -2278.925          49.000    19006456.776    77828539.660       -1775.919          46.000  
G31  20025873.807   105236689.716         443.871          46.000    20025868.040    82002651.928         346.012          44.000  
G20  22335342.820                       -2518.273          31.000                                                                  
G18  18618171.702    97839375.523        1010.828          48.000    18618168.046    76238624.309         787.726          49.000  
G05  21385366.304   112380930.491        -480.544          43.000    21385361.643    87569550.704        -374.323          38.000  
E33  23808354.789   125114030.062       -3128.253          41.000    23808354.607    95866786.334       -2396.879          50.000  
E11  22357336.296   117488795.993        1800.554          44.000    22357333.372    90023983.529        1379.595          45.000  
E25                                                                  24768191.672    99731251.488        1309.873          34.000  
> 2024 04 09 04 49 00.4930000  0 24                     
S33  37621198.986   197700868.314        -708.781          44.000  
G26  20912606.204   109896471.555        2348.122          40.000    20912603.313    85633617.219        1829.529          38.000  
R11  17116232.495    91464095.334         222.452          51.000    17116226.034    71138600.280         173.040          51.000  
R22  19040540.060   101640025.802        1924.834          50.000    19040537.378    79053253.138        1497.127          50.000  
R12  20724445.091   110706478.589        3295.438          36.000    20724447.431    86104974.773        2563.146          38.000  
G28  19396870.905   101931332.074       -1910.409          48.000    19396865.959    79426920.876       -1488.627          47.000  
E12  21467744.416   112813970.699        -627.997          44.000    21467740.225    86442037.637        -481.280          48.000  
E10  21777805.523   114443368.427         701.117          48.000    21777804.386    87690496.501         537.180          52.000  
E31  22349301.835   117446717.359       -2024.177          48.000    22349302.209    89991713.818       -1550.847          50.000  
G12  21731981.443   114202657.664       -3337.024          45.000    21731977.133    88989264.398       -2600.403          42.000  
R20  20140876.956   107702650.814       -4364.786          40.000    20140874.971    83768801.368       -3394.880          42.000  
R10  18637066.830    99346053.380       -3746.674          48.000                                                                  
R21  17303932.760    92597289.389       -1524.443          52.000    17303927.005    72019937.975       -1185.741          48.000  
E24  21645628.029   113748553.351         244.908          47.000    21645626.476    87158021.504         187.693          52.000  
S31  36665964.524   192681035.276        -708.362          43.000  
G29  19142034.671   100592402.026       -1929.163          48.000    19142029.344    78383828.227       -1503.296          45.000  
G25  19019506.035    99948389.137       -2291.831          49.000    19019503.908    77881962.561       -1785.837          46.000  
G31  20023393.419   105223654.144         425.157          45.000    20023387.720    81992494.341         331.246          44.000  
G20  22349766.820   117448855.645       -2534.207          33.000                                                                  
G18  18612451.155    97809313.344         993.237          48.000    18612446.516    76215199.263         773.969          48.000  
G05  21388158.132   112395598.161        -497.520          42.000    21388152.202    87580980.007        -387.700          37.000  
E33  23826231.977   125207965.515       -3134.005          43.000    23826229.660    95938762.882       -2401.594          49.000  
E11  22347079.930   117434898.935        1792.444          43.000    22347076.572    89982685.821        1373.577          45.000  
E25                                                                  24758433.897    99691959.353        1309.434          35.000  
> 2024 04 09 04 49 30.4930000  0 24                     
S33  37625244.568   197722128.220        -708.846          44.000  
G26  20899211.305   109826080.349        2344.780          42.000    20899208.328    85578766.950        1827.093          38.000  
R11  17115047.589    91457761.934         199.520          52.000    17115040.427    71133674.303         155.254          50.000  
R22  19029763.545   101582503.722        1909.751          51.000    19029761.011    79008513.774        1485.182          50.000  
R12  20705946.847   110607682.841        3291.215          32.000    20705953.427    86028133.653        2559.630          37.000  
G28  19407827.280   101988910.396       -1928.350          48.000    19407822.587    79471787.063       -1502.501          47.000  
E12  21471366.747   112833010.004        -641.377          43.000    21471363.328    86456626.196        -491.444          48.000  
E10  21773837.677   114422517.792         688.940          49.000    21773836.815    87674520.050         527.804          52.000  
E31  22360880.021   117507559.723       -2032.286          48.000    22360879.894    90038333.285       -1557.094          49.000  
G12  21751053.178   114302879.429       -3344.702          46.000    21751048.684    89067359.212       -2606.445          41.000  
R20  20165369.211   107833623.778       -4367.028          39.000    20165367.093    83870669.256       -3396.738          41.000  
R10  18658200.990    99458708.944       -3763.824          48.000                                                                  
R21  17312529.696    92643289.057       -1542.337          52.000    17312522.614    72055715.483       -1199.634          48.000  
E24  21644248.159   113741304.006         238.290          47.000    21644247.011    87152466.815         182.473          52.000  
S31  36670007.619   192702280.696        -708.235          43.000  
G29  19153061.733   100650349.618       -1934.187          48.000    19153056.533    78428982.183       -1507.122          45.000  
G25  19032626.033   100017333.019       -2304.656          49.000    19032623.519    77935685.052       -1795.774          46.000  
G31  20021019.369   105211176.741         406.424          46.000    20021013.494    81982771.686         316.691          43.000  
G20  22364277.218   117525105.376       -2549.739          34.000                                                                  
G18  18606830.841    97779777.254         975.616          48.000    18606826.135    76192184.153         760.242          48.000  
G05  21391045.065   112410768.292        -514.260          43.000    21391040.488    87592800.898        -400.624          39.000  
E33  23844140.205   125302075.723       -3139.989          44.000    23844138.320    96010873.282       -2406.049          50.000  
E11  22336868.322   117381237.837        1784.774          43.000    22336865.353    89941568.946        1367.427          45.000  
E25                                                                  24748674.302    99652656.797        1310.234          35.000  
> 2024 04 09 04 50 00.4930000  0 24                     
S33  37629289.125   197743382.542        -707.977          44.000  
G26  20885832.403   109755772.086        2342.700          42.000    20885829.450    85523981.332        1825.209          39.000  
R11  17113988.729    91452107.466         177.586          51.000    17113982.657    71129276.370         138.180          50.000  
R22  19019072.675   101525430.834        1895.372          51.000    19019068.063    78964123.806        1474.229          48.000  
R12  20687464.170                        3287.683          29.000    20687478.358    85951382.588        2556.842          35.000  
G28  19418884.157   102047014.015       -1945.071          48.000    19418879.300    79517062.605       -1515.599          47.000  
E12  21475062.818   112852435.584        -653.565          43.000    21475060.004    86471510.735        -500.731          49.000  
E10  21769937.387   114402022.833         677.620          48.000    21769936.826    87658816.124         519.227          53.000  
E31  22372502.403   117568636.790       -2039.283          48.000    22372502.185    90085132.618       -1562.591          49.000  
G12  21770167.372   114403323.563       -3351.361          46.000    21770161.722    89145627.329       -2611.829          40.000  
R20  20189873.742   107964660.353       -4368.672          40.000    20189871.192    83972586.558       -3397.690          40.000  
R10  18679430.680    99571874.222       -3780.334          49.000                                                                  
R21  17321224.122    92689815.843       -1559.129          52.000    17321217.287    72091903.008       -1212.701          47.000  
E24  21642905.554   113734247.373         232.443          47.000    21642904.198    87147059.780         178.119          52.000  
S31  36674049.073   192723519.104        -707.302          43.000  
G29  19164116.672   100708441.007       -1938.320          48.000    19164110.869    78474248.196       -1510.365          45.000  
G25  19045817.297   100086654.972       -2316.464          49.000    19045814.704    77989702.149       -1804.985          46.000  
G31  20018749.150   105199251.870         388.673          46.000    20018744.042    81973479.604         302.982          43.000  
G20  22378874.515   117601815.098       -2563.971          35.000                                                                  
G18  18601308.446    97750761.863         959.003          47.000    18601304.722    76169574.786         747.308          48.000  
G05  21394028.122   112426436.298        -530.166          45.000    21394022.556    87605009.729        -413.002          39.000  
E33  23862079.099   125396352.449       -3144.696          43.000    23862078.600    96083111.320       -2409.672          50.000  
E11  22326701.469   117327807.525        1777.657          44.000    22326697.918    89900628.891        1361.978          45.000  
E25                                                                  24738910.851    99613339.667        1311.255          36.000  
> 2024 04 09 04 50 30.4930000  0 24                     
S33  37633328.115   197764607.459        -707.556          44.000  
G26  20872464.957   109685527.249        2340.144          43.000    20872462.534    85469245.142        1823.372          39.000  
R11  17113054.147    91447112.158         155.044          51.000    17113047.926    71125391.145         120.531          50.000  
R22  19008461.335   101468786.272        1880.525          52.000    19008456.384    78920066.987        1462.508          48.000  
R12  20669006.134                        3283.982          29.000    20669023.467    85874707.511        2553.856          33.000  
G28  19430036.328   102105619.675       -1962.322          47.000    19430031.188    79562729.364       -1529.098          47.000  
E12  21478828.956   112872225.231        -666.129          43.000    21478826.202    86486674.239        -510.444          49.000  
E10  21766100.179   114381862.392         665.996          48.000    21766100.368    87643368.528         510.316          53.000  
E31  22384165.546   117629927.272       -2047.038          48.000    22384165.644    90132095.466       -1568.609          49.000  
G12  21789318.927   114503967.564       -3358.496          46.000    21789313.664    89224051.163       -2617.017          40.000  
R20  20214385.475   108095735.231       -4370.269          37.000    20214383.378    84074533.686       -3398.757          42.000  
R10  18700751.597    99685525.515       -3796.912          48.000                                                                  
R21  17330012.282    92736845.268       -1576.499          52.000    17330005.488    72128481.450       -1226.195          47.000  
E24  21641596.040   113727363.190         226.061          47.000    21641594.244    87141784.884         173.241          53.000  
S31  36678085.226   192744729.233        -707.056          43.000  
G29  19175194.502   100766654.154       -1942.952          49.000    19175188.745    78519609.063       -1514.010          46.000  
G25  19059076.654   100156333.490       -2329.039          49.000    19059073.893    78043997.085       -1814.788          45.000  
G31  20016581.144   105187858.682         370.572          46.000    20016576.085    81964601.804         288.672          43.000  
G20  22393555.324   117678961.725       -2579.176          35.000                                                                  
G18  18595881.482    97722246.740         941.620          46.000    18595877.751    76147355.207         733.807          48.000  
G05  21397100.177   112442580.651        -546.639          43.000    21397094.069    87617589.785        -426.104          38.000  
E33  23880047.675   125490772.432       -3150.334          45.000    23880045.884    96155459.085       -2413.718          50.000  
E11  22316573.800   117274587.529        1769.832          43.000    22316570.655    89859849.992        1356.144          45.000  
E25                                                                  24729139.238    99573992.228        1311.518          37.000  
> 2024 04 09 04 51 00.4930000  0 24                     
S33  37637363.214   197785812.545        -706.549          44.000  
G26  20859112.344   109615356.349        2337.571          43.000    20859109.267    85414566.554        1821.288          38.000  
R11  17112244.299    91442787.027         132.964          51.000    17112238.406    71122027.139         103.464          50.000  
R22  18997931.563   101412579.740        1866.186          50.000    18997926.727    78876350.835        1451.362          48.000  
R12  20650599.518                3       3280.751          26.000    20650590.780    85798117.613        2551.250          35.000  
G28  19441285.455   102164734.101       -1979.097          48.000    19441280.453    79608792.537       -1542.079          47.000  
E12  21482665.817   112892386.940        -678.342          43.000    21482663.073    86502122.828        -519.700          50.000  
E10  21762328.562   114362045.371         654.952          47.000    21762329.304    87628184.078         501.687          53.000  
E31  22395870.759   117691439.891       -2054.122          48.000    22395870.578    90179228.496       -1573.987          48.000  
G12  21808510.449   114604819.964       -3365.167          46.000    21808505.931    89302637.409       -2622.046          40.000  
R20  20238906.341   108226854.313       -4371.250          40.000    20238903.092    84176515.238       -3399.814          43.000  
R10  18722164.703    99799668.427       -3812.884          48.000                                                                  
R21  17338896.322    92784383.453       -1592.998          52.000    17338888.853    72165455.611       -1239.008          48.000  
E24  21640321.118   113720661.165         220.297          47.000    21640318.865    87136649.578         168.807          53.000  
S31  36682117.743   192765919.624        -706.046          43.000  
G29  19186296.506   100824997.019       -1946.878          48.000    19186290.527    78565071.053       -1517.279          46.000  
G25  19072405.446   100226377.014       -2340.859          49.000    19072402.400    78098576.470       -1824.006          45.000  
G31  20014516.603   105177006.995         352.636          46.000    20014510.781    81956145.946         274.785          44.000  
G20  22408320.183   117756551.778       -2592.723          31.000                                                                  
G18  18590552.419    97694241.341         925.073          46.000    18590548.266    76125532.818         720.856          47.000  
G05  21400264.591   112459210.530        -562.482          43.000    21400259.806    87630548.159        -438.338          39.000  
E33  23898044.262   125585342.398       -3154.864          45.000    23898042.115    96227921.796       -2417.303          50.000  
E11  22306488.629   117221587.452        1763.104          43.000    22306484.846    89819239.607        1350.852          45.000  
E25                                                                  24719361.858    99534621.584        1313.017          37.000  
> 2024 04 09 04 51 30.4930000  0 24                     
S33  37641396.232   197807005.748        -706.516          44.000  
G26  20845774.804   109545269.661        2335.040          44.000    20845772.611    85359953.618        1819.107          39.000  
R11  17111562.779    91439142.952         110.182          51.000    17111556.296    71119192.852          85.722          50.000  
R22  18987485.719   101356820.589        1851.218          50.000    18987481.157    78832982.654        1439.943          49.000  
R12  20632254.507                        3277.057          31.000    20632181.511    85721622.422        2548.316          33.000  
G28  19452632.633   102224363.825       -1996.105          47.000    19452627.910    79655257.239       -1555.231          47.000  
E12  21486574.580   112912928.356        -691.175          43.000    21486571.945    86517862.360        -529.387          50.000  
E10  21758624.552   114342580.508         643.026          47.000    21758625.044    87613269.447         492.730          53.000  
E31  22407620.239   117753183.214       -2061.903          48.000    22407619.665    90226538.304       -1579.917          48.000  
G12  21827742.904   114705888.272       -3372.461          45.000    21827738.352    89381391.868       -2628.027          40.000  
R20  20263435.815   108358023.858       -4373.006          39.000    20263432.779    84278535.963       -3401.406          42.000  
R10  18743671.288    99914309.742       -3829.663          48.000                                                                  
R21  17347875.655    92832436.253       -1610.166          52.000    17347868.839    72202830.021       -1252.449          48.000  
E24  21639081.850   113714150.861         213.858          48.000    21639079.958    87131661.159         163.836          53.000  
S31  36686147.636   192787097.771        -705.692          43.000  
G29  19197424.770   100883476.469       -1951.500          48.000    19197418.998    78610639.414       -1520.469          46.000  
G25  19085805.403   100296793.879       -2353.392          49.000    19085801.991    78153446.760       -1833.908          45.000  
G31  20012556.260   105166706.001         334.252          47.000    20012550.782    81948119.200         260.572          44.000  
G20  22423171.266                       -2609.283          31.000                                                                  
G18  18585322.315    97666754.980         907.536          46.000    18585317.327    76104114.884         707.169          47.000  
G05  21403523.020   112476335.827        -579.048          42.000    21403516.415    87643892.614        -451.252          38.000  
E33  23916069.600   125680068.861       -3159.988          45.000    23916067.854    96300504.420       -2421.317          50.000  
E11  22296446.124   117168816.797        1755.349          43.000    22296443.252    89778804.989        1345.050          45.000  
E25                                                                  24709580.475    99495235.002        1313.120          38.000  
> 2024 04 09 04 52 00.4930000  0 24                     
S33  37645427.286   197828189.145        -706.256          44.000  
G26  20832454.203   109475271.403        2331.619          42.000    20832452.552    85305409.529        1816.919          40.000  
R11  17111008.591    91436184.732          87.034          51.000    17111003.244    71116892.027          67.647          51.000  
R22  18977124.147   101301512.084        1835.939          50.000    18977120.625    78789964.994        1428.017          49.000  
R12  20613846.200                        3271.525          32.000    20613796.148                        2544.335          33.000  
G28  19464078.091   102284509.218       -2013.535          48.000    19464073.233    79702123.751       -1568.982          47.000  
E12  21490555.515   112933851.026        -703.873          42.000    21490553.096    86533894.036        -539.331          50.000  
E10  21754988.308   114323470.344         631.077          47.000    21754988.575    87598626.611         483.529          53.000  
E31  22419414.222   117815159.619       -2069.756          48.000    22419413.506    90274026.709       -1585.943          48.000  
G12  21847016.937   114807174.003       -3380.072          43.000    21847011.589    89460315.735       -2633.344          39.000  
R20  20287974.900   108489242.888       -4374.987          37.000    20287971.608    84380595.185       -3402.836          42.000  
R10  18765271.009   100029448.679       -3846.240          48.000                                                                  
R21  17356951.836    92881003.258       -1627.537          53.000    17356945.430    72240604.385       -1265.979          48.000  
E24  21637880.076   113707835.727         207.081          48.000    21637878.328    87126822.289         158.708          53.000  
S31  36690176.081   192808266.450        -705.595          43.000  
G29  19208578.986   100942093.652       -1956.381          48.000    19208573.400    78656315.147       -1524.507          45.000  
G25  19099276.822   100367586.195       -2366.232          49.000    19099274.159    78208609.596       -1843.739          46.000  
G31  20010701.768   105156959.077         315.412          47.000    20010696.288    81940524.190         245.864          44.000  
G20  22438108.864                1      -2623.748          29.000                                                                  
G18  18580191.614    97639790.787         889.878          47.000    18580186.215    76083103.862         693.289          47.000  
G05  21406875.786   112493959.212        -595.907          43.000    21406870.023    87657625.150        -463.901          38.000  
E33  23934125.400   125774952.227       -3165.571          45.000    23934123.162    96373207.264       -2425.463          49.000  
E11  22286447.807   117116278.865        1747.256          42.000    22286445.762    89738548.707        1338.750          45.000  
E25                                                                  24699795.350    99455834.827        1313.462          38.000  
> 2024 04 09 04 52 30.4930000  0 24                     
S33  37649457.681   197849369.992        -706.280          44.000  
G26  20819151.854   109405370.670        2327.854          42.000    20819150.886    85250941.453        1814.160          40.000  
R11  17110584.919    91433921.114          63.445          51.000    17110579.648    71115131.432          49.391          51.000  
R22  18966848.469   101246662.333        1820.372          50.000    18966845.537    78747304.120        1415.851          50.000  
R12  20595465.962   110017156.3041       3267.200          35.000    20595436.616                        2540.353          32.000  
G28  19475622.045   102345175.500       -2031.259          47.000    19475617.547    79749396.151       -1582.861          47.000  
E12  21494610.993   112955161.387        -717.039          42.000    21494608.207    86550222.782        -549.471          50.000  
E10  21751419.965   114304722.262         618.520          46.000    21751420.935    87584261.220         473.951          53.000  
E31  22431254.200   117877376.379       -2078.233          48.000    22431253.237    90321699.284       -1592.442          48.000  
G12  21866333.815   114908683.408       -3387.708          44.000    21866327.886    89539413.932       -2639.697          39.000  
R20  20312522.513   108620515.219       -4377.144          35.000    20312519.857    84482695.872       -3404.417          42.000  
R10  18786964.624   100145090.220       -3863.501          47.000                                                                  
R21  17366124.595    92930089.070       -1645.120          53.000    17366117.543    72278782.253       -1279.617          47.000  
E24  21636717.047   113701724.045         199.917          48.000    21636715.366    87122139.316         153.239          53.000  
S31  36694203.958   192829433.148        -706.069          43.000  
G29  19219760.962   101000855.303       -1961.490          48.000    19219755.581    78702103.456       -1528.212          45.000  
G25  19112820.663   100438760.916       -2379.312          49.000    19112817.684    78264070.412       -1853.895          45.000  
G31  20008954.339   105147774.371         296.498          47.000    20008948.570    81933367.292         231.143          44.000  
G20  22453130.011                3      -2640.430          26.000                                                                  
G18  18575161.955    97613356.732         871.971          47.000    18575155.750    76062505.909         679.522          47.000  
G05  21410325.527   112512089.055        -612.990          41.000    21410319.455    87671752.315        -477.867          37.000  
E33  23952212.590   125869997.808       -3171.211          46.000    23952210.251    96446034.406       -2429.841          50.000  
E11  22276496.318   117063981.703        1738.721          43.000    22276494.370    89698476.912        1332.399          46.000  
E25                                                                  24690008.160    99416427.181        1313.414          37.000  
> 2024 04 09 04 53 00.4930000  0 24                     
S33  37653489.034   197870554.630        -706.407          44.000  
G26  20805869.821   109335575.183        2324.119          41.000    20805869.160    85196555.368        1811.202          40.000  
R11  17110293.228    91432360.484          39.960          51.000    17110287.643    71113917.601          31.204          51.000  
R22  18956661.407   101192278.120        1804.782          51.000    18956657.565    78705005.352        1403.756          50.000  
R12  20577113.473                        3261.148          32.000    20577101.883                        2536.874          29.000  
G28  19487266.141   102406366.556       -2048.681          46.000    19487261.805    79797077.479       -1596.342          47.000  
E12  21498741.437   112976864.556        -730.056          42.000    21498738.320    86566852.470        -559.454          50.000  
E10  21747922.674   114286342.364         606.398          47.000    21747923.408    87570177.941         464.574          53.000  
E31  22443139.943   117939839.412       -2086.323          48.000    22443139.870    90369560.576       -1598.749          49.000  
G12  21885693.365   115010421.971       -3395.449          44.000    21885688.407    89618690.713       -2645.354          39.000  
R20  20337080.072                       -4379.562          32.000    20337078.386    84584840.485       -3405.817          41.000  
R10  18808753.098   100261237.583       -3880.347          47.000                                                                  
R21  17375395.330    92979696.651       -1662.480          52.000    17375387.536    72317365.949       -1293.121          47.000  
E24  21635594.214   113695822.816         192.998          48.000    21635592.272    87117617.604         147.818          53.000  
S31  36698232.474   192850603.068        -705.754          43.000  
G29  19230971.849   101059766.098       -1966.481          49.000    19230966.124    78748007.978       -1532.284          45.000  
G25  19126439.125   100510323.754       -2392.012          50.000    19126435.734    78319833.655       -1863.926          46.000  
G31  20007314.041   105139158.350         277.392          47.000    20007308.673    81926653.524         216.157          43.000  
G20  22468230.690                3      -2654.611          25.000                                                                  
G18  18570234.394    97587459.510         854.081          48.000    18570227.981    76042326.279         665.563          47.000  
G05  21413873.648   112530731.026        -630.456          42.000    21413868.138    87686278.547        -491.263          38.000  
E33  23970330.538   125965209.596       -3176.687          45.000    23970327.898    96518988.909       -2434.108          49.000  
E11  22266590.662   117011932.163        1730.730          42.000    22266588.866    89658594.852        1326.135          45.000  
E25                                                                  24680220.732    99377017.247        1313.230          37.000  
> 2024 04 09 04 53 30.4930000  0 24                     
S33  37657520.233   197891737.250        -705.937          44.000  
G26  20792608.004   109265882.129        2321.213          41.000    20792607.057    85142249.119        1808.729          40.000  
R11  17110132.834    91431500.175          16.967          52.000    17110127.137    71113248.480          13.212          52.000  
R22  18946559.887   101138355.367        1789.641          51.000    18946556.076    78663065.494        1392.017          50.000  
R12  20558795.279   109821426.663        3258.050          32.000    20558792.460                1       2533.418          31.000  
G28  19499008.214   102468075.610       -2065.641          46.000    19499004.573    79845162.456       -1609.609          47.000  
E12  21502944.936   112998954.975        -742.824          42.000    21502942.157    86583778.890        -569.174          50.000  
E10  21744494.894   114268326.105         594.489          47.000    21744495.027    87556373.278         455.508          53.000  
E31  22455071.885   118002544.071       -2094.199          48.000    22455072.568    90417606.987       -1604.630          49.000  
G12  21905096.456   115112383.603       -3402.314          43.000    21905091.177    89698141.322       -2651.189          38.000  
R20  20361647.455                       -4380.075          30.000    20361646.935    84687022.983       -3406.716          42.000  
R10  18830636.004   100377883.475       -3896.503          47.000                                                                  
R21  17384761.967    93029818.432       -1679.337          53.000    17384754.155    72356349.536       -1306.097          47.000  
E24  21634510.673   113690128.348         186.265          48.000    21634508.663    87113254.307         142.714          53.000  
S31  36702260.535   192871771.116        -705.664          43.000  
G29  19242209.404   101118819.904       -1970.897          48.000    19242203.268    78794023.913       -1535.645          45.000  
G25  19140129.805   100582269.721       -2404.646          49.000    19140126.637    78375895.427       -1873.618          45.000  
G31  20005782.060   105131106.790         258.897          47.000    20005776.298    81920379.566         202.108          43.000  
G20  22483434.804                3      -2670.312          24.000                                                                  
G18  18565407.313    97562095.115         836.608          48.000    18565401.476    76022561.831         651.923          48.000  
G05  21417518.070   112549881.796        -646.815          40.000    21417512.494    87701201.246        -504.098          38.000  
E33  23988478.175   126060580.859       -3181.835          45.000    23988477.076    96592065.576       -2437.912          49.000  
E11  22256732.602   116960126.451        1723.010          42.000    22256730.173    89618899.607        1320.158          44.000  
E25                                                                  24670431.741    99337601.969        1313.756          37.000  
> 2024 04 09 04 54 00.4930000  0 23                     
S33  37661549.831   197912911.801        -705.945          44.000  
G26  20779364.294   109196286.717        2318.271          41.000    20779363.436    85088018.961        1806.353          40.000  
R11  17110101.288    91431335.338          -6.149          51.000    17110096.706    71113120.274          -4.817          52.000  
R22  18936543.482   101084887.990        1774.634          50.000    18936539.878    78621479.806        1380.219          50.000  
R12  20540512.228   109723777.718        3251.484          34.000    20540516.007                        2529.405          32.000  
G28  19510848.218   102530294.028       -2082.579          46.000    19510844.475    79893644.313       -1622.731          47.000  
E12  21507220.688   113021425.100        -755.308          42.000    21507218.004    86600996.276        -578.861          50.000  
E10  21741134.889   114250666.993         582.551          47.000    21741134.360    87542842.283         446.381          52.000  
E31  22467049.122   118065483.725       -2102.117          48.000    22467049.782    90465833.462       -1610.722          49.000  
G12  21924539.429   115214561.288       -3409.420          42.000    21924534.950    89777760.255       -2657.029          40.000  
R20  20386221.767                       -4381.233          28.000    20386222.911    84789235.151       -3407.576          43.000  
R10  18852610.363   100495018.674       -3912.719          46.000                                                                  
R21  17394221.854    93080444.968       -1696.048          52.000    17394215.654    72395725.710       -1319.155          48.000  
E24  21633464.782   113684635.095         179.589          48.000    21633463.455    87109045.202         137.646          53.000  
S31  36706287.155   192892930.932        -705.177          43.000  
G29  19253472.568   101178009.305       -1975.427          47.000    19253466.501    78840145.524       -1539.220          44.000  
G25  19153892.363   100654591.890       -2417.156          50.000    19153889.234    78432250.379       -1883.565          46.000  
G31  20004356.062   105123613.815         240.375          47.000    20004351.054    81914540.897         187.205          44.000  
G18  18560680.529    97537257.629         819.073          48.000    18560675.681    76003207.972         638.133          48.000  
G05  21421258.107   112569535.203        -663.613          39.000    21421253.306    87716515.601        -517.326          38.000  
E33  24006655.740   126156103.078       -3186.725          45.000    24006654.046    96665257.965       -2441.712          49.000  
E11  22246919.672   116908558.845        1714.714          43.000    22246917.037    89579386.812        1313.787          44.000  
E25                                                                  24660640.049    99298176.900        1314.290          37.000  
> 2024 04 09 04 54 30.4930000  0 24                     
S33  37665576.345   197934072.072        -705.433          44.000  
E25  24650846.253                        1716.335          29.000    24650845.260    99258738.548        1314.659          37.000  
G26  20766138.248   109126785.477        2315.301          42.000    20766137.305    85033862.175        1803.964          40.000  
R11  17110200.186    91431862.516         -29.173          51.000    17110195.051    71113530.281         -22.604          51.000  
R22  18926610.935   101031871.283        1759.773          50.000    18926608.114    78580244.659        1368.597          50.000  
R12  20522260.664   109626269.429        3247.742          35.000    20522260.726    85264844.5871       2526.573          33.000  
G28  19522783.742   102593014.255       -2099.055          47.000    19522779.897    79942517.200       -1635.534          47.000  
G20  22514095.029                2      -2699.167          27.000                                                                  
E12  21511568.169   113044268.795        -767.641          43.000    21511564.740    86618499.891        -588.248          50.000  
E10  21737841.809   114233359.731         571.105          48.000    21737840.993    87529580.890         437.534          52.000  
E31  22479069.668   118128652.949       -2109.562          48.000    22479070.131    90514235.845       -1616.333          49.000  
G12  21944023.435   115316948.975       -3416.363          42.000    21944020.277    89857542.793       -2661.958          41.000  
R20  20410802.737   109146083.495       -4381.593          34.000    20410804.784    84891471.140       -3408.029          44.000  
R10  18874674.467   100612634.725       -3928.534          47.000                                                                  
R21  17403775.226    93131567.493       -1712.319          52.000    17403769.095    72435487.672       -1331.744          48.000  
E24  21632457.398   113679338.702         173.221          48.000    21632455.519    87104986.932         132.759          53.000  
S31  36710311.042   192914077.183        -705.030          43.000  
G29  19264759.628   101237328.087       -1979.344          47.000    19264754.407    78886367.932       -1542.241          45.000  
G25  19167725.019   100727284.580       -2429.192          50.000    19167722.573    78488894.028       -1892.981          46.000  
G31  20003035.447   105116674.888         221.909          47.000    20003031.558    81909133.910         173.160          44.000  
G18  18556053.748    97512942.302         801.682          47.000    18556048.663    75984260.978         624.773          48.000  
G05  21425092.654   112589686.553        -679.827          42.000    21425088.483    87732218.015        -529.748          39.000  
E33  24024860.706   126251768.894       -3191.184          45.000    24024859.022    96738560.317       -2445.258          50.000  
E11  22237150.898   116857224.792        1707.365          42.000    22237148.461    89540052.951        1308.307          44.000  
> 2024 04 09 04 55 00.4930000  0 24                     
S33  37669600.930   197955221.874        -705.283          44.000  
E25  24641046.453                        1716.451          28.000    24641048.871    99219290.638        1315.000          37.000  
G26  20752931.824   109057384.434        2311.078          42.000    20752930.686    84979783.418        1800.878          39.000  
R11  17110429.599    91433087.459         -53.048          52.000    17110423.948    71114483.003         -41.134          51.000  
R22  18916764.775   100979310.168        1744.004          50.000    18916761.723    78539363.825        1356.412          50.000  
R12  20504036.281   109528909.734        3241.732          32.000    20504033.658    85189120.386        2521.793          36.000  
G28  19534815.022   102656238.340       -2116.264          48.000    19534810.428    79991782.708       -1649.117          47.000  
G20  22529534.992                3      -2713.449          26.000                                                                  
E12  21515986.945   113067489.184        -780.573          42.000    21515983.380    86636292.146        -598.175          50.000  
E10  21734616.755   114216408.610         558.771          48.000    21734615.367    87516592.383         428.131          52.000  
E31  22491135.173   118192055.851       -2117.722          48.000    22491134.762    90562817.280       -1622.601          48.000  
G12  21963548.982   115419549.309       -3423.990          45.000    21963544.637    89937491.057       -2668.022          41.000  
R20  20435390.479   109277561.680       -4383.227          34.000    20435391.599    84993731.946       -3409.449          43.000  
R10  18896829.965   100730733.015       -3944.893          47.000                                                                  
R21  17413422.561    93183187.625       -1729.420          53.000    17413415.462    72475636.673       -1345.008          48.000  
E24  21631488.335   113674244.357         166.009          48.000    21631486.264    87101083.483         127.158          53.000  
S31  36714333.130   192935212.724        -704.680          43.000  
G29  19276073.388   101296779.299       -1984.468          48.000    19276068.098    78932693.537       -1546.282          45.000  
G25  19181629.546   100800351.614       -2442.243          50.000    19181626.935    78545829.379       -1903.200          46.000  
G31  20001821.686   105110294.683         202.902          47.000    20001817.547    81904162.332         158.223          44.000  
G18  18551526.743    97489153.899         783.713          47.000    18551522.093    75965724.565         610.703          49.000  
G05  21429023.888   112610340.716        -697.436          41.000    21429017.726    87748312.211        -543.703          38.000  
E33  24043092.650   126347580.484       -3196.671          45.000    24043091.211    96811974.416       -2449.273          49.000  
E11  22227427.766   116806129.363        1698.894          42.000    22227425.398    89500901.968        1301.681          44.000  
> 2024 04 09 04 55 30.4930000  0 24                     
S33  37673625.082   197976370.425        -705.258          44.000  
G26  20739746.311   108988094.154        2307.630          42.000    20739745.670    84925791.048        1797.982          40.000  
R11  17110791.215    91435021.260         -76.524          52.000    17110785.310    71115987.088         -59.570          51.000  
R22  18907005.295   100927214.188        1728.508          51.000    18907003.205    78498844.810        1344.293          51.000  
R12  20485829.889                        3237.693          30.000    20485835.222    85113521.099        2517.438          37.000  
G28  19546943.314   102719972.929       -2133.251          47.000    19546938.807    80041446.015       -1662.276          47.000  
G20  22545069.850                       -2729.276          27.000                                                                  
E12  21520478.051   113091094.186        -793.515          42.000    21520475.319    86654379.115        -608.065          50.000  
E10  21731459.805   114199822.520         546.584          48.000    21731458.847    87503883.575         418.788          52.000  
E31  22503246.696   118255701.237       -2126.025          48.000    22503245.801    90611584.505       -1628.934          48.000  
G12  21983114.882   115522370.498       -3431.389          45.000    21983111.151    90017611.403       -2673.702          41.000  
R20  20459984.115   109409076.772       -4384.985          35.000    20459985.160    85096021.423       -3410.300          43.000  
R10  18919076.300   100849319.926       -3961.401          47.000                                                                  
R21  17423163.138    93235311.297       -1746.208          53.000    17423156.273    72516177.333       -1358.099          48.000  
E24  21630559.082   113669361.892         158.966          48.000    21630557.168    87097342.379         121.865          53.000  
S31  36718355.098   192956347.406        -704.904          43.000  
G29  19287413.423   101356370.584       -1989.000          48.000    19287408.089    78979128.303       -1549.818          45.000  
G25  19195606.511   100873801.472       -2454.924          49.000    19195603.110    78603063.039       -1913.009          45.000  
G31  20000716.481   105104482.824         183.865          48.000    20000711.094    81899633.597         143.566          44.000  
G18  18547101.825    97465901.840         765.885          48.000    18547097.124    75947606.131         596.720          48.000  
G05  21433051.599   112631506.612        -714.322          38.000    21433045.336    87764805.113        -556.446          38.000  
E33  24061355.232   126443544.712       -3201.596          45.000    24061352.157    96885505.453       -2453.256          49.000  
E11  22217751.978   116755282.126        1690.429          42.000    22217749.248    89461941.138        1295.175          44.000  
E25                                                                  24631251.651    99179840.608        1314.961          38.000  
> 2024 04 09 04 56 00.4930000  0 24                     
S33  37677648.092   197997510.547        -704.711          44.000  
G26  20726581.203   108918909.528        2304.170          42.000    20726580.595    84871880.952        1795.685          40.000  
R11  17111284.955    91437658.498         -99.889          52.000    17111279.147    71118038.276         -77.597          51.000  
R22  18897333.022   100875576.718        1713.363          52.000    18897329.605    78458682.368        1332.635          51.000  
R12  20467658.216                        3232.667          30.000    20467666.511    85038044.060        2513.365          37.000  
G28  19559167.599   102784208.761       -2149.795          47.000    19559162.977    80091499.871       -1675.196          47.000  
G20  22560685.971                3      -2742.901          26.000                                                                  
E12  21525041.057   113115075.897        -806.047          41.000    21525038.887    86672754.704        -617.431          50.000  
E10  21728371.351   114183594.433         534.770          47.000    21728370.450    87491449.074         409.770          52.000  
E31  22515402.355   118319581.929       -2133.470          48.000    22515401.556    90660532.054       -1634.702          47.000  
G12  22002721.798   115625404.403       -3438.115          45.000    22002717.560    90097897.502       -2679.230          40.000  
R20  20484584.113   109540619.304       -4385.521          36.000    20484583.606    85198332.241       -3410.899          42.000  
R10  18941412.805   100968385.283       -3977.067          47.000                                                                  
R21  17432995.542    93287928.388       -1762.262          53.000    17432988.688    72557101.765       -1370.659          47.000  
E24  21629668.896   113664685.246         152.183          47.000    21629667.076    87093758.962         116.705          53.000  
S31  36722374.970   192977472.831        -704.313          43.000  
G29  19298778.830   101416093.317       -1993.167          48.000    19298772.657    79025665.501       -1552.927          45.000  
G25  19209655.061   100947626.668       -2467.296          49.000    19209651.621    78660589.150       -1922.372          45.000  
G31  19999717.679   105099232.732         165.490          48.000    19999711.588    81895542.603         129.144          43.000  
G18  18542778.251    97443179.671         748.418          48.000    18542772.541    75929900.531         583.201          48.000  
G05  21437173.523   112653176.998        -730.429          33.000    21437169.009    87781691.194        -569.378          38.000  
E33  24079644.289   126539652.541       -3206.241          45.000    24079641.360    96959146.523       -2456.646          49.000  
E11  22208121.406   116704676.812        1682.587          41.000    22208119.281    89423165.684        1289.334          45.000  
E25                                                                  24621452.418    99140383.653        1315.222          39.000  
> 2024 04 09 04 56 30.4930000  0 24                     
S33  37681669.012   198018641.486        -704.302          43.000  
G26  20713436.562   108849832.454        2300.532          42.000    20713435.623    84818054.677        1792.783          40.000  
R11  17111910.069    91441001.239        -123.265          51.000    17111904.632    71120638.161         -95.790          51.000  
R22  18887745.164   100824398.417        1698.182          52.000    18887742.382    78418877.042        1320.756          51.000  
R12  20449512.057   109237658.3131       3227.098          33.000    20449528.932    84962691.839        2509.627          40.000  
G28  19571486.077   102848943.685       -2166.182          47.000    19571481.954    80141942.663       -1687.929          47.000  
G20  22576386.614                1      -2757.754          26.000                                                                  
E12  21529676.100   113139433.319        -818.350          41.000    21529673.851    86691418.188        -626.968          50.000  
E10  21725350.892   114167724.462         522.908          47.000    21725350.746    87479288.979         400.633          52.000  
E31  22527603.012   118383697.985       -2141.227          48.000    22527602.604    90709659.955       -1640.644          48.000  
G12  22022369.003   115728650.107       -3445.116          45.000    22022364.036    90178348.676       -2684.752          40.000  
R20  20509188.855   109672185.912       -4386.113          36.000    20509186.453    85300661.792       -3411.271          42.000  
R10  18963838.242   101087926.877       -3992.783          47.000                                                                  
R21  17442920.065    93341036.023       -1778.449          52.000    17442913.016    72598407.679       -1383.223          48.000  
E24  21628818.420   113660215.573         145.458          48.000    21628816.348    87090334.138         111.437          53.000  
S31  36726393.429   192998589.895        -703.536          43.000  
G29  19310167.606   101475947.236       -1997.308          47.000    19310162.434    79072304.928       -1556.460          45.000  
G25  19223775.126   101021826.878       -2479.683          50.000    19223771.485    78718407.491       -1932.196          45.000  
G31  19998824.702   105094544.598         146.861          48.000    19998818.877    81891889.536         114.352          42.000  
G18  18538554.601    97420987.962         730.810          48.000    18538550.054    75912608.303         569.408          48.000  
G05  21441393.135   112675353.697        -747.890          35.000    21441387.583    87798971.720        -582.765          37.000  
E33  24097958.268   126635902.052       -3210.708          44.000    24097956.043    97032896.156       -2460.195          48.000  
E11  22198537.656   116654314.394        1674.619          41.000    22198535.364    89384576.335        1283.228          45.000  
E25                                                                  24611651.293    99100920.380        1315.504          39.000  
> 2024 04 09 04 57 00.4930000  0 23                     
S33  37685688.935   198039767.066        -704.497          44.000  
G26  20700313.031   108780868.416        2296.664          43.000    20700311.827    84764316.505        1789.307          40.000  
R11  17112668.534    91445054.408        -147.286          51.000    17112662.881    71123790.628        -114.687          51.000  
R22  18878243.796   100773683.504        1682.397          51.000    18878241.304    78379432.145        1308.484          51.000  
R12  20431408.258                        3220.689          31.000    20431422.549    84887470.048        2504.751          41.000  
G28  19583899.631   102914179.054       -2183.025          46.000    19583896.156    80192775.405       -1701.115          47.000  
E12  21534383.590   113164169.123        -831.255          41.000    21534380.961    86710371.596        -636.925          50.000  
E10  21722400.737   114152216.224         510.496          48.000    21722399.918    87467406.057         391.195          53.000  
E31  22539849.725   118448052.888       -2149.487          48.000    22539849.220    90758970.851       -1646.987          48.000  
G12  22042057.270   115832110.599       -3452.711          45.000    22042052.627    90258967.159       -2690.236          42.000  
R20  20533798.189   109803777.869       -4387.465          38.000    20533795.403    85403011.090       -3412.101          43.000  
R10  18986353.579   101207944.969       -4008.916          46.000                                                                  
R21  17452935.877    93394634.809       -1795.091          52.000    17452929.526    72640095.630       -1396.214          48.000  
E24  21628008.324   113655957.376         138.042          48.000    21628005.953    87087071.363         105.744          52.000  
S31  36730411.020   193019701.199        -703.914          43.000  
G29  19321583.154   101535935.045       -2002.224          48.000    19321577.751    79119048.669       -1560.182          45.000  
G25  19237966.722   101096405.259       -2492.417          49.000    19237963.704    78776520.537       -1942.250          45.000  
G31  19998040.218   105090422.912         127.586          48.000    19998034.373    81888677.848          99.470          42.000  
G18  18534432.983    97399330.826         712.626          47.000    18534428.544    75895732.645         555.186          48.000  
G05  21445711.005   112698039.650        -764.668          36.000    21445704.266    87816649.117        -596.257          37.000  
E33  24116301.563   126732294.810       -3215.828          45.000    24116300.174    97106755.571       -2464.044          49.000  
E11  22189000.964   116604199.223        1665.834          41.000    22188998.862    89346176.459        1276.444          45.000  
E25                                                                  24601849.595    99061454.164        1315.215          39.000  
> 2024 04 09 04 57 30.4930000  0 23                     
S33  37689709.391   198060893.791        -704.391          44.000  
G26  20687212.562   108712026.690        2292.631          43.000    20687211.260    84710673.617        1786.450          40.000  
R11  17113561.887    91449827.703        -171.212          51.000    17113556.376    71127503.195        -133.164          51.000  
R22  18868831.819   100723439.956        1666.833          51.000    18868828.765    78340353.869        1296.375          50.000  
R12  20413339.312   109044409.463        3214.160          32.000    20413349.700    84812387.122        2500.236          40.000  
G28  19596409.644   102979920.049       -2199.857          47.000    19596406.405    80244002.158       -1714.168          47.000  
E12  21539163.430   113189289.680        -843.982          41.000    21539161.159    86729619.832        -646.726          50.000  
E10  21719519.994   114137077.148         498.414          48.000    21719519.104    87455806.011         381.818          53.000  
E31  22552143.496   118512654.011       -2157.685          49.000    22552142.487    90808470.408       -1653.273          48.000  
G12  22061786.592   115935792.005       -3459.879          43.000    22061782.834    90339757.803       -2696.035          42.000  
R20  20558411.873   109935399.302       -4388.097          39.000    20558409.913    85505383.310       -3412.909          43.000  
R10  19008958.602   101328444.536       -4024.736          46.000                                                                  
R21  17463044.389    93448729.360       -1811.521          52.000    17463037.859    72682169.187       -1408.937          48.000  
E24  21627239.785   113651919.165         130.774          47.000    21627237.203    87083977.146         100.211          52.000  
S31  36734428.474   193040814.308        -703.903          43.000  
G29  19333025.362   101596062.848       -2006.753          48.000    19333020.454    79165901.492       -1563.583          45.000  
G25  19252231.485   101171368.913       -2505.375          49.000    19252229.371    78834933.746       -1952.214          45.000  
G31  19997365.271   105086875.379         108.571          48.000    19997359.631    81885913.510          84.573          42.000  
G18  18530415.338    97378216.227         694.597          48.000    18530410.400    75879279.720         541.117          48.000  
G05  21450128.483   112721243.485        -782.048          36.000    21450120.257    87834730.091        -609.590          38.000  
E33  24134673.776   126828836.384       -3220.536          45.000    24134670.340    97180728.963       -2467.729          48.000  
E11  22179514.246   116554339.506        1657.302          42.000    22179510.891    89307972.313        1269.854          45.000  
E25                                                                  24592048.924    99021991.289        1315.254          40.000  
> 2024 04 09 04 58 00.4930000  0 23                     
S33  37693728.250   198082013.287        -704.241          44.000  
G26  20674134.569   108643300.128        2288.547          43.000    20674132.566    84657120.488        1782.931          40.000  
R11  17114588.894    91455313.475        -195.027          52.000    17114583.031    71131769.890        -151.711          51.000  
R22  18859505.742   100673659.214        1651.330          50.000    18859503.244    78301635.555        1284.375          50.000  
R12  20395300.722   108948047.080        3209.013          34.000    20395309.441    84737438.679        2495.726          41.000  
G28  19609013.566   103046155.309       -2216.414          47.000    19609009.640    80295614.035       -1727.045          47.000  
E12  21544015.150   113214785.108        -856.425          41.000    21544012.942    86749155.301        -656.200          50.000  
E10  21716707.612   114122298.198         486.222          48.000    21716706.796    87444481.892         372.647          53.000  
E31  22564482.146   118577492.212       -2165.567          49.000    22564480.740    90858151.613       -1659.336          48.000  
G12  22081556.642   116039684.020       -3466.852          43.000    22081552.506    90420712.545       -2701.512          41.000  
R20  20583028.714   110067038.253       -4388.471          38.000    20583027.008    85607769.174       -3413.431          41.000  
R10  19031651.869   101449413.714       -4040.532          45.000                                                                  
R21  17473244.494    93503307.282       -1827.579          53.000    17473237.466    72724618.698       -1421.431          48.000  
E24  21626511.639   113648092.848         123.699          48.000    21626508.944    87081045.307          94.806          52.000  
S31  36738444.572   193061919.905        -703.698          43.000  
G29  19344491.766   101656320.403       -2011.077          48.000    19344487.092    79212855.447       -1567.219          45.000  
G25  19266568.134   101246708.248       -2517.888          49.000    19266565.918    78893639.708       -1962.004          45.000  
G31  19996798.402   105083893.407          89.675          48.000    19996791.607    81883589.872          70.077          42.000  
G18  18526498.851    97357635.516         676.873          47.000    18526494.176    75863242.834         527.274          48.000  
G05  21454639.217   112744956.572        -799.331          32.000    21454633.121    87853207.786        -622.834          39.000  
E33  24153070.519   126925515.695       -3225.134          44.000    24153068.869    97254807.905       -2471.370          49.000  
E11  22170073.244   116504726.980        1649.435          42.000    22170069.728    89269957.574        1263.878          45.000  
E25                                                                  24582247.392    98982525.479        1315.276          41.000  
> 2024 04 09 04 58 30.4930000  0 23                     
S33  37697746.119   198103126.944        -703.854          44.000  
G26  20661078.723   108574692.652        2284.871          44.000    20661076.506    84603660.125        1780.405          39.000  
R11  17115749.095    91461515.335        -218.731          52.000    17115743.525    71136593.577        -170.202          51.000  
R22  18850267.518   100624343.643        1636.084          51.000    18850264.866    78263279.053        1272.498          50.000  
R12  20377301.579   108851863.314        3202.863          37.000    20377303.554    84662629.052        2491.300          42.000  
G28  19621712.706   103112884.520       -2232.500          48.000    19621707.288    80347610.803       -1739.723          47.000  
E12  21548938.575   113240656.297        -868.745          41.000    21548936.080    86768978.691        -665.599          50.000  
E10  21713964.314   114107881.331         474.439          48.000    21713963.351    87433435.219         363.572          53.000  
E31  22576865.524   118642569.333       -2173.358          48.000    22576864.619    90908015.895       -1665.146          48.000  
G12  22101367.193   116143788.521       -3473.856          43.000    22101362.207    90501832.862       -2706.555          40.000  
R20  20607648.882   110198693.455       -4388.713          39.000    20607646.953    85710167.640       -3413.621          41.000  
R10  19054433.882   101570850.969       -4055.815          46.000                                                                  
R21  17483533.682    93558367.798       -1843.480          53.000    17483526.736    72767443.537       -1433.799          49.000  
E24  21625824.301   113644481.437         116.730          47.000    21625821.765    87078278.124          89.423          52.000  
S31  36742459.711   193083019.399        -703.298          43.000  
G29  19355983.583   101716708.938       -2015.118          49.000    19355978.222    79259911.442       -1570.176          44.000  
G25  19280976.212   101322424.865       -2530.244          49.000    19280974.090    78952639.652       -1971.544          45.000  
G31  19996338.560   105081479.321          70.894          48.000    19996332.343    81881708.798          55.337          42.000  
G18  18522684.146    97337591.157         659.185          47.000    18522680.127    75847623.857         513.548          49.000  
G05  21459239.590   112769180.562        -816.003          32.000    21459244.469    87872083.677        -635.557          40.000  
E33  24171492.372   127022332.709       -3229.652          43.000    24171491.415    97328992.374       -2474.527          47.000  
E11  22160679.885   116455364.429        1641.310          42.000    22160676.449    89232134.378        1257.567          46.000  
E25                                                                  24572445.891    98943058.859        1315.372          41.000  
> 2024 04 09 04 59 00.4930000  0 23                     
S33  37701761.393   198124225.967        -703.175          44.000  
E25  24562651.310   129077649.8041       1716.141          31.000    24562642.844    98903585.429        1315.710          41.000  
G26  20648044.752   108506197.487        2281.129          43.000    20648041.866    84550287.309        1777.515          39.000  
R11  17117042.554    91468426.119        -242.362          52.000    17117036.807    71141968.626        -188.458          51.000  
R22  18841115.137   100575485.024        1620.917          52.000    18841112.045    78225277.978        1260.736          51.000  
R12  20359331.889   108755852.525        3197.391          41.000    20359330.475    84587953.984        2487.066          41.000  
G28  19634502.430   103180096.767       -2248.583          48.000    19634497.202    80399983.946       -1752.129          47.000  
E12  21553931.553   113266893.599        -880.678          41.000    21553928.666    86789082.620        -674.932          50.000  
E10  21711287.940   114093817.885         462.731          48.000    21711287.013    87422659.364         354.568          53.000  
E31  22589292.668   118707876.624       -2180.948          48.000    22589292.805    90958056.543       -1670.959          49.000  
G12  22121216.428   116248095.419       -3480.378          43.000    22121211.814    90583110.927       -2711.979          41.000  
R20  20632269.843   110330353.458       -4388.880          39.000    20632267.558    85812569.873       -3413.691          40.000  
R10  19077300.444   101692745.146       -4070.846          44.000                                                                  
R21  17493909.877    93613898.849       -1859.022          52.000    17493904.075    72810634.358       -1445.762          48.000  
E24  21625176.485   113641077.259         109.997          48.000    21625173.893    87075669.732          84.180          52.000  
S31  36746472.074   193104104.650        -703.032          43.000  
G29  19367498.009   101777218.394       -2019.137          48.000    19367492.342    79307061.662       -1573.152          44.000  
G25  19295454.411   101398509.624       -2542.474          49.000    19295452.272    79011926.474       -1981.132          45.000  
G31  19995985.905   105079624.926          52.255          48.000    19995979.152    81880263.804          40.950          42.000  
G18  18518970.831    97318074.946         641.540          48.000    18518966.119    75832416.434         499.957          49.000  
G05  21463948.151   112793906.631        -832.562          35.000    21463949.443    87891350.762        -648.779          40.000  
E33  24189941.079   127119276.868       -3233.833          44.000    24189940.486    97403274.264       -2477.773          49.000  
E11  22151332.273   116406243.964        1632.830          42.000    22151329.074    89194496.682        1251.137          45.000  
> 2024 04 09 04 59 30.4930000  0 25                     
S33  37705774.657   198145316.995        -703.231          44.000  
E25  24552840.553   129026133.219        1716.794          31.000    24552839.217    98864111.740        1315.639          41.000  
G26  20635033.185   108437824.284        2276.835          43.000    20635030.857    84497009.505        1773.922          40.000  
R11  17118470.099    91476055.122        -266.496          52.000    17118464.796    71147902.300        -207.321          52.000  
R22  18832049.423   100527091.706        1605.139          51.000    18832045.357    78187638.778        1248.444          49.000  
R12  20341395.346   108660026.255        3190.886          45.000    20341391.572    84513422.479        2481.973          42.000  
G28  19647385.353   103247797.409       -2264.888          48.000    19647380.984    80452737.665       -1764.923          47.000  
G20  22672340.026                3      -2844.490          26.000                                                                  
E12  21558995.548   113293503.710        -893.459          41.000    21558992.404    86809472.176        -684.550          49.000  
E10  21708680.075   114080115.576         450.547          48.000    21708679.589    87412160.208         345.266          53.000  
E31  22601764.895   118773421.724       -2188.985          48.000    22601765.826    91008279.402       -1677.187          49.000  
G12  22141105.374   116352611.426       -3487.697          44.000    22141100.539    90664551.903       -2717.711          41.000  
R20  20656892.799   110462023.235       -4389.167          39.000    20656890.876    85914979.673       -3413.886          38.000  
R10  19100254.035   101815100.982       -4086.216          45.000                                                                  
R21  17504376.630    93669905.577       -1875.003          53.000    17504370.064    72854195.158       -1458.167          48.000  
E24  21624569.458   113637889.092         102.512          47.000    21624567.188    87073226.856          78.475          52.000  
S31  36750483.224   193125182.872        -702.577          43.000  
G29  19379036.709   101837855.754       -2023.645          48.000    19379031.309    79354311.567       -1576.723          46.000  
G25  19310004.433   101474969.820       -2555.142          48.000    19310002.546    79071505.836       -1991.145          45.000  
G31  19995740.765   105078338.595          33.243          48.000    19995734.479    81879261.473          25.835          42.000  
G18  18515359.554    97299094.995         623.428          48.000    18515354.224    75817626.880         485.746          48.000  
G05  21468757.563   112819144.447        -849.453          37.000    21468752.107    87911016.639        -662.394          40.000  
E33  24208413.282   127216353.931       -3238.296          42.000    24208412.326    97477657.989       -2481.344          47.000  
E11  22142032.433   116357374.030        1624.597          41.000    22142029.231    89157050.931        1244.875          46.000  
G23                                                                  22528196.889                3       2069.617          21.000  
