     3.00           OBSERVATION DATA    M: Mixed            RINEX VERSION / TYPE
CONVBIN 2.4.3                           20240409 081442 UTC PGM / RUN BY / DATE 
format: u-blox UBX                                          COMMENT             
log: data/2024-04-09/20240409080000.ubx                     COMMENT             
AQUI00CHL                                                   MARKER NAME         
                                                            MARKER NUMBER       
                                                            MARKER TYPE         
                                                            OBSERVER / AGENCY   
UNKNOWN             UBLOX-ZED-F9P                           REC # / TYPE / VERS 
UNKNOWN             TWIVSP6037L                             ANT # / TYPE        
  1713381.0000 -5047934.0000 -3490983.0000                  APPROX POSITION XYZ 
        0.0000        0.0000        0.0000                  ANTENNA: DELTA H/E/N
G    8 C1C L1C D1C S1C C2L L2L D2L S2L                      SYS / # / OBS TYPES 
R    8 C1C L1C D1C S1C C2C L2C D2C S2C                      SYS / # / OBS TYPES 
E    8 C1C L1C D1C S1C C7Q L7Q D7Q S7Q                      SYS / # / OBS TYPES 
S    4 C1C L1C D1C S1C                                      SYS / # / OBS TYPES 
  2024    04    09    08    00   00.4980000     GPS         TIME OF FIRST OBS   
  2024    04    09    08    14   30.4980000     GPS         TIME OF LAST OBS    
                                                            END OF HEADER       
> 2024 04 09 08 00 00.4980000  0 26                     
S33  39108289.182   205515594.2911       -654.129          44.000  
G23  20127756.049   105772240.8501      -1881.457          48.000    20127751.465    82419984.7581      -1466.058          49.000  
E25  23108571.516   121436338.5531      -1244.916          46.000    23108572.838    93048663.5001       -953.861          52.000  
G26  20620846.854   108363272.3141      -3029.700          47.000    20620844.576    84438917.2121      -2360.840          44.000  
G27  21084298.542   110798773.0991       1554.092          49.000    21084294.960    86336693.5321       1210.845          46.000  
R22  20195933.749   107807613.2351      -1988.403          51.000    20195928.432    83850269.9891      -1546.533          49.000  
R23  20268545.118   108423074.6371        268.427          49.000                                                                  
R12  20759051.894   110891072.6201      -4162.790          49.000    20759048.711    86248679.7361      -3237.836          47.000  
R06  22419360.886   119634048.2681      -3005.292          41.000                                                                  
R08  21485874.984   115055893.1131       3166.744          50.000    21485867.867    89487915.6481       2462.957          48.000  
E02  25355769.353   133245503.0311       1303.777          41.000    25355768.989   102097240.3211        999.222          45.000  
E12  26158713.668   137465178.6471      -2651.880          41.000    26158710.940   105330624.3481      -2031.884          45.000  
E10  24320941.141   127807641.1321      -2200.549          49.000    24320939.474    97930654.7741      -1686.033          49.000  
G16  20144463.528   105859893.2051       -293.872          48.000                                                                  
R13  20208928.768   107914474.7431      -1168.738          38.000    20208924.970    83933550.2811       -909.106          42.000  
R07  20399005.910   109197533.7641        444.706          51.000    20399001.686    84931392.0411        345.846          48.000  
E24  25168955.988   132263754.8311      -3447.024          46.000    25168954.636   101344991.4961      -2641.208          50.000  
S31  38153109.134   200496039.1231       -654.833          43.000  
G29  24843291.464   130552701.5151      -3328.064          37.000    24843287.144   101729514.2751      -2593.905          34.000  
E36  24515845.088   128831686.8931        502.993          46.000    24515846.013    98715238.8591        385.408          50.000  
G18  22480266.043   118134817.1761      -3228.891          45.000    22480260.904    92053254.5111      -2516.087          44.000  
E04  26732876.505   140482217.8651       1447.921          43.000    26732875.734   107642220.4361       1109.630          46.000  
G10  19741569.264   103742726.3681        931.772          50.000    19741566.575    80838495.3261        726.004          47.000  
E11  22195718.674   116639516.0071      -1301.802          45.000    22195714.474    89373242.5621       -997.419          48.000  
G15  24810508.953                3      -1569.258          25.000    24810511.142                3      -1220.239          24.000  
G08                                                                  23663654.639                3       1860.075          24.000  
> 2024 04 09 08 00 30.4980000  0 26                     
S33  39112022.195   205535210.323        -653.908          44.000  
G23  20138549.040   105828957.747       -1900.140          48.000    20138543.939    82464179.742       -1480.536          49.000  
E25  23115716.318   121473885.051       -1258.556          46.000    23115717.751    93077432.876        -964.293          52.000  
G26  20638183.251   108454374.363       -3043.962          47.000    20638180.887    84509905.816       -2372.103          44.000  
G27  21075436.868   110752204.952        1550.105          49.000    21075433.160    86300406.670        1207.811          46.000  
R22  20207116.551   107867306.173       -1991.388          50.000    20207111.705    83896697.859       -1548.822          51.000  
R23  20267049.439   108415073.041         264.533          49.000                                                                  
R12  20782464.534   111016145.777       -4175.692          47.000    20782462.716    86345958.856       -3247.787          46.000  
R06  22436312.696   119724503.852       -3025.537          41.000                                                                  
R08  21468157.107   114961010.537        3158.456          51.000    21468149.916    89414118.135        2456.610          49.000  
E02  25348351.019   133206522.617        1294.420          41.000    25348351.206   102067372.228         991.799          45.000  
E12  26173846.503   137544705.592       -2650.409          41.000    26173844.466   105391560.566       -2030.798          45.000  
E10  24333505.223   127873663.786       -2201.285          49.000    24333503.036    97981243.569       -1686.753          49.000  
G08  23650037.538                3       2388.173          28.000    23650021.682                3       1866.903          19.000  
G16  20146196.286   105868998.732        -313.660          49.000                                                                  
R13  20215566.101   107949920.303       -1194.623          37.000    20215563.561    83961119.014        -929.217          43.000  
R07  20396581.373   109184559.673         419.914          50.000    20396576.204    84921301.088         326.414          47.000  
E24  25188648.739   132367243.489       -3452.648          46.000    25188647.588   101424287.972       -2645.477          49.000  
S31  38156844.627   200515670.883        -654.539          43.000  
G29  24862301.058   130652601.209       -3331.937          30.000    24862296.666                       -2596.319          29.000  
E36  24512986.190   128816666.686         498.217          45.000    24512987.730    98703729.889         381.586          50.000  
G18  22498699.360   118231686.602       -3229.413          44.000    22498694.955    92128737.170       -2516.473          45.000  
E04  26724619.960   140438829.482        1444.164          42.000    26724619.337   107608974.809        1106.607          46.000  
G10  19736304.725   103715061.790         912.137          50.000    19736301.811    80816938.503         710.677          47.000  
E11  22203159.000   116678612.274       -1304.916          45.000    22203154.350    89403199.438        -999.828          48.000  
G15                                                                  24819505.113                3      -1239.330          15.000  
> 2024 04 09 08 01 00.4980000  0 27                     
S33  39115755.390   205554828.119        -653.982          44.000  
G23  20149449.338   105886238.886       -1918.781          48.000    20149444.011    82508814.406       -1495.203          49.000  
E25  23122941.077   121511849.137       -1272.453          47.000    23122942.105    93106522.236        -974.999          52.000  
G26  20655601.107   108545905.197       -3058.213          47.000    20655598.208    84581228.546       -2382.848          44.000  
G27  21066599.678   110705765.404        1545.736          48.000    21066595.745    86264219.995        1204.429          45.000  
R22  20218316.380   107927096.528       -1994.598          51.000    20218311.747    83943201.499       -1551.410          50.000  
R23  20265575.898   108407192.837         260.608          49.000                                                                  
R12  20805950.804   111141605.549       -4188.447          46.000    20805949.380    86443538.661       -3257.641          47.000  
R06  22453380.347   119815581.216       -3046.163          40.000                                                                  
R08  21450486.583   114866382.901        3149.958          50.000    21450479.361    89340518.917        2449.935          49.000  
E02  25340990.813   133167838.100        1284.616          42.000    25340989.649   102037730.851         984.324          45.000  
E12  26188973.687   137624197.590       -2648.895          40.000    26188971.223   105452469.985       -2029.900          45.000  
E10  24346074.162   127939717.612       -2202.201          48.000    24346072.469    98031856.239       -1687.546          48.000  
G08  23636385.751   124210054.3951       2389.386          29.000    23636371.190                3       1862.956          21.000  
G16  20148043.358   105878703.625        -333.533          48.000                                                                  
R21  23551011.805                3      -3018.818          25.000    23550976.693                3      -2345.933          26.000  
R13  20222350.366   107986144.876       -1220.526          38.000    20222347.315    83989293.650        -949.347          42.000  
R07  20394298.189   109172338.991         394.765          51.000    20394293.546    84911796.100         307.108          48.000  
E24  25208374.855   132470905.308       -3458.248          46.000    25208373.107   101503717.140       -2649.869          48.000  
S31  38160580.834   200535303.404        -654.383          43.000  
E36  24510156.235   128801797.432         493.094          44.000    24510158.142    98692336.583         377.849          50.000  
G18  22517138.706   118328581.618       -3230.162          45.000    22517134.077    92204239.755       -2517.153          45.000  
E04  26716386.910   140395566.165        1440.052          42.000    26716386.110   107575825.005        1103.349          45.000  
G10  19731153.780   103687994.706         892.195          50.000    19731151.192    80795847.284         695.050          48.000  
E11  22210619.937   116717818.004       -1308.717          45.000    22210615.001    89433240.169       -1002.677          48.000  
G15                                                                  24828590.152                3      -1244.255          20.000  
G29                                                                  24881330.736                3      -2599.863          24.000  
> 2024 04 09 08 01 30.4980000  0 27                     
S33  39119488.676   205574447.195        -653.825          44.000  
G23  20160456.268   105944082.210       -1937.219          48.000    20160451.130    82553887.129       -1509.613          48.000  
E25  23130245.390   121550230.235       -1286.191          48.000    23130245.699    93135931.129        -985.490          52.000  
G26  20673100.183   108637862.028       -3072.219          47.000    20673097.421    84652883.202       -2393.849          44.000  
G27  21057787.032   110659455.888        1541.469          48.000    21057783.275    86228134.673        1201.142          45.000  
R22  20229534.884   107986983.664       -1997.821          51.000    20229530.572    83989780.349       -1553.894          49.000  
R23  20264126.095   108399433.335         256.757          49.000                                                                  
R12  20829510.545   111267447.065       -4200.842          49.000    20829506.598    86541415.354       -3267.532          46.000  
R06  22470565.424   119907277.417       -3066.632          41.000                                                                  
R08  21432863.394   114772014.697        3141.327          49.000    21432856.543    89267121.483        2443.197          49.000  
E02  25333686.753   133129450.770        1274.552          43.000    25333684.870   102008317.178         976.744          45.000  
E12  26204094.799   137703653.836       -2647.884          41.000    26204091.911   105513352.017       -2029.003          46.000  
E10  24358648.861   128005801.641       -2203.172          47.000    24358647.759    98082492.059       -1688.164          48.000  
G08  23622740.331   124138337.465        2391.540          30.000    23622727.056                        1862.685          27.000  
G16  20150003.720   105889008.099        -353.430          48.000                                                                  
R13  20229279.259   108023146.724       -1246.027          38.000    20229276.257    84018072.856        -969.244          42.000  
R07  20392157.184   109160873.571         369.624          51.000    20392151.539    84902878.560         287.547          47.000  
E24  25228134.269   132574738.371       -3463.840          45.000    25228131.995   101583277.516       -2654.079          48.000  
S31  38164316.960   200554937.818        -654.417          43.000  
E36  24507355.520   128787078.203         488.260          44.000    24507357.023    98681058.229         374.128          50.000  
G18  22535580.827   118425501.033       -3230.937          44.000    22535576.163    92279761.368       -2517.467          44.000  
E04  26708178.667   140352429.656        1435.765          42.000    26708177.264   107542772.337        1100.146          44.000  
G10  19726117.775   103661526.307         872.486          50.000    19726114.842    80775222.559         679.764          48.000  
E11  22218100.903   116757131.892       -1312.301          45.000    22218096.309    89463363.793       -1005.489          49.000  
G15                                                                  24837731.541                3      -1253.158          18.000  
R21                                                                  23567914.274                1      -2348.312          26.000  
G29                                                                  24900386.841                3      -2606.513          22.000  
> 2024 04 09 08 02 00.4980000  0 26                     
S33  39123220.745   205594059.665        -653.620          44.000  
G23  20171568.332   106002478.461       -1955.603          47.000    20171563.718    82599390.708       -1523.883          48.000  
E25  23137626.496   121589020.547       -1299.710          48.000    23137627.347    93165653.577        -995.855          52.000  
G26  20690677.783   108730234.768       -3085.858          46.000    20690675.552    84724861.984       -2404.586          45.000  
G27  21048998.336   110613270.625        1537.406          48.000    21048994.522    86192146.165        1197.913          45.000  
R22  20240771.628   108046959.886       -2000.647          50.000    20240766.574    84036428.554       -1556.024          50.000  
R23  20262697.358   108391786.730         253.064          50.000                                                                  
R12  20853137.902   111393658.194       -4212.975          47.000    20853133.413    86639579.549       -3276.777          45.000  
R06  22487863.328   119999581.905       -3086.812          40.000                                                                  
R08  21415288.672   114677902.480        3132.797          50.000    21415280.903    89193923.140        2436.701          48.000  
E02  25326437.054   133091354.639        1265.032          43.000    25326435.329   101979126.634         969.401          45.000  
E12  26219206.087   137783066.485       -2646.190          41.000    26219203.598   105574200.646       -2027.735          46.000  
E10  24371228.889   128071907.605       -2203.760          48.000    24371227.216    98133144.702       -1688.592          48.000  
G08  23609085.028                        2392.994          27.000    23609073.664                        1864.444          29.000  
G16  20152077.406   105899905.522        -373.004          47.000                                                                  
R13  20236353.006   108060917.016       -1271.753          39.000    20236349.392    84047449.716        -989.087          43.000  
R07  20390156.391   109150158.029         344.703          52.000    20390149.425    84894544.268         268.118          48.000  
E24  25247923.531   132678733.417       -3469.143          45.000    25247921.655   101662962.012       -2658.115          48.000  
S31  38168052.118   200574565.782        -654.064          43.000  
E36  24504581.159   128772500.910         483.556          44.000    24504583.129    98669888.628         370.536          50.000  
G18  22554027.184   118522436.302       -3231.608          44.000    22554022.531    92355295.354       -2518.070          44.000  
E04  26699992.785   140309414.540        1431.707          41.000    26699992.066   107509812.713        1097.164          45.000  
G10  19721193.967   103635650.447         852.652          51.000    19721190.849    80755059.561         664.569          48.000  
E11  22225600.479   116796545.604       -1315.469          44.000    22225596.788    89493563.909       -1007.791          49.000  
G15                                                                  24846957.775                3      -1278.614          17.000  
G29                                                                  24919462.678                3      -2593.658          17.000  
> 2024 04 09 08 02 30.4980000  0 26                     
S33  39126952.104   205613668.670        -653.740          44.000  
G23  20182786.162   106061428.447       -1974.371          46.000    20182781.562    82645325.746       -1538.464          48.000  
E25  23145086.461   121628222.417       -1313.725          48.000    23145086.873    93195691.361       -1006.594          51.000  
G26  20708334.921   108823023.544       -3100.177          45.000    20708331.905    84797164.863       -2415.646          44.000  
G27  21040234.185   110567214.006        1532.814          48.000    21040230.589    86156257.904        1194.359          45.000  
R22  20252022.762   108107027.595       -2003.906          50.000    20252019.208    84083147.884       -1558.618          50.000  
R23  20261288.582   108384254.905         249.054          50.000                                                                  
R12  20876832.797   111520237.030       -4225.640          48.000    20876829.778    86738029.696       -3286.535          46.000  
R06  22505274.474   120092494.463       -3107.512          39.000                                                                  
R08  21397761.957   114584054.186        3123.703          50.000    21397755.370    89120930.036        2429.504          48.000  
E02  25319243.130   133053553.945        1255.008          43.000    25319242.356   101950162.466         961.512          46.000  
E12  26234309.147   137862437.905       -2645.341          40.000    26234306.911   105635017.640       -2026.913          45.000  
E10  24383812.719   128138037.488       -2204.809          48.000    24383811.598    98183815.659       -1689.374          49.000  
G16  20154264.814   105911398.670        -393.127          48.000                                                                  
R13  20243570.206   108099456.561       -1297.516          39.000    20243566.190    84077424.925       -1009.314          42.000  
R07  20388295.042   109140197.139         319.225          51.000    20388289.624    84886796.931         248.273          48.000  
E24  25267744.161   132782891.439       -3474.681          46.000    25267742.542   101742771.413       -2662.477          48.000  
S31  38171786.582   200594190.109        -654.118          43.000  
E36  24501835.295   128758067.644         478.691          45.000    24501836.643    98658829.377         366.726          50.000  
G18  22572476.887   118619389.138       -3232.255          45.000    22572471.862    92430843.036       -2518.629          44.000  
E04  26691831.548   140266525.494        1427.460          42.000    26691830.582   107476949.704        1093.784          45.000  
G10  19716383.679   103610371.126         832.753          52.000    19716380.358    80735361.406         648.833          48.000  
E11  22233119.835   116836060.811       -1318.833          44.000    22233116.421    89523841.797       -1010.565          49.000  
G15                                                                  24856269.622                3      -1278.321          20.000  
G08                                                                  23595411.132    96619237.1091       1865.853          33.000  
G29                                                                  24938568.892                3      -2603.100          15.000  
> 2024 04 09 08 03 00.4980000  0 25                     
S33  39130682.171   205633269.694        -653.411          44.000  
G23  20194107.594   106120925.965       -1992.633          46.000    20194103.657    82691687.449       -1552.533          48.000  
E25  23152624.259   121667831.115       -1327.329          48.000    23152623.983    93226040.883       -1017.052          51.000  
G26  20726070.112   108916221.395       -3113.708          46.000    20726067.784    84869786.531       -2426.385          45.000  
G27  21031493.972   110521283.375        1528.677          48.000    21031490.204    86120467.793        1191.104          45.000  
R22  20263292.180   108167182.214       -2006.787          50.000    20263288.674    84129934.812       -1560.785          50.000  
R23  20259900.848   108376832.802         245.447          49.000                                                                  
R12  20900596.597   111647174.480       -4237.394          47.000    20900593.383    86836758.762       -3295.679          45.000  
R06  22522798.623   120186007.742       -3126.498          37.000                                                                  
R08  21380285.902   114490469.630        3114.845          49.000    21380279.630    89048142.076        2422.562          49.000  
E02  25312105.487   133016045.856        1245.196          43.000    25312104.974   101921422.487         954.092          46.000  
E12  26249405.879   137941763.294       -2643.489          42.000    26249401.591   105695799.451       -2025.558          44.000  
E10  24396400.412   128204186.239       -2205.508          48.000    24396399.433    98234501.076       -1689.981          49.000  
G16  20156564.328   105923483.751        -412.915          48.000                                                                  
R13  20250930.011   108138759.969       -1323.114          38.000    20250926.447    84107994.208       -1028.766          42.000  
R07  20386574.604   109130988.907         294.120          51.000    20386567.528    84879634.945         228.755          47.000  
E24  25287594.228   132887206.419       -3479.975          45.000    25287593.383   101822701.059       -2666.541          48.000  
S31  38175519.595   200613807.080        -654.039          43.000  
E36  24499114.691   128743773.403         473.966          44.000    24499116.328    98647876.662         363.083          50.000  
G18  22590927.943   118716354.270       -3232.528          44.000    22590923.490    92506400.234       -2518.973          44.000  
E04  26683693.674   140223760.265        1423.257          42.000    26683692.391   107444181.543        1090.482          46.000  
G10  19711686.082   103585685.360         812.768          52.000    19711682.662    80716125.764         633.380          48.000  
E11  22240658.230   116875672.336       -1322.336          45.000    22240654.193    89554193.469       -1013.092          49.000  
G08                                                                  23581737.125    96563241.250        1867.057          33.000  
G29                                                                  24957691.925                3      -2613.204          15.000  
> 2024 04 09 08 03 30.4980000  0 25                     
S33  39134411.687   205652868.456        -653.348          44.000  
G23  20205535.302   106180975.133       -2010.943          47.000    20205530.506    82738478.993       -1566.803          48.000  
E25  23160240.260   121707852.236       -1340.885          48.000    23160239.723    93256706.411       -1027.509          51.000  
G26  20743883.534   109009831.634       -3127.216          46.000    20743880.457    84942729.556       -2436.758          44.000  
G27  21022778.819   110475486.436        1524.190          48.000    21022775.203    86084781.870        1187.776          45.000  
R22  20274579.450   108227429.616       -2009.771          51.000    20274575.269    84176793.936       -1563.208          51.000  
R23  20258535.309   108369526.093         241.632          49.000                                                                  
R12  20924425.117   111774472.130       -4249.329          47.000    20924422.987    86935767.976       -3305.035          44.000  
R06  22540436.159   120280124.914       -3147.230          37.000                                                                  
R08  21362861.933   114397159.844        3105.718          50.000    21362854.768    88975567.816        2415.570          49.000  
E02  25305026.108   132978837.852        1235.132          43.000    25305024.468   101892912.432         946.510          46.000  
E12  26264492.700   138021048.264       -2642.396          41.000    26264489.409   105756550.279       -2024.596          44.000  
E10  24408992.711   128270359.062       -2206.198          48.000    24408991.597    98285204.921       -1690.437          49.000  
G08  23568063.189                3       2397.485          27.000    23568053.310    96507212.766        1868.070          33.000  
G16  20158977.320   105936167.985        -432.837          47.000                                                                  
R13  20258433.988   108178831.360       -1348.316          38.000    20258430.473    84139160.854       -1048.822          42.000  
R07  20384996.776   109122541.081         268.848          51.000    20384990.878    84873064.440         209.064          48.000  
E24  25307475.429   132991682.616       -3485.290          45.000    25307474.915   101902754.219       -2670.378          49.000  
S31  38179252.174   200633422.036        -653.667          43.000  
E36  24496422.597   128729623.528         469.285          45.000    24496423.550    98637034.564         359.618          50.000  
G18  22609383.905   118813336.650       -3233.050          44.000    22609378.491    92581970.894       -2519.183          44.000  
E04  26675580.899   140181126.728        1418.934          42.000    26675579.249   107411514.308        1087.110          45.000  
G10  19707102.477   103561600.333         792.721          52.000    19707099.233    80697358.215         617.865          47.000  
E11  22248216.228   116915385.157       -1325.589          45.000    22248211.218    89584622.757       -1015.627          49.000  
G29                                                                  24976839.549                3      -2611.517          19.000  
> 2024 04 09 08 04 00.4980000  0 25                     
S33  39138139.627   205672459.047        -652.944          44.000  
G23  20217066.266   106241568.156       -2029.016          47.000    20217060.503    82785694.338       -1581.055          49.000  
E25  23167933.693   121748279.581       -1354.543          48.000    23167932.771    93287683.195       -1037.848          50.000  
G26  20761773.470   109103845.874       -3140.651          46.000    20761770.451    85015987.391       -2447.273          44.000  
G27  21014088.377   110429819.081        1520.091          48.000    21014085.024    86049196.925        1184.301          45.000  
R22  20285881.783   108287763.712       -2012.646          51.000    20285876.738    84223720.461       -1565.570          49.000  
R23  20257190.697   108362328.269         238.055          50.000                                                                  
R12  20948321.940   111902119.260       -4260.816          48.000    20948318.854    87035049.078       -3314.113          43.000  
R06  22558183.983   120374837.144       -3167.109          35.000                                                                  
R08  21345489.209   114304123.175        3096.516          51.000    21345481.851    88903206.004        2408.486          50.000  
E02  25298001.487   132941925.580        1225.213          43.000    25298000.170   101864629.019         938.862          46.000  
E12  26279571.820   138100286.634       -2640.633          41.000    26279568.129   105817265.376       -2023.361          45.000  
E10  24421588.406   128336549.466       -2206.680          48.000    24421587.588    98335922.247       -1690.873          49.000  
G08  23554364.409                1       2399.594          30.000    23554360.553    96451147.899        1868.613          33.000  
G16  20161504.432   105949445.698        -452.551          47.000                                                                  
R13  20266080.167   108219663.526       -1374.310          38.000    20266077.218    84170919.139       -1068.317          43.000  
R07  20383560.274   109114850.373         243.622          52.000    20383552.340    84867082.769         189.441          46.000  
E24  25327385.882   133096312.448       -3490.120          44.000    25327385.246   101982925.131       -2674.364          49.000  
S31  38182983.115   200653027.927        -653.606          43.000  
E36  24493755.735   128715611.565         464.802          45.000    24493757.136    98626298.167         356.003          50.000  
G18  22627840.751   118910329.566       -3233.368          44.000    22627836.128    92657549.737       -2519.571          44.000  
E04  26667491.756   140138621.167        1414.615          42.000    26667491.235   107378945.151        1083.838          47.000  
G10  19702633.038   103538111.560         772.817          51.000    19702629.188    80679055.272         602.232          47.000  
E11  22255790.674   116955192.524       -1328.465          45.000    22255786.070    89615124.523       -1017.923          49.000  
G29                                                                  24996006.792                3      -2622.824          17.000  
> 2024 04 09 08 04 30.4980000  0 24                     
S33  39141866.915   205692046.307        -652.645          44.000  
G23  20228699.961   106302707.257       -2046.906          47.000    20228694.912    82833335.202       -1594.934          48.000  
E25  23175704.663   121789116.844       -1367.897          48.000    23175703.732    93318974.082       -1048.038          51.000  
G26  20779740.961   109198265.543       -3153.826          47.000    20779737.832    85089561.179       -2457.623          44.000  
G27  21005424.835   110384287.197        1515.731          49.000    21005420.701    86013717.525        1181.174          45.000  
R22  20297201.112   108348188.433       -2015.509          50.000    20297197.548    84270717.473       -1567.615          50.000  
R23  20255865.155   108355243.206         234.424          50.000                                                                  
R12  20972283.075   112030115.349       -4272.167          48.000    20972281.179    87134601.555       -3322.678          43.000  
R06  22576045.086   120470145.661       -3187.329          35.000                                                                  
R08  21328166.817   114211369.368        3087.151          49.000    21328160.757    88831064.222        2401.357          49.000  
E02  25291034.240   132905314.673        1215.505          43.000    25291033.356   101836576.529         931.445          46.000  
E12  26294642.014   138179482.123       -2638.885          42.000    26294638.341   105877947.590       -2022.032          44.000  
E10  24434188.086   128402760.854       -2207.183          48.000    24434186.795    98386655.652       -1691.168          49.000  
G08  23540662.045   123707035.5621       2400.435          32.000    23540660.425                        1870.263          32.000  
G16  20164144.750   105963321.479        -472.339          48.000                                                                  
R13  20273869.455   108261258.674       -1398.743          38.000    20273866.565    84203270.960       -1088.013          43.000  
R07  20382264.940   109107922.613         218.427          51.000    20382258.702    84861694.543         169.843          47.000  
E24  25347326.310   133201098.347       -3495.276          44.000    25347325.268   102063215.603       -2678.135          49.000  
S31  38186713.384   200672631.126        -653.212          43.000  
E36  24491116.359   128701740.989         460.155          46.000    24491117.703    98615670.088         352.556          50.000  
G18  22646299.879   119007336.114       -3233.531          44.000    22646294.946    92733139.289       -2519.540          43.000  
E04  26659428.870   140096249.699        1410.297          44.000    26659428.464   107346478.737        1080.795          47.000  
G10  19698277.557   103515224.269         753.108          51.000    19698273.680    80661221.035         586.841          47.000  
E11  22263384.257   116995097.750       -1331.531          45.000    22263379.851    89645701.259       -1020.188          49.000  
> 2024 04 09 08 05 00.4980000  0 24                     
S33  39145594.122   205711632.801        -652.755          44.000  
G23  20240438.146   106364393.752       -2065.344          46.000    20240433.278    82881402.599       -1609.332          48.000  
E25  23183553.519   121830366.823       -1381.822          48.000    23183553.579    93350581.199       -1058.795          51.000  
G26  20797785.590   109293091.265       -3167.574          47.000    20797783.500    85163451.310       -2468.090          44.000  
G27  20996787.193   110338895.684        1510.474          49.000    20996783.243    85978347.518        1177.317          46.000  
R22  20308539.079   108408706.996       -2018.884          51.000    20308533.396    84317787.459       -1570.178          49.000  
R23  20254561.550   108348273.465         230.487          49.000                                                                  
R12  20996308.334   112158459.101       -4283.750          46.000    20996305.553    87234424.467       -3331.689          42.000  
R06  22594017.811   120566050.420       -3206.574          33.000                                                                  
R08  21310899.318   114118905.838        3077.231          49.000    21310892.477    88759148.153        2393.532          48.000  
E02  25284125.138   132869009.855        1205.144          43.000    25284124.843   101808758.579         923.287          46.000  
E12  26309704.781   138258637.568       -2637.916          41.000    26309700.645   105938599.143       -2021.182          43.000  
E10  24446792.739   128468995.745       -2208.064          48.000    24446790.879    98437407.052       -1691.992          49.000  
G08  23526957.733   123635007.119        2401.786          35.000    23526954.454    96338924.750        1871.507          33.000  
G16  20166900.061   105977798.982        -492.340          48.000                                                                  
R13  20281802.421   108303618.866       -1424.945          38.000    20281799.090    84236217.716       -1108.020          41.000  
R07  20381114.046   109101762.675         192.450          51.000    20381107.923    84856903.501         149.707          47.000  
E24  25367297.405   133306041.745       -3500.694          45.000    25367295.732   102143626.767       -2682.296          49.000  
S31  38190443.656   200692233.264        -653.524          43.000  
E36  24488505.014   128688014.374         455.238          47.000    24488505.687    98605152.298         348.802          51.000  
G18  22664762.563   119104358.598       -3234.357          45.000    22664758.364    92808741.214       -2520.158          43.000  
E04  26651393.023   140054017.570        1405.329          44.000    26651391.527   107314119.087        1076.887          47.000  
G10  19694037.721   103492942.934         732.553          51.000    19694033.273    80643858.965         570.923          47.000  
E11  22270996.478   117035103.039       -1335.312          44.000    22270992.945    89676354.665       -1023.105          49.000  
> 2024 04 09 08 05 30.4980000  0 24                     
S33  39149320.480   205731214.507        -652.942          44.000  
G23  20252279.562   106426621.472       -2083.685          46.000    20252275.187    82929891.720       -1623.492          48.000  
E25  23191480.863   121872024.904       -1395.713          48.000    23191481.029    93382501.022       -1069.532          51.000  
G26  20815906.978   109388316.130       -3181.144          47.000    20815903.030    85237652.493       -2478.694          43.000  
G27  20988175.573   110293642.112        1505.698          49.000    20988171.861    85943085.008        1173.427          46.000  
R22  20319892.537   108469314.975       -2022.174          48.000    20319887.973    84364926.991       -1572.803          49.000  
R23  20253280.137   108341414.317         226.434          50.000                                                                  
R12  21020398.081   112287141.657       -4295.387          46.000    21020396.066    87334510.888       -3340.674          43.000  
R06  22612101.308                       -3226.839          29.000                                                                  
R08  21293686.756   114026733.270        3067.143          49.000    21293679.238    88687458.396        2385.504          47.000  
E02  25277274.490   132833008.421        1194.899          43.000    25277273.997   101781173.063         915.455          47.000  
E12  26324759.030   138337748.456       -2636.741          40.000    26324754.788   105999216.566       -2020.368          42.000  
E10  24459399.852   128535249.225       -2209.067          48.000    24459398.760    98488172.708       -1692.698          49.000  
G08  23513246.437   123562938.590        2402.531          35.000    23513240.815    96282767.462        1872.207          32.000  
G16  20169769.065   105992874.310        -512.817          48.000                                                                  
R13  20289877.461   108346737.696       -1450.049          38.000    20289873.185    84269754.610       -1127.923          41.000  
R07  20380106.339   109096368.937         166.669          51.000    20380100.566    84852708.354         129.602          47.000  
E24  25387296.358   133411136.712       -3506.016          45.000    25387294.507   102224154.076       -2686.418          49.000  
S31  38194172.920   200711830.486        -653.643          43.000  
E36  24485919.422   128674426.898         450.160          46.000    24485920.325    98594741.128         344.942          51.000  
G18  22683228.297   119201391.883       -3235.039          46.000    22683223.369    92884351.554       -2520.568          42.000  
E04  26643383.047   140011922.543        1400.456          44.000    26643380.966   107281864.493        1073.215          46.000  
G10  19689912.789   103471264.532         712.040          52.000    19689908.285    80626966.717         554.990          47.000  
E11  22278627.310   117075203.325       -1338.664          44.000    22278623.809    89707080.838       -1025.709          49.000  
> 2024 04 09 08 06 00.4980000  0 24                     
S33  39153047.478   205750798.887        -652.922          44.000  
G23  20264225.651   106489396.642       -2101.636          46.000    20264220.827    82978807.433       -1637.567          48.000  
E25  23199487.650   121914098.839       -1409.367          48.000    23199487.511    93414739.488       -1079.878          52.000  
G26  20834104.632   109483945.690       -3194.304          47.000    20834101.113    85312169.022       -2488.959          43.000  
G27  20979591.864   110248536.477        1501.049          48.000    20979588.633    85907937.775        1169.561          46.000  
R22  20331264.037   108530020.516       -2025.116          50.000    20331260.280    84412142.401       -1575.085          50.000  
R23  20252020.051   108334673.950         222.620          50.000                                                                  
R12  21044551.740   112416166.537       -4306.511          44.000    21044551.101    87434863.514       -3349.595          44.000  
R06  22630295.395   120759592.6061      -3245.881          32.000                                                                  
R08  21276531.334   113934864.669        3057.160          50.000    21276523.788    88616005.097        2377.819          48.000  
E02  25270483.646   132797320.072        1184.395          43.000    25270482.991   101753827.448         907.599          47.000  
E12  26339805.789   138416822.669       -2635.089          40.000    26339802.257   106059805.894       -2019.176          42.000  
E10  24472012.753   128601528.839       -2209.652          48.000    24472011.124    98538958.388       -1693.160          49.000  
G08  23499526.099   123490839.296        2403.709          36.000    23499520.301    96226586.186        1873.103          33.000  
G16  20172753.086   106008556.133        -532.812          48.000                                                                  
R13  20298096.676   108390621.952       -1475.330          40.000    20298091.594    84303886.792       -1147.790          42.000  
R07  20379244.713   109091751.131         141.003          51.000    20379239.294    84849116.750         109.662          48.000  
E24  25407324.955   133516389.747       -3511.009          45.000    25407323.294   102304802.512       -2690.219          49.000  
S31  38197902.500   200731431.269        -653.513          43.000  
E36  24483361.538   128660986.110         445.597          45.000    24483362.685    98584442.357         341.470          51.000  
G18  22701695.787   119298443.275       -3235.254          44.000    22701690.966    92959976.037       -2521.097          42.000  
E04  26635400.364   139969974.908        1395.674          43.000    26635398.443   107249722.831        1069.550          46.000  
G10  19685903.724   103450198.442         691.996          51.000    19685899.656    80610551.592         539.244          48.000  
E11  22286277.728   117115405.923       -1341.591          44.000    22286274.235    89737885.420       -1027.960          49.000  
> 2024 04 09 08 06 30.4980000  0 24                     
S33  39156774.108   205770383.592        -653.083          44.000  
G23  20276275.112   106552713.655       -2119.769          47.000    20276270.029    83028145.367       -1651.807          48.000  
E25  23207572.328   121956584.546       -1423.170          48.000    23207572.583    93447293.478       -1090.423          52.000  
G26  20852378.605   109579973.656       -3207.639          47.000    20852375.014    85386996.001       -2499.431          43.000  
G27  20971035.893   110203576.899        1495.956          48.000    20971033.325    85872904.342        1165.887          46.000  
R22  20342653.866   108590819.879       -2028.338          47.000    20342649.437    84459430.816       -1577.655          49.000  
R23  20250781.287   108328048.141         218.781          50.000                                                                  
R12  21068768.160   112545525.598       -4317.675          44.000    21068766.202    87535476.084       -3358.137          41.000  
R06  22648599.539   120857268.491       -3265.880          35.000                                                                  
R08  21259432.939   113843300.541        3046.928          50.000    21259425.326    88544788.584        2369.832          48.000  
E02  25263751.585   132761942.625        1173.927          44.000    25263751.185   101726720.057         899.467          47.000  
E12  26354845.716   138495856.216       -2633.931          40.000    26354842.371   106120364.019       -2018.346          43.000  
E10  24484629.754   128667830.315       -2210.501          48.000    24484628.240    98589760.807       -1693.783          50.000  
G08  23485798.374   123418706.833        2404.296          34.000    23485794.743    96170379.037        1874.792          34.000  
G16  20175851.536   106024840.760        -553.027          47.000                                                                  
R13  20306456.979   108435266.017       -1500.836          39.000    20306452.673    84338609.935       -1167.328          42.000  
R07  20378527.403   109087907.784         115.063          52.000    20378521.515    84846127.516          89.423          48.000  
E24  25427382.511   133621795.550       -3516.003          44.000    25427381.500   102385567.976       -2694.235          49.000  
S31  38201632.382   200751031.749        -653.303          43.000  
E36  24480830.515   128647687.744         440.834          45.000    24480832.182    98574252.717         337.735          51.000  
G18  22720167.693   119395508.279       -3235.991          45.000    22720161.666    93035611.125       -2521.507          42.000  
E04  26627445.597   139928173.041        1390.751          43.000    26627444.181   107217692.859        1065.648          46.000  
G10  19682010.484   103429742.112         671.491          51.000    19682007.078    80594611.621         523.195          48.000  
E11  22293945.532   117155706.300       -1345.037          43.000    22293943.100    89768764.927       -1030.746          49.000  
> 2024 04 09 08 07 00.4980000  0 25                     
S33  39160500.336   205789966.212        -653.171          44.000  
G23  20288426.824   106616569.052       -2137.762          48.000    20288421.445    83077902.816       -1665.674          48.000  
E25  23215734.851   121999480.139       -1436.963          48.000    23215735.451    93480161.530       -1101.023          52.000  
G26  20870726.449   109676395.877       -3220.766          47.000    20870724.062    85462130.198       -2509.673          43.000  
G27  20962508.136   110158763.724        1491.106          48.000    20962505.458    85837985.006        1161.909          46.000  
R22  20354061.908   108651711.399       -2031.409          50.000    20354056.407    84506790.901       -1579.962          49.000  
R23  20249563.363   108321534.975         215.057          49.000                                                                  
R12  21093046.991   112675212.756       -4328.460          46.000    21093043.137    87636343.820       -3366.841          42.000  
R06  22667013.242   120955527.219       -3284.963          33.000                                                                  
R08  21242391.217   113752044.613        3036.448          50.000    21242383.926    88473811.783        2361.794          48.000  
E02  25257077.643   132726876.182        1163.551          43.000    25257078.231   101699850.957         891.512          47.000  
E12  26369876.071   138574847.213       -2632.665          39.000    26369873.011   106180889.565       -2017.140          42.000  
E10  24497249.579   128734151.519       -2211.281          47.000    24497248.954    98640578.346       -1694.304          50.000  
G16  20179065.488   106041727.460        -573.102          48.000                                                                  
R13  20314958.903   108480666.852       -1525.958          39.000    20314954.492    84373921.668       -1187.024          42.000  
R07  20377954.205   109084838.926          89.154          51.000    20377947.086    84843740.641          69.202          47.000  
R14  22962846.519   122404905.4861       2163.855          34.000                                                                  
E24  25447469.136   133727350.856       -3520.866          44.000    25447467.964   102466448.006       -2697.941          49.000  
S31  38205362.206   200770630.006        -653.480          43.000  
E36  24478326.196   128634529.736         436.031          45.000    24478328.099    98564170.625         334.142          51.000  
G18  22738641.176   119492584.555       -3236.383          44.000    22738635.761    93111254.935       -2521.656          43.000  
E04  26619518.379   139886517.487        1385.791          42.000    26619517.086   107185774.994        1061.916          45.000  
G10  19678233.733   103409895.266         651.135          51.000    19678229.500    80579146.577         507.411          47.000  
E11  22301632.925   117196102.192       -1348.445          43.000    22301629.981    89799717.610       -1033.261          49.000  
G08                                                                  23472062.427    96114145.953        1874.465          35.000  
> 2024 04 09 08 07 30.4980000  0 25                     
S33  39164226.429   205809546.746        -652.585          44.000  
G23  20300680.101   106680960.507       -2155.237          49.000    20300674.102    83128078.008       -1679.468          47.000  
E25  23223975.510   122042784.835       -1450.207          47.000    23223975.917    93513343.043       -1111.250          52.000  
G26  20889149.193   109773209.371       -3233.750          47.000    20889147.045    85537569.298       -2519.800          44.000  
G27  20954008.302   110114098.485        1486.198          47.000    20954006.077    85803180.942        1158.065          46.000  
R22  20365485.524   108712694.802       -2034.296          49.000    20365480.644    84554222.404       -1582.196          49.000  
R23  20248366.562   108315133.193         211.536          50.000                                                                  
R12  21117386.054   112805222.822       -4339.109          45.000    21117380.820    87737462.742       -3374.859          42.000  
R06  22685536.098   121054365.631       -3304.172          32.000                                                                  
R08  21225407.740   113661101.349        3026.129          50.000    21225399.861    88403078.167        2353.714          47.000  
E02  25250463.688   132692121.907        1153.261          43.000    25250464.594   101673221.041         883.725          48.000  
E12  26384899.528   138653795.183       -2630.569          39.000    26384896.351   106241382.196       -2015.845          41.000  
E10  24509873.488   128800491.539       -2211.710          47.000    24509873.136    98691410.291       -1694.570          50.000  
G16  20182393.821   106059216.724        -593.085          48.000                                                                  
R13  20323601.693   108526822.171       -1550.934          38.000    20323597.646    84409820.202       -1206.506          42.000  
R07  20377525.355   109082546.300          63.373          51.000    20377520.401    84841957.506          49.353          48.000  
R14  22950722.203   122340263.550        2145.772          35.000    22950658.696                3       1668.434          26.000  
E24  25467583.707   133833053.738       -3526.007          44.000    25467582.472   102547441.093       -2701.625          49.000  
S31  38209091.202   200790226.888        -653.487          43.000  
E36  24475848.756   128621511.193         431.618          45.000    24475850.696    98554195.380         330.731          51.000  
G18  22757116.450   119589670.901       -3236.718          44.000    22757108.900    93186906.634       -2521.897          41.000  
E04  26611619.756   139845010.060        1380.996          42.000    26611617.927   107153970.592        1058.216          45.000  
G10  19674573.478   103390658.706         630.988          51.000    19674569.140    80564157.038         491.763          47.000  
E11  22309337.751   117236592.371       -1351.129          43.000    22309334.836    89830742.545       -1035.303          49.000  
G08                                                                  23458324.712    96057887.482        1876.003          35.000  
> 2024 04 09 08 08 00.4980000  0 26                     
S33  39167950.297   205829113.520        -652.004          44.000  
G23  20313032.465   106745874.790       -2172.510          49.000    20313026.444    83178660.558       -1692.993          47.000  
E25  23232291.956   122086486.914       -1463.435          48.000    23232291.773    93546829.039       -1121.229          51.000  
G26  20907644.165   109870400.196       -3246.039          47.000    20907642.569    85613302.383       -2529.207          44.000  
G27  20945535.267   110069571.686        1481.836          47.000    20945532.532    85768484.740        1154.615          46.000  
R22  20376925.213   108773758.478       -2036.896          51.000    20376919.989    84601716.405       -1584.161          49.000  
R23  20247188.319   108308831.580         208.405          50.000                                                                  
R12  21141782.102   112935540.102       -4349.044          46.000    21141776.300    87838820.612       -3382.711          41.000  
R06  22704161.806   121153769.109       -3323.637          34.000                                                                  
R08  21208482.159   113570463.283        3016.114          50.000    21208473.422    88332581.951        2345.859          46.000  
E02  25243908.010   132657669.994        1143.278          43.000    25243908.355   101646822.813         876.064          47.000  
E12  26399914.343   138732688.565       -2628.903          40.000    26399910.018   106301832.946       -2014.398          42.000  
E10  24522499.018   128866838.443       -2211.676          47.000    24522498.752    98742247.512       -1694.657          50.000  
G16  20185834.029   106077297.286        -612.567          48.000                                                                  
R13  20332383.318   108573718.621       -1575.452          38.000    20332380.000    84446295.181       -1225.513          42.000  
R07  20377241.467   109081020.031          38.092          52.000    20377233.346    84840770.429          29.523          46.000  
R14  22938696.616   122276144.459        2128.595          39.000    22938682.867    95103410.4621       1655.178          33.000  
E24  25487724.280   133938891.100       -3530.182          45.000    25487722.951   102628537.254       -2704.960          50.000  
S31  38212817.686   200809809.676        -652.517          43.000  
E36  24473395.497   128608620.204         427.681          44.000    24473397.376    98544317.874         327.636          51.000  
G18  22775591.748   119686755.213       -3236.140          44.000    22775585.500    93262556.669       -2521.307          43.000  
E04  26603746.416   139803641.447        1376.386          41.000    26603745.595   107122272.589        1054.725          45.000  
G10  19671026.330   103372022.160         611.124          50.000    19671023.054    80549635.070         476.188          47.000  
E11  22317059.146   117277164.757       -1353.791          44.000    22317055.618    89861830.470       -1037.301          49.000  
G08                                                                  23444579.669    96001595.882        1876.842          38.000  
R21                                                                  23787567.001                3      -2338.196          14.000  
> 2024 04 09 08 08 30.4980000  0 25                     
S33  39171671.295   205848667.433        -652.007          44.000  
G23  20325484.153   106811310.682       -2190.247          48.000    20325478.719    83229649.557       -1706.604          47.000  
E25  23240683.949   122130586.700       -1476.950          48.000    23240683.451    93580619.799       -1131.719          51.000  
G26  20926210.627   109967966.473       -3258.810          48.000    20926208.517    85689328.070       -2539.231          44.000  
G27  20937088.551   110025186.035        1476.726          47.000    20937086.090    85733898.526        1150.745          46.000  
R22  20388377.891   108834903.371       -2039.817          49.000    20388373.672    84649273.512       -1586.574          48.000  
R23  20246029.497   108302630.227         204.773          50.000                                                                  
R12  21166233.708   113066160.466       -4359.332          45.000    21166228.709    87940414.162       -3390.541          42.000  
R06  22722895.943   121253735.221       -3342.242          36.000                                                                  
R08  21191614.318   113480136.976        3005.369          49.000    21191605.097    88262328.182        2337.598          45.000  
E02  25237411.117   132623522.764        1132.963          44.000    25237410.067   101620658.057         867.951          47.000  
E12  26414916.282   138811527.829       -2627.190          40.000    26414912.273   106362242.229       -2013.379          42.000  
E10  24535125.350   128933192.460       -2212.273          47.000    24535124.881    98793090.199       -1695.093          50.000  
G16  20189387.482   106095970.229        -632.678          48.000                                                                  
R13  20341304.532   108621355.007       -1600.726          39.000    20341301.246    84483345.704       -1244.946          43.000  
R07  20377098.152   109080262.866          12.042          51.000    20377093.305    84840181.580           9.326          47.000  
R14  22926766.039   122212551.905        2110.467          40.000    22926759.241    95053949.728        1641.221          34.000  
E24  25507889.706   134044862.139       -3534.988          44.000    25507888.724   102709735.846       -2708.711          50.000  
S31  38216541.791   200829379.946        -652.538          43.000  
E36  24470966.489   128595856.974         423.019          45.000    24470968.500    98534538.264         324.101          51.000  
G18  22794065.026   119783837.473       -3236.365          43.000    22794058.172    93338205.210       -2521.938          40.000  
E04  26595900.963   139762414.522        1371.443          41.000    26595900.822   107090683.165        1050.969          46.000  
G10  19667594.777   103353987.596         590.771          50.000    19667591.451    80535582.149         460.313          48.000  
E11  22324796.396   117317819.362       -1356.926          45.000    22324792.021    89892981.410       -1039.684          49.000  
G08                                                                  23430825.750    95945272.757        1877.590          38.000  
> 2024 04 09 08 09 00.4980000  0 25                     
S33  39175391.425   205868217.651        -651.729          44.000  
G23  20338036.427   106877274.243       -2207.721          48.000    20338031.691    83281049.732       -1720.282          48.000  
E25  23249153.124   122175091.826       -1490.469          48.000    23249152.471    93614721.138       -1142.090          51.000  
G26  20944849.551   110065913.587       -3271.395          48.000    20944847.441    85765650.486       -2549.062          45.000  
G27  20928671.188   109980951.441        1471.923          47.000    20928668.607    85699430.020        1146.760          46.000  
R22  20399851.746   108896137.501       -2042.836          52.000    20399846.016    84696900.070       -1588.948          48.000  
R23  20244891.013   108296537.153         201.227          50.000                                                                  
R12  21190741.334   113197087.685       -4369.567          42.000    21190738.950    88042246.413       -3398.365          44.000  
R06  22741735.086   121354269.113       -3360.475          36.000                                                                  
R08  21174805.736   113390134.851        2994.426          48.000    21174797.315    88192326.506        2328.953          45.000  
E02  25230973.453   132589689.826        1122.262          45.000    25230971.683   101594734.124         859.885          47.000  
E12  26429909.581   138890320.872       -2625.839          39.000    26429905.941   106422616.096       -2011.980          41.000  
E10  24547754.975   128999561.090       -2212.769          48.000    24547754.181    98843944.091       -1695.528          49.000  
G08  23417069.621                3       2410.447          28.000    23417064.659    95888925.367        1877.979          37.000  
G16  20193055.469   106115243.697        -652.576          48.000                                                                  
R13  20350365.068   108669737.907       -1625.379          38.000    20350362.506    84520976.820       -1264.142          43.000  
R07  20377103.195   109080284.643         -13.916          51.000    20377096.279    84840198.540         -10.858          46.000  
R14  22914936.719   122149497.645        2092.595          35.000    22914930.803    95004907.558        1627.581          35.000  
E24  25528081.732   134150973.260       -3539.489          44.000    25528080.958   102791041.767       -2712.162          50.000  
S31  38220265.005   200848945.881        -652.417          44.000  
E36  24468563.768   128583229.008         418.482          45.000    24468565.228    98524862.314         320.676          51.000  
G18  22812539.491   119880925.047       -3236.578          42.000    22812535.404    93413857.827       -2522.107          43.000  
E04  26588086.003   139721339.497        1366.518          42.000    26588085.175   107059210.126        1047.102          47.000  
G10  19664278.861   103336564.060         570.479          51.000    19664275.825    80522005.383         444.401          47.000  
E11  22332549.480   117358563.362       -1359.776          44.000    22332545.484    89924200.839       -1041.955          49.000  
> 2024 04 09 08 09 30.4980000  0 25                     
S33  39179111.000   205887764.870        -651.485          44.000  
G23  20350688.868   106943765.282       -2225.293          48.000    20350684.800    83332860.938       -1733.759          48.000  
E25  23257699.925   122220003.668       -1503.753          48.000    23257698.976    93649134.114       -1152.260          51.000  
G26  20963560.515   110164240.731       -3283.937          48.000    20963558.811    85842269.053       -2558.920          45.000  
G27  20920283.164   109936871.673        1466.711          47.000    20920280.464    85665082.140        1142.902          46.000  
R22  20411338.539   108957462.904       -2045.783          48.000    20411333.139    84744597.602       -1591.201          49.000  
R23  20243771.826   108290554.123         197.632          51.000                                                                  
R12  21215308.261   113328319.125       -4379.163          43.000    21215306.132    88144315.235       -3406.164          44.000  
R06  22760681.657   121455369.369       -3379.778          35.000                                                                  
R08  21158059.804   113300463.822        2983.477          49.000    21158053.266    88122582.389        2320.556          48.000  
E02  25224595.734   132556174.511        1111.814          45.000    25224593.948   101569053.567         852.035          47.000  
E12  26444893.988   138969069.261       -2624.164          39.000    26444891.164   106482955.788       -2010.921          41.000  
E10  24560387.997   129065945.615       -2213.074          48.000    24560386.258    98894810.166       -1695.725          49.000  
G08  23403298.710                1       2412.210          30.000    23403297.718    95832556.208        1879.033          36.000  
G16  20196837.747   106135119.771        -672.559          48.000                                                                  
R13  20359565.442   108718867.175       -1650.061          38.000    20359562.507    84559188.469       -1283.453          43.000  
R07  20377252.050   109081088.626         -39.795          50.000    20377245.805    84840823.865         -30.969          46.000  
R14  22903206.774   122086986.431        2075.103          35.000    22903208.792    94956287.830        1614.092          36.000  
E24  25548300.876   134257224.603       -3544.079          44.000    25548300.123   102872455.131       -2715.589          50.000  
S31  38223987.843   200868509.626        -651.976          43.000  
E36  24466187.068   128570737.569         414.139          46.000    24466188.217    98515290.960         317.342          51.000  
G18  22831014.982   119978018.883       -3236.493          39.000    22831010.193    93489515.362       -2521.905          40.000  
E04  26580298.783   139680420.245        1361.476          42.000    26580298.629   107027856.467        1043.080          48.000  
G10  19661080.941   103319754.511         550.059          51.000    19661076.958    80508907.028         428.630          48.000  
E11  22340319.551   117399397.781       -1362.526          44.000    22340315.902    89955489.557       -1043.989          49.000  
> 2024 04 09 08 10 00.4980000  0 25                     
S33  39182830.109   205907308.589        -651.318          44.000  
G23  20363442.234   107010780.637       -2242.651          48.000    20363436.564    83385080.685       -1747.638          47.000  
E25  23266322.528   122265320.583       -1517.411          47.000    23266322.750    93683857.459       -1162.696          51.000  
G26  20982343.023   110262944.084       -3296.471          48.000    20982340.984    85919180.731       -2568.646          45.000  
G27  20911925.024   109892947.447        1461.295          47.000    20911921.973    85630855.464        1138.888          46.000  
R22  20422844.594   109018878.324       -2048.771          51.000    20422838.699    84792365.110       -1593.533          49.000  
R23  20242673.476   108284679.179         193.970          50.000                                                                  
R12  21239932.319   113459849.019       -4389.254          44.000    21239928.422    88246616.246       -3414.029          44.000  
R06  22779734.855   121557031.915       -3398.627          34.000                                                                  
R08  21141375.970   113211127.204        2972.122          48.000    21141370.640    88053098.424        2311.706          48.000  
E02  25218278.257   132522977.214        1101.237          44.000    25218276.927   101543616.692         843.804          48.000  
E12  26459870.673   139047771.732       -2622.780          38.000    26459867.701   106543260.274       -2009.672          41.000  
E10  24573022.395   129132344.319       -2213.498          47.000    24573021.689    98945687.105       -1696.127          49.000  
G08  23389528.526                        2412.377          31.000    23389525.301    95776165.408        1880.242          35.000  
G16  20200734.094   106155597.973        -692.694          47.000                                                                  
R13  20368905.157   108768739.411       -1674.829          38.000    20368901.773    84597978.020       -1302.820          42.000  
R07  20377548.937   109082675.488         -66.101          50.000    20377542.901    84842058.123         -51.386          46.000  
R14  22891581.315   122025020.850        2056.429          33.000    22891585.483    94908092.375        1598.987          34.000  
E24  25568545.466   134363613.337       -3548.555          43.000    25568545.331   102953973.782       -2719.024          50.000  
S31  38227709.845   200888069.539        -651.910          43.000  
E36  24463836.096   128558380.918         409.722          46.000    24463836.933    98505822.896         313.913          51.000  
G18  22849492.440   120075117.204       -3236.793          41.000    22849488.258    93565176.379       -2522.306          42.000  
E04  26572542.297   139639657.690        1356.312          42.000    26572541.923   106996622.856        1039.024          48.000  
G10  19657999.457   103303558.765         529.481          51.000    19657995.375    80496286.969         412.650          48.000  
E11  22348106.136   117440320.816       -1365.620          43.000    22348103.166    89986846.175       -1046.380          49.000  
> 2024 04 09 08 10 30.4980000  0 25                     
S33  39186549.640   205926854.612        -651.772          44.000  
G23  20376295.397   107078324.109       -2260.425          48.000    20376289.572    83437711.946       -1761.353          47.000  
E25  23275024.035   122311047.961       -1531.344          48.000    23275024.386    93718895.310       -1173.288          52.000  
G26  21001197.515   110362026.803       -3309.272          47.000    21001195.127    85996388.036       -2578.575          44.000  
G27  20903597.473   109849186.522        1455.781          47.000    20903594.653    85596756.077        1134.247          46.000  
R22  20434367.534   109080389.816       -2052.185          51.000    20434361.036    84840207.371       -1596.129          47.000  
R23  20241596.120   108278918.482         189.929          50.000                                                                  
R12  21264610.441   113591678.553       -4399.313          42.000    21264607.842    88349150.317       -3421.812          46.000  
R06  22798893.380                       -3417.596          31.000                                                                  
R08  21124759.449   113122135.931        2960.450          50.000    21124751.673    87983883.036        2302.505          47.000  
E02  25212023.239   132490105.285        1090.109          45.000    25212021.700   101518429.126         835.287          48.000  
E12  26474838.054   139126433.831       -2621.660          37.000    26474837.240   106603533.840       -2008.753          41.000  
E10  24585662.435   129198762.542       -2214.349          47.000    24585661.217    98996578.997       -1696.794          49.000  
G08  23375751.520                        2413.019          30.000    23375749.404    95719758.588        1880.048          36.000  
G16  20204746.088   106176684.253        -713.177          47.000                                                                  
R13  20378385.226   108819358.632       -1699.762          39.000    20378380.758    84637348.506       -1322.156          42.000  
R07  20377994.085   109085052.624         -92.480          51.000    20377988.198    84843907.022         -72.009          48.000  
R14  22880063.559   121963610.138        2037.400          35.000    22880061.830                        1584.742          29.000  
E24  25588817.994   134470143.652       -3553.523          44.000    25588817.387   103035600.897       -2722.747          50.000  
S31  38231432.689   200907631.889        -652.254          43.000  
E36  24461511.755   128546164.365         404.734          46.000    24461512.266    98496462.176         310.136          51.000  
G18  22867970.943   120172224.991       -3237.405          38.000    22867967.177    93640844.737       -2522.325          41.000  
E04  26564816.396   139599059.793        1350.343          42.000    26564815.910   106965515.389        1034.710          47.000  
G10  19655035.010   103287983.651         508.722          51.000    19655031.471    80484150.519         396.437          48.000  
E11  22355911.709   117481337.499       -1369.066          44.000    22355908.223    90018274.535       -1049.057          48.000  
> 2024 04 09 08 11 00.4980000  0 25                     
S33  39190271.183   205946412.518        -652.269          44.000  
G23  20389250.157   107146403.720       -2278.463          48.000    20389244.879    83490760.996       -1775.501          47.000  
E25  23283806.547   122357195.428       -1545.536          48.000    23283805.895    93754255.055       -1184.327          52.000  
G26  21020126.189   110461496.316       -3322.416          47.000    21020123.367    86073896.732       -2588.881          44.000  
G27  20895303.608   109805600.999        1449.449          48.000    20895300.900    85562793.328        1129.473          47.000  
R22  20445909.875   109142007.706       -2055.938          49.000    20445904.543    84888132.425       -1599.149          48.000  
R23  20240543.399   108273281.814         185.431          51.000                                                                  
R12  21289346.869   113723813.731       -4409.751          43.000    21289344.182    88451922.062       -3429.804          47.000  
R06  22818157.982                       -3435.986          28.000                                                                  
R08  21108208.532   113033505.422        2948.024          49.000    21108201.852    87914948.228        2292.884          48.000  
E02  25205831.960   132457570.385        1078.430          44.000    25205830.693   101493499.783         826.462          48.000  
E12  26489801.763   139205065.481       -2620.679          37.000    26489800.962   106663784.055       -2008.080          42.000  
E10  24598306.955   129265209.895       -2215.771          47.000    24598305.330    99047493.183       -1697.747          49.000  
G08  23361972.343   122768040.3711       2413.135          32.000    23361972.050    95663344.645        1880.365          36.000  
G16  20208876.459   106198389.069        -734.094          47.000                                                                  
R13  20388006.258   108870732.994       -1725.559          39.000    20388001.364    84677306.307       -1342.030          41.000  
R07  20378586.974   109088232.104        -119.690          51.000    20378581.886    84846379.942         -93.103          48.000  
R14  22868650.838   121902767.619        2018.277          37.000    22868638.740                1       1569.879          27.000  
E24  25609118.522   134576823.945       -3558.807          45.000    25609118.019   103117342.961       -2726.937          50.000  
S31  38235157.432   200927206.730        -653.009          44.000  
E36  24459215.158   128534097.463         399.425          46.000    24459216.320    98487216.129         306.012          52.000  
G18  22886455.076   120269351.757       -3238.205          41.000    22886449.995    93716527.929       -2523.170          42.000  
E04  26557124.258   139558638.759        1344.102          41.000    26557123.687   106934543.453        1029.842          47.000  
G10  19652191.422   103273040.318         487.216          51.000    19652187.690    80472506.377         379.597          48.000  
E11  22363737.255   117522457.184       -1372.678          44.000    22363732.764    90049781.806       -1051.779          48.000  
> 2024 04 09 08 11 30.4980000  0 26                     
S33  39193996.018   205965985.608        -652.608          44.000  
G23  20402307.527   107215019.396       -2296.198          49.000    20402301.967    83544227.774       -1789.249          47.000  
E25  23292668.195   122403764.414       -1559.502          48.000    23292667.715    93789937.771       -1194.846          52.000  
G26  21039127.960   110561351.872       -3334.932          47.000    21039123.630    86151706.256       -2598.779          42.000  
G27  20887043.556   109762194.722        1443.649          48.000    20887040.652    85528970.252        1124.948          46.000  
R22  20457474.457   109203734.063       -2059.477          50.000    20457468.526    84936141.784       -1601.776          50.000  
R23  20239513.790   108267771.082         181.476          51.000                                                                  
R12  21314140.538   113856251.882       -4419.791          46.000    21314136.804    88554929.444       -3437.485          47.000  
R06  22837530.415                       -3455.165          27.000                                                                  
R08  21091726.831   112945242.002        2935.919          51.000    21091718.737    87846298.917        2283.515          47.000  
E02  25199704.902   132425375.899        1067.272          44.000    25199704.675   101468831.289         817.809          48.000  
E12  26504759.964   139283668.466       -2619.607          37.000    26504758.407   106724012.284       -2007.093          41.000  
E10  24610956.883   129331687.751       -2216.473          46.000    24610955.862    99098430.747       -1698.379          49.000  
G08  23348196.008   122695636.761        2412.811          34.000    23348194.102    95606926.243        1880.194          37.000  
G16  20213125.039   106220714.266        -754.675          47.000                                                                  
R13  20397768.393   108922862.540       -1750.269          39.000    20397763.864    84717851.483       -1361.686          41.000  
R07  20379331.899   109092217.326        -146.381          51.000    20379325.718    84849479.575        -113.837          48.000  
R14  22857345.087   121842498.389        1999.002          37.000    22857329.254                3       1555.544          27.000  
E24  25629446.512   134683654.533       -3563.610          44.000    25629447.304   103199200.163       -2730.587          50.000  
S31  38238885.399   200946795.539        -653.458          44.000  
E36  24456947.471   128522181.573         394.632          46.000    24456948.771    98478085.782         302.429          52.000  
G18  22904941.973   120366498.643       -3238.656          40.000    22904936.653    93792226.752       -2523.844          41.000  
E04  26549469.034   139518398.657        1338.144          43.000    26549466.439   106903710.107        1025.450          47.000  
G10  19649468.151   103258731.569         466.299          51.000    19649464.799    80461356.735         363.265          48.000  
E11  22371582.401   117563681.008       -1375.941          45.000    22371577.465    90081368.867       -1054.090          48.000  
G32                                                                  24432734.471                1       1815.060          26.000  
> 2024 04 09 08 12 00.4980000  0 26                     
S33  39197721.493   205985563.384        -652.689          44.000  
G23  20415464.896   107284160.202       -2313.386          49.000    20415458.908    83598103.732       -1802.549          48.000  
E25  23301607.933   122450745.567       -1572.876          47.000    23301608.332    93825936.329       -1205.098          52.000  
G26  21058201.228   110661581.923       -3347.167          48.000    21058197.433    86229807.574       -2608.186          43.000  
G27  20878815.952   109718960.809        1438.188          47.000    20878813.425    85495281.497        1120.703          46.000  
R22  20469056.130   109265560.006       -2062.472          50.000    20469051.618    84984228.606       -1604.056          50.000  
R23  20238504.861   108262377.141         177.905          50.000                                                                  
R12  21338987.121   113988979.225       -4428.937          46.000    21338983.539    88658161.799       -3444.802          48.000  
R06  22857007.389                       -3473.574          27.000                                                                  
R08  21075311.655   112857341.788        2924.057          50.000    21075303.550    87777932.105        2274.123          47.000  
E02  25193641.550   132393514.543        1056.654          43.000    25193641.753   101444418.047         809.654          49.000  
E12  26519711.258   139362233.773       -2618.460          38.000    26519708.628   106784211.714       -2006.087          40.000  
E10  24623611.599   129398186.828       -2216.930          47.000    24623610.316    99149384.577       -1698.609          49.000  
G08  23334414.300                        2412.903          32.000    23334413.933    95550497.542        1880.866          37.000  
G16  20217490.094   106243651.207        -774.786          48.000                                                                  
R13  20407668.900   108975736.135       -1774.489          38.000    20407665.387    84758975.362       -1380.331          42.000  
R07  20380226.175   109097000.903        -172.742          51.000    20380218.905    84853200.144        -134.308          48.000  
R14  22846142.908   121782796.884        1980.639          37.000    22846142.450    94719896.8551       1539.868          34.000  
E24  25649802.530   134790624.947       -3568.023          44.000    25649802.744   103281164.488       -2733.830          50.000  
S31  38242614.017   200966390.661        -653.253          44.000  
E36  24454706.458   128510407.343         390.227          46.000    24454708.394    98469063.971         299.024          52.000  
G18  22923430.423   120463656.138       -3238.346          41.000    22923424.459    93867933.902       -2523.746          42.000  
E04  26541844.026   139478332.653        1332.652          43.000    26541842.300   106873010.195        1021.156          47.000  
G10  19646864.273   103245049.577         445.750          50.000    19646861.576    80450695.462         347.218          48.000  
E11  22379444.468   117604999.488       -1378.774          44.000    22379440.117    90113028.482       -1056.522          47.000  
G32                                                                  24419427.674    99993491.4991       1817.317          29.000  
> 2024 04 09 08 12 30.4980000  0 27                     
S33  39201445.593   206005133.657        -652.752          44.000  
G23  20428718.715   107353810.530       -2330.312          49.000    20428713.292    83652376.707       -1815.687          48.000  
E25  23310622.820   122498124.861       -1586.070          46.000    23310624.207    93862239.941       -1215.253          52.000  
G26  21077342.337   110762170.270       -3358.807          47.000    21077338.605    86308188.096       -2617.314          43.000  
G27  20870619.043   109675887.718        1432.916          47.000    20870616.665    85461718.068        1116.453          46.000  
R22  20480654.576   109327471.842       -2065.259          50.000    20480650.045    85032382.240       -1606.353          50.000  
R23  20237514.709   108257085.674         174.646          50.000                                                                  
R12  21363884.418   114121977.706       -4437.792          44.000    21363881.151    88761605.024       -3451.646          48.000  
R06  22876591.807                3      -3481.342          20.000                                                                  
R08  21058962.536   112769795.210        2912.295          49.000    21058954.812    87709840.371        2265.026          48.000  
E02  25187639.486   132361974.304        1046.021          43.000    25187639.860   101420250.861         801.481          49.000  
E12  26534652.103   139440747.777       -2616.400          39.000    26534649.426   106844371.816       -2004.618          40.000  
E10  24636266.962   129464693.062       -2217.194          47.000    24636265.918    99200343.889       -1698.829          49.000  
G08  23320629.139   122550777.540        2415.344          34.000    23320628.220    95494049.037        1881.519          37.000  
G16  20221969.047   106267186.646        -794.556          48.000                                                                  
R13  20417706.436   109029337.853       -1799.318          39.000    20417704.143    84800665.549       -1398.985          42.000  
R07  20381266.017   109102570.357        -198.846          51.000    20381260.046    84857531.961        -154.669          48.000  
R14  22835046.183   121723652.128        1961.961          38.000    22835046.169    94673895.335        1525.731          32.000  
E24  25670181.967   134897719.956       -3571.970          43.000    25670182.122   103363224.300       -2736.958          49.000  
S31  38246341.220   200985977.697        -652.927          43.000  
E36  24452490.601   128498760.662         386.087          46.000    24452491.863    98460139.894         295.869          51.000  
G18  22941918.735   120560810.021       -3238.396          42.000    22941914.058    93943638.164       -2523.584          42.000  
E04  26534249.525   139438429.388        1327.181          42.000    26534249.322   106842434.959        1016.997          48.000  
G10  19644377.941   103231981.744         425.101          51.000    19644374.835    80440512.730         331.241          48.000  
E11  22387321.769   117646398.261       -1381.476          43.000    22387317.680    90144749.623       -1058.530          47.000  
G32  24406104.945                1       2335.877          32.000    24406101.948    99938916.901        1820.173          32.000  
E19                                                                  27606344.661                3       -507.501          25.000  
> 2024 04 09 08 13 00.4980000  0 27                     
S33  39205169.994   206024705.031        -652.718          44.000  
G23  20442070.782   107423976.982       -2347.687          48.000    20442066.031    83707051.845       -1829.310          49.000  
E25  23319716.848   122545910.507       -1599.837          46.000    23319717.502    93898854.900       -1225.857          52.000  
G26  21096553.229   110863122.883       -3371.157          48.000    21096549.248    86386852.486       -2627.220          43.000  
G27  20862455.665   109632986.162        1426.786          47.000    20862452.770    85428288.262        1112.048          46.000  
R22  20492272.074   109389478.603       -2068.687          51.000    20492267.107    85080609.692       -1609.011          49.000  
R23  20236547.417   108251905.440         170.630          51.000                                                                  
R12  21388832.595   114255251.705       -4447.233          42.000    21388830.838    88865262.520       -3458.930          48.000  
R06  22896268.419                3      -3508.826          22.000                                                                  
R08  21042683.159   112682616.392        2899.559          49.000    21042674.452    87642034.670        2255.329          47.000  
E02  25181700.525   132330765.395        1034.372          42.000    25181700.769   101396337.537         792.699          49.000  
E12  26549584.156   139519218.901       -2615.092          38.000    26549581.970   106904499.089       -2003.906          40.000  
E10  24648925.958   129531214.663       -2217.771          47.000    24648924.509    99251314.982       -1699.311          49.000  
G08  23306840.496   122478273.1001       2415.649          34.000    23306839.809    95437588.729        1882.074          36.000  
G16  20226563.647   106291329.152        -815.045          48.000                                                                  
R13  20427882.471   109083674.368       -1824.001          39.000    20427879.050    84842927.276       -1418.400          42.000  
R07  20382454.906   109108936.113        -225.641          51.000    20382448.229    84862483.134        -175.610          47.000  
R14  22824058.271   121665076.611        1942.826          39.000    22824055.861    94628336.522        1511.093          34.000  
E24  25690586.253   135004946.632       -3576.499          43.000    25690586.727   103445385.002       -2740.561          49.000  
S31  38250068.962   201005566.070        -653.251          43.000  
E36  24450300.737   128487249.714         381.279          46.000    24450301.287    98451319.838         292.119          51.000  
G18  22960406.420   120657968.310       -3239.084          42.000    22960401.869    94019345.875       -2523.767          41.000  
E04  26526688.126   139398699.599        1321.288          41.000    26526689.418   106811992.706        1012.393          49.000  
G10  19642010.242   103219537.572         404.359          51.000    19642006.815    80430815.978         314.988          48.000  
E11  22395216.292   117687885.389       -1384.431          44.000    22395212.185    90176538.484       -1060.891          47.000  
G32  24392758.383   128184804.1411       2339.798          34.000    24392755.472    99884264.540        1822.952          34.000  
R21                                                                  23956005.165                3      -2341.203          10.000  
> 2024 04 09 08 13 30.4980000  0 26                     
S33  39208895.938   206044285.435        -653.075          44.000  
G23  20455522.574   107494664.973       -2365.109          48.000    20455517.962    83762133.397       -1843.022          49.000  
E25  23328888.821   122594109.434       -1613.638          46.000    23328889.300    93935786.539       -1236.452          52.000  
G26  21115834.174   110964444.590       -3383.506          48.000    21115831.124    86465804.442       -2636.555          44.000  
G27  20854326.205   109590265.554        1420.941          47.000    20854323.288    85394999.490        1107.064          46.000  
R22  20503905.456   109451588.161       -2072.176          50.000    20503901.980    85128917.086       -1611.749          48.000  
R23  20235601.109   108246843.826         166.632          51.000                                                                  
R12  21413834.167   114388804.260       -4456.507          46.000    21413832.219    88969136.663       -3466.206          49.000  
R06  22916041.368                3      -3521.799          22.000                                                                  
R08  21026474.118   112595817.559        2886.815          50.000    21026465.137    87574524.501        2245.204          47.000  
E02  25175826.613   132299896.805        1023.146          42.000    25175826.585   101372684.982         783.915          48.000  
E12  26564509.889   139597654.636       -2613.821          38.000    26564507.719   106964599.187       -2002.804          40.000  
E10  24661588.707   129597758.694       -2218.663          47.000    24661587.293    99302303.257       -1700.046          49.000  
G08  23293052.149   122405809.384        2415.210          37.000    23293050.387    95381123.487        1882.263          36.000  
G16  20231274.508   106316086.048        -835.547          48.000                                                                  
R13  20438196.462   109138750.935       -1848.189          39.000    20438193.472    84885764.655       -1437.602          42.000  
R07  20383795.547   109116106.880        -252.661          52.000    20383788.256    84868060.373        -196.466          49.000  
R14  22813178.934   121607081.023        1923.499          35.000    22813175.024    94583228.882        1496.188          35.000  
E24  25711017.903   135112310.847       -3581.163          44.000    25711017.032   103527651.066       -2744.025          48.000  
S31  38253798.084   201025162.804        -653.454          43.000  
E36  24448138.019   128475881.442         376.388          46.000    24448138.115    98442609.114         288.370          52.000  
G18  22978895.511   120755137.897       -3239.296          40.000    22978892.289    94095062.409       -2524.022          41.000  
E04  26519163.414   139359152.974        1314.911          42.000    26519162.975   106781690.769        1007.687          48.000  
G10  19639761.991   103207725.380         383.016          51.000    19639758.900    80421611.709         298.379          48.000  
E11  22403129.968   117729467.609       -1387.764          44.000    22403124.975    90208400.176       -1063.268          47.000  
G32  24379393.786   128114577.662        2341.897          35.000    24379391.482    99829542.696        1825.020          35.000  
> 2024 04 09 08 14 00.4980000  0 26                     
S33  39212623.638   206063875.230        -653.340          44.000  
G23  20469072.868   107565873.759       -2382.348          48.000    20469068.350    83817620.759       -1856.283          49.000  
E25  23338140.058   122642722.473       -1627.433          47.000    23338140.111    93973035.504       -1247.034          52.000  
G26  21135185.548   111066134.065       -3395.825          48.000    21135182.361    86545042.990       -2646.130          44.000  
G27  20846232.318   109547729.350        1414.684          48.000    20846228.968    85361854.395        1102.472          46.000  
R22  20515560.059   109513801.989       -2075.561          49.000    20515557.106    85177305.620       -1614.305          48.000  
R23  20234676.747   108241902.080         162.659          50.000                                                                  
R12  21438887.282   114522632.177       -4465.521          47.000    21438885.598    89073225.030       -3473.184          49.000  
R06  22935944.043                3      -3547.691          22.000                                                                  
R08  21010336.017   112509404.883        2873.844          49.000    21010328.567    87507314.643        2235.234          48.000  
E02  25170017.364   132269371.434        1011.798          42.000    25170017.730   101349295.411         775.271          48.000  
E12  26579427.898   139676056.200       -2612.792          38.000    26579427.256   107024673.146       -2002.148          40.000  
E10  24674255.932   129664326.107       -2219.356          46.000    24674254.281    99353309.439       -1700.477          48.000  
G08  23279263.091   122333342.167        2415.546          37.000    23279261.281    95324655.580        1882.257          37.000  
G16  20236102.880   106341459.851        -856.091          47.000                                                                  
R13  20448648.884   109194566.733       -1872.991          39.000    20448645.451    84929176.877       -1456.549          42.000  
R07  20385284.665   109124085.617        -279.358          51.000    20385278.254    84874266.084        -217.352          49.000  
R14  22802409.144                        1903.307          31.000    22802405.665    94538575.784        1480.710          37.000  
E24  25731475.215   135219812.294       -3585.677          45.000    25731473.633   103610022.295       -2747.415          48.000  
S31  38257528.775   201044769.398        -653.594          43.000  
E36  24446001.115   128464656.673         371.887          46.000    24446002.214    98434008.353         284.875          52.000  
G18  22997389.418   120852319.453       -3239.527          42.000    22997384.926    94170788.281       -2524.663          38.000  
E04  26511673.135   139319793.000        1308.615          42.000    26511672.943   106751531.849        1002.855          47.000  
G10  19637634.446   103196547.504         361.995          50.000    19637631.706    80412901.694         282.015          48.000  
E11  22411061.718   117771145.659       -1391.102          45.000    22411056.117    90240335.299       -1065.853          47.000  
G32  24366012.622   128044265.912        2345.052          37.000    24366010.487    99774754.376        1827.277          37.000  
> 2024 04 09 08 14 30.4980000  0 26                     
S33  39216351.007   206083461.263        -652.749          44.000  
G23  20482719.699   107637587.195       -2398.752          48.000    20482714.876    83873501.352       -1869.083          50.000  
E25  23347466.830   122691735.053       -1640.303          48.000    23347466.705    94010590.609       -1256.808          52.000  
G26  21154603.273   111168174.519       -3407.192          47.000    21154600.236    86624555.013       -2654.820          44.000  
G27  20838170.435   109505365.491        1409.288          48.000    20838167.358    85328843.604        1098.237          46.000  
R22  20527231.975   109576105.977       -2078.407          51.000    20527227.393    85225764.317       -1616.318          47.000  
R23  20233773.544   108237065.918         159.448          50.000                                                                  
R12  21463989.526   114656716.654       -4473.746          49.000    21463986.073    89177512.907       -3479.546          50.000  
R06  22955906.054                3      -3557.068          17.000                                                                  
R08  20994268.897   112423369.271        2861.646          49.000    20994262.408    87440398.104        2225.626          48.000  
E02  25164271.097   132239176.744        1001.073          41.000    25164271.516   101326159.226         767.020          48.000  
E12  26594339.616   139754409.440       -2610.555          38.000    26594336.690   107084710.056       -2000.496          39.000  
E10  24686924.969   129730902.417       -2219.279          46.000    24686923.029    99404322.438       -1700.432          47.000  
G08  23265469.327   122260859.000        2416.394          37.000    23265468.453    95268175.194        1882.922          37.000  
G16  20241045.159   106367436.313        -875.909          46.000                                                                  
R13  20459237.310   109251105.401       -1896.506          40.000    20459232.554    84973151.381       -1475.241          41.000  
R07  20386923.593   109132859.208        -305.640          51.000    20386917.371    84881089.987        -237.728          49.000  
R14  22791745.621   121492831.757        1884.457          34.000    22791745.393    94494368.344        1466.167          40.000  
E24  25751956.150   135327435.298       -3589.312          46.000    25751953.510   103692486.679       -2750.311          48.000  
S31  38261259.386   201064373.214        -653.469          43.000  
E36  24443888.965   128453560.859         367.918          46.000    24443890.705    98425506.396         281.805          52.000  
G18  23015881.730   120949498.378       -3239.314          43.000    23015875.861    94246512.183       -2524.131          38.000  
E04  26504217.108   139280607.681        1303.428          43.000    26504216.215   106721506.756         998.831          48.000  
G10  19635625.405   103185990.706         341.511          50.000    19635622.991    80404675.624         266.109          48.000  
E11  22419008.300   117812904.781       -1393.220          45.000    22419002.971    90272332.535       -1067.484          47.000  
G32  24352615.591   127973857.891        2348.732          41.000    24352611.678    99719891.047        1830.289          38.000  
